~Version Information
VERS.                      2.0: CWLS Log ASCII Standard - VERSION 2.0
WRAP.                       NO: One line per depth step
~Well Information Block
STRT.FT               240.0000: 
STOP.FT              1159.2500: 
STEP.FT                 0.2500: 
NULL.                -999.2500: 
COMP.          Pioneer Natural Resources: COMPANY
WELL.               Ryan 41-17: WELL
FLD.           Purgatoire River: FIELD
LOC.           822' FNL & 532' FEL--: LOCATION
CNTY.               Las Animas: COUNTY
SRVC.                Patterson: SERVICE COMPANY
DATE.          Thu Mar 16 16:50:09 2006: LOG DATE
UWI.           05 071 08719 00: UNIQUE WELL ID
STAT.                 Colorado: STATE
~Curve Information Block
DEPT.FT            0 000 00 00: Depth
SN.Ohm-m                      : IEL Short Normal
SP.mV                         : IEL Spontaneous Potential
DIR.Ohm-m                     : IEL Induction Resistivity
GR.GAPI                       : Gamma Ray
~Parameter Information Block
~A  Depth        SN          SP         DIR          GR     
# ...
   876.5000     23.4736    -34.9435     22.6235     83.9527
   876.7500     23.3453    -34.8500     22.5892     83.7674
   877.0000     23.1347    -34.7773     22.4899     84.5619
   877.2500     22.8341    -34.7244     22.2867     85.6287
   877.5000     22.4625    -34.6900     21.9592     87.4740
   877.7500     22.0547    -34.6729     21.5190     88.6690
   878.0000     21.6454    -34.6715     21.0087     90.8856
   878.2500     21.2554    -34.6842     20.4822     93.3286
   878.5000     20.8872    -34.7090     19.9808     99.0131
   878.7500     20.5288    -34.7428     19.5200    103.5154
   879.0000     20.1632    -34.7816     19.0927    109.3037
   879.2500     19.7788    -34.8206     18.6812    111.7220
   879.5000     19.3759    -34.8552     18.2672    113.1027
   879.7500     18.9648    -34.8814     17.8385    112.8454
   880.0000     18.5582    -34.8968     17.3912    111.4937
   880.2500     18.1657    -34.9009     16.9312    110.6782
   880.5000     17.7935    -34.8947     16.4728    110.9501
   880.7500     17.4467    -34.8797     16.0333    112.4297
   881.0000     17.1321    -34.8572     15.6262    115.7481
   881.2500     16.8589    -34.8268     15.2578    117.7504
   881.5000     16.6360    -34.7868     14.9285    119.1670
   881.7500     16.4657    -34.7342     14.6372    118.8991
   882.0000     16.3409    -34.6656     14.3836    117.6359
   882.2500     16.2469    -34.5788     14.1678    117.2450
   882.5000     16.1655    -34.4737     13.9871    118.7335
   882.7500     16.0782    -34.3527     13.8327    121.1080
   883.0000     15.9679    -34.2203     13.6889    125.2258
   883.2500     15.8224    -34.0824     13.5348    127.1044
   883.5000     15.6379    -33.9450     13.3502    127.3057
   883.7500     15.4172    -33.8129     13.1227    125.9090
   884.0000     15.1657    -33.6892     12.8511    123.3145
   884.2500     14.8912    -33.5746     12.5442    122.4749
   884.5000     14.6065    -33.4677     12.2146    123.9059
   884.7500     14.3258    -33.3656     11.8736    126.8817
   885.0000     14.0562    -33.2643     11.5297    133.8725
   885.2500     13.7972    -33.1593     11.1907    139.4005
   885.5000     13.5490    -33.0455     10.8652    146.9247
   885.7500     13.3199    -32.9178     10.5634    150.2168
   886.0000     13.1246    -32.7712     10.2955    151.3937
   886.2500     12.9770    -32.6004     10.0697    149.8394
   886.5000     12.8867    -32.4007      9.8916    145.5577
   886.7500     12.8594    -32.1682      9.7653    142.5572
   887.0000     12.8979    -31.9006      9.6936    139.1732
   887.2500     13.0005    -31.5975      9.6788    137.7951
   887.5000     13.1614    -31.2608      9.7228    136.3217
   887.7500     13.3732    -30.8949      9.8279    135.1038
   888.0000     13.6283    -30.5057      9.9966    132.2223
   888.2500     13.9165    -30.0997     10.2309    129.6598
   888.5000     14.2242    -29.6835     10.5286    125.7966
   888.7500     14.5346    -29.2625     10.8803    124.0050
   889.0000     14.8282    -28.8416     11.2672    123.4891
   889.2500     15.0869    -28.4251     11.6638    124.5201
   889.5000     15.3014    -28.0173     12.0437    126.8016
   889.7500     15.4753    -27.6232     12.3869    127.7459
   890.0000     15.6225    -27.2482     12.6842    127.0105
   890.2500     15.7598    -26.8978     12.9390    125.0072
   890.5000     15.9020    -26.5766     13.1631    120.6439
   890.7500     16.0596    -26.2878     13.3708    117.5871
   891.0000     16.2366    -26.0327     13.5724    113.9375
   891.2500     16.4294    -25.8098     13.7724    112.6443
   891.5000     16.6285    -25.6152     13.9706    112.7841
   891.7500     16.8265    -25.4430     14.1640    113.9456
   892.0000     17.0225    -25.2854     14.3464    115.9034
   892.2500     17.2204    -25.1340     14.5091    116.4874
   892.5000     17.4239    -24.9806     14.6451    115.5336
   892.7500     17.6350    -24.8186     14.7572    113.8219
   893.0000     17.8583    -24.6434     14.8628    110.7579
   893.2500     18.1025    -24.4529     14.9910    109.3716
   893.5000     18.3784    -24.2469     15.1727    109.5542
   893.7500     18.6923    -24.0270     15.4300    110.9144
   894.0000     19.0380    -23.7950     15.7703    112.3583
   894.2500     19.3940    -23.5534     16.1842    111.3335
   894.5000     19.7294    -23.3044     16.6485    106.0075
   894.7500     20.0187    -23.0510     17.1339    100.7259
   895.0000     20.2588    -22.7969     17.6128     92.2832
   895.2500     20.4772    -22.5474     18.0655     87.3243
   895.5000     20.7243    -22.3088     18.4815     82.3670
   895.7500     21.0478    -22.0886     18.8582     81.5722
   896.0000     21.4623    -21.8940     19.1988     85.0727
   896.2500     21.9340    -21.7311     19.5082     90.3450
   896.5000     22.3980    -21.6043     19.7855    101.0112
   896.7500     22.7996    -21.5160     20.0194    108.5656
   897.0000     23.1286    -21.4668     20.1919    118.1453
   897.2500     23.4153    -21.4567     20.2937    122.2486
   897.5000     23.6965    -21.4860     20.3416    124.1123
   897.7500     23.9880    -21.5561     20.3842    122.7836
   898.0000     24.2857    -21.6696     20.4913    118.5363
   898.2500     24.5832    -21.8307     20.7314    115.3355
   898.5000     24.8776    -22.0438     21.1517    111.4635
   898.7500     25.1549    -22.3127     21.7654    109.7552
   899.0000     25.3729    -22.6397     22.5469    107.5295
   899.2500     25.4668    -23.0250     23.4303    105.2499
   899.5000     25.3787    -23.4664     24.3099     99.7829
   899.7500     25.0926    -23.9597     25.0473     95.2632
   900.0000     24.6510    -24.4990     25.4979     88.6883
   900.2500     24.1433    -25.0778     25.5603     85.0611
   900.5000     23.6656    -25.6886     25.2199     81.6120
   900.7500     23.2731    -26.3233     24.5499     81.3872
   901.0000     22.9552    -26.9719     23.6637     85.3520
   901.2500     22.6555    -27.6224     22.6599     90.8604
   901.5000     22.3181    -28.2602     21.5996    101.7474
   901.7500     21.9235    -28.8691     20.5175    109.1661
   902.0000     21.4910    -29.4328     19.4440    117.9124
   902.2500     21.0580    -29.9364     18.4158    121.2197
   902.5000     20.6550    -30.3691     17.4714    122.3720
   902.7500     20.2937    -30.7246     16.6391    121.4682
   903.0000     19.9690    -31.0020     15.9292    119.6599
   903.2500     19.6701    -31.2042     15.3323    118.9384
   903.5000     19.3904    -31.3372     14.8245    118.6179
   903.7500     19.1299    -31.4077     14.3759    118.5331
   904.0000     18.8898    -31.4220     13.9617    118.4196
   904.2500     18.6692    -31.3848     13.5701    118.7585
   904.5000     18.4676    -31.2994     13.2038    120.7884
   904.7500     18.2881    -31.1681     12.8758    123.2827
   905.0000     18.1337    -30.9934     12.6020    128.0096
   905.2500     18.0034    -30.7790     12.3962    131.0946
   905.5000     17.8926    -30.5305     12.2671    134.4871
   905.7500     17.7972    -30.2556     12.2165    135.4488
   906.0000     17.7164    -29.9632     12.2378    134.3042
   906.2500     17.6547    -29.6619     12.3184    131.5715
   906.5000     17.6218    -29.3590     12.4441    124.7440
   906.7500     17.6295    -29.0588     12.6038    118.9417
   907.0000     17.6894    -28.7624     12.7936    109.6572
   907.2500     17.8087    -28.4676     13.0151    103.9698
   907.5000     17.9861    -28.1694     13.2711     98.2385
   907.7500     18.2078    -27.8608     13.5607     97.5066
   908.0000     18.4491    -27.5342     13.8755    101.6752
   908.2500     18.6799    -27.1815     14.1997    106.9698
   908.5000     18.8728    -26.7950     14.5115    115.4802
   908.7500     19.0106    -26.3675     14.7894    119.7339
   909.0000     19.0887    -25.8932     15.0196    122.1558
   909.2500     19.1134    -25.3679     15.1996    120.8725
   909.5000     19.0991    -24.7905     15.3370    115.2699
   909.7500     19.0652    -24.1640     15.4446    110.0437
