~Version Information
VERS.                      2.0: CWLS Log ASCII Standard - VERSION 2.0
WRAP.                       NO: One line per depth step
~Well Information Block
STRT.FT               491.0000: 
STOP.FT              1911.5000: 
STEP.FT                 0.2500: 
NULL.                -999.2500: 
COMP.          Pioneer Natural Resources: COMPANY
WELL.            Corazon 13-10: WELL
FLD.           Purgatoire River: FIELD
LOC.           2510' FSL & 439' FWL: LOCATION
PROV.                 Colorado: PROVINCE
CNTY.               Las Animas: COUNTRY
SRVC.                Patterson: SERVICE COMPANY
DATE.          Wed Nov 30 22:14:48 2005: LOG DATE
UWI.           05 071 08613 00: UNIQUE WELL ID
~Curve Information Block
DEPT.FT            0 000 00 00: Depth
SN.Ohm-m                      : IEL Short Normal
SP.mV                         : IEL Spontaneous Potential
DIR.Ohm-m                     : IEL Induction Resistivity
GR.GAPI                       : Gamma Ray
~Parameter Information Block
~A  Depth        SN          SP         DIR          GR     
# ...
  1697.0000     13.8819     77.9137     10.1901     97.0437
  1697.2500     13.6477     77.9639      9.9952     96.3470
  1697.5000     13.4319     78.0359      9.8459     94.7005
  1697.7500     13.2625     78.1161      9.7449     94.0981
  1698.0000     13.1544     78.1965      9.6900     94.5083
  1698.2500     13.0739     78.2794      9.6735     95.1435
  1698.5000     12.9723     78.3732      9.6820     95.2452
  1698.7500     12.8289     78.4852      9.6977     94.3065
  1699.0000     12.6437     78.6162      9.7040     91.4255
  1699.2500     12.4176     78.7610      9.6915     88.7025
  1699.5000     12.1467     78.9094      9.6618     84.0313
  1699.7500     11.8533     79.0489      9.6255     81.3210
  1700.0000     11.6235     79.1664      9.5967     79.7445
  1700.2500     11.5649     79.2532      9.5891     81.2347
  1700.5000     11.7110     79.3082      9.6159     87.5423
  1700.7500     11.9776     79.3361      9.6936     93.7104
  1701.0000     12.2635     79.3413      9.8420    103.4462
  1701.2500     12.5861     79.3243     10.0790    108.7318
  1701.5000     13.0219     79.2836     10.4104    113.3945
  1701.7500     13.5617     79.2203     10.8224    114.4352
  1702.0000     14.1151     79.1376     11.2830    113.8218
  1702.2500     14.6118     79.0341     11.7515    112.1567
  1702.5000     15.0632     78.8979     12.1930    107.1384
  1702.7500     15.5593     78.7105     12.5854    101.6450
  1703.0000     16.2034     78.4616     12.9178     90.0476
  1703.2500     16.9983     78.1639     13.1868     80.5136
  1703.5000     17.8601     77.8586     13.3967     65.0799
  1703.7500     18.8260     77.6071     13.5614     55.2782
  1704.0000     20.1433     77.4701     13.7036     43.4088
  1704.2500     22.0547     77.4844     13.8508     38.3267
  1704.5000     24.4341     77.6503     14.0305     35.9094
  1704.7500     26.5874     77.9359     14.2649     37.8937
  1705.0000     27.6390     78.2912     14.5634     45.5470
  1705.2500     27.3018     78.6646     14.9098     52.7810
  1705.5000     26.0729     79.0136     15.2545     64.3501
  1705.7500     24.5898     79.3097     15.5184     70.8190
  1706.0000     23.0984     79.5442     15.6199     75.8857
  1706.2500     21.5879     79.7327     15.5158     75.3327
  1706.5000     20.0453     79.9130     15.2272     69.6888
  1706.7500     18.4872     80.1320     14.8291     64.7279
  1707.0000     17.0664     80.4273     14.4138     59.3335
  1707.2500     16.1335     80.8073     14.0603     58.3442
  1707.5000     15.9281     81.2407     13.8227     60.6045
  1707.7500     16.2988     81.6648     13.7313     63.7870
  1708.0000     16.8955     82.0158     13.7946     69.5957
  1708.2500     17.4790     82.2570     13.9974     73.3529
  1708.5000     17.9525     82.3850     14.3004     77.3404
  1708.7500     18.3126     82.4180     14.6499     78.1401
  1709.0000     18.6428     82.3806     14.9971     76.0870
  1709.2500     19.0150     82.2983     15.3168     72.9942
  1709.5000     19.4092     82.1962     15.6094     67.5565
  1709.7500     19.7899     82.0977     15.8879     64.5898
  1710.0000     20.1683     82.0182     16.1639     62.4530
  1710.2500     20.5651     81.9591     16.4453     62.6373
  1710.5000     20.9528     81.9085     16.7442     64.4386
  1710.7500     21.2532     81.8525     17.0785     65.9701
  1711.0000     21.4422     81.7881     17.4622     68.0103
  1711.2500     21.5854     81.7258     17.8895     69.0595
  1711.5000     21.7172     81.6791     18.3282     70.0543
  1711.7500     21.8186     81.6518     18.7308     70.2255
  1712.0000     21.8957     81.6371     19.0572     69.6186
  1712.2500     21.9597     81.6282     19.2913     68.6706
  1712.5000     21.9750     81.6274     19.4410     66.6669
  1712.7500     21.9177     81.6427     19.5265     65.1670
  1713.0000     21.8130     81.6761     19.5687     63.1596
  1713.2500     21.6445     81.7156     19.5870     62.3005
  1713.5000     21.3677     81.7427     19.6012     62.2137
  1713.7500     21.0525     81.7442     19.6298     63.0990
  1714.0000     20.8637     81.7184     19.6806     65.6312
  1714.2500     20.8893     81.6736     19.7432     67.6785
  1714.5000     21.0785     81.6225     19.7938     70.2069
  1714.7500     21.3328     81.5762     19.8129     71.0383
  1715.0000     21.5927     81.5368     19.7997     70.8397
  1715.2500     21.8236     81.4959     19.7671     69.9031
  1715.5000     21.9619     81.4400     19.7243     67.4758
  1715.7500     21.9781     81.3601     19.6653     65.2302
  1716.0000     21.9709     81.2571     19.5796     61.2733
  1716.2500     22.0630     81.1406     19.4723     58.5955
  1716.5000     22.2718     81.0238     19.3711     55.1215
  1716.7500     22.5430     80.9186     19.3046     53.4678
  1717.0000     22.8207     80.8320     19.2732     52.3044
  1717.2500     23.0158     80.7658     19.2390     52.3292
  1717.5000     22.9907     80.7184     19.1485     53.1185
  1717.7500     22.6851     80.6846     18.9669     54.0692
  1718.0000     22.1581     80.6517     18.6972     56.7036
  1718.2500     21.4941     80.5969     18.3731     59.7414
  1718.5000     20.7821     80.4926     18.0398     66.3197
  1718.7500     20.0942     80.3173     17.7368     71.4636
  1719.0000     19.4445     80.0615     17.4890     78.7699
  1719.2500     18.8147     79.7274     17.3054     82.7164
  1719.5000     18.2231     79.3244     17.1843     86.9015
  1719.7500     17.7666     78.8681     17.1186     88.5022
  1720.0000     17.5256     78.3809     17.1007     88.9314
  1720.2500     17.4990     77.8875     17.1253     87.7572
  1720.5000     17.6800     77.4031     17.1911     83.6448
  1720.7500     18.0595     76.9222     17.2981     79.3923
  1721.0000     18.5958     76.4212     17.4449     71.5404
  1721.2500     19.2617     75.8721     17.6262     66.2982
  1721.5000     20.0290     75.2579     17.8356     60.2175
  1721.7500     20.7904     74.5837     18.0695     57.8620
  1722.0000     21.3731     73.8816     18.3275     56.5048
  1722.2500     21.6610     73.2060     18.6097     56.5133
  1722.5000     21.6926     72.6150     18.9125     57.3500
  1722.7500     21.6045     72.1491     19.2278     58.4241
  1723.0000     21.4972     71.8192     19.5465     60.6079
  1723.2500     21.4254     71.6093     19.8595     61.9848
  1723.5000     21.4472     71.4898     20.1569     63.0079
  1723.7500     21.6150     71.4287     20.4269     62.8464
  1724.0000     21.9634     71.3969     20.6596     61.8985
  1724.2500     22.4699     71.3678     20.8524     61.2020
  1724.5000     23.0334     71.3192     21.0103     60.2013
  1724.7500     23.5027     71.2404     21.1391     59.3795
  1725.0000     23.7501     71.1372     21.2383     57.7204
  1725.2500     23.7804     71.0289     21.3013     56.4450
  1725.5000     23.7195     70.9372     21.3230     54.7076
  1725.7500     23.6888     70.8765     21.3096     53.9382
  1726.0000     23.7195     70.8498     21.2806     53.8485
  1726.2500     23.7735     70.8521     21.2588     54.7716
  1726.5000     23.8184     70.8744     21.2583     57.8720
  1726.7500     23.8249     70.9075     21.2828     60.9769
  1727.0000     23.7523     70.9421     21.3353     66.5010
  1727.2500     23.6164     70.9680     21.4267     70.0948
  1727.5000     23.4695     70.9748     21.5711     74.0025
  1727.7500     23.3176     70.9554     21.7718     75.0021
  1728.0000     23.1787     70.9106     22.0116     73.8765
  1728.2500     23.1636     70.8486     22.2611     71.7374
  1728.5000     23.4463     70.7804     22.4997     67.2331
  1728.7500     24.1378     70.7104     22.7360     63.6304
  1729.0000     25.1590     70.6330     23.0095     57.6510
  1729.2500     26.2910     70.5385     23.3685     53.6639
  1729.5000     27.3926     70.4225     23.8375     48.5577
  1729.7500     28.5227     70.2907     24.4001     46.0645
  1730.0000     29.7603     70.1535     25.0127     43.6950
  1730.2500     31.0033     70.0190     25.6394     42.8326
