~Version Information
VERS.                      2.0: CWLS Log ASCII Standard - VERSION 2.0
WRAP.                       NO: One line per depth step
~Well Information Block
STRT.FT               830.0000: 
STOP.FT              2368.5000: 
STEP.FT                 0.1000: 
NULL.                -999.2500: 
COMP.          Pioneer Natural Resources: COMPANY
WELL.              Rolls 14-14: WELL
FLD.           Purgatoire River: FIELD
LOC.           572' FSL & 856' FWL: LOCATION
PROV.                 Colorado: PROVINCE
CNTY.               Las Animas: COUNTRY
SRVC.                Patterson: SERVICE COMPANY
DATE.          Mon Aug 01 05:48:31 2005: LOG DATE
UWI.           05 071 08455 00: UNIQUE WELL ID
~Curve Information Block
DEPT.FT            0 000 00 00: Depth
DCAL.in                       : CDL Caliper
RHOB.g/cc                     : CDL Bulk Density
RHOC.g/cc                     : CDL Density Correction
DPOR.pu                       : CDL Density Porosity
GR.GAPI                       : Gamma Ray
NPOR.pu                       : Neutron Porosity
~Parameter Information Block
~A  Depth       DCAL        RHOB        RHOC        DPOR         GR         NPOR    
# ...
  1953.2000      8.1383      2.3372      0.0267     18.9570     45.3426     18.9907
  1953.3000      8.1047      2.3194      0.0423     20.0340     43.8850     19.4550
  1953.4000      8.1047      2.3154     -0.0363     20.2807     45.1274     18.9813
  1953.5000      8.1098      2.3346      0.0325     19.1162     49.7936     17.6997
  1953.6000      8.1098      2.3754     -0.0123     16.6439     54.0737     17.4988
  1953.7000      8.1098      2.4224      0.0648     13.7959     54.9094     19.0068
  1953.8000      8.1264      2.4519      0.0787     12.0031     52.6170     20.8335
  1953.9000      8.1264      2.4638      0.0596     11.2860     50.3691     21.7155
  1954.0000      8.1319      2.4774      0.0784     10.4606     49.1812     21.5210
  1954.1000      8.1319      2.4881      0.0952      9.8098     46.9615     20.5046
  1954.2000      8.1319      2.4739      0.0546     10.6747     44.0288     19.9046
  1954.3000      8.1084      2.4405      0.0304     12.6997     42.0770     20.4522
  1954.4000      8.1084      2.4123      0.0024     14.4070     41.8564     20.9059
  1954.5000      8.1111      2.3928     -0.0044     15.5863     43.6132     20.9111
  1954.6000      8.1111      2.3658      0.0217     17.2245     45.3349     21.6151
  1954.7000      8.1111      2.3305     -0.0431     19.3607     45.2474     22.6081
  1954.8000      8.1129      2.3078     -0.0267     20.7365     45.2731     22.6127
  1954.9000      8.1129      2.3040      0.0171     20.9697     48.2801     21.4494
  1955.0000      8.1182      2.3057      0.0433     20.8679     52.7592     19.9659
  1955.1000      8.1182      2.3079      0.0038     20.7341     54.4231     19.2294
  1955.2000      8.1182      2.3188      0.0262     20.0729     58.6079     19.2642
  1955.3000      8.1308      2.3375      0.0397     18.9414     59.6304     19.5734
  1955.4000      8.1308      2.3543      0.0768     17.9235     65.1199     20.4049
  1955.5000      8.1159      2.3699      0.0392     16.9741     72.6142     21.8731
  1955.6000      8.1159      2.3909      0.0507     15.7020     78.9951     23.3159
  1955.7000      8.1159      2.4159      0.0427     14.1851     82.1003     24.3242
  1955.8000      8.1215      2.4396      0.0552     12.7509     82.5936     24.9387
  1955.9000      8.1215      2.4584      0.0771     11.6118     83.0155     25.1355
  1956.0000      8.1229      2.4727      0.0769     10.7463     83.7168     24.7965
  1956.1000      8.1229      2.4838      0.0899     10.0714     83.1567     23.7260
  1956.2000      8.1229      2.4872      0.0834      9.8677     90.1939     22.5403
  1956.3000      8.1001      2.4769      0.0426     10.4913     90.2366     21.9279
  1956.4000      8.1001      2.4580      0.0245     11.6387     87.2026     21.1730
  1956.5000      8.0777      2.4440      0.0044     12.4827     82.3057     20.0575
  1956.6000      8.0777      2.4458      0.0021     12.3755     78.3632     20.0233
  1956.7000      8.0777      2.4620      0.0412     11.3961     74.1825     21.6202
  1956.8000      8.0760      2.4809      0.0774     10.2506     72.8554     22.7479
  1956.9000      8.0760      2.4916      0.0715      9.5994     76.5968     21.5692
  1957.0000      8.0813      2.4917      0.0660      9.5927     80.3212     19.4381
  1957.1000      8.0813      2.4829      0.0718     10.1246     80.3047     18.5077
  1957.2000      8.0813      2.4697      0.0371     10.9286     76.1750     19.0720
  1957.3000      8.0922      2.4601      0.0384     11.5079     70.3691     19.9250
  1957.4000      8.0922      2.4515      0.0642     12.0326     66.9622     20.4852
  1957.5000      8.0902      2.4340      0.0208     13.0879     66.4771     21.1193
  1957.6000      8.0902      2.4179     -0.0379     14.0656     66.5888     21.6595
  1957.7000      8.0902      2.4078      0.0216     14.6790     65.4472     21.3686
  1957.8000      8.1129      2.3912      0.0000     15.6830     62.5664     20.2194
  1957.9000      8.1129      2.3743      0.0112     16.7084     59.6626     18.6357
  1958.0000      8.1222      2.3712      0.0103     16.8948     58.2313     17.5692
  1958.1000      8.1222      2.3809      0.0163     16.3117     58.1710     18.2239
  1958.2000      8.1222      2.3952      0.0609     15.4420     59.6526     19.7795
  1958.3000      8.1105      2.4093      0.0645     14.5901     61.1652     19.9878
  1958.4000      8.1105      2.4182      0.0943     14.0457     62.6730     19.1816
  1958.5000      8.1085      2.4178      0.0486     14.0730     66.1438     19.2237
  1958.6000      8.1085      2.4145      0.0526     14.2708     68.9532     20.0177
  1958.7000      8.1085      2.4185      0.0478     14.0330     66.8550     20.2429
  1958.8000      8.1130      2.4289      0.0456     13.3975     63.7218     19.5632
  1958.9000      8.1130      2.4393      0.0573     12.7726     66.1423     18.6280
  1959.0000      8.1140      2.4447      0.0772     12.4404     72.3640     18.5499
  1959.1000      8.1140      2.4402      0.0971     12.7144     77.3579     19.5754
  1959.2000      8.1140      2.4232      0.0506     13.7445     76.6547     20.2905
  1959.3000      8.1189      2.4055      0.0132     14.8200     69.3427     20.3360
  1959.4000      8.1189      2.3986      0.0368     15.2384     62.1172     21.2219
  1959.5000      8.1079      2.3928      0.0669     15.5878     60.4899     23.0117
  1959.6000      8.1079      2.3841      0.0045     16.1157     60.8663     24.1273
  1959.7000      8.1079      2.3894     -0.0037     15.7921     57.6654     23.9751
  1959.8000      8.0849      2.4077      0.0741     14.6861     53.9918     23.1056
  1959.9000      8.0849      2.4166      0.0650     14.1472     56.5499     21.9426
  1960.0000      8.1033      2.4075      0.0791     14.6950     62.7590     20.5992
  1960.1000      8.1033      2.3930      0.0664     15.5774     65.4960     19.3727
  1960.2000      8.1033      2.3911      0.0337     15.6898     63.9469     19.1168
  1960.3000      8.1050      2.4042      0.0550     14.8983     59.8732     20.0320
  1960.4000      8.1050      2.4187      0.0964     14.0154     55.0455     21.0703
  1960.5000      8.1089      2.4246      0.0850     13.6630     53.1164     21.5917
  1960.6000      8.1089      2.4174      0.1039     14.0959     56.1790     22.2103
  1960.7000      8.1089      2.4022      0.0759     15.0189     60.0565     23.4169
  1960.8000      8.1072      2.3948      0.0363     15.4669     59.6086     24.5920
  1960.9000      8.1072      2.3958      0.0613     15.4049     56.4373     24.6706
  1961.0000      8.0883      2.3891      0.0609     15.8148     53.7272     23.6451
  1961.1000      8.0883      2.3760      0.0282     16.6040     51.5228     22.5461
  1961.2000      8.0883      2.3727      0.0586     16.8044     51.0947     22.3330
  1961.3000      8.0713      2.3869      0.0762     15.9470     52.9579     22.9943
  1961.4000      8.0713      2.4073      0.1089     14.7068     54.8277     24.0652
  1961.5000      8.0642      2.4127      0.1027     14.3804     56.2999     24.9283
  1961.6000      8.0642      2.3973      0.0988     15.3161     58.1074     24.6655
  1961.7000      8.0642      2.3774      0.0363     16.5214     59.5513     23.4218
  1961.8000      8.0366      2.3724      0.0593     16.8257     58.9851     22.6928
  1961.9000      8.0366      2.3816      0.0579     16.2639     58.5551     22.9765
  1962.0000      8.0415      2.3920      0.1196     15.6351     62.5619     22.9398
  1962.1000      8.0415      2.4005      0.1125     15.1213     68.9472     21.9501
  1962.2000      8.0415      2.4126      0.1039     14.3857     72.5687     21.2184
  1962.3000      8.0882      2.4204      0.1332     13.9150     73.4958     17.9584
  1962.4000      8.0882      2.4141      0.0761     14.2985     80.4626     19.9841
  1962.5000      8.0987      2.4055      0.0297     14.8155     97.7069     21.6907
  1962.6000      8.0987      2.4108      0.0614     14.4959    115.7985     21.8196
  1962.7000      8.0987      2.4302      0.0967     13.3186    127.1607     21.1753
