~Version Information
 VERS.                                  2.0 : CWLS LAS VERSION
 WRAP.                                   NO : WRAPING MODE
 SWARE .                 MController 2.5.0J : SOFTWARE VERSION
~Well Information
 WELL.                     Hemisphere 32-24 : WELL
 COMP.    Pioneer Natural Resources USA Inc : COMPANY
 FLD.                      Purgatoire River : FIELD
 LOC.                 SE/SW Sec 24 T33 R67W : LOCATION
 DATE.                             08/14/05 : DATE(S) LOGGED
 SRVC.       BLANCO Geological Services LLC : SERVICE COMPANY
 STAT.                                   CO : STATE
 CNTY.                           Las Animas : COUNTY
 CTRY.                                  USA : COUNTRY
 API.                       05-071-08440-00 : API NUMBER
 STRT.FT                             399.00 : START DEPTH
 STOP.FT                            2171.00 : STOP DEPTH
 STEP.FT                               1.00 : DEPTH INCREMENT
 NULL.                                -9999 : NULL VALUE
~Curve information
 DEPTH.FT                                   :
 ROP.MIN/FT                                 :
 GAS.UNITS                                  :
~ASCII Log data
# ...
       799.0         0.13         10.8 
       800.0         0.17         11.0 
       801.0         0.23         11.4 
       802.0         0.23         11.4 
       803.0         0.30         11.7 
       804.0         0.30         11.7 
       805.0         0.27         11.3 
       806.0         4.67         19.4 
       807.0         0.17         24.6 
       808.0         0.37         31.2 
       809.0         0.37         33.8 
       810.0         0.27         27.6 
       811.0         0.20         23.1 
       812.0         0.10         20.1 
       813.0         0.20         17.0 
       814.0         0.20         16.1 
       815.0         0.25         16.0 
       816.0         0.10         16.0 
       817.0         0.13         18.7 
       818.0         0.33         19.2 
       819.0         0.27         19.4 
       820.0         0.27         19.7 
       821.0         0.27         19.5 
       822.0         0.27         17.4 
       823.0         0.27         15.3 
       824.0         0.30         14.2 
       825.0         0.20         13.7 
       826.0         0.27         12.2 
       827.0         0.23         12.4 
       828.0         0.27         11.9 
       829.0         0.25         12.1 
       830.0         0.20         11.5 
       831.0         0.20         11.0 
       832.0         0.20         11.6 
       833.0         0.17         11.1 
       834.0         0.17         11.1 
       835.0         0.17         11.6 
       836.0         2.03         17.8 
       837.0         0.15         22.3 
       838.0         0.20         27.1 
       839.0         0.07         27.1 
       840.0         0.40         32.4 
       841.0         0.33         27.1 
       842.0         0.20         21.3 
       843.0         0.20         19.6 
       844.0         0.27         17.9 
       845.0         0.30         15.8 
       846.0         0.30         14.5 
       847.0         0.30         14.4 
       848.0         0.27         13.9 
       849.0         0.23         13.6 
       850.0         0.28         12.7 
       851.0         0.30         12.4 
       852.0         0.33         11.6 
       853.0         0.37         11.6 
       854.0         0.27         11.5 
       855.0         0.20         11.2 
       856.0         0.10         11.2 
       857.0         0.17         11.7 
       858.0         0.20         12.0 
       859.0         0.20         12.8 
       860.0         0.13         12.8 
       861.0         0.23         14.4 
       862.0         0.23         14.8 
       863.0         0.27         15.5 
       864.0         0.27         16.7 
       865.0         0.25         15.2 
       866.0         2.63         23.3 
       867.0         0.50         32.5 
       868.0         0.38         34.2 
       869.0         0.33         30.7 
       870.0         0.30         21.7 
       871.0         0.30         17.6 
       872.0         0.27         16.2 
       873.0         0.23         16.0 
       874.0         0.27         14.9 
       875.0         0.27         14.7 
       876.0         0.27         14.4 
       877.0         0.20         13.9 
       878.0         0.23         13.4 
       879.0         0.20         12.7 
       880.0         0.25         12.7 
       881.0         0.20         13.8 
       882.0         0.13         14.4 
       883.0         0.20         14.5 
       884.0         0.27         14.3 
       885.0         0.20         17.8 
       886.0         0.20         17.8 
       887.0         0.13         20.3 
       888.0         0.20         23.2 
       889.0         0.30         22.4 
       890.0         0.30         20.2 
       891.0         0.33         21.8 
       892.0         0.30         22.5 
       893.0         0.30         22.5 
       894.0         0.25         22.3 
       895.0         0.27         22.0 
       896.0         2.60         46.8 
       897.0         0.38         42.0 
       898.0         0.23         30.3 
       899.0         0.27         29.6 
       900.0         0.23         24.4 
       901.0         0.23         21.3 
       902.0         0.23         18.2 
       903.0         0.27         18.3 
       904.0         0.27         17.8 
       905.0         0.27         16.8 
       906.0         0.27         16.5 
       907.0         0.27         15.9 
       908.0         0.23         15.5 
       909.0         0.23         15.0 
       910.0         0.22         15.4 
       911.0         0.23         14.4 
       912.0         0.20         14.4 
       913.0         0.30         15.0 
       914.0         0.20         14.4 
       915.0         0.20         15.2 
       916.0         0.20         15.0 
       917.0         0.20         14.5 
       918.0         0.10         14.3 
       919.0         0.10         14.3 
       920.0         0.10         14.1 
       921.0         0.13         14.4 
       922.0         0.10         14.4 
       923.0         0.23         18.2 
       924.0         0.13         18.2 
       925.0         0.37         30.3 
       926.0         1.58         51.4 
       927.0         0.20         55.9 
       928.0         0.10         64.0 
       929.0         0.20         67.9 
       930.0         0.30         68.0 
       931.0         0.30         61.0 
       932.0         0.30         54.7 
       933.0         0.20         42.9 
       934.0         0.17         40.6 
       935.0         0.13         34.2 
       936.0         0.17         33.3 
       937.0         0.13         28.2 
       938.0         0.15         27.8 
       939.0         0.23         25.1 
       940.0         0.23         25.1 
       941.0         0.20         24.6 
       942.0         0.17         26.4 
       943.0         0.23         26.6 
       944.0         0.33         27.9 
       945.0         0.33         25.8 
       946.0         0.37         23.8 
       947.0         0.20         21.6 
       948.0         0.30         21.3 
       949.0         0.30         20.5 
       950.0         0.23         19.5 
       951.0         0.25         20.1 
       952.0         0.20         19.2 
       953.0         0.20         19.0 
       954.0         0.27         18.2 
       955.0         0.43         18.3 
       956.0         1.17         32.0 
       957.0         0.47         43.9 
       958.0         0.33         56.1 
       959.0         0.32         49.6 
       960.0         0.27         44.9 
       961.0         0.27         32.8 
       962.0         0.27         29.2 
       963.0         0.17         22.0 
       964.0         0.13         22.0 
       965.0         0.13         20.6 
       966.0         0.27         20.0 
       967.0         0.10         19.8 
       968.0         0.80         19.4 
       969.0         0.62         17.7 
       970.0         0.50         17.6 
       971.0         0.47         16.5 
       972.0         0.17         16.2 
       973.0         0.10         16.0 
       974.0         0.13         16.0 
       975.0         0.17         16.7 
       976.0         0.10         16.3 
       977.0         0.20         17.7 
       978.0         0.28         20.2 
       979.0         0.30         27.1 
       980.0         0.27         40.6 
       981.0         0.20         49.6 
       982.0         0.20         54.5 
       983.0         0.20         55.1 
       984.0         0.27         55.3 
       985.0         0.27         54.3 
       986.0         2.32         92.7 
       987.0         0.63        163.6 
       988.0         0.40        174.9 
       989.0         0.32        154.4 
       990.0         0.37        112.9 
       991.0         0.33         73.2 
       992.0         0.30         60.8 
       993.0         0.30         55.8 
       994.0         0.27         51.5 
       995.0         0.33         50.6 
       996.0         0.30         49.7 
       997.0         0.27         47.3 
       998.0         0.32         47.2 
