~Version Information
VERS.                      2.0: CWLS Log ASCII Standard - VERSION 2.0
WRAP.                       NO: One line per depth step
~Well Information Block
STRT.FT               428.8000: 
STOP.FT               951.7000: 
STEP.FT                 0.1000: 
NULL.                -999.2500: 
COMP.          Pioneer Natural Resources: COMPANY
WELL.          Sculpin 32-30 Tr: WELL
FLD.           Purgatoire River: FIELD
LOC.           1600' FNL & 1857' FEL--: LOCATION
CNTY.               Las Animas: COUNTY
SRVC.                Patterson: SERVICE COMPANY
DATE.          Wed Jul 19 09:12:32 2006: LOG DATE
UWI.           05 071 08706 00: UNIQUE WELL ID
STAT.                 Colorado: STATE
~Curve Information Block
DEPT.FT            0 000 00 00: Depth
DCAL.in                       : CDL Caliper
RHOB.g/cc                     : CDL Bulk Density
RHOC.g/cc                     : CDL Density Correction
DPOR.pu                       : CDL Density Porosity
GR.GAPI                       : Gamma Ray
~Parameter Information Block
~A  Depth       DCAL        RHOB        RHOC        DPOR         GR     
# ...
   630.4000      7.9635      2.7295      0.1414     -4.8162     97.8538
   630.5000      7.9634      2.7226      0.1171     -4.3991     97.6117
   630.6000      7.9634      2.7084      0.0379     -3.5377     94.0915
   630.7000      7.9634      2.7256      0.0814     -4.5800     89.7433
   630.8000      7.9632      2.7561      0.1265     -6.4275     85.6737
   630.9000      7.9632      2.7599      0.1107     -6.6584     80.8429
   631.0000      7.9625      2.7274      0.0346     -4.6894     75.2380
   631.1000      7.9625      2.6743     -0.0237     -1.4699     71.8489
   631.2000      7.9625      2.6289     -0.0445      1.2793     73.0213
   631.3000      7.9606      2.6179     -0.0880      1.9441     76.0473
   631.4000      7.9606      2.6347     -0.0351      0.9284     75.2456
   631.5000      7.9610      2.6393     -0.0609      0.6500     70.1350
   631.6000      7.9610      2.6045     -0.0518      2.7583     66.0476
   631.7000      7.9610      2.5418     -0.0745      6.5596     66.3663
   631.8000      7.9633      2.4932     -0.1054      9.5010     72.0577
   631.9000      7.9633      2.4811     -0.0218     10.2356     82.9889
   632.0000      7.9650      2.4802      0.0384     10.2893     96.1671
   632.1000      7.9650      2.4696      0.0277     10.9324    104.8500
   632.2000      7.9650      2.4575      0.0644     11.6652    105.3734
   632.3000      7.9628      2.4491      0.0851     12.1775    104.0523
   632.4000      7.9628      2.4407      0.0573     12.6822    106.8987
   632.5000      7.9610      2.4368      0.0507     12.9186    112.2231
   632.6000      7.9610      2.4423      0.0738     12.5893    118.3928
   632.7000      7.9610      2.4529      0.1062     11.9428    124.9802
   632.8000      7.9677      2.4654      0.0983     11.1861    128.6666
   632.9000      7.9677      2.4773      0.0889     10.4680    127.3188
   633.0000      7.9820      2.4801      0.1057     10.2958    122.2723
   633.1000      7.9820      2.4754      0.0846     10.5830    116.8623
   633.2000      7.9820      2.4761      0.0967     10.5388    116.0946
   633.3000      7.9962      2.4889      0.0801      9.7615    120.0615
   633.4000      7.9962      2.5141      0.1027      8.2381    123.6485
   633.5000      8.0049      2.5456      0.1258      6.3284    121.5552
   633.6000      8.0049      2.5743      0.0852      4.5892    112.3951
   633.7000      8.0049      2.5970      0.1219      3.2128    101.4655
   633.8000      8.0046      2.6133      0.0985      2.2244     93.4753
   633.9000      8.0046      2.6238      0.1005      1.5874     90.2707
   634.0000      7.9975      2.6267      0.1271      1.4131     94.6577
   634.1000      7.9975      2.6172      0.0813      1.9880    104.0139
   634.2000      7.9975      2.5903      0.0984      3.6157    110.6723
   634.3000      7.9907      2.5507      0.0450      6.0183    110.3185
   634.4000      7.9907      2.5277      0.0108      7.4144    104.9684
   634.5000      7.9858      2.5434      0.0057      6.4600     98.9854
   634.6000      7.9858      2.5759      0.0767      4.4909     95.8700
   634.7000      7.9858      2.5954      0.0547      3.3077     97.9150
   634.8000      7.9777      2.5991      0.0759      3.0859    103.2646
   634.9000      7.9777      2.5887      0.0827      3.7136    105.1044
   635.0000      7.9670      2.5695      0.0425      4.8777    101.5553
   635.1000      7.9670      2.5540      0.0522      5.8196     97.2788
   635.2000      7.9670      2.5460      0.0469      6.3035     95.0529
   635.3000      7.9612      2.5464      0.0309      6.2776     93.8854
   635.4000      7.9612      2.5568      0.0430      5.6492     94.2719
   635.5000      7.9596      2.5677      0.1106      4.9905     97.7724
   635.6000      7.9596      2.5649      0.0699      5.1601    102.6566
   635.7000      7.9596      2.5521      0.0274      5.9343    105.9366
   635.8000      7.9594      2.5407      0.0646      6.6244    106.6472
   635.9000      7.9594      2.5290      0.0730      7.3309    105.4735
   636.0000      7.9576      2.5170      0.0233      8.0633    102.9524
   636.1000      7.9576      2.5065      0.0412      8.6974     98.8156
   636.2000      7.9576      2.4926      0.0256      9.5394     93.2473
   636.3000      7.9515      2.4821      0.0289     10.1744     92.5869
   636.4000      7.9515      2.4984      0.0141      9.1886    102.6139
   636.5000      7.9427      2.5556      0.0960      5.7214    114.2296
   636.6000      7.9427      2.6420      0.0909      0.4836    115.6479
   636.7000      7.9427      2.7357      0.1654     -5.1916    108.5453
   636.8000      7.9366      2.8197      0.1947    -10.2871    101.5845
   636.9000      7.9366      2.8886      0.2364    -14.4605     98.7114
   637.0000      7.9361      2.9450      0.2222    -17.8769     98.4027
   637.1000      7.9361      2.9870      0.2291    -20.4254     98.0453
   637.2000      7.9361      3.0051      0.2090    -21.5189     95.3146
   637.3000      7.9415      2.9944      0.1702    -20.8743     90.0162
   637.4000      7.9415      2.9548      0.1410    -18.4739     83.4387
   637.5000      7.9511      2.8887      0.0375    -14.4680     76.5853
   637.6000      7.9511      2.8196     -0.0360    -10.2769     72.9905
   637.7000      7.9511      2.7632      0.0005     -6.8625     74.4359
   637.8000      7.9585      2.7065      0.0152     -3.4246     76.4065
   637.9000      7.9585      2.6497     -0.0299      0.0183     76.5024
   638.0000      7.9611      2.6081     -0.0641      2.5364     77.0283
   638.1000      7.9611      2.5845     -0.0390      3.9689     78.3064
   638.2000      7.9611      2.5817     -0.0082      4.1404     78.9729
   638.3000      7.9636      2.6039      0.0379      2.7924     78.6264
   638.4000      7.9636      2.6309      0.0990      1.1591     78.5736
   638.5000      7.9686      2.6321      0.0629      1.0843     81.4640
   638.6000      7.9686      2.6045      0.0638      2.7547     85.9737
   638.7000      7.9686      2.5702      0.0149      4.8338     88.8142
   638.8000      7.9717      2.5482      0.0304      6.1681     91.8262
   638.9000      7.9717      2.5388      0.0334      6.7370     96.6786
   639.0000      7.9723      2.5357     -0.0100      6.9252     99.1670
   639.1000      7.9723      2.5361      0.0466      6.9052     97.1545
   639.2000      7.9723      2.5421      0.0206      6.5404     94.0271
   639.3000      7.9696      2.5549      0.0510      5.7623     93.1131
   639.4000      7.9696      2.5641      0.0582      5.2046     97.8960
   639.5000      7.9638      2.5639      0.0445      5.2211    107.8478
   639.6000      7.9638      2.5573      0.0522      5.6184    117.2376
   639.7000      7.9638      2.5401      0.0590      6.6597    125.1829
   639.8000      7.9612      2.5142      0.0388      8.2318    133.4960
   639.9000      7.9612      2.5015     -0.0010      9.0020    139.4655
   640.0000      7.9661      2.5110      0.1002      8.4227    139.5398
   640.1000      7.9661      2.5281      0.0495      7.3871    133.7896
   640.2000      7.9661      2.5501      0.0528      6.0570    126.8435
   640.3000      7.9744      2.5769      0.1036      4.4311    124.3920
   640.4000      7.9744      2.5990      0.0832      3.0909    125.3157
   640.5000      7.9756      2.6102      0.1294      2.4106    123.6009
   640.6000      7.9756      2.6064      0.1001      2.6422    120.8517
   640.7000      7.9756      2.5974      0.0633      3.1865    119.7991
   640.8000      7.9704      2.5998      0.0798      3.0427    118.8185
   640.9000      7.9704      2.6193      0.0680      1.8594    118.5464
   641.0000      7.9707      2.6537      0.0928     -0.2220    118.3119
   641.1000      7.9707      2.6898      0.1106     -2.4133    115.2546
   641.2000      7.9707      2.7170      0.1239     -4.0581    110.0162
   641.3000      7.9779      2.7386      0.0946     -5.3686    107.7663
   641.4000      7.9779      2.7504      0.1662     -6.0872    109.1454
   641.5000      7.9825      2.7437      0.0463     -5.6758    109.9645
