~Version Information
VERS.                      2.0: CWLS Log ASCII Standard - VERSION 2.0
WRAP.                       NO: One line per depth step
~Well Information Block
STRT.FT               660.0000: 
STOP.FT              2491.0000: 
STEP.FT                 0.2500: 
NULL.                -999.2500: 
COMP.          Petrogulf Corporation: COMPANY
WELL.          Montoya 18-11V-B: WELL
FLD.           Purgatorie River: FIELD
LOC.           848' FNL & 619' FWL: LOCATION
PROV.                 Colorado: PROVINCE
CNTY.               Las Animas: COUNTRY
SRVC.                Patterson: SERVICE COMPANY
DATE.          Wed Oct 05 04:34:17 2005: LOG DATE
UWI.                          : UNIQUE WELL ID
~Curve Information Block
DEPT.FT            0 000 00 00: Depth
SP.mV                         : DIL Spontaneous Potential
RILD.Ohm-m                    : DIL Deep Resistivity
RILM.Ohm-m                    : DIL Medium Resistivity
RLL3.Ohm-m                    : DIL Shallow Resistivity
GR.GAPI                       : Gamma Ray
~Parameter Information Block
~A  Depth        SP         RILD        RILM        RLL3         GR     
# ...
  1248.0000   2000.0000      9.3126     10.9058   2000.0000     68.4646
  1248.2500   2000.0000      9.5016     11.1890   2000.0000     63.2512
  1248.5000   2000.0000      9.6854     11.2945   2000.0000     59.0765
  1248.7500   2000.0000      9.8405     11.2360   2000.0000     58.5523
  1249.0000   2000.0000      9.9346     11.0469   2000.0000     61.2730
  1249.2500   2000.0000      9.9380     10.7669   2000.0000     65.5495
  1249.5000   2000.0000      9.8353     10.4325   2000.0000     75.2639
  1249.7500   2000.0000      9.6313     10.0720   2000.0000     83.1576
  1250.0000   2000.0000      9.3485      9.7059   2000.0000     95.2711
  1250.2500   2000.0000      9.0192      9.3487   2000.0000    102.6155
  1250.5000   2000.0000      8.6760      9.0103   2000.0000    111.7688
  1250.7500   2000.0000      8.3464      8.6980   2000.0000    116.5930
  1251.0000   2000.0000      8.0491      8.4165   2000.0000    122.1544
  1251.2500   2000.0000      7.7942      8.1682   2000.0000    124.8986
  1251.5000   2000.0000      7.5833      7.9536   2000.0000    127.8883
  1251.7500   2000.0000      7.4127      7.7708   2000.0000    129.3350
  1252.0000   2000.0000      7.2756      7.6164   2000.0000    130.5878
  1252.2500   2000.0000      7.1644      7.4859   2000.0000    130.2812
  1252.5000   2000.0000      7.0729      7.3741   2000.0000    127.2195
  1252.7500   2000.0000      6.9962      7.2758   2000.0000    123.7491
  1253.0000   2000.0000      6.9313      7.1867   2000.0000    118.5157
  1253.2500   2000.0000      6.8770      7.1034   2000.0000    116.2553
  1253.5000   2000.0000      6.8333      7.0241   2000.0000    115.2337
  1253.7500   2000.0000      6.8006      6.9489   2000.0000    115.5085
  1254.0000   2000.0000      6.7789      6.8793   2000.0000    115.9469
  1254.2500   2000.0000      6.7677      6.8184   2000.0000    115.9719
  1254.5000   2000.0000      6.7666      6.7698   2000.0000    116.5670
  1254.7500   2000.0000      6.7757      6.7376   2000.0000    118.2625
  1255.0000   2000.0000      6.7961      6.7256   2000.0000    123.1966
  1255.2500   2000.0000      6.8304      6.7371   2000.0000    127.1651
  1255.5000   2000.0000      6.8820      6.7748   2000.0000    131.5017
  1255.7500   2000.0000      6.9551      6.8416   2000.0000    132.2174
  1256.0000   2000.0000      7.0541      6.9410   2000.0000    130.2474
  1256.2500   2000.0000      7.1837      7.0776   2000.0000    128.1703
  1256.5000   2000.0000      7.3474      7.2572   2000.0000    126.2331
  1256.7500   2000.0000      7.5464      7.4869   2000.0000    126.0628
  1257.0000   2000.0000      7.7774      7.7739   2000.0000    125.8569
  1257.2500   2000.0000      8.0320      8.1239   2000.0000    124.3007
  1257.5000   2000.0000      8.2967      8.5378   2000.0000    118.4900
  1257.7500   2000.0000      8.5539      9.0086   2000.0000    112.7558
  1258.0000   2000.0000      8.7857      9.5169   2000.0000    103.3902
  1258.2500   2000.0000      8.9758     10.0276   2000.0000     97.3927
  1258.5000   2000.0000      9.1118     10.4908   2000.0000     88.3533
  1258.7500   2000.0000      9.1866     10.8485   2000.0000     81.8833
  1259.0000   2000.0000      9.1988     11.0478   2000.0000     72.5334
  1259.2500   2000.0000      9.1529     11.0566   2000.0000     68.1722
  1259.5000   2000.0000      9.0583     10.8739   2000.0000     67.0717
  1259.7500   2000.0000      8.9271     10.5290   2000.0000     70.3775
  1260.0000   2000.0000      8.7708     10.0710   2000.0000     79.9281
  1260.2500   2000.0000      8.5980      9.5546   2000.0000     87.8679
  1260.5000   2000.0000      8.4142      9.0291   2000.0000     99.7846
  1260.7500   2000.0000      8.2227      8.5323   2000.0000    106.7548
  1261.0000   2000.0000      8.0265      8.0892   2000.0000    114.7369
  1261.2500   2000.0000      7.8298      7.7136   2000.0000    118.2438
  1261.5000   2000.0000      7.6381      7.4105   2000.0000    121.4707
  1261.7500   2000.0000      7.4576      7.1787   2000.0000    123.1917
  1262.0000   2000.0000      7.2939      7.0134   2000.0000    126.9231
  1262.2500   2000.0000      7.1515      6.9073   2000.0000    130.7804
  1262.5000   2000.0000      7.0334      6.8521   2000.0000    138.1960
  1262.7500   2000.0000      6.9412      6.8394   2000.0000    143.2143
  1263.0000   2000.0000      6.8753      6.8607   2000.0000    148.9601
  1263.2500   2000.0000      6.8349      6.9072   2000.0000    151.1251
  1263.5000   2000.0000      6.8178      6.9700   2000.0000    152.2365
  1263.7500   2000.0000      6.8202      7.0392   2000.0000    151.7263
  1264.0000   2000.0000      6.8365      7.1047   2000.0000    148.4387
  1264.2500   2000.0000      6.8608      7.1567   2000.0000    144.2335
  1264.5000   2000.0000      6.8871      7.1873   2000.0000    136.1045
  1264.7500   2000.0000      6.9115      7.1924   2000.0000    131.0795
  1265.0000   2000.0000      6.9316      7.1726   2000.0000    126.4794
  1265.2500   2000.0000      6.9459      7.1326   2000.0000    125.7316
  1265.5000   2000.0000      6.9519      7.0799   2000.0000    127.0648
  1265.7500   2000.0000      6.9459      7.0226   2000.0000    128.4427
  1266.0000   2000.0000      6.9241      6.9675   2000.0000    129.3993
  1266.2500   2000.0000      6.8851      6.9192   2000.0000    128.9335
  1266.5000   2000.0000      6.8310      6.8802   2000.0000    127.5313
  1266.7500   2000.0000      6.7680      6.8515   2000.0000    127.0355
  1267.0000   2000.0000      6.7040      6.8329   2000.0000    127.5875
  1267.2500   2000.0000      6.6461      6.8238   2000.0000    128.3831
  1267.5000   2000.0000      6.5997      6.8234   2000.0000    129.2475
  1267.7500   2000.0000      6.5678      6.8303   2000.0000    129.7565
  1268.0000   2000.0000      6.5514      6.8427   2000.0000    131.7630
  1268.2500   2000.0000      6.5506      6.8578   2000.0000    134.3806
  1268.5000   2000.0000      6.5634      6.8726   2000.0000    139.2936
  1268.7500   2000.0000      6.5860      6.8837   2000.0000    142.1069
  1269.0000   2000.0000      6.6124      6.8881   2000.0000    144.4634
  1269.2500   2000.0000      6.6358      6.8837   2000.0000    145.1028
  1269.5000   2000.0000      6.6504      6.8694   2000.0000    146.0228
  1269.7500   2000.0000      6.6542      6.8451   2000.0000    146.8467
  1270.0000   2000.0000      6.6480      6.8120   2000.0000    147.4960
  1270.2500   2000.0000      6.6353      6.7719   2000.0000    147.2693
  1270.5000   2000.0000      6.6201      6.7272   2000.0000    147.1070
  1270.7500   2000.0000      6.6077      6.6814   2000.0000    147.9287
  1271.0000   2000.0000      6.6047      6.6384   2000.0000    150.0318
  1271.2500   2000.0000      6.6182      6.6033   2000.0000    150.6654
  1271.5000   2000.0000      6.6539      6.5821   2000.0000    148.5331
  1271.7500   2000.0000      6.7149      6.5815   2000.0000    145.1408
  1272.0000   2000.0000      6.8011      6.6086   2000.0000    139.2689
  1272.2500   2000.0000      6.9089      6.6700   2000.0000    136.3600
  1272.5000   2000.0000      7.0306      6.7706   2000.0000    134.6536
  1272.7500   2000.0000      7.1553      6.9129   2000.0000    134.9059
  1273.0000   2000.0000      7.2713      7.0954   2000.0000    136.1188
  1273.2500   2000.0000      7.3708      7.3117   2000.0000    137.0276
  1273.5000   2000.0000      7.4531      7.5497   2000.0000    138.3494
  1273.7500   2000.0000      7.5243      7.7922   2000.0000    139.2005
  1274.0000   2000.0000      7.5944      8.0198   2000.0000    140.2630
  1274.2500   2000.0000      7.6724      8.2147   2000.0000    140.5916
  1274.5000   2000.0000      7.7636      8.3653   2000.0000    140.0672
  1274.7500   2000.0000      7.8692      8.4682   2000.0000    138.8355
  1275.0000   2000.0000      7.9853      8.5284   2000.0000    135.5909
  1275.2500   2000.0000      8.1031      8.5553   2000.0000    132.9172
  1275.5000   2000.0000      8.2090      8.5594   2000.0000    129.9975
  1275.7500   2000.0000      8.2864      8.5483   2000.0000    129.9888
