~Version Information
VERS.                      2.0: CWLS Log ASCII Standard - VERSION 2.0
WRAP.                       NO: One line per depth step
~Well Information Block
STRT.FT                 0.0000: 
STOP.FT              1238.2500: 
STEP.FT                 0.2500: 
NULL.                -999.2500: 
COMP.          Pioneer Natural Resources: COMPANY
WELL.                 Ray 34-6: WELL
FLD.           Purgatoire River: FIELD
LOC.           684' FSL & 2254' FEL: LOCATION
CNTY.               Las Animas: COUNTY
SRVC.                         : SERVICE COMPANY
DATE.          Fri Jun 23 09:23:24 2006: LOG DATE
UWI.           05 071 08695 00: UNIQUE WELL ID
STAT.                       CO: STATE
~Curve Information Block
DEPT.FT            0 000 00 00: Depth
GR.GAPI                       : Gamma Ray
CCL.                          : Casing Collar Locator
TT3.usec                      : CBL 3' Travel Time
AMP3.mV                       : CBL 3' Amplitude
~Parameter Information Block
~A  Depth        GR         CCL         TT3         AMP3    
# ...
  1038.5000     45.7852      0.0000    744.2442      6.4555
  1038.7500     44.2565      0.0000    740.0221      6.4245
  1039.0000     42.9940      0.0000    735.3151      6.3975
  1039.2500     41.9431      0.0000    730.9893      6.3629
  1039.5000     41.5576      0.0000    727.6136      6.3195
  1039.7500     42.4697      0.0000    725.6660      6.2789
  1040.0000     44.9723      0.0000    725.3646      6.2586
  1040.2500     48.7063      0.0000    726.0194      6.2750
  1040.5000     52.7067      0.0000    726.3922      6.3424
  1040.7500     55.8788      0.0000    726.3348      6.4714
  1041.0000     57.6195      0.0000    727.3953      6.6548
  1041.2500     58.1013      0.0000    731.1070      6.8513
  1041.5000     58.1653      0.0000    737.1521      6.9971
  1041.7500     59.0105      0.0000    743.7198      7.0523
  1042.0000     61.6776      0.0000    749.2571      7.0382
  1042.2500     66.5815      0.0000    753.2993      7.0197
  1042.5000     73.4529      0.0000    755.8687      7.0505
  1042.7500     81.5978      0.0000    756.9935      7.1405
  1043.0000     90.1815      0.0000    757.3869      7.2649
  1043.2500     98.4598      0.0000    758.9885      7.3911
  1043.5000    105.8404      0.0000    763.4708      7.4955
  1043.7500    111.7595      0.0000    769.9036      7.5661
  1044.0000    115.7085      0.0000    775.0164      7.6030
  1044.2500    117.4149      0.0000    776.2852      7.6206
  1044.5000    116.8527      0.0000    774.0006      7.6468
  1044.7500    114.2256      0.0000    770.2517      7.7128
  1045.0000    110.1294      0.0000    767.1160      7.8302
  1045.2500    105.4554      0.0000    766.1229      7.9711
  1045.5000    100.8408      0.0000    768.2061      8.0774
  1045.7500     96.3630      0.0000    773.2021      8.1034
  1046.0000     92.0874      0.0000    779.5989      8.0507
  1046.2500     88.7833      0.0000    785.2042      7.9586
  1046.5000     87.6528      0.0000    788.3165      7.8628
  1046.7500     89.2071      0.0000    788.5139      7.7708
  1047.0000     92.4784      0.0000    786.6644      7.6714
  1047.2500     95.3668      0.0000    784.0064      7.5584
  1047.5000     95.9251      0.0000    780.8159      7.4401
  1047.7500     93.6700      0.0000    776.1520      7.3297
  1048.0000     89.7594      0.0000    769.3587      7.2323
  1048.2500     85.8260      0.0000    761.4780      7.1388
  1048.5000     82.7527      0.0000    754.5285      7.0339
  1048.7500     80.6143      0.0000    749.4943      6.9096
  1049.0000     79.3712      0.0000    745.5950      6.7714
  1049.2500     79.0248      0.0000    741.5292      6.6357
  1049.5000     79.0575      0.0000    737.0295      6.5250
  1049.7500     78.0470      0.0000    733.1071      6.4665
  1050.0000     74.1863      0.0000    731.0133      6.4877
  1050.2500     66.5565      0.0000    731.0941      6.6061
  1050.5000     56.1888      0.0000    732.5515      6.8173
  1050.7500     45.8633      0.0000    734.0987      7.0956
  1051.0000     38.6568      0.0000    734.7141      7.4107
  1051.2500     36.4090      0.0000    734.0261      7.7474
  1051.5000     39.2201      0.0000    732.9165      8.1131
  1051.7500     46.0008      0.0000    734.2679      8.5286
  1052.0000     55.1970      0.0000    742.2412      9.0120
  1052.2500     65.1347      0.0000    759.5115      9.5666
  1052.5000     74.2380      0.0000    785.3654     10.1798
  1052.7500     81.3506      0.0000    816.5237     10.8192
  1053.0000     85.9063      0.0000    847.8043     11.4238
  1053.2500     87.7994      0.0000    870.6888     11.9072
  1053.5000     87.1754      0.0000    875.0613     12.1859
  1053.7500     84.3901      0.0000    857.3655     12.2154
  1054.0000     80.2752      0.0000    826.0442     12.0086
  1054.2500     76.2805      0.0000    795.3478     11.6270
  1054.5000     73.8842      0.0000    774.4362     11.1467
  1054.7500     73.7135      0.0000    763.8345     10.6218
  1055.0000     75.4349      0.0000    759.6559     10.0773
  1055.2500     78.2920      0.0000    758.2661      9.5390
  1055.5000     81.3810      0.0000    757.7430      9.0591
  1055.7500     83.7595      0.0000    757.3693      8.6988
  1056.0000     84.8505      0.0000    756.9339      8.4864
  1056.2500     84.6459      0.0000    756.3178      8.3942
  1056.5000     83.3348      0.0000    755.3235      8.3576
  1056.7500     81.0852      0.0000    753.6519      8.3180
  1057.0000     78.3950      0.0000    751.2598      8.2566
  1057.2500     76.2813      0.0000    748.8518      8.1928
  1057.5000     75.7312      0.0000    747.6973      8.1503
  1057.7500     76.9292      0.0000    748.5828      8.1243
  1058.0000     79.1348      0.0000    751.1498      8.0889
  1058.2500     81.4099      0.0000    754.6315      8.0354
  1058.5000     83.4406      0.0000    759.3308      7.9913
  1058.7500     85.5370      0.0000    767.3176      7.9867
  1059.0000     88.0168      0.0000    781.6751      8.0127
  1059.2500     90.9215      0.0000    804.2272      8.0278
  1059.5000     94.1646      0.0000    832.4317      8.0056
  1059.7500     97.4265      0.0000    858.2725      7.9567
  1060.0000     99.8836      0.0000    872.4622      7.9050
  1060.2500    100.5081      0.0000    872.5262      7.8647
  1060.5000     98.8331      0.0000    866.9021      7.8428
  1060.7500     95.2895      0.0000    869.1131      7.8436
  1061.0000     90.9103      0.0000    885.9095      7.8635
  1061.2500     86.8637      0.0000    910.1094      7.8879
  1061.5000     83.9447      0.0000    925.6396      7.8974
  1061.7500     82.1950      0.0000    920.7719      7.8781
  1062.0000     81.1912      0.0000    896.7145      7.8276
  1062.2500     80.8037      0.0000    864.1996      7.7591
  1062.5000     81.4731      0.0000    834.2204      7.6995
  1062.7500     83.6834      0.0000    812.3940      7.6720
  1063.0000     87.3197      0.0000    798.6351      7.6706
  1063.2500     91.6255      0.0000    788.4756      7.6582
  1063.5000     95.6395      0.0000    774.6229      7.5993
  1063.7500     98.4773      0.0000    749.8729      7.4945
  1064.0000     99.3425      0.0000    711.3960      7.3793
  1064.2500     97.9123      0.0000    663.7960      7.2941
  1064.5000     95.0176      0.0000    617.4008      7.2603
  1064.7500     92.3980      0.0000    582.1616      7.2732
  1065.0000     91.3332      0.0000    562.3813      7.3107
  1065.2500     91.8430      0.0000    556.6356      7.3515
  1065.5000     93.4058      0.0000    561.7663      7.3879
  1065.7500     95.7163      0.0000    576.2814      7.4216
  1066.0000     98.2932      0.0000    600.1768      7.4535
  1066.2500    100.2036      0.0000    632.1299      7.4854
  1066.5000    101.1473      0.0000    667.4804      7.5291
  1066.7500    102.4525      0.0000    699.4212      7.6003
  1067.0000    105.9034      0.0000    722.5275      7.7041
  1067.2500    111.3336      0.0000    735.5657      7.8351
  1067.5000    116.1078      0.0000    741.5188      7.9880
  1067.7500    117.4649      0.0000    745.1591      8.1522
  1068.0000    114.8385      0.0000    750.2594      8.2938
  1068.2500    109.5093      0.0000    758.0018      8.3599
  1068.5000    102.8293      0.0000    766.6778      8.3187
  1068.7500     95.7000      0.0000    772.9110      8.1923
  1069.0000     89.1386      0.0000    774.2991      8.0420
  1069.2500     84.2087      0.0000    771.3278      7.9213
  1069.5000     81.3311      0.0000    766.6296      7.8460
  1069.7500     80.1292      0.0000    762.6580      7.8027
  1070.0000     80.0271      0.0000    760.3062      7.7742
  1070.2500     80.8656      0.0000    759.1770      7.7504
  1070.5000     82.7642      0.0000    758.5071      7.7148
  1070.7500     85.2458      0.0000    757.8487      7.6285
  1071.0000     86.8739      0.0000    757.2956      7.4383
  1071.2500     86.4633      0.0000    757.3272      7.1130
  1071.5000     84.5604      0.0000    758.5431      6.6850
  1071.7500     83.1270      0.0000    761.8468      6.2563
