~Version Information
VERS.                      2.0: CWLS Log ASCII Standard - VERSION 2.0
WRAP.                       NO: One line per depth step
~Well Information Block
STRT.FT               547.0000: 
STOP.FT              1685.5000: 
STEP.FT                 0.1000: 
NULL.                -999.2500: 
COMP.          Pioneer Natural Resources: COMPANY
WELL.           Pedri 42-33 Tr: WELL
FLD.           Purgatorie River: FIELD
LOC.           1933' FNL & 662' FEL: LOCATION
PROV.                 Colorado: PROVINCE
CNTY.               Las Animas: COUNTRY
SRVC.                Patterson: SERVICE COMPANY
DATE.          Mon Dec 19 13:36:44 2005: LOG DATE
UWI.                          : UNIQUE WELL ID
~Curve Information Block
DEPT.FT            0 000 00 00: Depth
DCAL.in                       : CDL Caliper
RHOB.g/cc                     : CDL Bulk Density
RHOC.g/cc                     : CDL Density Correction
DPOR.pu                       : CDL Density Porosity
GR.GAPI                       : Gamma Ray
~Parameter Information Block
~A  Depth       DCAL        RHOB        RHOC        DPOR         GR     
# ...
  1443.0000      8.0356      2.4868     -0.0398      9.8885    114.0032
  1443.1000      8.0356      2.4878     -0.0053      9.8302    112.3167
  1443.2000      8.0356      2.4998      0.0517      9.1024    112.8591
  1443.3000      8.0377      2.5079      0.0282      8.6119    114.6952
  1443.4000      8.0377      2.5238      0.0240      7.6480    116.7000
  1443.5000      8.0534      2.5491      0.0885      6.1143    117.9093
  1443.6000      8.0534      2.5692      0.0824      4.8969    117.6310
  1443.7000      8.0534      2.5844      0.0455      3.9782    117.0322
  1443.8000      8.0571      2.5961      0.1140      3.2637    118.4025
  1443.9000      8.0571      2.5939      0.1430      3.3984    120.6770
  1444.0000      8.0282      2.5823      0.0868      4.1037    122.7413
  1444.1000      8.0282      2.5803      0.1129      4.2247    124.6072
  1444.2000      8.0282      2.5845      0.1562      3.9689    124.2638
  1444.3000      8.0028      2.5745      0.1084      4.5751    121.1484
  1444.4000      8.0028      2.5531      0.0377      5.8718    118.3944
  1444.5000      8.0081      2.5419      0.0471      6.5544    118.9686
  1444.6000      8.0081      2.5451      0.0541      6.3581    121.5717
  1444.7000      8.0081      2.5483      0.0415      6.1638    122.8148
  1444.8000      8.0335      2.5425      0.0080      6.5137    121.6468
  1444.9000      8.0335      2.5323      0.0553      7.1331    120.3247
  1445.0000      8.0529      2.5258      0.0232      7.5263    121.3350
  1445.1000      8.0529      2.5274      0.0675      7.4275    123.0077
  1445.2000      8.0529      2.5299      0.0563      7.2765    121.5619
  1445.3000      8.0555      2.5289      0.0465      7.3382    118.6578
  1445.4000      8.0555      2.5288      0.0436      7.3442    118.3659
  1445.5000      8.0380      2.5278      0.0809      7.4083    119.6338
  1445.6000      8.0380      2.5282      0.0342      7.3843    120.5779
  1445.7000      8.0380      2.5447      0.0265      6.3794    122.8997
  1445.8000      8.0223      2.5770      0.0926      4.4250    126.3539
  1445.9000      8.0223      2.6038      0.1182      2.8017    126.3820
  1446.0000      8.0261      2.6146      0.0981      2.1446    123.4913
  1446.1000      8.0261      2.6066      0.1472      2.6278    122.5410
  1446.2000      8.0261      2.5789      0.1089      4.3089    123.4778
  1446.3000      8.0131      2.5532      0.0535      5.8682    124.0412
  1446.4000      8.0131      2.5501      0.0742      6.0532    124.0237
  1446.5000      8.0202      2.5609      0.1113      5.3983    121.9868
  1446.6000      8.0202      2.5709      0.1061      4.7918    118.1026
  1446.7000      8.0202      2.5766      0.0672      4.4512    115.6506
  1446.8000      7.9970      2.5745      0.0765      4.5767    116.6647
  1446.9000      7.9970      2.5589      0.0630      5.5193    120.9269
  1447.0000      8.0261      2.5329      0.0506      7.0951    124.4819
  1447.1000      8.0261      2.5084      0.0124      8.5807    122.7762
  1447.2000      8.0261      2.4939      0.0209      9.4629    119.2458
  1447.3000      8.0466      2.4940     -0.0092      9.4571    118.1771
  1447.4000      8.0466      2.5128      0.0167      8.3127    118.2483
  1447.5000      8.0365      2.5430      0.0285      6.4860    118.7491
  1447.6000      8.0365      2.5566      0.0946      5.6632    118.9220
  1447.7000      8.0365      2.5370      0.0767      6.8464    116.2932
  1447.8000      8.0598      2.5159     -0.0445      8.1247    111.8040
  1447.9000      8.0598      2.5195      0.0804      7.9110    110.0864
  1448.0000      8.0687      2.5254      0.0356      7.5532    112.0603
  1448.1000      8.0687      2.5203      0.0503      7.8594    113.4118
  1448.2000      8.0687      2.5118      0.0735      8.3762    112.1168
  1448.3000      8.0235      2.5055      0.0306      8.7568    111.2727
  1448.4000      8.0235      2.5050      0.1083      8.7874    113.4437
  1448.5000      8.0189      2.5056      0.0501      8.7488    116.9121
  1448.6000      8.0189      2.5043      0.0518      8.8311    118.0305
  1448.7000      8.0189      2.5015      0.0140      9.0004    115.3747
  1448.8000      8.0496      2.4966      0.0569      9.2979    110.8022
  1448.9000      8.0496      2.4943      0.0027      9.4386    106.6948
  1449.0000      8.0425      2.5039      0.0770      8.8559    104.7548
  1449.1000      8.0425      2.5211      0.1109      7.8127    106.1956
  1449.2000      8.0425      2.5390      0.1003      6.7259    111.3078
  1449.3000      7.9972      2.5575      0.1056      5.6088    117.2415
  1449.4000      7.9972      2.5714      0.1083      4.7638    118.0771
  1449.5000      7.9944      2.5761      0.1485      4.4783    112.8900
  1449.6000      7.9944      2.5745      0.0980      4.5756    107.7452
  1449.7000      7.9944      2.5727      0.1215      4.6828    105.5296
  1449.8000      7.9887      2.5703      0.1007      4.8279    104.8135
  1449.9000      7.9887      2.5601      0.1449      5.4499    105.6040
  1450.0000      7.9806      2.5404      0.0296      6.6449    106.4930
  1450.1000      7.9806      2.5272      0.0153      7.4423    106.0504
  1450.2000      7.9806      2.5240      0.0799      7.6345    104.1862
  1450.3000      7.9803      2.5198      0.0458      7.8892     99.7370
  1450.4000      7.9803      2.5214      0.0404      7.7914     95.0430
  1450.5000      8.0169      2.5316      0.0728      7.1784     95.5835
  1450.6000      8.0169      2.5373      0.0797      6.8318    102.0423
  1450.7000      8.0169      2.5354      0.1045      6.9427    107.0184
  1450.8000      7.9787      2.5294      0.0767      7.3088    105.8282
  1450.9000      7.9787      2.5201      0.1186      7.8755    102.5965
  1451.0000      7.9966      2.5163      0.0493      8.1022    102.8357
  1451.1000      7.9966      2.5320      0.0709      7.1537    106.7036
  1451.2000      7.9966      2.5654      0.0850      5.1249    111.9837
  1451.3000      7.9895      2.6030      0.0769      2.8515    117.6325
  1451.4000      7.9895      2.6390      0.0780      0.6691    122.0364
  1451.5000      8.0267      2.6759      0.1068     -1.5685    122.9761
  1451.6000      8.0267      2.7128      0.1291     -3.8038    121.1617
  1451.7000      8.0267      2.7482      0.1058     -5.9526    120.4239
  1451.8000      8.0319      2.7808      0.1643     -7.9279    120.3998
  1451.9000      8.0319      2.8031      0.1638     -9.2772    118.1019
  1452.0000      7.9839      2.8084      0.1550     -9.6019    114.4449
  1452.1000      7.9839      2.7920      0.1301     -8.6081    111.1510
  1452.2000      7.9839      2.7553      0.0680     -6.3826    107.8763
  1452.3000      7.9770      2.7065      0.0535     -3.4214    103.0593
  1452.4000      7.9770      2.6511     -0.0041     -0.0679     96.0338
  1452.5000      7.9702      2.6004     -0.0509      3.0081     89.5249
  1452.6000      7.9702      2.5670     -0.0073      5.0294     86.6535
  1452.7000      7.9702      2.5565      0.0462      5.6676     88.0231
  1452.8000      8.0034      2.5716      0.0988      4.7506     93.0749
  1452.9000      8.0034      2.6100      0.1497      2.4247     99.4426
  1453.0000      7.9795      2.6546      0.2300     -0.2798    104.1321
  1453.1000      7.9795      2.6823      0.2287     -1.9554    106.5465
  1453.2000      7.9795      2.6894      0.2081     -2.3884    107.8895
  1453.3000      7.8963      2.6895      0.2222     -2.3912    107.8092
  1453.4000      7.8963      2.6906      0.2010     -2.4596    106.7514
  1453.5000      7.9217      2.6934      0.1935     -2.6307    108.5624
  1453.6000      7.9217      2.6917      0.1409     -2.5243    112.5976
  1453.7000      7.9217      2.6803      0.1248     -1.8364    113.0793
  1453.8000      7.9180      2.6658      0.0808     -0.9565    110.3958
  1453.9000      7.9180      2.6539      0.1361     -0.2350    112.3914
  1454.0000      7.9913      2.6374      0.1500      0.7646    120.2011
  1454.1000      7.9913      2.6129      0.0702      2.2475    125.2626
