~Version Information
VERS.                      2.0: CWLS Log ASCII Standard - VERSION 2.0
WRAP.                       NO: One line per depth step
~Well Information Block
STRT.FT                -8.2500: 
STOP.FT              1439.2500: 
STEP.FT                 0.2500: 
NULL.                -999.2500: 
COMP.          Pioneer Natural Resources: COMPANY
WELL.          Old Faithful 21-2: WELL
FLD.           Purgatorie River: FIELD
LOC.           806' FNL & 2509' FWL--: LOCATION
PROV.                       CO: PROVINCE
CNTY.               Las Animas: COUNTRY
SRVC.          Patterson Wireline: SERVICE COMPANY
DATE.          Mon Dec 12 11:21:25 2005: LOG DATE
UWI.           08 071 08617 00: UNIQUE WELL ID
~Curve Information Block
DEPT.FT            0 000 00 00: Depth
CCL.                          : Casing Collar Locator
TT3.usec                      : CBL 3' Travel Time
AMP3.mV                       : CBL 3' Amplitude
GR.GAPI                       : Gamma Ray
~Parameter Information Block
~A  Depth       CCL         TT3         AMP3         GR     
# ...
    92.2500      0.0000    703.4833      7.5763     66.7374
    92.5000      0.0000    703.3746      7.6267     66.0319
    92.7500      0.0000    703.2740      7.6675     67.3187
    93.0000      0.0000    703.2028      7.6971     69.4776
    93.2500      0.0000    703.1815      7.7068     71.1256
    93.5000      0.0000    703.2064      7.6864     71.7364
    93.7500      0.0000    703.2392      7.6326     72.1364
    94.0000      0.0000    703.2053      7.5561     73.6690
    94.2500      0.0000    702.9327      7.4785     76.7419
    94.5000      0.0000    702.0115      7.4142     80.3259
    94.7500      0.0000    699.8589      7.3568     82.8880
    95.0000      0.0000    696.5560      7.2788     83.7325
    95.2500      0.0000    694.4129      7.1386     83.4681
    95.5000      0.0000    698.3717      6.9019     83.1803
    95.7500      0.0000    712.6437      6.5880     83.1484
    96.0000      0.0000    735.2035      6.2983     82.4559
    96.2500      0.0000    756.8713      6.1587     79.9215
    96.5000      0.0000    768.5369      6.2179     75.4694
    96.7500      0.0000    769.6483      6.4145     70.6270
    97.0000     -2.0000    768.9622      6.6331     67.6131
    97.2500      2.0000    777.1097      6.7745     67.6479
    97.5000      0.0000    797.0186      6.7960     69.9268
    97.7500      0.0000    818.9364      6.7319     72.3458
    98.0000      0.0000    826.0936      6.6809     73.4320
    98.2500      0.0000    809.1872      6.7378     73.5190
    98.5000      0.0000    775.3784      6.9208     73.8993
    98.7500      0.0000    741.1846      7.1815     74.9920
    99.0000      0.0000    718.2563      7.4707     75.6796
    99.2500      0.0000    707.6545      7.7620     74.6999
    99.5000      0.0000    704.5216      8.0305     72.6143
    99.7500      0.0000    704.2266      8.2480     72.0931
   100.0000      0.0000    704.4869      8.3928     75.9485
   100.2500      0.0000    704.6075      8.4492     84.5361
   100.5000      0.0000    704.4964      8.4097     94.8068
   100.7500      0.0000    704.2224      8.2907    102.1240
   101.0000      0.0000    703.9199      8.1372    103.4697
   101.2500      0.0000    703.7293      7.9992     99.2064
   101.5000      0.0000    703.8277      7.8985     92.1661
   101.7500      0.0000    704.5181      7.8181     85.5925
   102.0000      0.0000    706.1583      7.7218     81.6820
   102.2500      0.0000    708.7569      7.5844     81.0068
   102.5000      0.0000    711.5817      7.4116     82.5965
   102.7500      0.0000    713.5624      7.2425     84.6860
   103.0000      0.0000    714.3724      7.1347     85.9099
   103.2500      0.0000    714.7297      7.1293     86.1785
   103.5000      0.0000    715.3709      7.2131     86.4055
   103.7500      0.0000    716.4472      7.3195     87.3942
   104.0000      0.0000    718.5309      7.3764     89.1328
   104.2500      0.0000    723.2969      7.3496     91.0151
   104.5000      0.0000    731.8879      7.2387     92.3896
   104.7500      0.0000    742.5961      7.0536     92.9490
   105.0000      0.0000    751.1024      6.8112     92.7897
   105.2500      0.0000    753.6628      6.5489     92.0313
   105.5000      0.0000    750.2674      6.3222     90.4133
   105.7500      0.0000    744.7886      6.1847     87.5342
   106.0000      0.0000    741.7408      6.1674     83.4421
   106.2500      0.0000    742.4951      6.2638     78.8377
   106.5000      0.0000    744.8315      6.4255     74.8720
   106.7500      0.0000    746.3089      6.5888     72.8887
   107.0000      0.0000    747.1341      6.7237     73.8533
   107.2500      0.0000    748.9153      6.8546     77.5193
   107.5000      0.0000    751.9523      7.0245     82.3386
   107.7500      0.0000    755.8563      7.2435     86.4495
   108.0000      0.0000    762.0291      7.4760     88.6229
   108.2500      0.0000    772.3760      7.6671     88.3724
   108.5000      0.0000    785.3539      7.7737     85.8709
   108.7500      0.0000    796.4880      7.7809     82.2052
   109.0000      0.0000    804.2298      7.7032     79.2358
   109.2500      0.0000    813.1988      7.5733     78.5154
   109.5000      0.0000    830.2357      7.4227     80.1485
   109.7500      0.0000    857.6506      7.2752     82.7718
   110.0000      0.0000    889.5270      7.1566     84.6780
   110.2500      0.0000    913.5196      7.0967     84.9653
   110.5000      0.0000    918.6108      7.1045     83.7780
   110.7500      0.0000    904.1138      7.1497     81.8587
   111.0000      0.0000    880.2524      7.1790     80.1962
   111.2500      0.0000    858.6209      7.1547     79.8968
   111.5000      0.0000    843.4465      7.0767     81.6666
   111.7500      0.0000    831.9388      6.9753     85.0057
   112.0000      0.0000    820.3148      6.8912     88.2004
   112.2500      0.0000    808.5568      6.8581     89.5051
   112.5000      0.0000    801.1404      6.8871     88.5991
   112.7500      0.0000    803.8677      6.9524     87.0521
   113.0000      0.0000    818.6109      6.9974     87.0810
   113.2500      0.0000    840.0640      6.9731     89.3987
   113.5000      0.0000    858.2523      6.8774     92.3382
   113.7500      0.0000    865.1519      6.7490     93.4854
   114.0000      0.0000    859.3116      6.6196     92.0891
   114.2500      0.0000    844.5878      6.4880     89.5134
   114.5000      0.0000    825.7131      6.3445     87.5990
   114.7500      0.0000    805.9181      6.2081     87.1617
   115.0000      0.0000    787.7453      6.1317     87.9328
   115.2500      0.0000    773.8716      6.1727     89.2396
   115.5000      0.0000    765.6346      6.3505     90.3884
   115.7500      0.0000    761.1382      6.6180     90.6922
   116.0000      0.0000    756.6717      6.8751     89.6591
   116.2500      0.0000    750.9149      7.0199     87.4619
   116.5000      0.0000    746.6429      6.9966     85.1944
   116.7500      0.0000    747.3090      6.8052     84.2877
   117.0000      0.0000    752.8573      6.4811     85.3587
   117.2500      0.0000    759.9728      6.0717     87.7807
   117.5000      0.0000    765.8106      5.6317     90.5581
   117.7500      0.0000    770.2985      5.2338     93.3269
   118.0000      0.0000    774.8565      4.9679     96.0785
   118.2500      0.0000    779.8390      4.9098     98.2469
   118.5000      0.0000    783.9117      5.0706     99.0371
   118.7500      0.0000    785.7822      5.3700     98.6134
   119.0000      0.0000    785.8891      5.6733     97.8939
   119.2500      0.0000    785.9380      5.8719     97.0952
   119.5000      0.0000    786.8560      5.9412     95.6529
   119.7500      0.0000    787.4724      5.9320     93.6503
   120.0000      0.0000    785.3335      5.9148     91.9718
   120.2500      0.0000    778.8520      5.9331     90.6823
   120.5000      0.0000    768.9504      5.9964     88.4251
   120.7500      0.0000    758.6441      6.1068     84.0932
   121.0000      0.0000    750.5310      6.2820     78.4836
   121.2500      0.0000    744.5191      6.5459     73.8107
   121.5000      0.0000    738.3433      6.8985     71.8656
   121.7500      0.0000    730.3263      7.2972     72.8119
   122.0000      0.0000    721.3768      7.6704     75.3173
   122.2500      0.0000    714.5266      7.9525     77.5264
   122.5000      0.0000    713.1119      8.1168     78.2767
   122.7500      0.0000    719.2496      8.1859     77.8641
   123.0000      0.0000    732.6964      8.2131     77.7649
   123.2500      0.0000    749.7109      8.2434     79.4239
   123.5000      0.0000    763.2985      8.2880     82.9492
   123.7500      0.0000    766.5412      8.3324     86.8053
   124.0000      0.0000    757.4930      8.3614     89.1102
   124.2500      0.0000    741.0081      8.3675     89.2518
   124.5000      0.0000    725.2672      8.3435     87.7617
   124.7500      0.0000    716.3689      8.2806     85.1132
   125.0000      0.0000    715.6628      8.1771     81.7127
   125.2500      0.0000    720.4825      8.0417     78.6448
   125.5000      0.0000    726.1948      7.8882     77.0757
