~Version Information
VERS.                      2.0: CWLS Log ASCII Standard - VERSION 2.0
WRAP.                       NO: One line per depth step
~Well Information Block
STRT.FT               800.0000: 
STOP.FT              3500.0000: 
STEP.FT                 0.1000: 
NULL.                -999.2500: 
COMP.          Pioneer Natural Resources: COMPANY
WELL.          Cordillera 34-7: WELL
FLD.           Purgatoire River: FIELD
LOC.           598' FSL & 1770' FEL--: LOCATION
PROV.                 Colorado: PROVINCE
CNTY.               Las Animas: COUNTRY
SRVC.                Patterson: SERVICE COMPANY
DATE.          Fri Oct 28 07:22:44 2005: LOG DATE
UWI.           05 071 08552 00: UNIQUE WELL ID
~Curve Information Block
DEPT.FT            0 000 00 00: Depth
DCAL.in                       : CDL Caliper
RHOB.g/cc                     : CDL Bulk Density
RHOC.g/cc                     : CDL Density Correction
DPOR.pu                       : CDL Density Porosity
NPOR.pu                       : Neutron Porosity
GR.GAPI                       : Gamma Ray
~Parameter Information Block
~A  Depth       DCAL        RHOB        RHOC        DPOR        NPOR         GR     
# ...
  1155.2000      7.8514      2.5681      0.0546      4.9635     24.1241     66.2408
  1155.3000      7.8526      2.5631      0.0757      5.2684     23.8115     66.1962
  1155.4000      7.8526      2.5523      0.0048      5.9205     23.4982     68.0816
  1155.5000      7.8524      2.5504     -0.0331      6.0367     23.5380     71.5837
  1155.6000      7.8524      2.5655      0.0078      5.1212     23.8551     73.0222
  1155.7000      7.8524      2.5827      0.0242      4.0778     24.0531     70.6089
  1155.8000      7.8512      2.5905      0.0607      3.6068     24.2790     68.7564
  1155.9000      7.8512      2.5937      0.0728      3.4109     24.8393     71.4623
  1156.0000      7.8496      2.5990      0.0719      3.0916     25.1922     75.3921
  1156.1000      7.8496      2.6165      0.0401      2.0318     25.2024     78.1594
  1156.2000      7.8496      2.6509      0.0911     -0.0535     25.7227     82.8291
  1156.3000      7.8488      2.6787      0.0954     -1.7366     26.8637     91.6488
  1156.4000      7.8488      2.6733      0.0879     -1.4107     27.7749    104.1256
  1156.5000      7.8518      2.6311      0.0759      1.1454     27.7746    112.9644
  1156.6000      7.8518      2.5578      0.0620      5.5892     27.1318    110.9024
  1156.7000      7.8518      2.4640      0.0056     11.2708     26.6727    102.6248
  1156.8000      7.8661      2.3628     -0.0321     17.4035     26.4397     95.4821
  1156.9000      7.8661      2.2564     -0.0353     23.8576     25.9184     92.6752
  1157.0000      7.9121      2.1508     -0.1293     30.2538     25.1192     94.9191
  1157.1000      7.9121      2.0626     -0.1591     35.5982     24.1553     99.5240
  1157.2000      7.9121      1.9802     -0.1149     40.5926     22.9529    102.9304
  1157.3000      7.9922      1.8729     -0.1201     47.0948     21.7764    103.7084
  1157.4000      7.9922      1.7580     -0.1307     54.0620     20.9369    102.5983
  1157.5000      8.0580      1.7010     -0.0612     57.5135     20.2691    102.0732
  1157.6000      8.0580      1.7397      0.2141     55.1683     19.9099    102.5593
  1157.7000      8.0580      1.8450      0.4733     48.7872     20.1233    102.9810
  1157.8000      8.0566      1.9636      0.5998     41.5992     20.3157    103.8424
  1157.9000      8.0566      2.0637      0.6378     35.5304     19.9097    105.4705
  1158.0000      8.0111      2.1510      0.5665     30.2436     19.3678    107.9618
  1158.1000      8.0111      2.2549      0.5698     23.9459     19.1524    110.2944
  1158.2000      8.0111      2.3759      0.6405     16.6123     18.9943    110.3790
  1158.3000      8.0743      2.4750      0.6420     10.6049     18.6775    107.8007
  1158.4000      8.0743      2.5235      0.6311      7.6684     18.1258    103.4347
  1158.5000      8.2674      2.5260      0.5694      7.5143     17.2076    100.1277
  1158.6000      8.2674      2.4948      0.5454      9.4055     16.4091    102.8707
  1158.7000      8.2674      2.4324      0.4323     13.1908     16.2078    110.6540
  1158.8000      8.4363      2.3487      0.2917     18.2631     16.3735    114.7363
  1158.9000      8.4363      2.2553      0.2312     23.9194     16.7297    113.5707
  1159.0000      8.5414      2.1487      0.1837     30.3828     17.4622    113.1397
  1159.1000      8.5414      2.0264      0.0895     37.7956     18.7496    116.5300
  1159.2000      8.5414      1.8992      0.0231     45.5020     20.3492    122.9373
  1159.3000      8.5283      1.7957     -0.0298     51.7739     21.8348    129.4013
  1159.4000      8.5283      1.7466      0.0876     54.7535     23.1726    132.2060
  1159.5000      8.3279      1.7459      0.2152     54.7953     24.4810    128.5853
  1159.6000      8.3279      1.7801      0.2317     52.7240     25.8177    123.9482
  1159.7000      8.3279      1.8811      0.2766     46.5979     27.0411    122.1956
  1159.8000      8.1195      2.0813      0.4311     34.4656     27.8733    120.7085
  1159.9000      8.1195      2.3338      0.6632     19.1665     28.3082    121.8791
  1160.0000      8.0180      2.5451      0.7201      6.3547     28.5369    125.8399
  1160.1000      8.0180      2.6663      0.7198     -0.9884     28.6959    126.5766
  1160.2000      8.0180      2.7057      0.6351     -3.3731     28.7997    125.6699
  1160.3000      7.9959      2.6932      0.5495     -2.6177     28.6626    124.0225
  1160.4000      7.9959      2.6574      0.4531     -0.4462     28.1973    116.9711
  1160.5000      8.0025      2.6152      0.3279      2.1115     27.6124    109.5131
  1160.6000      8.0025      2.5712      0.2130      4.7766     27.0185    109.9377
  1160.7000      8.0025      2.5281      0.0853      7.3849     26.5109    115.0550
  1160.8000      8.0045      2.4866      0.0429      9.9043     26.4849    114.9699
  1160.9000      8.0045      2.4436      0.0081     12.5104     26.5791    108.0893
  1161.0000      8.0064      2.4044      0.0186     14.8847     25.9433    103.0949
  1161.1000      8.0064      2.3760      0.0207     16.6061     24.8695    103.9952
  1161.2000      8.0064      2.3579      0.0205     17.7038     24.2530    105.0975
  1161.3000      8.0114      2.3490      0.0148     18.2396     24.1037    106.2651
  1161.4000      8.0114      2.3530      0.0327     17.9972     23.7464    112.5933
  1161.5000      8.0153      2.3716      0.0767     16.8738     23.2846    119.4414
  1161.6000      8.0153      2.3902      0.1742     15.7482     23.4023    120.5509
  1161.7000      8.0153      2.3924      0.1585     15.6118     23.8883    119.0772
  1161.8000      8.0179      2.3858      0.1710     16.0122     24.1997    118.4230
  1161.9000      8.0179      2.3844      0.1979     16.0949     24.2224    117.5544
  1162.0000      8.0210      2.3913      0.2082     15.6791     23.9295    115.8058
  1162.1000      8.0210      2.4060      0.1985     14.7858     23.6467    114.0368
  1162.2000      8.0210      2.4268      0.1794     13.5274     23.6043    111.4930
  1162.3000      8.0252      2.4481      0.1962     12.2387     23.6194    109.0485
  1162.4000      8.0252      2.4634      0.2729     11.3113     23.7448    109.8582
  1162.5000      8.0259      2.4711      0.2540     10.8439     24.1410    112.5717
  1162.6000      8.0259      2.4788      0.2666     10.3763     24.6946    112.8520
  1162.7000      8.0259      2.4933      0.2756      9.4955     25.1368    110.7864
  1162.8000      8.0239      2.5184      0.2592      7.9759     25.2187    110.9534
  1162.9000      8.0239      2.5499      0.2670      6.0673     25.1058    114.1196
  1163.0000      8.0241      2.5720      0.2070      4.7297     25.1143    115.0852
  1163.1000      8.0241      2.5741      0.1578      4.6014     25.1729    112.3797
  1163.2000      8.0241      2.5594      0.1443      5.4920     25.4178    111.0521
  1163.3000      8.0246      2.5429      0.1644      6.4887     26.2294    113.2695
  1163.4000      8.0246      2.5477      0.1923      6.2000     27.3507    114.6512
  1163.5000      8.0243      2.5859      0.2119      3.8868     27.8597    112.3381
  1163.6000      8.0243      2.6333      0.2707      1.0096     27.6208    110.4856
  1163.7000      8.0243      2.6500      0.2300      0.0008     27.3351    111.0288
  1163.8000      8.0245      2.6299      0.1441      1.2207     27.0433    110.2141
  1163.9000      8.0245      2.5963      0.1088      3.2560     26.6664    106.0323
  1164.0000      8.0256      2.5576      0.0941      5.5990     26.4165    101.0642
  1164.1000      8.0256      2.5080      0.0093      8.6041     26.1535     98.0715
  1164.2000      8.0256      2.4595      0.0079     11.5430     25.8703     97.0227
  1164.3000      8.0241      2.4321      0.0111     13.2054     25.8748     97.2817
  1164.4000      8.0241      2.4230      0.0950     13.7588     26.0203     98.0336
  1164.5000      8.0222      2.4209      0.0069     13.8875     25.9773     98.6761
  1164.6000      8.0222      2.4359      0.0126     12.9737     26.0353     99.5488
  1164.7000      8.0222      2.4796      0.0095     10.3267     26.3601    101.2218
