~Version Information
VERS.                      2.0: CWLS Log ASCII Standard - VERSION 2.0
WRAP.                       NO: One line per depth step
~Well Information Block
STRT.FT               597.2500: 
STOP.FT              1567.2500: 
STEP.FT                 0.2500: 
NULL.                -999.2500: 
COMP.          Pioneer Natural Resources: COMPANY
WELL.           Butch 33-10 Tr: WELL
FLD.           Purgatoire River: FIELD
LOC.           2309' FSL & 1337' FEL--: LOCATION
PROV.                 Colorado: PROVINCE
CNTY.               Las Animas: COUNTRY
SRVC.                Patterson: SERVICE COMPANY
DATE.          Sat Jan 14 05:18:29 2006: LOG DATE
UWI.           05 071 08649 00: UNIQUE WELL ID
~Curve Information Block
DEPT.FT            0 000 00 00: Depth
SN.Ohm-m                      : IEL Short Normal
SP.mV                         : IEL Spontaneous Potential
DIR.Ohm-m                     : IEL Induction Resistivity
GR.GAPI                       : Gamma Ray
~Parameter Information Block
~A  Depth        SN          SP         DIR          GR     
# ...
  1066.2500     16.0748    -17.9592     15.2389    131.2630
  1066.5000     16.8852    -18.4154     15.8027    127.9683
  1066.7500     17.8727    -18.8626     16.3640    124.4779
  1067.0000     18.9381    -19.2829     16.9351    118.6458
  1067.2500     19.9693    -19.6595     17.5440    115.1899
  1067.5000     20.8769    -19.9784     18.2202    111.7296
  1067.7500     21.6048    -20.2291     18.9764    110.9256
  1068.0000     22.1255    -20.4047     19.7918    112.0494
  1068.2500     22.4386    -20.5024     20.6077    113.9642
  1068.5000     22.5743    -20.5230     21.3388    117.0687
  1068.7500     22.5936    -20.4714     21.9010    118.2717
  1069.0000     22.5736    -20.3564     22.2433    118.0512
  1069.2500     22.5828    -20.1900     22.3653    117.0044
  1069.5000     22.6554    -19.9867     22.3100    115.5175
  1069.7500     22.7803    -19.7621     22.1411    115.2405
  1070.0000     22.9122    -19.5309     21.9199    116.5286
  1070.2500     22.9990    -19.3066     21.6926    118.6788
  1070.5000     23.0079    -19.0998     21.4897    123.3093
  1070.7500     22.9371    -18.9186     21.3304    126.3555
  1071.0000     22.8123    -18.7685     21.2245    128.8104
  1071.2500     22.6731    -18.6528     21.1725    128.3786
  1071.5000     22.5601    -18.5729     21.1649    124.8584
  1071.7500     22.5084    -18.5284     21.1904    121.1591
  1072.0000     22.5513    -18.5173     21.2472    114.7486
  1072.2500     22.7273    -18.5359     21.3508    110.6249
  1072.5000     23.0729    -18.5790     21.5278    105.6422
  1072.7500     23.5983    -18.6401     21.7972    103.3239
  1073.0000     24.2615    -18.7113     22.1521    101.2014
  1073.2500     24.9634    -18.7839     22.5524    100.5487
  1073.5000     25.5754    -18.8486     22.9330    100.4380
  1073.7500     25.9867    -18.8958     23.2253    100.6546
  1074.0000     26.1437    -18.9164     23.3824    100.6927
  1074.2500     26.0574    -18.9022     23.3922    100.0775
  1074.5000     25.7816    -18.8460     23.2706     97.7084
  1074.7500     25.3854    -18.7425     23.0419     95.3055
  1075.0000     24.9348    -18.5889     22.7230     91.6591
  1075.2500     24.4794    -18.3852     22.3205     90.2266
  1075.5000     24.0425    -18.1348     21.8389     91.1044
  1075.7500     23.6192    -17.8438     21.2885     94.0712
  1076.0000     23.1868    -17.5211     20.6886    101.3745
  1076.2500     22.7248    -17.1767     20.0655    107.0765
  1076.5000     22.2329    -16.8209     19.4488    115.1615
  1076.7500     21.7322    -16.4634     18.8653    119.8901
  1077.0000     21.2514    -16.1123     18.3353    126.0656
  1077.2500     20.8100    -15.7741     17.8696    129.3686
  1077.5000     20.4142    -15.4536     17.4710    132.4033
  1077.7500     20.0644    -15.1544     17.1367    133.2053
  1078.0000     19.7639    -14.8792     16.8614    133.8447
  1078.2500     19.5211    -14.6303     16.6396    134.6180
  1078.5000     19.3460    -14.4102     16.4697    136.0971
  1078.7500     19.2462    -14.2217     16.3564    136.4961
  1079.0000     19.2277    -14.0681     16.3121    135.3260
  1079.2500     19.2954    -13.9524     16.3539    133.6604
  1079.5000     19.4532    -13.8768     16.4975    130.9600
  1079.7500     19.6995    -13.8413     16.7487    129.4422
  1080.0000     20.0229    -13.8430     17.0979    127.7335
  1080.2500     20.4022    -13.8754     17.5213    126.8590
  1080.5000     20.8118    -13.9281     17.9854    125.4613
  1080.7500     21.2319    -13.9884     18.4560    124.1538
  1081.0000     21.6548    -14.0428     18.9036    121.5579
  1081.2500     22.0817    -14.0796     19.3052    119.7393
  1081.5000     22.5107    -14.0912     19.6440    117.7933
  1081.7500     22.9277    -14.0759     19.9094    117.4498
  1082.0000     23.3101    -14.0377     20.0987    118.4535
  1082.2500     23.6366    -13.9861     20.2189    119.8419
  1082.5000     23.8960    -13.9340     20.2854    122.5446
  1082.7500     24.0874    -13.8965     20.3164    124.7043
  1083.0000     24.2163    -13.8888     20.3279    128.4067
  1083.2500     24.2894    -13.9255     20.3344    130.9673
  1083.5000     24.3170    -14.0198     20.3563    134.3907
  1083.7500     24.3239    -14.1819     20.4276    136.0304
  1084.0000     24.3636    -14.4185     20.5952    136.8145
  1084.2500     24.5318    -14.7311     20.9082    135.8381
  1084.5000     24.9700    -15.1153     21.4016    131.9216
  1084.7500     25.8391    -15.5615     22.0817    127.9676
  1085.0000     27.2494    -16.0566     22.9175    120.9016
  1085.2500     29.1863    -16.5865     23.8454    115.7631
  1085.5000     31.5130    -17.1387     24.7889    107.2979
  1085.7500     34.0864    -17.7038     25.6915    100.9618
  1086.0000     36.8904    -18.2752     26.5452     90.5870
  1086.2500     40.0264    -18.8462     27.3946     83.5773
  1086.5000     43.5132    -19.4062     28.3087     74.1991
  1086.7500     47.0679    -19.9362     29.3308     69.4133
  1087.0000     50.0875    -20.4055     30.4235     64.8315
  1087.2500     51.8787    -20.7723     31.4337     63.0752
  1087.5000     51.9688    -20.9873     32.1083     61.0747
  1087.7500     50.3091    -21.0018     32.1888     59.5754
  1088.0000     47.3110    -20.7780     31.5508     56.7773
  1088.2500     43.7168    -20.2991     30.2837     54.7146
  1088.5000     40.3055    -19.5766     28.6370     52.1279
  1088.7500     37.5463    -18.6515     26.8866     51.6226
  1089.0000     35.4338    -17.5895     25.2303     54.8334
  1089.2500     33.6339    -16.4708     23.7566     60.6649
  1089.5000     31.8014    -15.3764     22.4674     74.7713
  1089.7500     29.8132    -14.3756     21.3204     86.1794
  1090.0000     27.7842    -13.5166     20.2704    102.5047
  1090.2500     25.9254    -12.8230     19.2976    111.2033
  1090.5000     24.3932    -12.2949     18.4124    120.0363
  1090.7500     23.2302    -11.9147     17.6422    123.3967
  1091.0000     22.3923    -11.6536     17.0107    125.6859
  1091.2500     21.8002    -11.4795     16.5258    125.9947
  1091.5000     21.3734    -11.3626     16.1777    125.2442
  1091.7500     21.0459    -11.2788     15.9431    123.9706
  1092.0000     20.7758    -11.2115     15.7909    121.0805
  1092.2500     20.5481    -11.1518     15.6887    119.1096
  1092.5000     20.3659    -11.0970     15.6112    117.7555
  1092.7500     20.2361    -11.0488     15.5482    118.6267
  1093.0000     20.1598    -11.0109     15.5061    122.7101
  1093.2500     20.1329    -10.9867     15.5010    126.8703
  1093.5000     20.1484    -10.9778     15.5465    134.0091
  1093.7500     20.1975    -10.9828     15.6473    138.2610
  1094.0000     20.2691    -10.9974     15.7984    141.6949
  1094.2500     20.3520    -11.0152     15.9885    141.1537
  1094.5000     20.4383    -11.0291     16.2029    136.1690
  1094.7500     20.5261    -11.0334     16.4249    130.8959
  1095.0000     20.6177    -11.0246     16.6380    121.9626
  1095.2500     20.7149    -11.0028     16.8302    116.3827
  1095.5000     20.8153    -10.9712     16.9963    110.1829
  1095.7500     20.9093    -10.9355     17.1345    108.2149
  1096.0000     20.9786    -10.9025     17.2381    108.9277
  1096.2500     20.9962    -10.8788     17.2885    111.4323
  1096.5000     20.9339    -10.8696     17.2556    116.5557
  1096.7500     20.7758    -10.8786     17.1112    119.6995
  1097.0000     20.5290    -10.9071     16.8460    122.5167
  1097.2500     20.2229    -10.9552     16.4825    122.9100
  1097.5000     19.8993    -11.0213     16.0707    122.1155
  1097.7500     19.6005    -11.1009     15.6716    121.6355
  1098.0000     19.3607    -11.1850     15.3364    122.5877
  1098.2500     19.2010    -11.2585     15.0951    124.6653
  1098.5000     19.1232    -11.2996     14.9536    129.0375
  1098.7500     19.1029    -11.2829     14.8979    131.8157
  1099.0000     19.0930    -11.1851     14.8995    134.8175
  1099.2500     19.0393    -10.9935     14.9192    136.2477
  1099.5000     18.9014    -10.7129     14.9128    138.2031
