~Version Information
VERS.                      2.0: CWLS Log ASCII Standard - VERSION 2.0
WRAP.                       NO: One line per depth step
~Well Information Block
STRT.FT               595.7000: 
STOP.FT              1567.2000: 
STEP.FT                 0.1000: 
NULL.                -999.2500: 
COMP.          Pioneer Natural Resources: COMPANY
WELL.           Butch 33-10 Tr: WELL
FLD.           Purgatoire River: FIELD
LOC.           2309' FSL & 1337' FEL--: LOCATION
PROV.                 Colorado: PROVINCE
CNTY.               Las Animas: COUNTRY
SRVC.                Patterson: SERVICE COMPANY
DATE.          Mon Jan 16 07:34:05 2006: LOG DATE
UWI.           05 071 08649 00: UNIQUE WELL ID
~Curve Information Block
DEPT.FT            0 000 00 00: Depth
DCAL.in                       : CDL Caliper
RHOB.g/cc                     : CDL Bulk Density
RHOC.g/cc                     : CDL Density Correction
DPOR.pu                       : CDL Density Porosity
GR.GAPI                       : Gamma Ray
~Parameter Information Block
~A  Depth       DCAL        RHOB        RHOC        DPOR         GR     
# ...
  1290.1000      8.0143      2.4270      0.0570     13.5126    133.7475
  1290.2000      8.0143      2.4246      0.0873     13.6628    132.3919
  1290.3000      8.0428      2.4291      0.0533     13.3879    130.2554
  1290.4000      8.0428      2.4493      0.0850     12.1642    131.7765
  1290.5000      8.0510      2.4783      0.1266     10.4044    136.6006
  1290.6000      8.0510      2.4932      0.1168      9.5027    137.3357
  1290.7000      8.0510      2.4874      0.1036      9.8549    132.6009
  1290.8000      8.0349      2.4792      0.0425     10.3488    128.5131
  1290.9000      8.0349      2.4826      0.0914     10.1429    127.6059
  1291.0000      8.0176      2.4823      0.1270     10.1627    126.5084
  1291.1000      8.0176      2.4682      0.0828     11.0190    123.3118
  1291.2000      8.0176      2.4566      0.0726     11.7182    120.8437
  1291.3000      8.0176      2.4545      0.0739     11.8467    121.7976
  1291.4000      8.0176      2.4506      0.0788     12.0857    125.5478
  1291.5000      8.0330      2.4356      0.0467     12.9924    128.2176
  1291.6000      8.0330      2.4138      0.0212     14.3150    125.4718
  1291.7000      8.0330      2.3992      0.0019     15.1987    116.3476
  1291.8000      8.0501      2.4003      0.0231     15.1313    106.8598
  1291.9000      8.0501      2.4137      0.0126     14.3237    102.2741
  1292.0000      8.0547      2.4338      0.0304     13.1015    101.4273
  1292.1000      8.0547      2.4522      0.0615     11.9879    103.9635
  1292.2000      8.0547      2.4588      0.0756     11.5898    110.2882
  1292.3000      8.0478      2.4541      0.0829     11.8720    116.8083
  1292.4000      8.0478      2.4436      0.0340     12.5065    121.0063
  1292.5000      8.0404      2.4316      0.0508     13.2346    125.3771
  1292.6000      8.0404      2.4224      0.0491     13.7964    131.4964
  1292.7000      8.0404      2.4181      0.0360     14.0542    135.7328
  1292.8000      8.0357      2.4156      0.0539     14.2075    137.0788
  1292.9000      8.0357      2.4097      0.0557     14.5648    140.0972
  1293.0000      8.0337      2.4071      0.0169     14.7197    143.1376
  1293.1000      8.0337      2.4138      0.0693     14.3125    142.5347
  1293.2000      8.0337      2.4192      0.0631     13.9900    143.2703
  1293.3000      8.0277      2.4193      0.0636     13.9794    145.8465
  1293.4000      8.0277      2.4209      0.0724     13.8827    143.0756
  1293.5000      8.0234      2.4237      0.0909     13.7123    134.9214
  1293.6000      8.0234      2.4251      0.0789     13.6316    126.8846
  1293.7000      8.0234      2.4269      0.0625     13.5199    123.9628
  1293.8000      8.0235      2.4349      0.0517     13.0365    125.9492
  1293.9000      8.0235      2.4516      0.0584     12.0268    126.2993
  1294.0000      8.0253      2.4695      0.1064     10.9394    123.6014
  1294.1000      8.0253      2.4794      0.0810     10.3411    123.5661
  1294.2000      8.0253      2.4806      0.0795     10.2697    124.4820
  1294.3000      8.0266      2.4736      0.0849     10.6928    119.8756
  1294.4000      8.0266      2.4659      0.0429     11.1568    110.8539
  1294.5000      8.0307      2.4673      0.0872     11.0754    100.8383
  1294.6000      8.0307      2.4741      0.0398     10.6630     93.2995
  1294.7000      8.0307      2.4836      0.0692     10.0848     92.3400
  1294.8000      8.0359      2.4898      0.0825      9.7086     96.2937
  1294.9000      8.0359      2.4841      0.0766     10.0522    100.4881
  1295.0000      8.0375      2.4755      0.0523     10.5783    102.0573
  1295.1000      8.0375      2.4796      0.0483     10.3254     99.7246
  1295.2000      8.0375      2.4948      0.0696      9.4038     96.7069
  1295.3000      8.0379      2.5071      0.0616      8.6584     97.2041
  1295.4000      8.0379      2.5141      0.0673      8.2374    100.4887
  1295.5000      8.0368      2.5228      0.0743      7.7075    103.5900
  1295.6000      8.0368      2.5351      0.0518      6.9638    105.3178
  1295.7000      8.0368      2.5408      0.0785      6.6175    107.3624
  1295.8000      8.0293      2.5305      0.0527      7.2441    113.6113
  1295.9000      8.0293      2.5124      0.0475      8.3368    120.2171
  1296.0000      8.0201      2.5029      0.0327      8.9129    117.9975
  1296.1000      8.0201      2.5086      0.0614      8.5725    108.9312
  1296.2000      8.0201      2.5181      0.0419      7.9925    101.4555
  1296.3000      8.0142      2.5187      0.0409      7.9570     97.6201
  1296.4000      8.0142      2.5160      0.0309      8.1215     97.4976
  1296.5000      8.0098      2.5197      0.0522      7.8961     98.6331
  1296.6000      8.0098      2.5218      0.0575      7.7681     96.2496
  1296.7000      8.0098      2.5169      0.0445      8.0672     92.8127
  1296.8000      8.0047      2.5165      0.0436      8.0914     91.9991
  1296.9000      8.0047      2.5275      0.0788      7.4264     92.3875
  1297.0000      8.0049      2.5421      0.0806      6.5416     94.3315
  1297.1000      8.0049      2.5452      0.0957      6.3515     96.6745
  1297.2000      8.0049      2.5324      0.0609      7.1265     97.7368
  1297.3000      8.0122      2.5190      0.0371      7.9365     97.3394
  1297.4000      8.0122      2.5130      0.0520      8.3040     96.4805
  1297.5000      8.0208      2.5023      0.0807      8.9503     97.6921
  1297.6000      8.0208      2.4837      0.0223     10.0762    101.0575
  1297.7000      8.0208      2.4716      0.0526     10.8143    102.4593
  1297.8000      8.0238      2.4732      0.0189     10.7171    101.5197
  1297.9000      8.0238      2.4805      0.0521     10.2743    103.1243
  1298.0000      8.0220      2.4876      0.0186      9.8450    106.6048
  1298.1000      8.0220      2.5011      0.0564      9.0270    109.1553
  1298.2000      8.0220      2.5223      0.0498      7.7416    110.7744
  1298.3000      8.0188      2.5440      0.0628      6.4229    110.4890
  1298.4000      8.0188      2.5538      0.1305      5.8323    107.7156
  1298.5000      8.0183      2.5331      0.0969      7.0856    103.0870
  1298.6000      8.0183      2.4755      0.0626     10.5763     99.2244
  1298.7000      8.0183      2.3928      0.0232     15.5854     99.4706
  1298.8000      8.0223      2.3019     -0.0099     21.0956    105.1995
  1298.9000      8.0223      2.2129     -0.0461     26.4911    113.3812
  1299.0000      8.0296      2.1293     -0.0743     31.5604    116.3627
  1299.1000      8.0296      2.0468     -0.0492     36.5546    111.9811
  1299.2000      8.0296      1.9645     -0.0825     41.5431    107.1807
  1299.3000      8.0462      1.8954     -0.1104     45.7317    107.7646
  1299.4000      8.0462      1.8511     -0.1054     48.4200    111.4290
  1299.5000      8.0828      1.8286     -0.0393     49.7800    111.8356
  1299.6000      8.0828      1.8268     -0.0462     49.8928    106.5129
  1299.7000      8.0828      1.8620     -0.0174     47.7578     99.0538
  1299.8000      8.1238      1.9404      0.1168     43.0072     94.6656
  1299.9000      8.1238      2.0401      0.1934     36.9662     95.0165
  1300.0000      8.1322      2.1474      0.1999     30.4576    100.4049
  1300.1000      8.1322      2.2597      0.2229     23.6567    110.4927
  1300.2000      8.1322      2.3530      0.2767     17.9982    121.2928
  1300.3000      8.0937      2.4053      0.2370     14.8283    125.2099
  1300.4000      8.0937      2.4318      0.1239     13.2241    119.7804
  1300.5000      8.0333      2.4580      0.1640     11.6369    110.2043
  1300.6000      8.0333      2.4880      0.1615      9.8177    100.5870
  1300.7000      8.0333      2.5124      0.1260      8.3418     94.8470
  1300.8000      7.9896      2.5234      0.0886      7.6748     96.7233
  1300.9000      7.9896      2.5289      0.0513      7.3374    105.4863
  1301.0000      7.9697      2.5394      0.0738      6.7014    115.5965
  1301.1000      7.9697      2.5499      0.1172      6.0693    119.0547
  1301.2000      7.9697      2.5567      0.0944      5.6555    114.4909
