~Version Information
VERS.                      2.0: CWLS Log ASCII Standard - VERSION 2.0
WRAP.                       NO: One line per depth step
~Well Information Block
STRT.FT               460.0000: 
STOP.FT              1349.5000: 
STEP.FT                 0.2500: 
NULL.                -999.2500: 
COMP.          Pioneer Natural Resources: COMPANY
WELL.              Dicks 32-5R: WELL
FLD.           Purgatorie River: FIELD
LOC.           1485' FNL & 1684' FEL: LOCATION
PROV.                 Colorado: PROVINCE
CNTY.               Las Animas: COUNTRY
SRVC.                Patterson: SERVICE COMPANY
DATE.          Thu Dec 08 23:11:15 2005: LOG DATE
UWI.                          : UNIQUE WELL ID
~Curve Information Block
DEPT.FT            0 000 00 00: Depth
SN.Ohm-m                      : IEL Short Normal
SP.mV                         : IEL Spontaneous Potential
DIR.Ohm-m                     : IEL Induction Resistivity
GR.GAPI                       : Gamma Ray
~Parameter Information Block
~A  Depth        SN          SP         DIR          GR     
# ...
  1029.5000     34.4272    209.5223     22.3956     67.8981
  1029.7500     31.0199    210.3677     21.5869     61.1744
  1030.0000     27.6637    211.1944     20.8079     54.1536
  1030.2500     24.8198    211.9816     20.0511     52.0207
  1030.5000     22.5625    212.7126     19.3220     52.8091
  1030.7500     20.8054    213.3844     18.6295     55.9235
  1031.0000     19.5167    214.0060     17.9761     64.1635
  1031.2500     18.6837    214.5900     17.3602     71.5448
  1031.5000     18.2351    215.1476     16.7871     83.8766
  1031.7500     18.0605    215.6897     16.2742     91.7884
  1032.0000     18.0478    216.2271     15.8450    101.4368
  1032.2500     18.1204    216.7656     15.5191    105.7794
  1032.5000     18.2559    217.3082     15.3098    109.1776
  1032.7500     18.4466    217.8605     15.2319    109.9572
  1033.0000     18.6756    218.4252     15.3076    110.2074
  1033.2500     18.9485    218.9825     15.5613    110.2476
  1033.5000     19.2963    219.4820     16.0047    110.2686
  1033.7500     19.7284    219.8579     16.6220    110.2360
  1034.0000     20.2053    220.0563     17.3667    110.4425
  1034.2500     20.6836    220.0583     18.1753    110.9963
  1034.5000     21.1858    219.8897     18.9901    112.1538
  1034.7500     21.7533    219.6087     19.7785    112.4696
  1035.0000     22.3610    219.2760     20.5320    111.2037
  1035.2500     22.9689    218.9349     21.2507    109.1747
  1035.5000     23.5660    218.6094     21.9245    105.2640
  1035.7500     24.1094    218.3099     22.5264    102.6911
  1036.0000     24.5562    218.0347     23.0199     99.3196
  1036.2500     24.9477    217.7786     23.3814     97.2813
  1036.5000     25.3431    217.5476     23.6268     94.1407
  1036.7500     25.7055    217.3651     23.8167     91.7824
  1037.0000     25.9219    217.2598     24.0280     87.5143
  1037.2500     25.9317    217.2457     24.3084     84.1075
  1037.5000     25.8052    217.3143     24.6482     78.6916
  1037.7500     25.6677    217.4425     24.9911     75.6325
  1038.0000     25.5642    217.6040     25.2723     73.2398
  1038.2500     25.4286    217.7672     25.4540     73.3640
  1038.5000     25.2115    217.8873     25.5308     75.1262
  1038.7500     24.9829    217.9108     25.5137     76.3295
  1039.0000     24.8514    217.8019     25.4108     77.0549
  1039.2500     24.8311    217.5688     25.2262     76.8659
  1039.5000     24.8281    217.2593     24.9775     76.2297
  1039.7500     24.7885    216.9297     24.7198     75.8078
  1040.0000     24.8130    216.6185     24.5503     75.1370
  1040.2500     25.0351    216.3367     24.5834     74.5410
  1040.5000     25.4810    216.0720     24.9110     73.2607
  1040.7500     26.1033    215.8069     25.5685     72.1467
  1041.0000     26.8664    215.5418     26.5177     70.3907
  1041.2500     27.7644    215.3038     27.6409     69.4973
  1041.5000     28.7844    215.1319     28.7496     68.9930
  1041.7500     29.8784    215.0563     29.6258     69.1745
  1042.0000     30.9698    215.0851     30.1075     69.7489
  1042.2500     31.9801    215.1992     30.1783     69.9902
  1042.5000     32.8654    215.3505     29.9836     69.6614
  1042.7500     33.6158    215.4677     29.7597     68.8254
  1043.0000     34.1937    215.4673     29.7377     66.7024
  1043.2500     34.5091    215.2691     30.0775     64.9232
  1043.5000     34.5072    214.8114     30.8289     62.1437
  1043.7500     34.2483    214.0627     31.9087     60.3730
  1044.0000     33.8459    213.0261     33.1037     57.9964
  1044.2500     33.3788    211.7356     34.1367     56.7414
  1044.5000     32.8891    210.2474     34.7829     55.7372
  1044.7500     32.4092    208.6314     34.9577     55.9160
  1045.0000     31.9534    206.9613     34.7098     57.9354
  1045.2500     31.5106    205.3037     34.1573     60.6660
  1045.5000     31.0758    203.7068     33.4334     66.7559
  1045.7500     30.6849    202.1993     32.6605     71.6615
  1046.0000     30.4075    200.8045     31.9398     78.8125
  1046.2500     30.2956    199.5545     31.3521     82.5786
  1046.5000     30.3411    198.4805     30.9683     86.1224
  1046.7500     30.4880    197.5928     30.8490     87.3144
  1047.0000     30.6764    196.8810     31.0165     87.8961
  1047.2500     30.8453    196.3334     31.4173     87.4775
  1047.5000     30.9279    195.9469     31.9166     85.3620
  1047.7500     30.9040    195.7162     32.3458     83.0356
  1048.0000     30.8015    195.6250     32.5772     78.8597
  1048.2500     30.6255    195.6536     32.5597     76.1187
  1048.5000     30.3440    195.7926     32.2909     72.7366
  1048.7500     29.9351    196.0451     31.7681     71.1530
  1049.0000     29.4408    196.4181     30.9796     69.7295
  1049.2500     28.9670    196.9167     29.9477     69.3234
  1049.5000     28.5597    197.5409     28.7749     69.7571
  1049.7500     28.1232    198.2820     27.6369     71.1043
  1050.0000     27.5613    199.1211     26.7136     75.0264
  1050.2500     26.9117    200.0388     26.1126     78.5933
  1050.5000     26.2850    201.0269     25.8351     84.2607
  1050.7500     25.7704    202.0901     25.7932     87.7005
  1051.0000     25.4102    203.2354     25.8631     92.0103
  1051.2500     25.1972    204.4570     25.9448     94.3274
  1051.5000     25.0920    205.7292     25.9959     96.9239
  1051.7500     25.0673    207.0073     26.0241     97.9962
  1052.0000     25.1241    208.2293     26.0566     98.7547
  1052.2500     25.2653    209.3174     26.1143     99.0000
  1052.5000     25.4923    210.1906     26.2025     99.4642
  1052.7500     25.8104    210.7957     26.3130     99.7915
  1053.0000     26.1773    211.1322     26.4314     99.7160
  1053.2500     26.5024    211.2456     26.5501     99.0361
  1053.5000     26.7413    211.1976     26.6791     97.2405
  1053.7500     26.9357    211.0406     26.8440     95.7309
  1054.0000     27.1494    210.8106     27.0622     92.8367
  1054.2500     27.4012    210.5310     27.3154     90.0745
  1054.5000     27.6572    210.2201     27.5501     84.0969
  1054.7500     27.8653    209.9003     27.7159     79.0368
  1055.0000     27.9902    209.6051     27.8034     71.1850
  1055.2500     28.0339    209.3767     27.8395     66.8861
  1055.5000     28.0390    209.2540     27.8420     63.1140
  1055.7500     28.0584    209.2585     27.7874     62.3249
  1056.0000     28.0863    209.3898     27.6314     62.5951
  1056.2500     28.0268    209.6337     27.3694     62.9862
  1056.5000     27.7836    209.9709     27.0780     62.9718
  1056.7500     27.3837    210.3741     26.8933     62.3065
  1057.0000     26.9647    210.8002     26.9388     60.5310
  1057.2500     26.6548    211.1957     27.2565     59.3397
  1057.5000     26.4933    211.5189     27.7807     58.5344
  1057.7500     26.4472    211.7564     28.3675     58.9103
  1058.0000     26.4618    211.9200     28.8609     60.6310
  1058.2500     26.4950    212.0326     29.1568     62.2838
  1058.5000     26.5431    212.1172     29.2289     65.0707
  1058.7500     26.6411    212.1935     29.1190     66.7887
  1059.0000     26.8143    212.2723     28.9154     68.3363
  1059.2500     27.0468    212.3491     28.7276     68.2472
  1059.5000     27.3018    212.4078     28.6536     66.2483
  1059.7500     27.5400    212.4407     28.7493     63.9843
  1060.0000     27.7047    212.4680     29.0125     60.1357
  1060.2500     27.7268    212.5330     29.3873     57.7857
  1060.5000     27.6065    212.6712     29.7787     55.1481
  1060.7500     27.4607    212.8837     30.0761     54.1431
  1061.0000     27.4216    213.1359     30.1904     53.8476
  1061.2500     27.5080    213.3784     30.1063     54.4329
  1061.5000     27.6171    213.5676     29.9097     56.4589
  1061.7500     27.6406    213.6731     29.7452     58.6357
  1062.0000     27.5745    213.6771     29.7185     63.2141
  1062.2500     27.4988    213.5752     29.8181     66.9698
  1062.5000     27.4931    213.3777     29.9159     72.8376
  1062.7500     27.5884    213.1080     29.8491     76.2665
