~Version Information
VERS.                      2.0: CWLS Log ASCII Standard - VERSION 2.0
WRAP.                       NO: One line per depth step
~Well Information Block
STRT.FT                -7.0000: 
STOP.FT              1239.2500: 
STEP.FT                 0.2500: 
NULL.                -999.2500: 
COMP.          Pioneer Natural Resources: COMPANY
WELL.              Julie 11-30: WELL
FLD.           Purgatorie River: FIELD
LOC.           672' FNL & 1052' FWL--: LOCATION
CNTY.               Las Animas: COUNTY
SRVC.          Patterson Wireline: SERVICE COMPANY
DATE.          Tue Apr 18 11:12:35 2006: LOG DATE
UWI.           05 071 08724 00: UNIQUE WELL ID
STAT.                       CO: STATE
~Curve Information Block
DEPT.FT            0 000 00 00: Depth
CCL.                          : Casing Collar Locator
TT3.usec                      : CBL 3' Travel Time
AMP3.mV                       : CBL 3' Amplitude
GR.GAPI                       : Gamma Ray
~Parameter Information Block
~A  Depth       CCL         TT3         AMP3         GR     
# ...
    60.0000      0.0000    337.3213     15.9173     69.6473
    60.2500      0.0000    337.0961     16.0012     73.4436
    60.5000      0.0000    336.9421     15.9737     78.9955
    60.7500      0.0000    336.8812     15.8797     85.8714
    61.0000      0.0000    336.9163     15.7716     92.4074
    61.2500      0.0000    337.0353     15.6735     95.4901
    61.5000      0.0000    337.2106     15.5874     92.6731
    61.7500      0.0000    337.3981     15.5219     84.6265
    62.0000      0.0000    337.5477     15.4973     74.8552
    62.2500      0.0000    337.6216     15.5229     67.0383
    62.5000      0.0000    337.6025     15.5835     63.0527
    62.7500      0.0000    337.4640     15.6588     62.9756
    63.0000      0.0000    337.0813     15.7499     65.8648
    63.2500      0.0000    336.1087     15.8791     70.3390
    63.5000      0.0000    334.0015     16.0638     74.9637
    63.7500      0.0000    330.4697     16.2958     78.5079
    64.0000      0.0000    326.2087     16.5439     80.0735
    64.2500      0.0000    322.9550     16.7717     79.2488
    64.5000      0.0000    322.1803     16.9547     76.2939
    64.7500      0.0000    323.5898     17.0883     72.1100
    65.0000      0.0000    325.4124     17.1836     67.8612
    65.2500      0.0000    326.2561     17.2555     64.3978
    65.5000      0.0000    326.1850     17.3135     61.8195
    65.7500      0.0000    326.0457     17.3571     59.5645
    66.0000      0.0000    326.5134     17.3748     57.0555
    66.2500      0.0000    327.9135     17.3523     54.3759
    66.5000      0.0000    330.2044     17.2874     52.4255
    66.7500      0.0000    332.8351     17.1975     52.4082
    67.0000      0.0000    335.0360     17.1100     55.0049
    67.2500      0.0000    336.4005     17.0487     59.9415
    67.5000      0.0000    337.0334     17.0265     66.2026
    67.7500      0.0000    337.2416     17.0421     72.4166
    68.0000      0.0000    337.2614     17.0796     77.0739
    68.2500      0.0000    337.2201     17.1076     78.8179
    68.5000      0.0000    337.1811     17.0825     77.0504
    68.7500      0.0000    337.1760     16.9665     72.4799
    69.0000      0.0000    337.2157     16.7530     66.9025
    69.2500      0.0000    337.2903     16.4756     62.1464
    69.5000      0.0000    337.3802     16.1870     59.0976
    69.7500      0.0000    337.4681     15.9336     57.5779
    70.0000      0.0000    337.5430     15.7503     56.8891
    70.2500      0.0000    337.5948     15.6614     56.3703
    70.5000      0.0000    337.6160     15.6681     55.6353
    70.7500      0.0000    337.6112     15.7385     54.6048
    71.0000      0.0000    337.5982     15.8199     53.4577
    71.2500      0.0000    337.5935     15.8690     52.4114
    71.5000      0.0000    337.5978     15.8743     51.3985
    71.7500      0.0000    337.5974     15.8599     50.1211
    72.0000      0.0000    337.5771     15.8662     48.5601
    72.2500      0.0000    337.5319     15.9218     47.2752
    72.5000      0.0000    337.4702     16.0298     47.0262
    72.7500      0.0000    337.4077     16.1808     48.0974
    73.0000      0.0000    337.3585     16.3688     50.0675
    73.2500      0.0000    337.3289     16.5901     52.3602
    73.5000      0.0000    337.3161     16.8283     54.9794
    73.7500      0.0000    337.3115     17.0482     58.3221
    74.0000      0.0000    337.3057     17.2063     62.2104
    74.2500      0.0000    337.2950     17.2678     65.5793
    74.5000      0.0000    337.2831     17.2235     67.3637
    74.7500      0.0000    337.2776     17.0934     67.4021
    75.0000      0.0000    337.2856     16.9168     66.3299
    75.2500      0.0000    337.3112     16.7394     64.7865
    75.5000      0.0000    337.3562     16.6003     62.8486
    75.7500      0.0000    337.4192     16.5207     60.3080
    76.0000      0.0000    337.4924     16.4985     57.5127
    76.2500      0.0000    337.5591     16.5141     55.6041
    76.5000      0.0000    337.5997     16.5483     55.4426
    76.7500      0.0000    337.6040     16.5980     56.3900
    77.0000      0.0000    337.5746     16.6774     56.7137
    77.2500      0.0000    337.5171     16.7982     55.3717
    77.5000      0.0000    337.4262     16.9531     52.9781
    77.7500      0.0000    337.2883     17.1233     50.8480
    78.0000      0.0000    337.0996     17.2992     49.6716
    78.2500      0.0000    336.8848     17.4824     49.4680
    78.5000      0.0000    336.6939     17.6685     50.3609
    78.7500      0.0000    336.5789     17.8417     52.6533
    79.0000      0.0000    336.5664     17.9909     55.9781
    79.2500      0.0000    336.6715     18.1176     58.8190
    79.5000      0.0000    336.9618     18.2173     59.4020
    79.7500      0.0000    337.8659     18.2565     57.0834
    80.0000      0.0000    340.8299     18.1703     52.6002
    80.2500      0.0000    349.0748     17.8794     47.1808
    80.5000      0.0000    366.9638     17.3121     41.9337
    80.7500      0.0000    396.2614     16.4450     38.0283
    81.0000      0.0000    431.7996     15.3605     36.7195
    81.2500      0.0000    464.1627     14.2418     38.5329
    81.5000      0.0000    491.0988     13.2458     42.4020
    81.7500      0.0000    523.8849     12.3809     45.9795
    82.0000      0.0000    575.6702     11.5661     47.0786
    82.2500      0.0000    643.5700     10.7849     45.0386
    82.5000      0.0000    708.7988     10.1102     41.0786
    82.7500      0.0000    755.8084      9.6032     37.4815
    83.0000      2.0000    784.8281      9.2537     36.1383
    83.2500      0.0000    803.4809      9.0139     37.4511
    83.5000      0.0000    812.8041      8.8635     40.4295
    83.7500      0.0000    807.3917      8.8441     43.6860
    84.0000      0.0000    786.9558      9.0195     46.2095
    84.2500      0.0000    762.8179      9.3786     47.4516
    84.5000      0.0000    750.8643      9.8067     47.3154
    84.7500      0.0000    758.2166     10.1943     46.3221
    85.0000      0.0000    777.6100     10.5425     45.3587
    85.2500      0.0000    794.5557     10.9239     44.8974
    85.5000      0.0000    797.0257     11.3869     44.6527
    85.7500      0.0000    777.9882     11.9294     44.1456
    86.0000      0.0000    734.4318     12.5235     43.3478
    86.2500      0.0000    669.0831     13.1372     42.7318
    86.5000      0.0000    591.5480     13.7522     43.0288
    86.7500      0.0000    514.2479     14.3845     44.8905
    87.0000      0.0000    446.8199     15.0914     48.3994
    87.2500      0.0000    394.1931     15.9553     52.9012
    87.5000      0.0000    356.9729     17.0423     57.5841
    87.7500      0.0000    332.4429     18.3485     62.1496
    88.0000      0.0000    316.6714     19.7800     66.8552
    88.2500      0.0000    306.6816     21.1979     72.1525
    88.5000      0.0000    300.7993     22.4844     78.3026
    88.7500      0.0000    297.8216     23.5616     84.8832
    89.0000      0.0000    296.5885     24.3729     90.5388
    89.2500      0.0000    296.2041     24.8786     93.7843
    89.5000      0.0000    296.1568     25.0631     94.3502
    89.7500      0.0000    296.2961     24.9264     93.4907
    90.0000      0.0000    296.7544     24.4713     92.9673
    90.2500      0.0000    297.9906     23.7099     93.9051
    90.5000      0.0000    300.7852     22.6836     96.2384
    90.7500      0.0000    305.8731     21.4704     98.6817
    91.0000      0.0000    313.2026     20.1777     99.3896
    91.2500      0.0000    321.5149     18.9184     97.2095
    91.5000      0.0000    328.9612     17.7706     92.4708
    91.7500      0.0000    334.3428     16.7519     86.6562
    92.0000      0.0000    337.7635     15.8427     81.6479
    92.2500      0.0000    340.5924     15.0275     79.1093
    92.5000      0.0000    345.8182     14.3009     79.7573
    92.7500      0.0000    359.4441     13.6460     82.7342
    93.0000      0.0000    391.0003     13.0325     85.9150
    93.2500      0.0000    449.4366     12.4423     87.2180
