~Version Information
VERS.                      2.0: CWLS Log ASCII Standard - VERSION 2.0
WRAP.                       NO: One line per depth step
~Well Information Block
STRT.FT               880.0000: 
STOP.FT              1996.5000: 
STEP.FT                 0.1000: 
NULL.                -999.2500: 
COMP.          Petrogulf Corporation: COMPANY
WELL.          Collister 17-31R: WELL
FLD.           Purgatorie River: FIELD
LOC.           962' FNL & 1520' FEL: LOCATION
PROV.                 Colorado: PROVINCE
CNTY.               Las Animas: COUNTRY
SRVC.                Patterson: SERVICE COMPANY
DATE.          Mon Sep 26 09:28:52 2005: LOG DATE
UWI.                          : UNIQUE WELL ID
~Curve Information Block
DEPT.FT            0 000 00 00: Depth
DCAL.in                       : CDL Caliper
RHOB.g/cc                     : CDL Bulk Density
RHOC.g/cc                     : CDL Density Correction
DPOR.pu                       : CDL Density Porosity
GR.GAPI                       : Gamma Ray
NPOR.pu                       : Neutron Porosity
~Parameter Information Block
~A  Depth       DCAL        RHOB        RHOC        DPOR         GR         NPOR    
# ...
  1100.8000      7.9340      2.5052      0.0441      8.7748    104.4629     19.9306
  1100.9000      7.9340      2.5200      0.0634      7.8769    109.1960     19.9236
  1101.0000      7.9431      2.5182      0.0924      7.9908    110.0885     19.8698
  1101.1000      7.9431      2.5019      0.0480      8.9746    105.9446     19.6449
  1101.2000      7.9431      2.4853      0.0057      9.9810     98.9367     19.2743
  1101.3000      7.9335      2.4778      0.0242     10.4350     92.9039     19.0119
  1101.4000      7.9335      2.4728      0.0233     10.7418     90.2262     19.0817
  1101.5000      7.9293      2.4698      0.0213     10.9239     89.6406     19.2393
  1101.6000      7.9293      2.4793      0.0952     10.3438     90.5785     19.1085
  1101.7000      7.9293      2.5042      0.0813      8.8368     93.5640     18.8658
  1101.8000      7.9322      2.5332      0.1185      7.0803     96.3191     18.8620
  1101.9000      7.9322      2.5511      0.1032      5.9968     97.3041     19.0150
  1102.0000      7.9411      2.5564      0.0813      5.6748     99.9149     19.0930
  1102.1000      7.9411      2.5544      0.0958      5.7932    105.0164     19.1926
  1102.2000      7.9411      2.5411      0.1518      6.6003    107.1401     19.2632
  1102.3000      7.9371      2.5175      0.0572      8.0331    103.6696     19.1104
  1102.4000      7.9371      2.4984      0.0823      9.1897     97.6639     18.8310
  1102.5000      7.9363      2.4910      0.0456      9.6385     93.2094     18.5359
  1102.6000      7.9363      2.4869      0.0690      9.8847     92.5049     18.3396
  1102.7000      7.9363      2.4781      0.0540     10.4198     93.6486     18.3213
  1102.8000      7.9438      2.4708      0.0409     10.8622     92.0701     18.2843
  1102.9000      7.9438      2.4759      0.0469     10.5501     88.7308     18.0975
  1103.0000      7.9489      2.4930      0.0361      9.5128     89.1807     17.7686
  1103.1000      7.9489      2.5104      0.0953      8.4607     91.0236     17.3410
  1103.2000      7.9489      2.5123      0.0738      8.3479     89.9544     17.1033
  1103.3000      7.9567      2.4959      0.0278      9.3379     88.8031     17.1667
  1103.4000      7.9567      2.4764      0.0252     10.5219     88.3646     17.3496
  1103.5000      7.9579      2.4690      0.0148     10.9671     86.6573     17.5816
  1103.6000      7.9579      2.4760      0.0509     10.5448     84.4902     17.6877
  1103.7000      7.9579      2.4890      0.0856      9.7564     83.0432     17.4653
  1103.8000      7.9532      2.5024      0.0663      8.9449     83.4310     17.0729
  1103.9000      7.9532      2.5106      0.0904      8.4479     86.4200     16.7257
  1104.0000      7.9620      2.5076      0.0672      8.6306     90.2745     16.5352
  1104.1000      7.9620      2.4970      0.0752      9.2701     90.7769     16.6544
  1104.2000      7.9620      2.4828      0.0556     10.1335     86.7508     16.9986
  1104.3000      7.9588      2.4661      0.0748     11.1473     81.1046     17.1232
  1104.4000      7.9588      2.4467      0.0853     12.3189     76.6661     16.8343
  1104.5000      7.9621      2.4238      0.0579     13.7096     74.6688     16.3025
  1104.6000      7.9621      2.4083      0.0256     14.6487     74.9425     15.8863
  1104.7000      7.9621      2.4092      0.0417     14.5928     75.8797     15.8694
  1104.8000      7.9609      2.4137      0.0284     14.3198     77.4658     16.0568
  1104.9000      7.9609      2.4092      0.0398     14.5930     79.3414     16.2789
  1105.0000      7.9534      2.4074      0.0084     14.7047     79.0854     16.5311
  1105.1000      7.9534      2.4234      0.0652     13.7339     77.3656     16.6115
  1105.2000      7.9534      2.4434      0.1125     12.5223     78.1683     16.2940
  1105.3000      7.9350      2.4471      0.1010     12.2941     81.3295     15.6432
  1105.4000      7.9350      2.4375      0.1101     12.8771     82.1048     15.0838
  1105.5000      7.9235      2.4241      0.0937     13.6901     79.3477     14.8079
  1105.6000      7.9235      2.4136      0.0648     14.3259     75.9685     14.6458
  1105.7000      7.9235      2.4147      0.0379     14.2606     73.0266     14.6276
  1105.8000      7.9060      2.4266      0.0823     13.5403     70.6681     14.8871
  1105.9000      7.9060      2.4338      0.0921     13.1043     69.6717     15.1732
  1106.0000      7.8381      2.4357      0.0240     12.9896     69.2220     15.0066
  1106.1000      7.8381      2.4410      0.1030     12.6697     68.3531     14.5031
  1106.2000      7.8381      2.4425      0.0579     12.5782     69.2354     14.2046
  1106.3000      7.8318      2.4367      0.0584     12.9297     73.2236     14.0974
  1106.4000      7.8318      2.4374      0.0194     12.8858     77.5073     13.9251
  1106.5000      7.8379      2.4528      0.0696     11.9541     79.0018     13.6757
  1106.6000      7.8379      2.4717      0.0517     10.8086     77.4583     13.3564
  1106.7000      7.8379      2.4845      0.0700     10.0314     76.0228     13.1224
  1106.8000      7.8464      2.4840      0.1069     10.0610     77.3544     13.2375
  1106.9000      7.8464      2.4672      0.0756     11.0788     78.0884     13.5092
  1107.0000      7.8703      2.4464      0.0636     12.3414     75.7886     13.5423
  1107.1000      7.8703      2.4373      0.0394     12.8928     73.0683     13.3278
  1107.2000      7.8703      2.4382      0.0633     12.8390     71.4599     13.2456
  1107.3000      7.8982      2.4309      0.0709     13.2789     70.5508     13.4504
  1107.4000      7.8982      2.4137      0.0181     14.3235     71.8154     13.5392
  1107.5000      7.8983      2.4059      0.0301     14.7953     74.9689     13.2077
  1107.6000      7.8983      2.4122      0.0325     14.4142     76.0531     12.6965
  1107.7000      7.8983      2.4197      0.0466     13.9552     75.0360     12.4302
  1107.8000      7.9042      2.4221      0.0366     13.8146     73.0888     12.6238
  1107.9000      7.9042      2.4243      0.0352     13.6810     69.5834     13.0694
  1108.0000      7.9139      2.4267      0.0418     13.5320     67.5749     13.3803
  1108.1000      7.9139      2.4220      0.0570     13.8153     69.4082     13.2401
  1108.2000      7.9139      2.4113      0.0207     14.4690     71.4058     12.7370
  1108.3000      7.9144      2.4009      0.0046     15.0977     70.8967     12.4793
  1108.4000      7.9144      2.3915      0.0046     15.6682     69.9430     12.6724
  1108.5000      7.9226      2.3827     -0.0197     16.2021     70.5000     12.9492
  1108.6000      7.9226      2.3828      0.0121     16.1921     72.5556     13.1365
  1108.7000      7.9226      2.4016     -0.0159     15.0555     75.7267     13.2751
  1108.8000      7.9175      2.4279      0.0836     13.4605     78.7345     13.4288
  1108.9000      7.9175      2.4347      0.0634     13.0474     78.2913     13.5933
  1109.0000      7.9156      2.4161      0.0427     14.1766     73.6190     13.5503
  1109.1000      7.9156      2.3936     -0.0045     15.5395     68.9608     13.3225
  1109.2000      7.9156      2.3883      0.0180     15.8610     66.8617     13.2262
  1109.3000      7.9160      2.3987      0.0085     15.2314     66.8618     13.3234
  1109.4000      7.9160      2.4070      0.0243     14.7265     68.3795     13.4415
  1109.5000      7.9206      2.4038      0.0305     14.9196     69.5412     13.4089
  1109.6000      7.9206      2.3971      0.0027     15.3283     68.9866     13.2640
  1109.7000      7.9206      2.3905      0.0473     15.7248     67.9143     13.2219
  1109.8000      7.9236      2.3820      0.0120     16.2405     66.3848     13.2455
  1109.9000      7.9236      2.3773      0.0009     16.5290     64.4032     13.0089
  1110.0000      7.9180      2.3762      0.0271     16.5920     65.2783     12.5780
  1110.1000      7.9180      2.3795      0.0015     16.3936     68.8685     12.3408
  1110.2000      7.9180      2.3983      0.0207     15.2549     70.8151     12.4101
  1110.3000      7.9118      2.4290      0.0570     13.3910     70.2881     12.7379
