~Version Information
VERS.                      2.0: CWLS Log ASCII Standard - VERSION 2.0
WRAP.                       NO: One line per depth step
~Well Information Block
STRT.FT               525.0000: 
STOP.FT              2377.2500: 
STEP.FT                 0.2500: 
NULL.                -999.2500: 
COMP.          Pioneer Natural Resources: COMPANY
WELL.          Sparrowhawk 22-12: WELL
FLD.           Purgatoire River: FIELD
LOC.           2049' FNL & 2060' FWL--: LOCATION
CNTY.               Las Animas: COUNTY
SRVC.                Patterson: SERVICE COMPANY
DATE.          Thu Mar 23 10:52:44 2006: LOG DATE
UWI.           05 071 08484 00: UNIQUE WELL ID
STAT.                 Colorado: STATE
~Curve Information Block
DEPT.FT            0 000 00 00: Depth
SN.Ohm-m                      : IEL Short Normal
SP.mV                         : IEL Spontaneous Potential
DIR.Ohm-m                     : IEL Induction Resistivity
GR.GAPI                       : Gamma Ray
~Parameter Information Block
~A  Depth        SN          SP         DIR          GR     
   525.0000   2000.0000   1979.0000 100000.0000     84.4445
   525.2500   2000.0000   1979.0000 100000.0000     86.1348
   525.5000   2000.0000   1979.0000 100000.0000     87.8686
   525.7500   2000.0000   1979.0000 100000.0000     88.6584
   526.0000   2000.0000   1979.0000 100000.0000     89.1704
   526.2500   2000.0000   1979.0000 100000.0000     88.9040
   526.5000   2000.0000   1979.0000 100000.0000     87.7843
   526.7500   2000.0000   1979.0000 100000.0000     86.9975
   527.0000   2000.0000   1979.0000 100000.0000     86.4320
   527.2500   2000.0000   1979.0000 100000.0000     86.4593
   527.5000   2000.0000   1979.0000 100000.0000     86.4916
   527.7500   2000.0000   1979.0000 100000.0000     86.1866
   528.0000   2000.0000   1979.0000 100000.0000     85.3168
   528.2500   2000.0000   1979.0000 100000.0000     84.7574
   528.5000   2000.0000   1979.0000 100000.0000     84.2354
   528.7500   2000.0000   1979.0000 100000.0000     83.9695
   529.0000   2000.0000   1979.0000 100000.0000     83.2459
   529.2500   2000.0000   1979.0000 100000.0000     82.3731
   529.5000   2000.0000   1979.0000 100000.0000     80.4865
   529.7500   2000.0000   1979.0000 100000.0000     79.0160
   530.0000   2000.0000   1979.0000 100000.0000     77.0309
   530.2500   2000.0000   1979.0000 100000.0000     76.2731
   530.5000   2000.0000   1979.0000 100000.0000     76.5613
   530.7500   2000.0000   1979.0000 100000.0000     77.6351
   531.0000   2000.0000   1979.0000 100000.0000     79.4728
   531.2500   2000.0000   1979.0000 100000.0000     80.0176
   531.5000   2000.0000   1979.0000 100000.0000     79.2275
   531.7500   2000.0000   1979.0000 100000.0000     77.9588
   532.0000   2000.0000   1979.0000 100000.0000     75.9313
   532.2500   2000.0000   1979.0000 100000.0000     74.9163
   532.5000   2000.0000   1979.0000 100000.0000     74.2308
   532.7500   2000.0000   1979.0000 100000.0000     74.3705
   533.0000   2000.0000   1979.0000 100000.0000     75.2833
   533.2500   2000.0000   1979.0000 100000.0000     76.0967
   533.5000   2000.0000   1979.0000 100000.0000     77.0547
   533.7500   2000.0000   1979.0000 100000.0000     77.2377
   534.0000   2000.0000   1979.0000 100000.0000     76.5436
   534.2500   2000.0000   1979.0000 100000.0000     75.3888
   534.5000   2000.0000   1979.0000 100000.0000     72.7847
   534.7500   2000.0000   1979.0000 100000.0000     70.7574
   535.0000   2000.0000   1979.0000 100000.0000     68.1082
   535.2500   2000.0000   1979.0000 100000.0000     67.1914
   535.5000   2000.0000   1979.0000 100000.0000     67.9886
   535.7500   2000.0000   1979.0000 100000.0000     70.2054
   536.0000   2000.0000   1979.0000 100000.0000     75.4795
   536.2500   2000.0000   1979.0000 100000.0000     79.3360
   536.5000   2000.0000   1979.0000 100000.0000     83.6786
   536.7500   2000.0000   1979.0000 100000.0000     84.8833
   537.0000   2000.0000   1979.0000 100000.0000     84.0381
   537.2500   2000.0000   1979.0000      9.0890     82.1232
   537.5000   2000.0000   1979.0000      4.2230     78.1819
   537.7500   2000.0000   1979.0000      3.3976     75.3340
   538.0000   2000.0000   1979.0000      3.7563     71.3826
   538.2500   2000.0000   1979.0000      5.6792     69.2191
   538.5000   2000.0000   1979.0000     14.9183     66.6692
   538.7500   2000.0000   1979.0000 100000.0000     65.1161
   539.0000   2000.0000   1979.0000 100000.0000     62.5052
   539.2500   2000.0000   1979.0000 100000.0000     60.6789
   539.5000   2000.0000   1979.0000 100000.0000     58.5624
   539.7500   2000.0000   1979.0000 100000.0000     57.9090
   540.0000   2000.0000   1979.0000 100000.0000     57.9671
   540.2500   2000.0000   1979.0000     41.3110     58.4158
   540.5000   2000.0000   1979.0000     18.4803     59.5546
   540.7500   2000.0000   1979.0000     14.0635     60.8992
   541.0000   2000.0000   1979.0000     13.0845     64.4075
   541.2500   2000.0000   1979.0000     13.5715     67.7350
   541.5000   2000.0000   1979.0000     14.9704     73.3106
   541.7500   2000.0000   1979.0000     16.9706     76.6900
   542.0000   2000.0000   1979.0000     19.1762     80.5173
   542.2500   2000.0000   1979.0000     21.0594     82.2956
   542.5000   2000.0000   1979.0000     22.2735     84.3386
   542.7500   2000.0000   1979.0000     23.0564     85.4722
   543.0000   2000.0000   1979.0000     24.1776     86.4867
   543.2500   2000.0000   1979.0000     26.6106     86.2387
   543.5000   2000.0000   1979.0000     31.3921     84.0797
   543.7500   2000.0000   1979.0000     39.3514     81.8757
   544.0000   2000.0000   1979.0000     49.3683     79.1039
   544.2500   2000.0000   1979.0000     55.4074     78.5175
   544.5000   2000.0000   1979.0000     51.8711     79.8480
   544.7500   2000.0000   1979.0000     43.0862     81.6309
   545.0000   2000.0000   1979.0000     35.2076     84.2529
   545.2500   2000.0000   1979.0000     29.9664     85.4930
   545.5000   2000.0000   1979.0000     27.0154     86.7160
   545.7500   2000.0000   1979.0000     25.7490     87.4442
   546.0000   2000.0000   1979.0000     25.6753     88.7305
   546.2500   2000.0000   1979.0000     26.3653     89.6458
   546.5000   2000.0000   1979.0000     27.3889     90.7881
   546.7500   2000.0000   1979.0000     28.3576     91.2572
   547.0000   2000.0000   1979.0000     29.0341     91.4319
   547.2500   2000.0000   1979.0000     29.3786     91.1740
   547.5000   2000.0000   1979.0000     29.4726     90.2454
   547.7500   2000.0000   1979.0000     29.4090     89.4335
   548.0000   2000.0000   1979.0000     29.2373     88.5281
   548.2500   2000.0000   1979.0000     28.9659     88.4552
   548.5000   2000.0000   1979.0000     28.5858     89.3195
   548.7500   2000.0000   1979.0000     28.0920     90.4769
   549.0000   2000.0000   1979.0000     27.4955     92.9316
   549.2500   2000.0000   1979.0000     26.8223     95.0010
   549.5000   2000.0000   1979.0000     26.1070     98.8088
   549.7500   2000.0000   1979.0000     25.3822    101.8765
   550.0000   2000.0000   1979.0000     24.6714    107.1341
   550.2500   2000.0000   1979.0000     23.9862    110.7931
   550.5000   2000.0000   1979.0000     23.3286    115.8707
   550.7500   2000.0000   1979.0000     22.6967    118.5534
   551.0000   2000.0000   1979.0000     22.0918    120.6638
   551.2500   2000.0000   1979.0000     21.5251    120.4281
   551.5000   2000.0000   1979.0000     21.0191    117.8999
   551.7500   2000.0000   1979.0000     20.6012    115.4571
   552.0000   2000.0000   1979.0000     20.2936    111.7549
   552.2500   2000.0000   1979.0000     20.1061    109.4164
   552.5000   2000.0000   1979.0000     20.0371    105.8372
   552.7500   2000.0000   1979.0000     20.0805    103.3701
   553.0000   2000.0000   1979.0000     20.2334     99.9629
   553.2500   2000.0000   1979.0000     20.4971     98.2750
   553.5000   2000.0000   1979.0000     20.8726     97.3246
   553.7500   2000.0000   1979.0000     21.3517     98.0570
   554.0000   2000.0000   1979.0000     21.9115    101.1397
   554.2500   2000.0000   1979.0000     22.5123    103.9915
   554.5000   2000.0000   1979.0000     23.1024    108.1357
   554.7500   2000.0000   1979.0000     23.6271    110.2445
   555.0000   2000.0000   1979.0000     24.0430    112.2515
   555.2500   2000.0000   1979.0000     24.3338    113.0631
   555.5000   2000.0000   1979.0000     24.5178    114.0175
   555.7500   2000.0000   1979.0000     24.6366    114.6689
   556.0000   2000.0000   1979.0000     24.7277    115.7458
   556.2500   2000.0000   1979.0000     24.8006    116.5040
   556.5000   2000.0000   1979.0000     24.8339    117.5259
   556.7500   2000.0000   1979.0000     24.7925    117.8372
   557.0000   2000.0000   1979.0000     24.6516    117.0951
   557.2500   2000.0000   1979.0000     24.4087    115.7439
   557.5000   2000.0000   1979.0000     24.0782    113.4259
   557.7500   2000.0000   1979.0000     23.6785    112.5630
   558.0000   2000.0000   1979.0000     23.2253    113.0570
   558.2500   2000.0000   1979.0000     22.7342    114.2838
