~Version Information
VERS.                      2.0: CWLS Log ASCII Standard - VERSION 2.0
WRAP.                       NO: One line per depth step
~Well Information Block
STRT.FT               235.0000: 
STOP.FT              1271.0000: 
STEP.FT                 0.1000: 
NULL.                -999.2500: 
COMP.          Pioneer Natural Resources: COMPANY
WELL.              Julie 11-30: WELL
FLD.           Purgatoire River: FIELD
LOC.           672' FNL & 1052' FWL: LOCATION
CNTY.               Las Animas: COUNTY
SRVC.                Patterson: SERVICE COMPANY
DATE.          Fri Apr 14 07:21:24 2006: LOG DATE
UWI.           05 071 08724 00: UNIQUE WELL ID
STAT.                 Colorado: STATE
~Curve Information Block
DEPT.FT            0 000 00 00: Depth
DCAL.in                       : CDL Caliper
RHOB.g/cc                     : CDL Bulk Density
RHOC.g/cc                     : CDL Density Correction
DPOR.pu                       : CDL Density Porosity
GR.GAPI                       : Gamma Ray
NPOR.pu                       : Neutron Porosity
~Parameter Information Block
~A  Depth       DCAL        RHOB        RHOC        DPOR         GR         NPOR    
# ...
  1185.4000      7.8522      2.5079      0.0856      8.6093    123.6241     27.9780
  1185.5000      7.8532      2.5193      0.0785      7.9189    119.0771     28.0633
  1185.6000      7.8532      2.5385      0.0806      6.7549    119.1787     27.7711
  1185.7000      7.8532      2.5610      0.0924      5.3925    122.3829     27.1287
  1185.8000      7.8535      2.5721      0.1088      4.7195    124.1023     26.7385
  1185.9000      7.8535      2.5579      0.1274      5.5810    121.5436     27.0462
  1186.0000      7.8507      2.5318      0.0224      7.1623    118.7574     27.3621
  1186.1000      7.8507      2.5252      0.0171      7.5661    118.0861     27.2062
  1186.2000      7.8507      2.5384      0.0650      6.7611    116.3114     27.1438
  1186.3000      7.8501      2.5416      0.0847      6.5690    111.8689     27.3491
  1186.4000      7.8501      2.5187      0.0511      7.9579    107.0514     27.5415
  1186.5000      7.8510      2.4848      0.0118     10.0145    106.3923     27.6237
  1186.6000      7.8510      2.4701      0.0269     10.9007    108.8637     27.6650
  1186.7000      7.8510      2.4888     -0.0027      9.7676    110.9708     27.5150
  1186.8000      7.8518      2.5161      0.0819      8.1147    112.1241     27.0411
  1186.9000      7.8518      2.5291      0.0023      7.3272    109.8383     26.5835
  1187.0000      7.8540      2.5349      0.0320      6.9741    101.8915     26.2046
  1187.1000      7.8540      2.5273      0.0471      7.4376     91.6763     25.6149
  1187.2000      7.8540      2.4929      0.0147      9.5242     82.8165     24.9295
  1187.3000      7.8639      2.4537     -0.0390     11.8988     75.4213     24.3687
  1187.4000      7.8639      2.4457     -0.0574     12.3847     70.1572     23.9638
  1187.5000      7.8529      2.4654      0.0290     11.1862     68.5916     23.7300
  1187.6000      7.8529      2.4792      0.0324     10.3516     68.8347     23.7120
  1187.7000      7.8529      2.4764      0.0168     10.5230     67.4652     23.8251
  1187.8000      7.8539      2.4653      0.0293     11.1965     64.5768     23.9922
  1187.9000      7.8539      2.4547      0.0198     11.8358     61.1782     24.0462
  1188.0000      7.8518      2.4557      0.0515     11.7739     58.8188     23.8505
  1188.1000      7.8518      2.4712      0.0745     10.8378     58.9956     23.6559
  1188.2000      7.8518      2.5023      0.0542      8.9541     60.2055     23.6633
  1188.3000      7.8539      2.5547      0.0798      5.7732     60.1637     23.8967
  1188.4000      7.8539      2.6144      0.1307      2.1601     60.4853     24.2808
  1188.5000      7.8527      2.6485      0.1517      0.0897     61.9431     24.5835
  1188.6000      7.8527      2.6437      0.1360      0.3799     61.1264     24.6450
  1188.7000      7.8527      2.6166      0.1007      2.0233     58.3629     24.5750
  1188.8000      7.8477      2.5954      0.0859      3.3115     57.2529     24.6172
  1188.9000      7.8477      2.5925      0.0913      3.4875     58.4320     24.6475
  1189.0000      7.8502      2.5874      0.1019      3.7947     61.0775     24.4452
  1189.1000      7.8502      2.5597      0.0665      5.4743     65.6900     24.1520
  1189.2000      7.8502      2.5218      0.0647      7.7673     69.6460     23.9185
  1189.3000      7.8526      2.4990      0.0243      9.1538     68.0729     23.6488
  1189.4000      7.8526      2.5055      0.0378      8.7558     61.9150     23.0523
  1189.5000      7.8526      2.5379      0.0857      6.7918     56.9168     22.2806
  1189.6000      7.8526      2.5770      0.0940      4.4235     55.6533     21.7614
  1189.7000      7.8526      2.6016      0.1327      2.9345     56.4144     21.4492
  1189.8000      7.8526      2.6060      0.0939      2.6660     58.8610     21.2889
  1189.9000      7.8526      2.6019      0.0966      2.9172     64.6211     21.4979
  1190.0000      7.8508      2.5898      0.1239      3.6470     71.8828     21.9434
  1190.1000      7.8508      2.5649      0.1103      5.1593     75.5220     22.3545
  1190.2000      7.8508      2.5476      0.0144      6.2086     73.1721     22.6145
  1190.3000      7.8522      2.5568      0.0776      5.6509     67.6165     22.7715
  1190.4000      7.8522      2.5755      0.0619      4.5178     64.3974     22.6981
  1190.5000      7.8524      2.5788      0.0717      4.3167     64.5694     22.3503
  1190.6000      7.8524      2.5563      0.0876      5.6785     65.1134     22.0692
  1190.7000      7.8524      2.5184      0.0005      7.9747     64.1304     21.9063
  1190.8000      7.8537      2.4912     -0.0079      9.6241     62.4401     21.8419
  1190.9000      7.8537      2.4852      0.0180      9.9904     60.8105     22.2159
  1191.0000      7.8530      2.4973      0.0016      9.2548     57.0005     22.8446
  1191.1000      7.8530      2.5200      0.0643      7.8767     53.8259     23.4231
  1191.2000      7.8530      2.5353      0.0302      6.9490     56.8035     24.3927
  1191.3000      7.8531      2.5403      0.0031      6.6478     62.6986     25.5956
  1191.4000      7.8531      2.5479      0.0307      6.1873     66.6131     26.0375
  1191.5000      7.8561      2.5558      0.0172      5.7093     68.7266     25.4732
  1191.6000      7.8561      2.5559      0.0114      5.7031     70.8156     24.6746
  1191.7000      7.8561      2.5495      0.0753      6.0939     76.1009     24.2462
  1191.8000      7.8639      2.5330      0.0587      7.0924     86.5750     24.1464
  1191.9000      7.8639      2.5078      0.0147      8.6181     98.0761     24.3342
  1192.0000      7.8546      2.4871      0.0207      9.8745    104.0969     24.8330
  1192.1000      7.8546      2.4856     -0.0560      9.9661    103.8460     25.4048
  1192.2000      7.8546      2.5077      0.0093      8.6230     99.9909     25.5807
  1192.3000      7.8529      2.5360      0.0298      6.9075     92.9153     25.0463
  1192.4000      7.8529      2.5515      0.0833      5.9706     83.8054     24.0901
  1192.5000      7.8550      2.5560      0.0548      5.6953     77.4252     23.0556
  1192.6000      7.8550      2.5622      0.0795      5.3184     74.4295     22.1376
  1192.7000      7.8550      2.5690      0.0708      4.9077     72.2493     21.7148
  1192.8000      7.8534      2.5724      0.0551      4.7039     71.8313     21.9136
  1192.9000      7.8534      2.5754      0.0742      4.5239     72.0771     22.3763
  1193.0000      7.8463      2.5737      0.0810      4.6233     70.0119     22.8048
  1193.1000      7.8463      2.5679      0.0238      4.9778     66.5267     23.2521
  1193.2000      7.8463      2.5595      0.0569      5.4837     64.6619     23.5839
  1193.3000      7.8401      2.5422      0.0411      6.5319     64.7378     23.4418
  1193.4000      7.8401      2.5246      0.0291      7.6024     65.7675     22.9348
  1193.5000      7.8599      2.5152      0.0551      8.1676     66.6227     22.4963
  1193.6000      7.8599      2.5014     -0.0118      9.0051     65.8373     22.3553
  1193.7000      7.8599      2.4781     -0.0167     10.4181     63.9781     22.3767
  1193.8000      7.8499      2.4598      0.0275     11.5264     63.0996     22.3550
  1193.9000      7.8499      2.4532      0.0308     11.9256     65.4570     22.3897
  1194.0000      7.8442      2.4566     -0.0204     11.7227     69.3238     22.7660
  1194.1000      7.8442      2.4773     -0.0171     10.4667     70.0115     23.4350
  1194.2000      7.8442      2.5079      0.0449      8.6128     68.1864     23.8635
  1194.3000      7.8463      2.5141      0.0961      8.2362     68.4314     23.8044
  1194.4000      7.8463      2.4915     -0.0240      9.6073     69.2400     23.5392
  1194.5000      7.8467      2.4826     -0.0020     10.1441     67.9649     23.3584
  1194.6000      7.8467      2.5091      0.0229      8.5417     68.2433     23.3274
  1194.7000      7.8467      2.5486      0.0860      6.1450     71.5341     23.1981
  1194.8000      7.8471      2.5729      0.1081      4.6745     74.1376     22.8468
  1194.9000      7.8471      2.5816      0.0701      4.1460     73.9236     22.5094
