~Version Information
VERS.                      2.0: CWLS Log ASCII Standard - VERSION 2.0
WRAP.                       NO: One line per depth step
~Well Information Block
STRT.FT               570.0000: 
STOP.FT              1958.5000: 
STEP.FT                 0.2500: 
NULL.                -999.2500: 
COMP.          Petrogulf Corporation: COMPANY
WELL.            Montoya 7-14R: WELL
FLD.           Purgatorie River: FIELD
LOC.           628' FSL & 454' FWL: LOCATION
PROV.                 Colorado: PROVINCE
CNTY.               Las Animas: COUNTRY
SRVC.                Patterson: SERVICE COMPANY
DATE.          Sat Oct 08 17:13:52 2005: LOG DATE
UWI.                          : UNIQUE WELL ID
~Curve Information Block
DEPT.FT            0 000 00 00: Depth
SP.mV                         : DIL Spontaneous Potential
RILD.Ohm-m                    : DIL Deep Resistivity
RILM.Ohm-m                    : DIL Medium Resistivity
RLL3.Ohm-m                    : DIL Shallow Resistivity
GR.GAPI                       : Gamma Ray
~Parameter Information Block
~A  Depth        SP         RILD        RILM        RLL3         GR     
# ...
  1298.0000    192.8734     20.6552     23.8411     26.7141     93.6519
  1298.2500    193.9273     19.3376     22.1618     24.1656     96.4248
  1298.5000    194.8473     18.0561     20.5634     22.2800     99.9958
  1298.7500    195.6581     16.8399     19.0471     21.2749    101.7108
  1299.0000    196.4124     15.7044     17.6163     20.8195    102.6565
  1299.2500    197.1790     14.6506     16.2754     20.3405    102.1183
  1299.5000    198.0302     13.6723     15.0278     19.4097    100.7022
  1299.7500    199.0302     12.7650     13.8747     17.9899    100.7375
  1300.0000    200.2234     11.9316     12.8157     16.4248    104.2884
  1300.2500    201.6212     11.1804     11.8496     15.1480    108.7564
  1300.5000    203.1883     10.5185     10.9755     14.2995    115.2376
  1300.7500    204.8375      9.9462     10.1937     13.6079    116.9514
  1301.0000    206.4413      9.4564      9.5052     12.6840    113.6895
  1301.2500    207.8646      9.0389      8.9104     11.4223    108.4167
  1301.5000    209.0116      8.6843      8.4083     10.0803     99.0594
  1301.7500    209.8573      8.3864      7.9957      9.0095     93.5885
  1302.0000    210.4399      8.1403      7.6672      8.3801     87.9152
  1302.2500    210.8220      7.9405      7.4158      8.1385     85.7689
  1302.5000    211.0502      7.7802      7.2331      8.1354     84.4999
  1302.7500    211.1405      7.6528      7.1107      8.2522     84.8950
  1303.0000    211.0878      7.5549      7.0403      8.4463     87.5193
  1303.2500    210.8860      7.4868      7.0146      8.7249     90.4930
  1303.5000    210.5424      7.4523      7.0279      9.0888     95.9300
  1303.7500    210.0827      7.4561      7.0763      9.4929     99.7217
  1304.0000    209.5452      7.5018      7.1578      9.8510    105.6153
  1304.2500    208.9678      7.5910      7.2724     10.0881    109.8815
  1304.5000    208.3755      7.7238      7.4218     10.2024    116.2307
  1304.7500    207.7754      7.8992      7.6090     10.2775    119.4310
  1305.0000    207.1571      8.1159      7.8372     10.4249    121.2838
  1305.2500    206.4977      8.3713      8.1099     10.7128    120.7645
  1305.5000    205.7674      8.6608      8.4296     11.1474    119.2270
  1305.7500    204.9389      8.9765      8.7974     11.7018    118.7879
  1306.0000    203.9971      9.3088      9.2124     12.3532    119.6808
  1306.2500    202.9422      9.6483      9.6708     13.1170    120.9551
  1306.5000    201.7889      9.9888     10.1651     14.0763    122.5583
  1306.7500    200.5655     10.3280     10.6836     15.3552    122.6738
  1307.0000    199.3154     10.6686     11.2101     17.0011    121.1019
  1307.2500    198.0870     11.0173     11.7262     18.8428    119.3135
  1307.5000    196.9138     11.3843     12.2145     20.4508    116.2095
  1307.7500    195.8004     11.7817     12.6636     21.2808    113.8577
  1308.0000    194.7267     12.2189     13.0723     20.9654    110.2864
  1308.2500    193.6654     12.6990     13.4521     19.5806    109.0179
  1308.5000    192.5980     13.2149     13.8251     17.6799    111.3880
  1308.7500    191.5210     13.7497     14.2194     16.0609    116.2498
  1309.0000    190.4421     14.2798     14.6625     15.4465    125.8679
  1309.2500    189.3731     14.7830     15.1756     16.2796    131.1063
  1309.5000    188.3260     15.2467     15.7694     18.6377    133.5342
  1309.7500    187.3125     15.6748     16.4433     22.1594    131.1807
  1310.0000    186.3416     16.0872     17.1861     26.0010    123.8714
  1310.2500    185.4194     16.5103     17.9807     29.0455    118.1548
  1310.5000    184.5533     16.9633     18.8091     30.4670    109.8732
  1310.7500    183.7593     17.4487     19.6566     30.2737    104.6943
  1311.0000    183.0647     17.9490     20.5122     29.2530     97.8494
  1311.2500    182.5015     18.4275     21.3636     28.3033     94.6650
  1311.5000    182.0962     18.8302     22.1882     27.8182     93.1133
  1311.7500    181.8626     19.0904     22.9434     27.6837     94.0642
  1312.0000    181.8028     19.1432     23.5591     27.7210     96.9572
  1312.2500    181.9141     18.9479     23.9404     28.0327     99.0655
  1312.5000    182.1969     18.5056     23.9838     29.0002    101.8932
  1312.7500    182.6555     17.8604     23.6070     31.0043    103.2670
  1313.0000    183.2914     17.0831     22.7849     33.9616    103.8807
  1313.2500    184.0903     16.2485     21.5694     36.9138    103.2997
  1313.5000    185.0123     15.4166     20.0798     38.2027    102.1064
  1313.7500    185.9943     14.6233     18.4657     36.4571    102.1399
  1314.0000    186.9651     13.8824     16.8653     31.6762    104.9857
  1314.2500    187.8654     13.1964     15.3793     25.3336    109.2897
  1314.5000    188.6647     12.5666     14.0641     19.3627    119.0499
  1314.7500    189.3703     11.9987     12.9411     15.0029    126.5111
  1315.0000    190.0231     11.5023     12.0088     12.4253    135.8409
  1315.2500    190.6777     11.0870     11.2545     11.1252    139.3681
  1315.5000    191.3747     10.7576     10.6623     10.4841    140.5117
  1315.7500    192.1220     10.5130     10.2178     10.0864    139.5574
  1316.0000    192.8947     10.3466      9.9095      9.7676    137.5614
  1316.2500    193.6472     10.2499      9.7295      9.5390    136.5841
  1316.5000    194.3289     10.2171      9.6729      9.5003    136.2593
  1316.7500    194.8963     10.2470      9.7366      9.7782    136.9871
  1317.0000    195.3248     10.3416      9.9184     10.4776    139.2997
  1317.2500    195.6142     10.5026     10.2160     11.6329    141.0272
  1317.5000    195.7860     10.7297     10.6257     13.1758    142.3088
  1317.7500    195.8692     11.0209     11.1413     14.9509    141.5553
  1318.0000    195.8869     11.3749     11.7536     16.7874    137.4433
  1318.2500    195.8523     11.7931     12.4489     18.5898    132.6885
  1318.5000    195.7727     12.2776     13.2090     20.3832    123.3221
  1318.7500    195.6527     12.8272     14.0108     22.2553    116.7297
  1319.0000    195.4949     13.4336     14.8271     24.1953    108.5152
  1319.2500    195.2983     14.0789     15.6274     25.9331    104.7154
  1319.5000    195.0634     14.7341     16.3808     26.9454    100.9942
  1319.7500    194.7993     15.3586     17.0581     26.7174     99.3401
  1320.0000    194.5287     15.9011     17.6338     25.1443     98.0519
  1320.2500    194.2849     16.3056     18.0856     22.7710     98.4001
  1320.5000    194.1011     16.5210     18.3924     20.5967    101.3548
  1320.7500    193.9982     16.5153     18.5314     19.4856    104.7815
  1321.0000    193.9772     16.2881     18.4798     19.6226    110.6744
  1321.2500    194.0201     15.8744     18.2206     20.4709    114.1047
  1321.5000    194.0996     15.3353     17.7540     21.2235    117.8649
  1321.7500    194.1954     14.7404     17.1056     21.2939    119.8335
  1322.0000    194.3029     14.1485     16.3252     20.4835    122.9661
  1322.2500    194.4285     13.5967     15.4768     18.8890    125.4302
  1322.5000    194.5741     13.0985     14.6227     16.7908    129.4896
  1322.7500    194.7291     12.6480     13.8117     14.5813    132.2560
  1323.0000    194.8751     12.2291     13.0741     12.6570    136.6353
  1323.2500    194.9972     11.8251     12.4220     11.2824    139.8144
  1323.5000    195.0925     11.4260     11.8542     10.5169    144.2136
  1323.7500    195.1711     11.0306     11.3615     10.2432    146.0167
  1324.0000    195.2525     10.6452     10.9311     10.2539    146.1998
  1324.2500    195.3592     10.2791     10.5501     10.3446    144.9688
  1324.5000    195.5066      9.9426     10.2078     10.3808    142.4446
  1324.7500    195.6958      9.6443      9.8968     10.3219    141.1060
  1325.0000    195.9122      9.3890      9.6125     10.1958    140.4731
  1325.2500    196.1309      9.1756      9.3528     10.0483    140.9839
  1325.5000    196.3218      8.9967      9.1173      9.9020    142.4754
  1325.7500    196.4547      8.8410      8.9066      9.7495    143.5228
