~Version Information
VERS.                      2.0: CWLS Log ASCII Standard - VERSION 2.0
WRAP.                       NO: One line per depth step
~Well Information Block
STRT.FT                -5.7500: 
STOP.FT              2734.0000: 
STEP.FT                 0.2500: 
NULL.                -999.2500: 
COMP.          Pioneer Natural Resources: COMPANY
WELL.              Loews 41-32: WELL
FLD.           Purgatoire River: FIELD
LOC.           751' FNL & 128' FEL--: LOCATION
CNTY.               Las Animas: COUNTY
SRVC.                         : SERVICE COMPANY
DATE.          Sat Mar 04 08:20:59 2006: LOG DATE
UWI.           05 071 08693 00: UNIQUE WELL ID
STAT.                       CO: STATE
~Curve Information Block
DEPT.FT            0 000 00 00: Depth
GR.GAPI                       : Gamma Ray
CCL.                          : Casing Collar Locator
TT3.usec                      : CBL 3' Travel Time
AMP3.mV                       : CBL 3' Amplitude
~Parameter Information Block
~A  Depth        GR         CCL         TT3         AMP3    
# ...
   898.7500    106.5116      0.0000    709.6672      4.2444
   899.0000    104.9343      0.0000    698.7089      4.1861
   899.2500    102.0219      0.0000    696.5305      4.1476
   899.5000     99.8319      0.0000    704.6526      4.1149
   899.7500     98.6726      0.0000    717.8466      4.0779
   900.0000     97.3542      0.0000    726.1119      4.0286
   900.2500     94.4349      0.0000    722.0991      3.9621
   900.5000     89.2022      0.0000    707.1969      3.8815
   900.7500     82.2082      0.0000    689.0933      3.7971
   901.0000     75.0662      0.0000    674.0836      3.7205
   901.2500     69.3971      0.0000    663.0418      3.6615
   901.5000     65.9830      0.0000    653.3426      3.6286
   901.7500     64.8329      0.0000    642.7726      3.6264
   902.0000     65.4363      0.0000    632.1506      3.6518
   902.2500     66.8666      0.0000    625.4164      3.6987
   902.5000     68.2209      0.0000    626.6324      3.7634
   902.7500     69.1760      0.0000    635.7753      3.8441
   903.0000     69.9002      0.0000    648.0871      3.9336
   903.2500     70.4448      0.0000    658.2773      4.0217
   903.5000     70.4678      0.0000    664.7309      4.1017
   903.7500     69.7019      0.0000    669.4556      4.1707
   904.0000     68.5777      0.0000    675.1766      4.2224
   904.2500     67.9280      0.0000    682.9429      4.2445
   904.5000     67.9184      0.0000    691.6315      4.2274
   904.7500     67.7049      0.0000    699.1039      4.1751
   905.0000     66.4021      0.0000    703.8795      4.1057
   905.2500     64.0559      0.0000    705.9617      4.0397
   905.5000     61.4808      0.0000    706.3293      3.9848
   905.7500     59.3786      0.0000    706.0154      3.9320
   906.0000     57.8008      0.0000    705.7992      3.8674
   906.2500     56.3407      0.0000    706.6525      3.7844
   906.5000     54.6848      0.0000    710.3308      3.6844
   906.7500     52.9749      0.0000    718.9594      3.5698
   907.0000     51.6811      0.0000    732.7421      3.4423
   907.2500     51.2146      0.0000    747.3118      3.3073
   907.5000     51.7308      0.0000    754.8213      3.1743
   907.7500     53.1402      0.0000    749.9205      3.0506
   908.0000     55.0870      0.0000    734.7014      2.9363
   908.2500     56.9600      0.0000    716.5805      2.8264
   908.5000     58.1987      0.0000    701.7580      2.7167
   908.7500     58.6592      0.0000    691.5452      2.6080
   909.0000     58.5339      0.0000    683.9979      2.5051
   909.2500     57.9302      0.0000    677.3810      2.4124
   909.5000     56.7138      0.0000    671.6406      2.3335
   909.7500     54.7805      0.0000    667.4722      2.2714
   910.0000     52.3394      0.0000    665.0544      2.2292
   910.2500     49.9095      0.0000    663.8500      2.2066
   910.5000     48.0977      0.0000    663.1757      2.1992
   910.7500     47.2908      0.0000    662.6467      2.2021
   911.0000     47.4059      0.0000    662.2242      2.2139
   911.2500     47.9752      0.0000    662.0446      2.2342
   911.5000     48.5590      0.0000    662.2253      2.2586
   911.7500     49.1441      0.0000    662.7803      2.2805
   912.0000     50.1787      0.0000    663.7122      2.2983
   912.2500     52.1250      0.0000    665.2645      2.3162
   912.5000     54.7603      0.0000    668.1329      2.3381
   912.7500     56.9606      0.0000    673.2959      2.3639
   913.0000     57.6094      0.0000    681.3922      2.3959
   913.2500     56.9523      0.0000    692.1436      2.4471
   913.5000     56.7658      0.0000    704.1782      2.5377
   913.7500     58.8772      0.0000    715.0638      2.6784
   914.0000     63.6093      0.0000    721.8522      2.8589
   914.2500     69.9706      0.0000    722.9857      3.0577
   914.5000     77.1985      0.0000    720.0263      3.2595
   914.7500     85.5745      0.0000    715.8037      3.4604
   915.0000     95.5690      0.0000    710.2604      3.6658
   915.2500    106.6263      0.0000    700.2863      3.8878
   915.5000    116.9996      0.0000    685.5154      4.1408
   915.7500    124.5104      0.0000    672.9268      4.4273
   916.0000    127.4538      0.0000    673.1567      4.7282
   916.2500    125.3258      0.0000    691.4193      5.0119
   916.5000    119.0849      0.0000    722.5471      5.2459
   916.7500    110.6910      0.0000    754.9436      5.4008
   917.0000    102.1216      0.0000    778.5066      5.4617
   917.2500     94.4228      0.0000    789.2473      5.4530
   917.5000     87.5391      0.0000    788.9824      5.4383
   917.7500     81.2464      0.0000    782.6893      5.4799
   918.0000     76.3262      0.0000    775.9684      5.5915
   918.2500     74.5392      0.0000    772.9660      5.7363
   918.5000     77.3529      0.0000    774.4507      5.8708
   918.7500     84.8656      0.0000    777.3893      5.9861
   919.0000     95.7115      2.0000    776.8920      6.1137
   919.2500    107.6043      0.0000    768.6915      6.3025
   919.5000    118.1589      0.0000    751.1535      6.5838
   919.7500    125.8253      0.0000    726.5756      6.9283
   920.0000    130.4197      0.0000    700.3102      7.2321
   920.2500    132.8011      0.0000    677.4773      7.3797
   920.5000    133.9547      0.0000    660.7407      7.3412
   920.7500    134.4761      0.0000    651.2752      7.1932
   921.0000    134.9156      0.0000    650.1786      7.0380
   921.2500    136.0222      0.0000    657.7578      6.9234
   921.5000    138.0418      0.0000    672.1563      6.8348
   921.7500    140.0512      0.0000    689.6893      6.7358
   922.0000    140.6889      0.0000    706.4362      6.6066
   922.2500    139.5305      0.0000    718.1605      6.4616
   922.5000    137.4451      0.0000    718.8008      6.3391
   922.7500    135.6590      0.0000    702.4196      6.2723
   923.0000    134.6409      0.0000    670.6033      6.2703
   923.2500    133.8020      0.0000    637.4139      6.3230
   923.5000    132.1810      0.0000    622.4564      6.4150
   923.7500    129.4657      0.0000    635.6793      6.5304
   924.0000    126.4332      0.0000    668.8259      6.6529
   924.2500    124.3799      0.0000    701.3744      6.7701
   924.5000    124.1104      0.0000    714.1136      6.8770
   924.7500    125.6538      0.0000    699.2604      6.9736
   925.0000    128.9229      0.0000    662.2277      7.0623
   925.2500    134.0335      0.0000    616.0690      7.1489
   925.5000    140.4003      0.0000    573.1453      7.2357
   925.7500    145.9622      0.0000    540.0728      7.3101
   926.0000    148.4105      0.0000    518.1835      7.3499
   926.2500    147.4552      0.0000    505.9915      7.3490
   926.5000    145.1181      0.0000    500.7802      7.3300
   926.7500    143.4002      0.0000    499.9099      7.3218
   927.0000    142.3425      0.0000    503.0217      7.3293
   927.2500    140.7466      0.0000    513.2267      7.3257
   927.5000    138.0979      0.0000    534.4741      7.2685
   927.7500    135.1625      0.0000    566.3136      7.1187
   928.0000    132.9158      0.0000    601.8631      6.8557
   928.2500    131.2418      0.0000    631.7963      6.4863
   928.5000    128.9691      0.0000    650.0400      6.0497
   928.7500    125.1222      0.0000    656.2314      5.6121
   929.0000    119.6391      0.0000    654.4630      5.2457
   929.2500    112.8741      0.0000    649.4536      4.9951
   929.5000    105.4083      0.0000    642.8453      4.8585
   929.7500     98.8040      0.0000    634.1826      4.8015
   930.0000     95.4835      0.0000    626.0385      4.7879
   930.2500     96.7885      0.0000    625.1179      4.8018
   930.5000    101.4658      0.0000    635.1108      4.8502
   930.7500    106.7577      0.0000    649.5109      4.9587
   931.0000    110.8352      0.0000    655.4144      5.1578
   931.2500    113.5873      0.0000    645.6979      5.4582
   931.5000    115.3486      0.0000    626.1504      5.8323
   931.7500    116.0494      0.0000    609.8066      6.2231
   932.0000    115.8264      0.0000    605.0402      6.5738
