~Version Information
 VERS.                                  2.0 : CWLS LAS VERSION
 WRAP.                                   NO : WRAPING MODE
 SWARE .                 MController 2.5.0J : SOFTWARE VERSION
~Well Information
 WELL.                       Cooper 11-13Tr : WELL
 COMP.    Pioneer Natural Resources USA Inc : COMPANY
 FLD.                      Purgatoire River : FIELD
 LOC.                 NW/NW SEC13 T32S R67W : LOCATION
 DATE.                             09/24/05 : DATE(S) LOGGED
 SRVC.       Blanco Geological Services LLC : SERVICE COMPANY
 STAT.                             Colorado : STATE
 CNTY.                           Las Animas : COUNTY
 CTRY.                                  USA : COUNTRY
 API.                       05-071-08525-00 : API NUMBER
 STRT.FT                             327.00 : START DEPTH
 STOP.FT                            1876.00 : STOP DEPTH
 STEP.FT                               1.00 : DEPTH INCREMENT
 NULL.                                -9999 : NULL VALUE
~Curve information
 DEPTH.FT                                   :
 ROP.MIN/FT                                 :
 GAS.UNITS                                  :
~ASCII Log data
# ...
      1127.0         0.28         11.1 
      1128.0         0.30         11.2 
      1129.0         0.33         10.6 
      1130.0         0.33         10.7 
      1131.0         0.47         11.1 
      1132.0         0.33         11.1 
      1133.0         0.20         11.4 
      1134.0         0.27         11.1 
      1135.0         0.27         11.1 
      1136.0         1.48         12.1 
      1137.0         0.40         12.0 
      1138.0         0.33         11.9 
      1139.0         0.33         15.8 
      1140.0         0.27         11.5 
      1141.0         0.27          9.2 
      1142.0         0.20         10.5 
      1143.0         0.20         11.4 
      1144.0         0.23         11.7 
      1145.0         0.20         11.9 
      1146.0         0.18         10.6 
      1147.0         0.17         10.6 
      1148.0         0.13         10.8 
      1149.0         0.13         10.8 
      1150.0         0.17         10.0 
      1151.0         0.23         10.6 
      1152.0         0.23         10.4 
      1153.0         0.17         10.5 
      1154.0         0.17         10.5 
      1155.0         0.20         10.5 
      1156.0         0.33         11.6 
      1157.0         0.27         10.7 
      1158.0         0.30         11.1 
      1159.0         0.43         10.5 
      1160.0         0.48         11.7 
      1161.0         0.33         11.5 
      1162.0         0.20         11.3 
      1163.0         0.20         12.4 
      1164.0         0.27         12.1 
      1165.0         0.17         11.5 
      1166.0         1.67         14.2 
      1167.0         0.30         11.5 
      1168.0         0.38         11.7 
      1169.0         0.30         12.2 
      1170.0         0.27         12.4 
      1171.0         0.30         12.8 
      1172.0         0.43         12.1 
      1173.0         0.33         11.6 
      1174.0         0.40         11.4 
      1175.0         0.37         11.4 
      1176.0         0.37         12.1 
      1177.0         0.27         11.8 
      1178.0         0.18         12.8 
      1179.0         0.13         12.6 
      1180.0         0.20         12.0 
      1181.0         0.20         11.6 
      1182.0         0.17         11.6 
      1183.0         0.17         11.0 
      1184.0         0.17         10.9 
      1185.0         0.27         11.3 
      1186.0         0.30         10.7 
      1187.0         0.20         11.0 
      1188.0         0.17         11.6 
      1189.0         0.23         11.6 
      1190.0         0.23         11.0 
      1191.0         0.23         10.7 
      1192.0         0.27         11.3 
      1193.0         0.23         11.3 
      1194.0         0.25         11.0 
      1195.0         0.23         11.5 
      1196.0         0.80         12.1 
      1197.0         0.17         12.1 
      1198.0         0.53         11.8 
      1199.0         0.53         11.8 
      1200.0         0.43         11.4 
      1201.0         0.48         10.7 
      1202.0         0.47         10.6 
      1203.0         0.33         10.3 
      1204.0         0.30         10.9 
      1205.0         0.23         10.2 
      1206.0         0.30         10.6 
      1207.0         0.33         10.3 
      1208.0         0.23         10.1 
      1209.0         0.13          9.9 
      1210.0         0.13          9.9 
      1211.0         0.13         10.2 
      1212.0         0.23         10.4 
      1213.0         0.27         10.7 
      1214.0         0.17         10.5 
      1215.0         0.15         10.8 
      1216.0         0.20         11.2 
      1217.0         0.20         11.0 
      1218.0         0.20         10.9 
      1219.0         0.20         10.4 
      1220.0         0.17         10.4 
      1221.0         0.17         11.2 
      1222.0         0.13         11.2 
      1223.0         0.20         10.9 
      1224.0         0.17         10.8 
      1225.0         0.20         10.7 
      1226.0         2.35         12.7 
      1227.0         0.27         12.1 
      1228.0         0.43         12.1 
      1229.0         0.30         12.1 
      1230.0         0.30         11.1 
      1231.0         0.33         11.0 
      1232.0         0.27         10.5 
      1233.0         0.23         11.0 
      1234.0         0.28         11.1 
      1235.0         0.23         10.3 
      1236.0         0.20         10.3 
      1237.0         0.20         10.7 
      1238.0         0.27         10.6 
      1239.0         0.30         11.5 
      1240.0         0.23         12.7 
      1241.0         0.23         14.3 
      1242.0         0.23         14.6 
      1243.0         0.23         15.6 
      1244.0         0.23         17.6 
      1245.0         0.23         18.2 
      1246.0         0.20         18.6 
      1247.0         0.23         19.3 
      1248.0         0.23         19.4 
      1249.0         0.25         18.1 
      1250.0         0.20         17.4 
      1251.0         0.23         18.8 
      1252.0         0.23         18.8 
      1253.0         0.20         19.0 
      1254.0         0.27         19.5 
      1255.0         0.47         14.7 
      1256.0         2.05         12.5 
      1257.0         0.50         12.0 
      1258.0         0.30         12.5 
      1259.0         0.30         13.4 
      1260.0         0.27         14.2 
      1261.0         0.30         14.5 
      1262.0         0.27         15.1 
      1263.0         0.33         14.7 
      1264.0         0.33         14.6 
      1265.0         0.35         14.3 
      1266.0         0.33         14.2 
      1267.0         0.37         13.7 
      1268.0         0.40         14.2 
      1269.0         0.27         14.1 
      1270.0         0.27         14.9 
      1271.0         0.33         14.5 
      1272.0         0.30         15.5 
      1273.0         0.27         14.9 
      1274.0         0.27         15.2 
      1275.0         0.30         15.5 
      1276.0         0.28         15.9 
      1277.0         0.27         15.0 
      1278.0         0.30         14.3 
      1279.0         0.33         13.9 
      1280.0         0.30         13.5 
      1281.0         0.30         13.6 
      1282.0         0.23         13.8 
      1283.0         0.43         14.5 
      1284.0         0.27         12.8 
      1285.0         1.15         12.6 
      1286.0         0.80         12.5 
      1287.0         0.60         12.7 
      1288.0         0.37         12.6 
      1289.0         0.30         12.8 
      1290.0         0.27         12.8 
      1291.0         0.27         12.6 
      1292.0         0.20         12.3 
      1293.0         0.25         12.3 
      1294.0         0.27         12.6 
      1295.0         0.23         13.0 
      1296.0         0.23         13.0 
      1297.0         0.27         13.1 
      1298.0         0.23         13.3 
      1299.0         0.27         13.4 
      1300.0         0.23         13.3 
      1301.0         0.30         13.4 
      1302.0         0.33         13.0 
      1303.0         0.40         13.5 
      1304.0         0.23         12.9 
      1305.0         0.23         12.6 
      1306.0         0.28         13.1 
      1307.0         0.23         13.9 
      1308.0         0.23         14.0 
      1309.0         0.20         14.1 
      1310.0         0.23         13.1 
      1311.0         0.30         13.0 
      1312.0         0.30         12.8 
      1313.0         0.33         12.8 
      1314.0         0.23         14.0 
      1315.0         0.27         14.0 
      1316.0         2.05         13.0 
      1317.0         0.47         13.2 
      1318.0         0.30         13.6 
      1319.0         0.33         13.9 
      1320.0         0.30         14.0 
      1321.0         0.30         14.1 
      1322.0         0.23         13.2 
      1323.0         0.25         12.6 
      1324.0         0.30         13.5 
      1325.0         0.23         12.8 
      1326.0         0.27         13.3 
