~Version Information
VERS.                      2.0: CWLS Log ASCII Standard - VERSION 2.0
WRAP.                       NO: One line per depth step
~Well Information Block
STRT.FT               440.0000: 
STOP.FT              1702.7000: 
STEP.FT                 0.1000: 
NULL.                -999.2500: 
COMP.          Pioneer Natural Resources: COMPANY
WELL.          Culver 14-12 Tr: WELL
FLD.           Purgatoire River: FIELD
LOC.           915' FSL & 1048' FWL--: LOCATION
STAT.                 Colorado: State
CNTY.               Las Animas: COUNTY
CTRY. USA : Country
SECT. 12 : Section
TOWN. 32S : Township
RANG. 66W : Range
SRVC.                Patterson: SERVICE COMPANY
DATE.          Wed Sep 28 10:00:59 2005: LOG DATE
API.           05 071 08520 00: UNIQUE WELL ID
~Curve Information Block
DEPT.FT            0 000 00 00: Depth
DCAL.in                       : CDL Caliper
RHOB.g/cc                     : CDL Bulk Density
RHOC.g/cc                     : CDL Density Correction
DPOR.pu                       : CDL Density Porosity
NPOR.pu                       : Neutron Porosity
GR.GAPI                       : Gamma Ray
~Parameter Information Block
~A  Depth       DCAL        RHOB        RHOC        DPOR        NPOR         GR     
   440.0000      8.1228      2.2923     -0.2373     21.6797     41.9086     39.3195
   440.1000      8.1228      2.2736     -0.2798     22.8103     41.9778     37.3250
   440.2000      8.1228      2.2614     -0.2678     23.5501     41.9919     36.4802
   440.3000      8.1233      2.2590     -0.2240     23.6967     42.4664     37.8168
   440.4000      8.1233      2.2630     -0.2368     23.4574     43.1157     39.7073
   440.5000      8.1230      2.2642     -0.1954     23.3806     43.1422     39.8766
   440.6000      8.1230      2.2475     -0.2171     24.3964     42.5201     39.7389
   440.7000      8.1230      2.2192     -0.2771     26.1118     41.9921     40.6310
   440.8000      8.1225      2.2086     -0.2838     26.7537     41.9962     41.5195
   440.9000      8.1225      2.2245     -0.2530     25.7908     42.2046     42.8484
   441.0000      8.1222      2.2483     -0.2467     24.3431     42.3300     43.1814
   441.1000      8.1222      2.2604     -0.2215     23.6136     42.4670     41.8202
   441.2000      8.1222      2.2531     -0.2300     24.0575     42.6715     41.9006
   441.3000      8.1224      2.2324     -0.2605     25.3103     42.8105     42.4754
   441.4000      8.1224      2.2088     -0.2759     26.7420     42.5966     40.5382
   441.5000      8.1234      2.1875     -0.2576     28.0321     42.0281     38.4823
   441.6000      8.1234      2.1771     -0.2836     28.6618     41.4331     38.5183
   441.7000      8.1234      2.1925     -0.2951     27.7255     41.2422     39.2580
   441.8000      8.1241      2.2254     -0.2077     25.7335     41.5609     40.9163
   441.9000      8.1241      2.2415     -0.2553     24.7545     42.0475     43.6859
   442.0000      8.1238      2.2294     -0.2428     25.4911     42.3797     46.3145
   442.1000      8.1238      2.2073     -0.2884     26.8284     42.5748     49.0591
   442.2000      8.1238      2.1883     -0.2566     27.9837     42.8957     51.2005
   442.3000      8.1234      2.1726     -0.2627     28.9363     43.2422     50.9707
   442.4000      8.1234      2.1661     -0.2686     29.3258     43.3434     48.0518
   442.5000      8.1231      2.1693     -0.2667     29.1335     43.3788     43.8944
   442.6000      8.1231      2.1628     -0.2178     29.5292     43.4651     40.9215
   442.7000      8.1231      2.1343     -0.2679     31.2572     43.5696     39.2713
   442.8000      8.1237      2.0969     -0.2828     33.5191     43.6863     37.3918
   442.9000      8.1237      2.0679     -0.3061     35.2816     43.6366     35.8729
   443.0000      8.1253      2.0512     -0.2907     36.2899     43.3434     35.8928
   443.1000      8.1253      2.0483     -0.3154     36.4638     43.0160     37.1412
   443.2000      8.1253      2.0623     -0.2562     35.6188     42.8194     40.1139
   443.3000      8.1266      2.0847     -0.2359     34.2616     42.6379     43.4488
   443.4000      8.1266      2.0972     -0.2234     33.5052     42.3419     44.3029
   443.5000      8.1245      2.0855     -0.2018     34.2144     42.1425     43.0775
   443.6000      8.1245      2.0600     -0.2828     35.7581     42.2583     41.3013
   443.7000      8.1245      2.0469     -0.2641     36.5545     42.8814     39.9902
   443.8000      8.1209      2.0469     -0.2368     36.5530     43.8243     39.3810
   443.9000      8.1209      2.0478     -0.2547     36.4986     44.5026     38.6272
   444.0000      8.1204      2.0574     -0.3026     35.9179     44.5986     38.3547
   444.1000      8.1204      2.0760     -0.1847     34.7857     44.1587     39.4972
   444.2000      8.1204      2.0879     -0.2191     34.0644     43.6400     40.9569
   444.3000      8.1229      2.0933     -0.1838     33.7402     43.3529     41.7849
   444.4000      8.1229      2.0975     -0.2022     33.4837     43.3803     41.9698
   444.5000      8.1245      2.0980     -0.1894     33.4565     43.6319     40.8763
   444.6000      8.1245      2.0927     -0.2163     33.7735     43.6721     39.5930
   444.7000      8.1245      2.0826     -0.2236     34.3905     43.5153     41.2692
   444.8000      8.1243      2.0688     -0.2585     35.2221     43.6193     45.5520
   444.9000      8.1243      2.0591     -0.2385     35.8096     44.0247     47.7762
   445.0000      8.1234      2.0622     -0.2067     35.6255     44.4014     46.6576
   445.1000      8.1234      2.0739     -0.1655     34.9152     44.4261     45.6605
   445.2000      8.1234      2.0837     -0.2177     34.3185     44.0899     46.9493
   445.3000      8.1228      2.0939     -0.2276     33.7005     43.8388     47.6040
   445.4000      8.1228      2.1136     -0.2266     32.5075     43.9156     45.4355
   445.5000      8.1234      2.1373     -0.1712     31.0749     44.1508     44.4882
   445.6000      8.1234      2.1508     -0.1645     30.2537     44.2933     47.8984
   445.7000      8.1234      2.1576     -0.2075     29.8394     44.2457     53.5218
   445.8000      8.1243      2.1661     -0.1789     29.3277     44.4792     58.8945
   445.9000      8.1243      2.1683     -0.1835     29.1921     45.2857     62.1986
   446.0000      8.1247      2.1631     -0.2366     29.5110     46.0015     64.4515
   446.1000      8.1247      2.1611     -0.2133     29.6300     46.2397     68.3677
   446.2000      8.1247      2.1612     -0.2198     29.6224     46.3345     72.5302
   446.3000      8.1241      2.1612     -0.2022     29.6235     46.4999     74.7768
   446.4000      8.1241      2.1701     -0.1960     29.0821     46.5082     77.2372
   446.5000      8.1232      2.1824     -0.1439     28.3364     46.2551     82.4770
   446.6000      8.1232      2.1810     -0.1667     28.4216     46.2412     88.2907
   446.7000      8.1232      2.1745     -0.2142     28.8167     46.7758     89.5230
   446.8000      8.1238      2.1795     -0.1753     28.5157     47.2550     86.8894
   446.9000      8.1238      2.1867     -0.1752     28.0787     47.2114     85.5267
   447.0000      8.1240      2.1844     -0.1791     28.2178     46.9907     85.6262
   447.1000      8.1240      2.1796     -0.2061     28.5089     46.9534     84.4761
   447.2000      8.1240      2.1800     -0.1744     28.4848     47.0878     84.1109
   447.3000      8.1226      2.1815     -0.1917     28.3939     47.2443     87.2481
   447.4000      8.1226      2.1843     -0.2234     28.2230     47.2972     93.7425
   447.5000      8.1233      2.2022     -0.2663     27.1421     47.3080    102.7300
   447.6000      8.1233      2.2449     -0.2420     24.5541     47.4295    109.8662
   447.7000      8.1233      2.3166     -0.2325     20.2044     47.7185    108.8009
   447.8000      8.1268      2.4238     -0.2116     13.7087     48.0361    100.2198
   447.9000      8.1268      2.5384     -0.0807      6.7648     48.3663     91.8172
   448.0000      8.1285      2.6095     -0.1897      2.4534     48.9585     90.4327
   448.1000      8.1285      2.6228     -0.1311      1.6487     49.7396     95.0375
   448.2000      8.1285      2.5704     -0.1316      4.8268     50.1783    100.4790
   448.3000      8.1276      2.4203     -0.2070     13.9239     50.1508    105.5861
   448.4000      8.1276      2.1603     -0.3631     29.6812     50.2130    109.6534
   448.5000      8.1253      1.8589     -0.6143     47.9438     50.4820    110.6097
   448.6000      8.1253      1.6348     -0.7293     61.5282     50.5713    112.1155
   448.7000      8.1253      1.5341     -0.7076     67.6306     50.3596    118.3723
   448.8000      8.1245      1.4992     -0.7616     69.7432     49.4403    124.7151
   448.9000      8.1245      1.4673     -0.8908     71.6808     47.2755    127.3963
   449.0000      8.1236      1.4089     -0.8689     75.2163     44.1729    128.2724
   449.1000      8.1236      1.2801     -0.7109     83.0261     40.6647    127.4043
   449.2000      8.1236      1.0819     -0.7145     95.0387     36.7164    124.3555
   449.3000      8.1422      0.9715     -0.8018    101.7272     32.2501    123.1919
   449.4000      8.1422      1.1346     -0.4404     91.8397     28.0342    127.4033
   449.5000      8.3055      1.5525      0.1286     66.5157     25.2308    132.8321
