~Version Information
VERS.                      2.0: CWLS Log ASCII Standard - VERSION 2.0
WRAP.                       NO: One line per depth step
~Well Information Block
STRT.FT               745.0000: 
STOP.FT              1985.0000: 
STEP.FT                 0.1000: 
NULL.                -999.2500: 
COMP.          Pioneer Natural Resources: COMPANY
WELL.          Lorencito 15-36-33-67: WELL
FLD.           Purgatoire River: FIELD
LOC.           38' FSL & 1446' FEL: LOCATION
STAT.                 Colorado: State
CNTY.               Las Animas: COUNTY
CTRY. USA : Country
SECT. 36 : Section
TOWN. 33S : Township
RANG. 67W : Range
SRVC.                Patterson: SERVICE COMPANY
DATE.          Thu Oct 13 10:16:17 2005: LOG DATE
API.           05 071 08515 00: UNIQUE WELL ID
~Curve Information Block
DEPT.FT            0 000 00 00: Depth
DCAL.in                       : CDL Caliper
RHOB.g/cc                     : CDL Bulk Density
RHOC.g/cc                     : CDL Density Correction
DPOR.pu                       : CDL Density Porosity
GR.GAPI                       : Gamma Ray
NPOR.pu                       : Neutron Porosity
~Parameter Information Block
~A  Depth       DCAL        RHOB        RHOC        DPOR         GR         NPOR    
# ...
  1647.4000      8.0422      2.5196      0.0170      7.9018     87.9246     20.3271
  1647.5000      8.0384      2.5229      0.0074      7.7048     91.6729     21.1247
  1647.6000      8.0384      2.5153      0.0504      8.1607     89.6883     21.4072
  1647.7000      8.0384      2.5036     -0.0379      8.8729     80.9352     21.4833
  1647.8000      8.0254      2.5068      0.0126      8.6809     74.1864     21.7862
  1647.9000      8.0254      2.5202      0.0515      7.8645     76.3049     21.7843
  1648.0000      8.0371      2.5285      0.0521      7.3649     84.8591     20.8335
  1648.1000      8.0371      2.5350      0.0284      6.9677     92.2110     19.6043
  1648.2000      8.0371      2.5465      0.0793      6.2710     94.9144     19.1779
  1648.3000      8.0398      2.5570      0.0483      5.6369     93.0097     19.3436
  1648.4000      8.0398      2.5645      0.0521      5.1798     91.4410     19.2868
  1648.5000      8.0433      2.5733      0.0637      4.6492     94.8545     19.1942
  1648.6000      8.0433      2.5859      0.0323      3.8855     97.2706     19.6164
  1648.7000      8.0433      2.6017      0.1041      2.9266     92.8411     20.0090
  1648.8000      8.0433      2.6102      0.0986      2.4147     84.4295     19.5314
  1648.9000      8.0433      2.6097      0.0665      2.4406     78.0324     18.7384
  1649.0000      8.0424      2.6165      0.1096      2.0332     76.0470     18.5665
  1649.1000      8.0424      2.6341      0.1257      0.9614     76.4165     19.0517
  1649.2000      8.0424      2.6536      0.0948     -0.2194     78.2755     19.5099
  1649.3000      8.0439      2.6641      0.1232     -0.8531     81.1370     19.6379
  1649.4000      8.0439      2.6598      0.0957     -0.5947     79.8799     19.8982
  1649.5000      8.0438      2.6553      0.0536     -0.3234     72.3999     20.3630
  1649.6000      8.0438      2.6664      0.0675     -0.9967     64.7069     20.6304
  1649.7000      8.0438      2.6821      0.1091     -1.9456     61.0185     20.8300
  1649.8000      8.0430      2.6802      0.0975     -1.8302     59.8775     21.0583
  1649.9000      8.0430      2.6562      0.0437     -0.3775     59.2063     20.7249
  1650.0000      8.0439      2.6214      0.0207      1.7324     57.9951     19.7660
  1650.1000      8.0439      2.5945     -0.0143      3.3658     58.3359     19.0308
  1650.2000      8.0439      2.5895     -0.0126      3.6664     64.0509     18.9748
  1650.3000      8.0431      2.5990      0.0360      3.0889     74.5806     19.2250
  1650.4000      8.0431      2.6061      0.0425      2.6592     85.9100     19.4648
  1650.5000      8.0421      2.6050      0.0477      2.7268     93.3270     19.7869
  1650.6000      8.0421      2.6051      0.0375      2.7216     93.0844     20.4139
  1650.7000      8.0421      2.6176      0.0591      1.9650     89.0805     21.1034
  1650.8000      8.0422      2.6342      0.0801      0.9604     88.6310     20.9752
  1650.9000      8.0422      2.6370      0.0647      0.7867     90.9369     20.0877
  1651.0000      8.0433      2.6288      0.0462      1.2874     92.1946     19.5112
  1651.1000      8.0433      2.6315      0.0588      1.1231     92.3336     19.2076
  1651.2000      8.0433      2.6553      0.0475     -0.3224     91.3226     18.9091
  1651.3000      8.0413      2.6886      0.0722     -2.3411     87.8689     18.8915
  1651.4000      8.0413      2.7161      0.0817     -4.0050     81.3897     18.9662
  1651.5000      8.0423      2.7306      0.1036     -4.8868     72.6488     19.5075
  1651.6000      8.0423      2.7339      0.0456     -5.0828     64.7206     20.7417
  1651.7000      8.0423      2.7366      0.0502     -5.2515     64.3633     21.4343
  1651.8000      8.0432      2.7431      0.0664     -5.6431     70.9968     21.1179
  1651.9000      8.0432      2.7402      0.0758     -5.4676     75.5668     20.8950
  1652.0000      8.0402      2.7212      0.0417     -4.3122     75.2198     21.0651
  1652.1000      8.0402      2.7008      0.0196     -3.0790     73.0335     21.0170
  1652.2000      8.0402      2.6905      0.0190     -2.4540     69.6669     20.8897
  1652.3000      8.0426      2.6842      0.0206     -2.0711     67.2372     21.2194
  1652.4000      8.0426      2.6768     -0.0204     -1.6259     66.5418     21.5326
  1652.5000      8.0426      2.6756      0.0231     -1.5545     63.4313     21.3732
  1652.6000      8.0426      2.6826      0.0051     -1.9743     59.2189     21.2747
  1652.7000      8.0426      2.6880      0.0673     -2.3057     59.3565     21.1922
  1652.8000      8.0411      2.6814      0.0753     -1.9041     61.6794     20.4847
  1652.9000      8.0411      2.6663      0.0555     -0.9856     61.3676     19.8457
  1653.0000      8.0391      2.6558      0.0399     -0.3494     60.4454     20.1658
  1653.1000      8.0391      2.6487      0.0744      0.0772     61.7403     21.1595
  1653.2000      8.0391      2.6281      0.0855      1.3264     63.4287     22.0001
  1653.3000      8.0410      2.5845      0.0645      3.9715     64.4815     21.8248
  1653.4000      8.0410      2.5293      0.0227      7.3158     65.8627     20.5888
  1653.5000      8.0417      2.4860      0.0171      9.9392     67.5779     19.3454
  1653.6000      8.0417      2.4688     -0.0222     10.9826     68.1277     19.1221
  1653.7000      8.0417      2.4787     -0.0182     10.3813     64.6647     20.0610
  1653.8000      8.0427      2.5116      0.0158      8.3908     58.7162     21.1291
  1653.9000      8.0427      2.5580      0.0501      5.5775     56.4485     21.4627
  1654.0000      8.0436      2.6058      0.1145      2.6794     58.5343     21.5592
  1654.1000      8.0436      2.6489      0.1680      0.0668     61.0980     22.2943
  1654.2000      8.0436      2.6887      0.2461     -2.3456     61.0796     23.5305
  1654.3000      8.0428      2.7223      0.2805     -4.3828     57.9853     24.2468
  1654.4000      8.0428      2.7326      0.2529     -5.0069     52.5795     23.6607
  1654.5000      8.0427      2.7142      0.1111     -3.8932     47.1409     22.2748
  1654.6000      8.0427      2.6957      0.0596     -2.7672     47.7551     21.6740
  1654.7000      8.0427      2.6940      0.1098     -2.6663     54.9383     22.1434
  1654.8000      8.0433      2.6907      0.0867     -2.4687     60.0667     22.6443
  1654.9000      8.0433      2.6759      0.0198     -1.5667     60.8203     22.7586
  1655.0000      8.0449      2.6663      0.0095     -0.9866     61.8709     22.4409
  1655.1000      8.0449      2.6760     -0.0031     -1.5773     64.9144     21.7939
  1655.2000      8.0449      2.6990      0.0485     -2.9684     68.9842     21.6427
  1655.3000      8.0440      2.7269      0.0443     -4.6577     70.9703     22.0993
  1655.4000      8.0440      2.7509      0.0723     -6.1180     68.7775     22.0272
  1655.5000      8.0434      2.7492      0.0491     -6.0110     64.8909     21.4252
  1655.6000      8.0434      2.7189      0.0003     -4.1762     61.8767     21.3752
  1655.7000      8.0434      2.6852      0.0424     -2.1356     60.3414     22.0719
  1655.8000      8.0428      2.6646     -0.0128     -0.8852     60.9967     23.1029
  1655.9000      8.0428      2.6595      0.0092     -0.5763     63.1681     23.8874
  1656.0000      8.0428      2.6643      0.0022     -0.8638     64.9764     23.8588
  1656.1000      8.0428      2.6736      0.0325     -1.4289     67.0110     23.1816
  1656.2000      8.0428      2.6777      0.0601     -1.6783     70.3866     22.6467
  1656.3000      8.0421      2.6698      0.0123     -1.2011     72.4469     22.8446
  1656.4000      8.0421      2.6671     -0.0139     -1.0388     69.9028     23.5202
  1656.5000      8.0338      2.6828      0.0286     -1.9858     64.7644     23.6051
  1656.6000      8.0338      2.7090      0.0377     -3.5770     62.8147     23.2658
  1656.7000      8.0338      2.7362      0.0276     -5.2218     63.9434     23.5119
  1656.8000      8.0433      2.7523      0.0562     -6.1997     64.2814     24.1213
  1656.9000      8.0433      2.7400      0.0510     -5.4534     62.8319     23.7966
