~Version Information
VERS.                      2.0: CWLS Log ASCII Standard - VERSION 2.0
WRAP.                       NO: One line per depth step
~Well Information Block
STRT.FT               650.0000: 
STOP.FT              2127.7000: 
STEP.FT                 0.1000: 
NULL.                -999.2500: 
COMP.          Pioneer Natural Resources: COMPANY
WELL.          Kennington 41-26: WELL
FLD.           Purgatoire River: FIELD
LOC.           940' FNL & 1008' FEL--: LOCATION
CNTY.               Las Animas: COUNTY
SRVC.                Patterson: SERVICE COMPANY
DATE.          Wed Mar 29 11:30:50 2006: LOG DATE
UWI.           05 071 08679 00: UNIQUE WELL ID
STAT.                 Colorado: STATE
~Curve Information Block
DEPT.FT            0 000 00 00: Depth
DCAL.in                       : CDL Caliper
RHOB.g/cc                     : CDL Bulk Density
RHOC.g/cc                     : CDL Density Correction
DPOR.pu                       : CDL Density Porosity
NPOR.pu                       : Neutron Porosity
GR.GAPI                       : Gamma Ray
~Parameter Information Block
~A  Depth       DCAL        RHOB        RHOC        DPOR        NPOR         GR     
# ...
   938.0000      8.1153      2.4980      0.0263      9.2093     20.5445    122.1309
   938.1000      8.1153      2.4888      0.0242      9.7701     20.7904    126.5389
   938.2000      8.1153      2.4868      0.0555      9.8885     21.1785    132.1309
   938.3000      8.1029      2.4830      0.0549     10.1225     21.7053    131.8009
   938.4000      8.1029      2.4677      0.0185     11.0461     22.0847    125.5715
   938.5000      8.0972      2.4508     -0.0140     12.0743     22.2548    123.2878
   938.6000      8.0972      2.4488      0.0026     12.1940     22.3517    127.0364
   938.7000      8.0972      2.4594      0.0115     11.5526     22.4029    130.9679
   938.8000      8.0970      2.4726      0.0268     10.7491     22.3608    134.1424
   938.9000      8.0970      2.4888      0.0347      9.7696     22.1784    138.6533
   939.0000      8.0971      2.5024      0.0537      8.9459     21.9156    142.8596
   939.1000      8.0971      2.5017      0.0533      8.9855     21.8420    144.6520
   939.2000      8.0971      2.4885      0.0119      9.7906     22.0392    143.3246
   939.3000      8.0971      2.4780      0.0097     10.4243     22.1125    139.6762
   939.4000      8.0971      2.4817      0.0278     10.1981     21.8956    137.2207
   939.5000      8.0977      2.4949      0.0154      9.3982     21.6262    136.9328
   939.6000      8.0977      2.5072      0.0317      8.6529     21.3705    135.2157
   939.7000      8.0977      2.5108      0.0809      8.4378     21.0979    133.1011
   939.8000      8.0974      2.5058      0.0438      8.7365     21.0753    134.6483
   939.9000      8.0974      2.5042      0.0541      8.8385     21.5274    136.5182
   940.0000      8.0975      2.5092      0.0365      8.5329     22.1323    134.8998
   940.1000      8.0975      2.5139      0.0514      8.2459     22.5084    133.1821
   940.2000      8.0975      2.5174      0.0689      8.0358     22.6926    134.6971
   940.3000      8.0988      2.5198      0.0651      7.8929     22.8940    137.4879
   940.4000      8.0988      2.5139      0.0508      8.2476     23.1511    137.8250
   940.5000      8.1054      2.4997      0.0067      9.1076     23.3128    135.8572
   940.6000      8.1054      2.4895      0.0106      9.7268     23.3119    133.7401
   940.7000      8.1054      2.4878     -0.0130      9.8296     23.2986    132.9578
   940.8000      8.1165      2.4930     -0.0033      9.5141     23.2801    133.8837
   940.9000      8.1165      2.5059      0.0325      8.7316     23.0990    133.9997
   941.0000      8.1226      2.5214      0.0396      7.7948     22.7270    133.4918
   941.1000      8.1226      2.5219      0.0806      7.7620     22.2431    134.3454
   941.2000      8.1226      2.4993      0.0029      9.1341     21.9882    134.4212
   941.3000      8.1244      2.4781     -0.0449     10.4192     22.2007    131.5367
   941.4000      8.1244      2.4820      0.0026     10.1804     22.5401    125.9689
   941.5000      8.1254      2.4974      0.0767      9.2500     22.6713    120.5260
   941.6000      8.1254      2.5042      0.0433      8.8349     22.5637    118.1650
   941.7000      8.1254      2.5077      0.0225      8.6266     22.1737    119.3171
   941.8000      8.1252      2.5157      0.0343      8.1376     21.6731    121.3583
   941.9000      8.1252      2.5249      0.0280      7.5813     21.4821    121.5518
   942.0000      8.1248      2.5281      0.0603      7.3895     21.6232    121.4811
   942.1000      8.1248      2.5247      0.0184      7.5967     21.6983    125.1180
   942.2000      8.1248      2.5241      0.0134      7.6311     21.5589    132.8092
   942.3000      8.1263      2.5257      0.0377      7.5354     21.4291    138.2598
   942.4000      8.1263      2.5177      0.0552      8.0179     21.2856    137.4432
   942.5000      8.1304      2.5035      0.0358      8.8808     21.0424    134.9846
   942.6000      8.1304      2.4977      0.0569      9.2324     20.8596    134.5012
   942.7000      8.1304      2.5088      0.0377      8.5566     20.7034    134.5992
   942.8000      8.1369      2.5333      0.0516      7.0731     20.4146    134.0659
   942.9000      8.1369      2.5489      0.1030      6.1271     20.3219    131.0893
   943.0000      8.1437      2.5344      0.0651      7.0054     20.7995    124.8823
   943.1000      8.1437      2.4883      0.0831      9.8027     21.4888    119.9652
   943.2000      8.1437      2.4272      0.0150     13.5028     21.6957    121.7505
   943.3000      8.1475      2.3854     -0.0394     16.0366     21.3480    129.5528
   943.4000      8.1475      2.3807      0.0068     16.3241     20.8707    136.7380
   943.5000      8.1454      2.3850      0.0371     16.0615     20.5667    139.6397
   943.6000      8.1454      2.3718     -0.0268     16.8608     20.3364    140.0412
   943.7000      8.1454      2.3588     -0.0402     17.6508     19.7769    138.6897
   943.8000      8.1387      2.3641      0.0099     17.3267     18.7779    133.2680
   943.9000      8.1387      2.3744      0.0446     16.7035     17.6945    124.3831
   944.0000      8.1331      2.3790      0.0315     16.4245     16.9039    116.3426
   944.1000      8.1331      2.3896      0.0617     15.7811     16.6070    111.8529
   944.2000      8.1331      2.4075      0.0848     14.6948     16.8246    112.1375
   944.3000      8.1316      2.4152      0.0584     14.2323     17.2388    115.5594
   944.4000      8.1316      2.4074      0.0331     14.7005     17.4361    118.6101
   944.5000      8.1360      2.4021      0.0005     15.0220     17.3513    120.2239
   944.6000      8.1360      2.4159      0.0323     14.1892     17.2365    120.2673
   944.7000      8.1360      2.4374      0.0450     12.8868     17.0933    120.0092
   944.8000      8.1427      2.4413      0.0899     12.6457     16.8284    123.2672
   944.9000      8.1427      2.4239      0.0188     13.7053     16.7010    127.6364
   945.0000      8.1460      2.4047      0.0603     14.8694     16.8196    126.9141
   945.1000      8.1460      2.4034      0.0567     14.9425     16.9599    124.5325
   945.2000      8.1460      2.4225      0.1027     13.7892     16.9208    126.4417
   945.3000      8.1463      2.4415      0.1352     12.6344     16.7472    129.4905
   945.4000      8.1463      2.4466      0.1284     12.3252     16.6852    128.6923
   945.5000      8.1478      2.4485      0.1187     12.2136     16.7416    127.0192
   945.6000      8.1478      2.4610      0.1091     11.4539     16.6857    129.0447
   945.7000      8.1478      2.4784      0.1755     10.4012     16.5775    132.4457
   945.8000      8.1512      2.4832      0.1130     10.1101     16.8034    134.5083
   945.9000      8.1512      2.4716      0.1296     10.8104     17.4716    135.8083
   946.0000      8.1549      2.4573      0.0924     11.6793     18.1714    135.8408
   946.1000      8.1549      2.4589      0.1448     11.5808     18.4261    132.7738
   946.2000      8.1549      2.4702      0.1685     10.8996     18.4144    126.7208
   946.3000      8.1551      2.4703      0.0977     10.8935     18.4867    121.8267
   946.4000      8.1551      2.4588      0.0844     11.5873     18.3898    122.5123
   946.5000      8.1512      2.4371      0.1233     12.9046     17.9775    126.5727
   946.6000      8.1512      2.4068      0.0142     14.7391     17.6945    130.4103
   946.7000      8.1512      2.3866      0.0538     15.9622     17.6945    134.1535
   946.8000      8.1476      2.3823      0.0671     16.2230     17.6722    135.8514
   946.9000      8.1476      2.3792      0.0675     16.4092     17.6119    132.6121
   947.0000      8.1453      2.3682      0.0207     17.0763     17.7257    128.5358
   947.1000      8.1453      2.3539      0.0160     17.9482     18.0480    129.6622
   947.2000      8.1453      2.3374      0.0454     18.9446     18.3447    132.0709
   947.3000      8.1445      2.3072      0.0656     20.7771     18.5131    130.9166
   947.4000      8.1445      2.2564      0.0408     23.8531     18.6371    128.3313
   947.5000      8.1454      2.1998     -0.0164     27.2865     18.6222    124.7517
