~Version Information
VERS.                      2.0: CWLS Log ASCII Standard - VERSION 2.0
WRAP.                       NO: One line per depth step
~Well Information Block
STRT.FT                -9.0000: 
STOP.FT              1841.0000: 
STEP.FT                 0.2500: 
NULL.                -999.2500: 
COMP.          Pioneer Natural Resources: COMPANY
WELL.          Cooper 11-13 Tr: WELL
FLD.           Purgatorie River: FIELD
LOC.           476' FNL & 738' FWL: LOCATION
STAT.                       CO: State
CNTY.               Las Animas: COUNTY
CTRY. USA : Country
SECT. 13 : Section
TOWN. 32S : Township
RANG. 67W : Range
SRVC.          Patterson Wireline: SERVICE COMPANY
DATE.          Thu Sep 29 08:59:13 2005: LOG DATE
API.           05 071 08525 00: UNIQUE WELL ID
~Curve Information Block
DEPT.FT            0 000 00 00: Depth
CCL.                          : Casing Collar Locator
TT3.usec                      : CBL 3' Travel Time
AMP3.mV                       : CBL 3' Amplitude
GR.GAPI                       : Gamma Ray
~Parameter Information Block
~A  Depth       CCL         TT3         AMP3         GR     
# ...
  1800.0000      0.0000    489.1588      3.0105    102.7819
  1800.2500      0.0000    455.0381      3.0618     99.1336
  1800.5000      0.0000    433.3256      3.1185     97.6964
  1800.7500      0.0000    420.7067      3.1785     98.8925
  1801.0000      0.0000    414.0405      3.2423    102.5231
  1801.2500      0.0000    411.1340      3.3106    107.5125
  1801.5000      0.0000    410.4040      3.3814    112.1234
  1801.7500      0.0000    410.9130      3.4501    114.8016
  1802.0000      0.0000    413.0579      3.5118    115.1326
  1802.2500      0.0000    419.6310      3.5597    114.0118
  1802.5000      0.0000    436.0687      3.5832    112.8133
  1802.7500      0.0000    467.8036      3.5728    112.3708
  1803.0000      0.0000    514.8784      3.5317    112.6700
  1803.2500      0.0000    568.7761      3.4766    113.3939
  1803.5000      0.0000    616.5685      3.4259    114.4834
  1803.7500      0.0000    649.4269      3.3859    116.1531
  1804.0000      0.0000    666.8840      3.3515    118.6234
  1804.2500      0.0000    673.8696      3.3192    121.8487
  1804.5000      0.0000    675.3740      3.2986    125.2978
  1804.7500      0.0000    673.3600      3.3050    128.0187
  1805.0000      0.0000    666.0267      3.3402    129.1006
  1805.2500      0.0000    648.5836      3.3810    128.1860
  1805.5000      0.0000    616.6290      3.3893    125.6085
  1805.7500      0.0000    572.0572      3.3344    122.0652
  1806.0000      0.0000    526.3781      3.2108    118.1845
  1806.2500      0.0000    495.6281      3.0381    114.3037
  1806.5000      0.0000    488.9693      2.8507    110.3935
  1806.7500      0.0000    501.2313      2.6914    106.1067
  1807.0000      0.0000    516.6127      2.6092    101.2192
  1807.2500      0.0000    519.9865      2.6557     96.1060
  1807.5000      0.0000    505.4829      2.8704     91.3153
  1807.7500      0.0000    476.6560      3.2527     86.5065
  1808.0000      0.0000    441.9257      3.7386     80.4418
  1808.2500      0.0000    410.3083      4.2107     72.6215
  1808.5000     -2.0000    388.3303      4.5451     64.6107
  1808.7500      0.0000    378.6195      4.6654     59.0716
  1809.0000      0.0000    381.1724      4.5715     57.4415
  1809.2500      0.0000    394.9685      4.3285     58.8151
  1809.5000      0.0000    416.5676      4.0247     60.9336
  1809.7500      0.0000    437.4389      3.7262     61.9925
  1810.0000      0.0000    446.3680      3.4662     61.7274
  1810.2500      0.0000    438.2252      3.2658     61.0932
  1810.5000      0.0000    420.0819      3.1435     60.9852
  1810.7500      0.0000    407.3161      3.0984     61.3950
  1811.0000      0.0000    414.4085      3.1054     61.8908
  1811.2500      0.0000    448.3022      3.1419     62.6106
  1811.5000      0.0000    505.0959      3.2068     64.2487
  1811.7500      0.0000    570.1231      3.3076     67.1136
  1812.0000      0.0000    624.4477      3.4355     70.8705
  1812.2500      0.0000    654.8729      3.5595     75.4060
  1812.5000      0.0000    658.2945      3.6428     81.3729
  1812.7500      0.0000    637.9415      3.6660     89.4988
  1813.0000      0.0000    599.1091      3.6433     99.4517
  1813.2500      0.0000    549.3454      3.6205    109.4289
  1813.5000      0.0000    499.3362      3.6546    116.8004
  1813.7500      0.0000    460.1152      3.7785    119.3349
  1814.0000      0.0000    439.3662      3.9684    116.3200
  1814.2500      0.0000    440.9882      4.1536    108.9969
  1814.5000      0.0000    465.6952      4.3022     99.9998
  1814.7500      0.0000    508.4681      4.5300     91.9662
  1815.0000      0.0000    555.8921      5.0774     86.1365
  1815.2500      0.0000    590.6825      6.0865     81.9945
  1815.5000      0.0000    602.4039      7.3858     78.0970
  1815.7500      0.0000    593.7835      8.5668     73.3194
  1816.0000      0.0000    575.9871      9.3044     67.6822
  1816.2500      0.0000    558.4688      9.5760     62.2081
  1816.5000      0.0000    543.1287      9.5861     57.8720
  1816.7500      0.0000    526.1947      9.5444     54.8898
  1817.0000      0.0000    504.6385      9.5170     53.3004
  1817.2500      0.0000    482.3683      9.4129     53.7607
  1817.5000      0.0000    471.3081      9.0534     56.9743
  1817.7500      0.0000    484.3122      8.2924     62.3492
  1818.0000      0.0000    524.1732      7.1522     67.7738
  1818.2500      0.0000    579.2925      5.8725     70.9899
  1818.5000      0.0000    631.4713      4.7793     71.3633
  1818.7500      0.0000    668.1928      4.0628     70.7345
  1819.0000      0.0000    687.7751      3.6891     72.5773
  1819.2500      0.0000    695.3727      3.5071     79.7012
  1819.5000      0.0000    696.8430      3.3963     92.0974
  1819.7500      0.0000    696.2928      3.3152    106.7963
  1820.0000      0.0000    696.6061      3.2679    120.0637
  1820.2500      0.0000    699.3159      3.2652    130.0491
  1820.5000      0.0000    703.2094      3.3052    137.2527
  1820.7500      0.0000    704.8560      3.3701    142.5688
  1821.0000      0.0000    702.1249      3.4342    145.7744
  1821.2500      0.0000    696.6974      3.4783    146.4787
  1821.5000      0.0000    692.2545      3.5006    145.5483
  1821.7500      0.0000    691.0364      3.5118    144.3893
  1822.0000      0.0000    693.0839      3.5220    143.3633
  1822.2500      0.0000    697.8875      3.5316    142.0356
  1822.5000      0.0000    705.1484      3.5331    140.4518
  1822.7500      0.0000    713.8458      3.5190    139.0420
  1823.0000      0.0000    721.9261      3.4871    137.6290
  1823.2500      0.0000    727.6499      3.4411    135.5220
  1823.5000      0.0000    730.6389      3.3868    132.5560
  1823.7500      0.0000    731.4534      3.3290    129.5064
  1824.0000      0.0000    730.8090      3.2692    127.6836
  1824.2500      0.0000    729.1516      3.2066    128.3128
  1824.5000      0.0000    726.2362      3.1409    131.6196
  1824.7500      0.0000    721.3494      3.0778    136.0948
  1825.0000      0.0000    714.7706      3.0282    139.5387
  1825.2500      0.0000    708.6896      2.9991    141.4552
  1825.5000      0.0000    705.6848      2.9856    143.5691
  1825.7500      0.0000    706.2368      2.9755    147.1778
  1826.0000      0.0000    708.2520      2.9625    150.7552
  1826.2500      0.0000    708.8867      2.9528    151.1319
  1826.5000      0.0000    706.5606      2.9556    146.1295
  1826.7500      0.0000    701.8119      2.9695    134.6853
  1827.0000      0.0000    696.9750      2.9838    115.6592
  1827.2500      0.0000    694.8285      2.9931     89.2379
  1827.5000      0.0000    696.7839      3.0061     59.5142
  1827.7500      0.0000    702.0446      3.0357     33.2479
  1828.0000      0.0000    708.5600      3.0867     15.2223
  1828.2500      0.0000    714.6770      3.1554      5.6290
  1828.5000      0.0000    719.7169      3.2396      1.6647
  1828.7500      0.0000    723.3187      3.3400      0.3909
  1829.0000      0.0000    724.9275      3.4487      0.0719
  1829.2500      0.0000    724.1743      3.5443      0.0091
  1829.5000      0.0000    721.2521      3.6053      0.0000
  1829.7500      0.0000    716.5325      3.6257   -999.2500
  1830.0000      0.0000    710.1442      3.6102   -999.2500
  1830.2500      0.0000    702.3618      3.5590   -999.2500
  1830.5000      0.0000    694.2005      3.4653   -999.2500
  1830.7500      0.0000    687.1340      3.3286   -999.2500
  1831.0000      0.0000    682.0989      3.1654   -999.2500
  1831.2500      0.0000    678.4685      3.0020   -999.2500
  1831.5000      0.0000    672.8452      2.8518   -999.2500
  1831.7500      0.0000    656.8845      2.6971   -999.2500
  1832.0000      0.0000    616.3212      2.4913   -999.2500
  1832.2500      0.0000    536.8747      2.1893   -999.2500
  1832.5000      0.0000    417.7695      1.7925   -999.2500
  1832.7500      0.0000    280.3175      1.3657   -999.2500
  1833.0000      0.0000    157.6637      1.0008   -999.2500
  1833.2500      0.0000     72.7960      0.7550   -999.2500
