~Version Information
VERS.                      2.0: CWLS Log ASCII Standard - VERSION 2.0
WRAP.                       NO: One line per depth step
~Well Information Block
STRT.FT               197.7500: 
STOP.FT              1631.0000: 
STEP.FT                 0.2500: 
NULL.                -999.2500: 
COMP.          Petrogulf Corporation: COMPANY
WELL.             State 16-44R: WELL
FLD.           Purgatoire River: FIELD
LOC.           632' FSL & 223' FEL--: LOCATION
PROV.                 Colorado: PROVINCE
CNTY.               Las Animas: COUNTRY
SRVC.                Patterson: SERVICE COMPANY
DATE.          Fri Oct 21 11:31:17 2005: LOG DATE
UWI.           05 071 08457 00: UNIQUE WELL ID
~Curve Information Block
DEPT.FT            0 000 00 00: Depth
SP.mV                         : DIL Spontaneous Potential
RILD.Ohm-m                    : DIL Deep Resistivity
RILM.Ohm-m                    : DIL Medium Resistivity
RLL3.Ohm-m                    : DIL Shallow Resistivity
GR.GAPI                       : Gamma Ray
~Parameter Information Block
~A  Depth        SP         RILD        RILM        RLL3         GR     
# ...
   953.7500     75.6829     22.3311     28.4761     45.4405     85.1814
   954.0000     74.6065     22.5943     28.6520     45.0172     79.4813
   954.2500     74.2398     22.8880     28.8207     46.8319     75.8394
   954.5000     74.4274     23.1995     28.9686     50.1671     71.8890
   954.7500     74.7945     23.5060     29.0744     52.9115     70.9224
   955.0000     74.9827     23.7816     29.1408     53.2914     72.0887
   955.2500     74.8216     24.0105     29.2063     51.6484     73.9601
   955.5000     74.3138     24.1924     29.3300     50.2164     76.8266
   955.7500     73.5202     24.3355     29.5586     51.0982     78.1206
   956.0000     72.4854     24.4426     29.8980     54.4811     78.8695
   956.2500     71.2381     24.5058     30.3063     58.6121     78.7682
   956.5000     69.8181     24.5138     30.7134     61.3228     78.1689
   956.7500     68.3045     24.4663     31.0520     61.6142     77.6474
   957.0000     66.8573     24.3829     31.2824     59.8943     76.9495
   957.2500     65.7502     24.2984     31.3986     56.9760     76.8079
   957.5000     65.3159     24.2453     31.4204     53.2880     77.5286
   957.7500     65.7676     24.2377     31.3802     49.1482     78.5643
   958.0000     67.0100     24.2665     31.3071     45.3102     80.2418
   958.2500     68.6344     24.3092     31.2117     42.7735     81.1236
   958.5000     70.1750     24.3442     31.0825     42.0874     82.2400
   958.7500     71.4458     24.3577     30.8985     42.9754     83.0748
   959.0000     72.6523     24.3402     30.6528     44.4985     84.4493
   959.2500     74.1554     24.2826     30.3661     45.4808     85.2947
   959.5000     76.0736     24.1767     30.0820     45.0110     86.6045
   959.7500     78.0703     24.0159     29.8528     42.8893     87.8058
   960.0000     79.5346     23.7877     29.7261     39.7985     89.9688
   960.2500     80.0240     23.4618     29.7275     37.0803     90.8667
   960.5000     79.5779     22.9885     29.8361     36.2400     89.8232
   960.7500     78.6464     22.3191     29.9538     38.3842     87.3566
   961.0000     77.7591     21.4387     29.8927     43.6891     82.3624
   961.2500     77.2491     20.3856     29.4072     50.9496     79.4591
   961.5000     77.1949     19.2394     28.2961     57.5089     77.8327
   961.7500     77.5258     18.0886     26.5306     60.1250     79.4162
   962.0000     78.1453     17.0017     24.2972     56.7848     86.2800
   962.2500     78.9810     16.0170     21.9012     48.1836     93.5052
   962.5000     79.9734     15.1479     19.6180     37.3344    106.8409
   962.7500     81.0540     14.3928     17.6117     27.5234    116.2364
   963.0000     82.1435     13.7419     15.9393     20.4936    129.0549
   963.2500     83.1668     13.1786     14.5920     16.1929    135.7310
   963.5000     84.0744     12.6797     13.5335     13.6932    141.7230
   963.7500     84.8591     12.2171     12.7239     12.1430    142.8144
   964.0000     85.5551     11.7625     12.1286     11.1564    140.7107
   964.2500     86.2178     11.2942     11.7173     10.7733    137.3972
   964.5000     86.9029     10.8020     11.4575     11.3443    129.7860
   964.7500     87.6570     10.2889     11.3044     13.4446    122.5997
   965.0000     88.5159      9.7690     11.1952     17.5817    108.7968
   965.2500     89.5045      9.2628     11.0517     23.5097     98.9227
   965.5000     90.6415      8.7917     10.7983     29.5956     87.0286
   965.7500     91.9424      8.3726     10.3922     33.2126     83.1229
   966.0000     93.4125      8.0140      9.8474     32.4027     84.7213
   966.2500     95.0269      7.7150      9.2264     27.4278     90.0955
   966.5000     96.7154      7.4667      8.6073     20.5662    101.6209
   966.7500     98.3660      7.2558      8.0499     14.3874    109.5774
   967.0000     99.8428      7.0678      7.5826     10.2626    119.5583
   967.2500    101.0142      6.8895      7.2061      8.1836    124.5099
   967.5000    101.7896      6.7104      6.9056      7.4423    129.5249
   967.7500    102.1593      6.5249      6.6613      7.2995    131.2822
   968.0000    102.2077      6.3330      6.4569      7.2907    131.6586
   968.2500    102.0797      6.1405      6.2821      7.2469    130.9420
   968.5000    101.9143      5.9562      6.1326      7.1808    129.9261
   968.7500    101.7913      5.7887      6.0065      7.1508    129.8398
   969.0000    101.7222      5.6448      5.9015      7.1779    130.3410
   969.2500    101.6752      5.5278      5.8141      7.2341    130.6008
   969.5000    101.6071      5.4384      5.7396      7.2755    130.3856
   969.7500    101.4850      5.3754      5.6740      7.2680    129.8112
   970.0000    101.2961      5.3369      5.6151      7.1933    128.2108
   970.2500    101.0502      5.3201      5.5636      7.0557    126.5653
   970.5000    100.7727      5.3213      5.5223      6.8969    123.6756
   970.7500    100.4805      5.3357      5.4952      6.7829    122.1516
   971.0000    100.1531      5.3574      5.4857      6.7558    121.3325
   971.2500     99.7371      5.3807      5.4961      6.7986    121.4807
   971.5000     99.2036      5.4015      5.5275      6.8613    121.1659
   971.7500     98.6002      5.4173      5.5792      6.9265    119.7882
   972.0000     98.0296      5.4284      5.6492      7.0442    115.8697
   972.2500     97.5737      5.4371      5.7327      7.2948    112.6308
   972.5000     97.2463      5.4470      5.8224      7.7047    108.0161
   972.7500     97.0085      5.4612      5.9088      8.1874    105.5051
   973.0000     96.8093      5.4812      5.9832      8.5742    102.9382
   973.2500     96.6163      5.5066      6.0406      8.7278    102.2221
   973.5000     96.4277      5.5363      6.0819      8.6364    102.7919
   973.7500     96.2588      5.5691      6.1133      8.4055    104.0959
   974.0000     96.1158      5.6049      6.1423      8.1745    106.7861
   974.2500     95.9844      5.6437      6.1735      8.0495    108.6354
   974.5000     95.8464      5.6851      6.2059      8.0754    110.8790
   974.7500     95.7007      5.7277      6.2338      8.2136    111.8562
   975.0000     95.5678      5.7694      6.2508      8.3418    112.6454
   975.2500     95.4782      5.8086      6.2552      8.3272    112.8363
   975.5000     95.4485      5.8447      6.2519      8.1357    112.6579
   975.7500     95.4575      5.8780      6.2516      7.8643    112.2865
   976.0000     95.4433      5.9092      6.2657      7.6653    111.7979
   976.2500     95.3380      5.9383      6.3014      7.6442    111.9042
   976.5000     95.1148      5.9655      6.3585      7.8177    113.2070
   976.7500     94.8001      5.9918      6.4289      8.1300    114.8738
   977.0000     94.4358      6.0201      6.5005      8.4882    118.0928
   977.2500     94.0273      6.0559      6.5618      8.7937    120.1659
   977.5000     93.5252      6.1070      6.6085      8.9694    122.1518
   977.7500     92.8654      6.1817      6.6458      8.9782    122.4027
   978.0000     92.0666      6.2861      6.6877      8.8263    121.3024
   978.2500     91.3277      6.4217      6.7534      8.5602    119.8130
   978.5000     91.0198      6.5832      6.8625      8.2786    116.3639
   978.7500     91.4964      6.7579      7.0323      8.1584    112.8915
   979.0000     92.8064      6.9278      7.2743      8.4820    105.6004
   979.2500     94.5511      7.0737      7.5910      9.6655     99.8939
   979.5000     96.0641      7.1810      7.9704     12.2415     92.2178
   979.7500     96.8235      7.2432      8.3805     16.6123     88.9627
   980.0000     96.7655      7.2640      8.7662     22.4623     87.7909
   980.2500     96.2457      7.2540      9.0591     28.2593     89.2279
   980.5000     95.7265      7.2276      9.2004     31.6732     93.6836
   980.7500     95.4925      7.1974      9.1689     31.0375     97.5960
   981.0000     95.5830      7.1714      8.9925     26.6341    104.1486
   981.2500     95.8879      7.1508      8.7312     20.4773    108.7206
   981.5000     96.2618      7.1301      8.4485     14.8366    115.3508
