~Version Information
VERS.                      2.0: CWLS Log ASCII Standard - VERSION 2.0
WRAP.                       NO: One line per depth step
~Well Information Block
STRT.FT               840.0000: 
STOP.FT              1913.5000: 
STEP.FT                 0.2500: 
NULL.                -999.2500: 
COMP.          Petrogulf Corporation: COMPANY
WELL.             Kraft 17-23R: WELL
FLD.           Purgatorie River: FIELD
LOC.           1509' FSL & 1673' FWL: LOCATION
PROV.                 Colorado: PROVINCE
CNTY.               Las Animas: COUNTRY
SRVC.                Patterson: SERVICE COMPANY
DATE.          Tue Oct 11 13:03:25 2005: LOG DATE
UWI.                          : UNIQUE WELL ID
~Curve Information Block
DEPT.FT            0 000 00 00: Depth
SP.mV                         : DIL Spontaneous Potential
RILD.Ohm-m                    : DIL Deep Resistivity
RILM.Ohm-m                    : DIL Medium Resistivity
RLL3.Ohm-m                    : DIL Shallow Resistivity
GR.GAPI                       : Gamma Ray
~Parameter Information Block
~A  Depth        SP         RILD        RILM        RLL3         GR     
# ...
  1876.0000    185.5431     23.8526     26.3677     27.7969     52.8102
  1876.2500    186.3783     23.2604     25.4361     25.7359     57.3512
  1876.5000    187.1381     22.6947     24.5087     24.0429     62.8310
  1876.7500    187.8212     22.1709     23.6269     22.9362     65.2465
  1877.0000    188.4458     21.6944     22.8168     22.3369     66.7490
  1877.2500    189.0403     21.2609     22.0892     22.0355     66.4374
  1877.5000    189.6271     20.8596     21.4440     21.8482     64.5783
  1877.7500    190.2066     20.4786     20.8750     21.6601     62.8045
  1878.0000    190.7537     20.1115     20.3741     21.4022     60.0657
  1878.2500    191.2293     19.7617     19.9349     21.0418     58.7738
  1878.5000    191.5990     19.4423     19.5543     20.5995     58.6870
  1878.7500    191.8464     19.1706     19.2332     20.1395     60.0741
  1879.0000    191.9760     18.9612     18.9756     19.7164     63.5650
  1879.2500    192.0058     18.8206     18.7876     19.3347     66.0888
  1879.5000    191.9575     18.7474     18.6753     18.9873     69.5578
  1879.7500    191.8483     18.7352     18.6435     18.7394     71.9078
  1880.0000    191.6864     18.7765     18.6947     18.7356     76.1396
  1880.2500    191.4749     18.8638     18.8286     19.0909     79.3871
  1880.5000    191.2199     18.9863     19.0412     19.8000     83.8362
  1880.7500    190.9386     19.1289     19.3249     20.8037     85.6072
  1881.0000    190.6591     19.2738     19.6682     22.1176     85.3616
  1881.2500    190.4129     19.4074     20.0561     23.7897     83.4029
  1881.5000    190.2241     19.5283     20.4713     25.6782     79.4222
  1881.7500    190.0993     19.6480     20.8962     27.3447     77.1715
  1882.0000    190.0269     19.7854     21.3156     28.2736     75.0417
  1882.2500    189.9841     19.9552     21.7189     28.2383     74.0517
  1882.5000    189.9476     20.1596     22.1007     27.4664     72.5778
  1882.7500    189.8997     20.3882     22.4600     26.4795     71.9124
  1883.0000    189.8314     20.6239     22.7975     25.7616     72.5583
  1883.2500    189.7431     20.8500     23.1132     25.4965     74.1962
  1883.5000    189.6422     21.0547     23.4058     25.5312     76.8696
  1883.7500    189.5370     21.2307     23.6730     25.5580     77.5235
  1884.0000    189.4307     21.3744     23.9130     25.3601     76.1743
  1884.2500    189.3197     21.4840     24.1264     24.9643     74.6714
  1884.5000    189.1986     21.5590     24.3169     24.6331     74.1867
  1884.7500    189.0674     21.6009     24.4900     24.7089     76.1115
  1885.0000    188.9362     21.6140     24.6511     25.3928     82.1499
  1885.2500    188.8260     21.6061     24.8022     26.5987     87.0996
  1885.5000    188.7659     21.5873     24.9397     27.9855     93.4350
  1885.7500    188.7864     21.5674     25.0532     29.1319     95.9199
  1886.0000    188.9120     21.5516     25.1266     29.7275     96.5645
  1886.2500    189.1527     21.5365     25.1420     29.6778     95.3751
  1886.5000    189.4962     21.5097     25.0845     29.1065     92.6545
  1886.7500    189.9046     21.4545     24.9469     28.2797     90.8418
  1887.0000    190.3220     21.3594     24.7325     27.4795     87.0846
  1887.2500    190.6917     21.2238     24.4529     26.8597     81.9537
  1887.5000    190.9752     21.0565     24.1243     26.3600     67.3705
  1887.7500    191.1596     20.8682     23.7630     25.7676     53.4544
  1888.0000    191.2486     20.6662     23.3819     24.9108     31.1606
  1888.2500    191.2473     20.4534     22.9907     23.8153     18.7872
  1888.5000    191.1559     20.2324     22.5965     22.6764      6.9082
  1888.7500    190.9752     20.0064     22.2052     21.6961      2.9903
  1889.0000    190.7159     19.7771     21.8219     20.9622      0.6511
  1889.2500    190.3994     19.5398     21.4495     20.4592      0.1951
  1889.5000    190.0519     19.2817     21.0877     20.1496      0.0230
  1889.7500    189.7005     18.9842     20.7310     20.0270      0.0031
  1890.0000    189.3754     18.6292     20.3685     20.1112   -999.2500
  1890.2500    189.1102     18.2063     19.9833     20.4119   -999.2500
  1890.5000    188.9322     17.7169     19.5548     20.8945   -999.2500
  1890.7500    188.8497     17.1744     19.0615     21.4563   -999.2500
  1891.0000    188.8475     16.5994     18.4862     21.9230   -999.2500
  1891.2500    188.8932     16.0130     17.8227     22.0683   -999.2500
  1891.5000    188.9470     15.4305     17.0802     21.6673   -999.2500
  1891.7500    188.9686     14.8605     16.2846     20.5958   -999.2500
  1892.0000    188.9276     14.3101     15.4742     18.9423   -999.2500
  1892.2500    188.8124     13.7913     14.6916     17.0251   -999.2500
  1892.5000    188.6326     13.3236     13.9755     15.2437   -999.2500
  1892.7500    188.4142     12.9285     13.3553     13.8684   -999.2500
  1893.0000    188.1947     12.6205     12.8494     12.9512   -999.2500
  1893.2500    188.0243     12.4016     12.4668     12.4047   -999.2500
  1893.5000    187.9665     12.2602     12.2086     12.1341   -999.2500
  1893.7500    188.0968     12.1751     12.0710     12.1277   -999.2500
  1894.0000    188.4991     12.1216     12.0461     12.5234   -999.2500
  1894.2500    189.2707     12.0786     12.1217     13.6763   -999.2500
  1894.5000    190.5301     12.0344     12.2807     16.1346   -999.2500
  1894.7500    192.4117     11.9910     12.5008     20.3294   -999.2500
  1895.0000    195.0325     11.9230     12.7547     25.9387   -999.2500
  1895.2500    198.4359     11.8970     13.0137     31.4054   -999.2500
  1895.5000    202.5458     11.9806     13.2536     34.4172   -999.2500
  1895.7500    207.1620     12.1553     13.4614     33.4305   -999.2500
  1896.0000    211.9966     12.4326     13.6396     28.9550   -999.2500
  1896.2500    216.7213     12.8086     13.8058     23.2125   -999.2500
  1896.5000    221.0117     13.2623     13.9866     18.5054   -999.2500
  1896.7500    224.6028     13.7562     14.2094     15.9435   -999.2500
  1897.0000    227.3551     14.2405     14.4934     15.4432   -999.2500
  1897.2500    229.2687     14.6642     14.8433     16.4465   -999.2500
  1897.5000    230.4032     14.9974     15.2452     18.4681   -999.2500
  1897.7500    230.5967     15.2641     15.6653     21.1775   -999.2500
  1898.0000    228.8941     15.5735     16.0535     24.1998   -999.2500
  1898.2500    222.7203     16.1355     16.3523     26.9320   -999.2500
  1898.5000    207.6696     17.2637     16.5107     28.6191   -999.2500
  1898.7500    179.5654     19.5249     16.4987     28.7093   -999.2500
  1899.0000    138.7463     23.3520     16.3164     27.1882   -999.2500
  1899.2500     92.5538     29.8070     15.9944     24.5650   -999.2500
  1899.5000     51.8266     40.1516     15.5851     21.5339   -999.2500
  1899.7500     23.8536     55.3474     15.1494     18.6497   -999.2500
  1900.0000      8.8881     74.3350     14.7462     16.2402   -999.2500
  1900.2500      2.6518     92.7334     14.4261     14.4887   -999.2500
  1900.5000      0.6278    105.7769     14.2294     13.5091   -999.2500
  1900.7500      0.1162    112.7282     14.1894     13.3426   -999.2500
  1901.0000   -999.2500    116.0897     14.3368     13.9362   -999.2500
  1901.2500   -999.2500    118.5879     14.7075     15.1753   -999.2500
  1901.5000   -999.2500    122.1004     15.3510     16.9551   -999.2500
  1901.7500   -999.2500    367.1998     16.3411     19.1929   -999.2500
  1902.0000   -999.2500    444.0354     17.7892     21.7415   -999.2500
  1902.2500   -999.2500    578.8702     19.8617     24.3079   -999.2500
  1902.5000   -999.2500    809.7815     22.8017     26.4989   -999.2500
  1902.7500   -999.2500   1186.0013     26.9541     27.9577   -999.2500
  1903.0000   -999.2500   1728.0499     32.7826     28.4583   -999.2500
  1903.2500   -999.2500   2342.8035     40.8438     27.9465   -999.2500
  1903.5000   -999.2500   2835.7563     51.6437     26.6116   -999.2500
  1903.7500   -999.2500   3107.8350     65.0022     24.9472   -999.2500
