~Version Information
VERS.                      2.0: CWLS Log ASCII Standard - VERSION 2.0
WRAP.                       NO: One line per depth step
~Well Information Block
STRT.FT                -6.5000: 
STOP.FT              1636.7500: 
STEP.FT                 0.2500: 
NULL.                -999.2500: 
COMP.          Pioneer Natural Resources: COMPANY
WELL.          Stock Canyon 34-33: WELL
FLD.           Purgatorie River: FIELD
LOC.           980' FSL & 2191' FEL--: LOCATION
PROV.                       CO: PROVINCE
CNTY.               Las Animas: COUNTRY
SRVC.          Patterson Wireline: SERVICE COMPANY
DATE.          Mon Dec 12 09:29:49 2005: LOG DATE
UWI.           05 071 08601 00: UNIQUE WELL ID
~Curve Information Block
DEPT.FT            0 000 00 00: Depth
CCL.                          : Casing Collar Locator
TT3.usec                      : CBL 3' Travel Time
AMP3.mV                       : CBL 3' Amplitude
GR.GAPI                       : Gamma Ray
~Parameter Information Block
~A  Depth       CCL         TT3         AMP3         GR     
# ...
   194.5000      0.0000    280.7352     82.0690    100.3228
   194.7500      0.0000    280.7600     82.1394    103.9529
   195.0000      0.0000    280.7863     82.2286    105.1287
   195.2500      0.0000    280.8105     82.3077    103.6711
   195.5000      0.0000    280.8282     82.3573    101.4266
   195.7500      0.0000    280.8362     82.3791    100.6382
   196.0000      0.0000    280.8334     82.3890    102.1144
   196.2500      0.0000    280.8228     82.4045    105.1684
   196.5000      0.0000    280.8101     82.4345    108.6639
   196.7500      0.0000    280.8016     82.4745    111.4478
   197.0000      0.0000    280.8009     82.5091    112.2448
   197.2500      0.0000    280.8079     82.5213    110.2607
   197.5000      0.0000    280.8192     82.5047    106.0556
   197.7500      0.0000    280.8295     82.4677    101.2272
   198.0000      0.0000    280.8343     82.4250     97.2277
   198.2500      0.0000    280.8328     82.3852     94.6851
   198.5000      0.0000    280.8286     82.3488     93.5535
   198.7500      0.0000    280.8268     82.3178     93.5574
   199.0000      0.0000    280.8293     82.2992     94.4778
   199.2500      0.0000    280.8370     82.2988     95.9254
   199.5000      0.0000    280.8562     82.3161     96.8942
   199.7500      0.0000    280.9060     82.3473     95.9329
   200.0000      0.0000    281.0124     82.3864     91.9984
   200.2500      0.0000    281.1769     82.4212     85.2293
   200.5000      0.0000    281.3433     82.4367     77.1316
   200.7500      0.0000    281.4191     82.4306     70.0025
   201.0000      0.0000    281.3553     82.4210     65.7979
   201.2500      0.0000    281.1957     82.4285     65.2784
   201.5000      0.0000    281.0310     82.4521     67.9840
   201.7500      0.0000    280.9189     82.4712     72.7570
   202.0000      0.0000    280.8614     82.4722     78.2646
   202.2500      0.0000    280.8361     82.4633     83.3186
   202.5000      0.0000    280.8257     82.4607     87.1860
   202.7500      0.0000    280.8226     82.4674     89.8732
   203.0000      0.0000    280.8231     82.4731     91.9937
   203.2500      0.0000    280.8243     82.4690     94.1468
   203.5000      0.0000    280.8251     82.4574     96.4448
   203.7500      0.0000    280.8268     82.4484     98.5412
   204.0000      0.0000    280.8318     82.4494     99.8893
   204.2500      0.0000    280.8404     82.4553    100.0374
   204.5000      0.0000    280.8495     82.4536     99.1030
   204.7500      0.0000    280.8549     82.4424     98.0768
   205.0000      0.0000    280.8529     82.4371     98.3325
   205.2500      0.0000    280.8433     82.4557    100.7243
   205.5000      0.0000    280.8286     82.4996    105.2338
   205.7500      0.0000    280.8127     82.5521    111.0723
   206.0000      0.0000    280.7993     82.5910    116.7277
   206.2500      0.0000    280.7909     82.6023    120.4285
   206.5000      0.0000    280.7882     82.5850    121.3848
   206.7500      0.0000    280.7914     82.5464    120.5807
   207.0000      0.0000    280.7995     82.4934    119.6485
   207.2500      0.0000    280.8116     82.4264    118.6876
   207.5000      0.0000    280.8259     82.3416    116.0660
   207.7500      0.0000    280.8391     82.2428    111.0846
   208.0000      0.0000    280.8482     82.1500    106.0837
   208.2500      0.0000    280.8510     82.0916    104.7395
   208.5000      0.0000    280.8457     82.0851    108.2926
   208.7500      0.0000    280.8314     82.1288    114.1687
   209.0000      0.0000    280.8103     82.2075    118.6020
   209.2500      0.0000    280.7885     82.3009    120.2425
   209.5000      0.0000    280.7720     82.3877    120.8276
   209.7500      0.0000    280.7638     82.4490    122.4865
   210.0000      0.0000    280.7634     82.4738    125.3414
   210.2500      0.0000    280.7694     82.4660    128.3051
   210.5000      0.0000    280.7798     82.4435    131.0967
   210.7500      0.0000    280.7922     82.4222    133.9847
   211.0000      0.0000    280.8047     82.3998    136.0786
   211.2500      0.0000    280.8156     82.3615    135.5321
   211.5000      0.0000    280.8224     82.3042    131.7440
   211.7500      0.0000    280.8227     82.2476    126.5140
   212.0000      0.0000    280.8155     82.2199    122.8128
   212.2500      0.0000    280.8020     82.2323    122.6131
   212.5000      0.0000    280.7854     82.2703    125.5878
   212.7500      0.0000    280.7684     82.3109    129.4603
   213.0000      0.0000    280.7528     82.3452    131.6208
   213.2500      0.0000    280.7395     82.3824    130.7458
   213.5000      0.0000    280.7299     82.4329    127.3845
   213.7500      0.0000    280.7259     82.4888    123.4868
   214.0000      0.0000    280.7287     82.5074    121.1878
   214.2500      0.0000    280.7370     82.3855    121.2782
   214.5000      0.0000    280.7501     81.9219    122.5977
   214.7500      0.0000    280.7880     80.8171    123.3151
   215.0000      0.0000    280.9284     78.8407    122.8411
   215.2500      0.0000    281.3257     76.1369    122.1717
   215.5000      0.0000    282.1440     73.3153    122.6236
   215.7500      0.0000    283.4018     71.0468    124.5193
   216.0000      0.0000    284.8742     69.5559    126.5414
   216.2500      0.0000    286.2004     68.6250    126.0598
   216.5000      0.0000    287.1248     67.9795    120.9569
   216.7500      0.0000    287.6271     67.4919    111.7941
   217.0000      0.0000    287.8479     67.1092    101.7919
   217.2500      2.0000    287.9465     66.7700     94.4684
   217.5000     -2.0000    288.0293     66.3913     91.6035
   217.7500      0.0000    288.1347     65.9468     93.1039
   218.0000      0.0000    288.2060     65.6468     97.7706
   218.2500      0.0000    288.0725     66.0007    103.7019
   218.5000      0.0000    287.5237     67.4904    108.4988
   218.7500      0.0000    286.4743     70.0912    110.0743
   219.0000      0.0000    285.0672     73.2470    108.0048
   219.2500      0.0000    283.5985     76.3043    104.0615
   219.5000      0.0000    282.3467     78.8303    100.9640
   219.7500      0.0000    281.4592     80.6199    100.4602
   220.0000      0.0000    280.9380     81.6624    102.5921
   220.2500      0.0000    280.6891     82.1315    106.2848
   220.5000      0.0000    280.5937     82.2838    110.2171
   220.7500      0.0000    280.5637     82.3191    113.6062
   221.0000      0.0000    280.5568     82.3269    116.7057
   221.2500      0.0000    280.5594     82.3283    120.3918
   221.5000      0.0000    280.5673     82.3255    124.9046
   221.7500      0.0000    280.5775     82.3248    129.0927
   222.0000      0.0000    280.5874     82.3329    131.1718
   222.2500      0.0000    280.5955     82.3497    130.1044
   222.5000      0.0000    280.6014     82.3685    126.0289
   222.7500      0.0000    280.6057     82.3801    119.5782
   223.0000      0.0000    280.6078     82.3829    111.2996
   223.2500      0.0000    280.6060     82.3863    101.7886
   223.5000      0.0000    280.5996     82.4009     92.0520
   223.7500      0.0000    280.5907     82.4267     83.4888
   224.0000      0.0000    280.5829     82.4553     77.3694
   224.2500      0.0000    280.5786     82.4798     74.1375
   224.5000      0.0000    280.5767     82.4971     73.1402
   224.7500      0.0000    280.5753     82.5027     72.9653
   225.0000      0.0000    280.5732     82.4928     71.9741
   225.2500      0.0000    280.5714     82.4755     68.9745
   225.5000      0.0000    280.5722     82.4698     64.1311
   225.7500      0.0000    280.5777     82.4867     59.3634
   226.0000      0.0000    280.5872     82.5145     57.2610
   226.2500      0.0000    280.5974     82.5295     58.9985
   226.5000      0.0000    280.6047     82.5166     63.0294
   226.7500      0.0000    280.6077     82.4749     65.9517
   227.0000      0.0000    280.6074     82.4077     65.1876
   227.2500      0.0000    280.6049     82.3201     61.2033
   227.5000      0.0000    280.5999     82.2267     56.9791
   227.7500      0.0000    280.5907     82.1557     55.2469
