~Version Information
VERS.                      2.0: CWLS Log ASCII Standard - VERSION 2.0
WRAP.                       NO: One line per depth step
~Well Information Block
STRT.FT               345.0000: 
STOP.FT              2167.7000: 
STEP.FT                 0.1000: 
NULL.                -999.2500: 
COMP.          Pioneer Natural Resources: COMPANY
WELL.          Hemisphere 32-24: WELL
FLD.           Purgatoire River: FIELD
LOC.           1850' FNL & 2284' FEL--: LOCATION
PROV.                 Colorado: PROVINCE
CNTY.               Las Animas: COUNTRY
SRVC.                Patterson: SERVICE COMPANY
DATE.          Mon Aug 15 07:19:13 2005: LOG DATE
UWI.           05 071 08440 00: UNIQUE WELL ID
~Curve Information Block
DEPT.FT            0 000 00 00: Depth
DCAL.in                       : CDL Caliper
RHOB.g/cc                     : CDL Bulk Density
RHOC.g/cc                     : CDL Density Correction
DPOR.pu                       : CDL Density Porosity
NPOR.pu                       : Neutron Porosity
GR.GAPI                       : Gamma Ray
~Parameter Information Block
~A  Depth       DCAL        RHOB        RHOC        DPOR        NPOR         GR     
# ...
  1180.2000      8.0895      1.3325      0.0937     79.8480      6.5806     69.8592
  1180.3000      8.0882      1.3719      0.0881     77.4599      6.6981     68.2510
  1180.4000      8.0882      1.4388      0.1567     73.4076      7.0307     68.7824
  1180.5000      8.0818      1.5453      0.1927     66.9527      7.2121     71.5099
  1180.6000      8.0818      1.6836      0.2610     58.5721      7.4131     76.0308
  1180.7000      8.0818      1.8276      0.3000     49.8415      7.9406     79.9871
  1180.8000      8.0631      1.9588      0.3182     41.8925      8.6355     82.0083
  1180.9000      8.0631      2.0770      0.3209     34.7259      9.2975     85.1808
  1181.0000      8.0297      2.1819      0.3610     28.3721      9.9278     89.6031
  1181.1000      8.0297      2.2712      0.3365     22.9587     10.3017     91.2012
  1181.2000      8.0297      2.3526      0.3132     18.0239     10.4524     91.0543
  1181.3000      8.0068      2.4238      0.3069     13.7085     10.9461     95.0135
  1181.4000      8.0068      2.4629      0.2852     11.3402     12.0945    102.1845
  1181.5000      7.9937      2.4600      0.1533     11.5151     13.4887    105.7950
  1181.6000      7.9937      2.4395      0.0655     12.7567     14.5513    106.8599
  1181.7000      7.9937      2.4302      0.0900     13.3201     15.2899    110.3209
  1181.8000      7.9813      2.4356      0.0733     12.9935     16.0631    114.0233
  1181.9000      7.9813      2.4483      0.0922     12.2259     16.7945    114.8067
  1182.0000      7.9702      2.4644      0.1134     11.2490     17.0914    115.4260
  1182.1000      7.9702      2.4871      0.1048      9.8750     17.0130    117.3918
  1182.2000      7.9702      2.5215      0.1118      7.7875     16.9974    119.2972
  1182.3000      7.9672      2.5545      0.1844      5.7886     17.1906    122.0503
  1182.4000      7.9672      2.5603      0.1516      5.4374     17.4196    125.4664
  1182.5000      7.9703      2.5348      0.1193      6.9806     17.6538    129.3815
  1182.6000      7.9703      2.4959      0.0901      9.3397     17.9312    136.8589
  1182.7000      7.9703      2.4595      0.0722     11.5434     18.2630    143.5194
  1182.8000      7.9692      2.4383      0.0151     12.8311     18.7204    142.7507
  1182.9000      7.9692      2.4441      0.0124     12.4804     19.2269    140.0680
  1183.0000      7.9716      2.4759      0.0527     10.5536     19.3250    141.9122
  1183.1000      7.9716      2.5157      0.0930      8.1389     18.9874    146.8002
  1183.2000      7.9716      2.5433      0.0873      6.4669     18.9155    150.7073
  1183.3000      7.9843      2.5515      0.1076      5.9708     19.2735    149.6509
  1183.4000      7.9843      2.5450      0.1110      6.3661     19.4641    144.8876
  1183.5000      7.9881      2.5299      0.0865      7.2785     19.3182    141.2926
  1183.6000      7.9881      2.5108      0.1026      8.4375     19.0785    138.4154
  1183.7000      7.9881      2.4907      0.0784      9.6534     19.0192    131.6815
  1183.8000      7.9681      2.4758      0.0474     10.5603     19.3899    120.8504
  1183.9000      7.9681      2.4699      0.0887     10.9157     19.9552    113.4376
  1184.0000      7.9465      2.4736      0.0530     10.6932     20.1996    113.4103
  1184.1000      7.9465      2.4947      0.0215      9.4094     20.1702    114.8047
  1184.2000      7.9465      2.5362      0.0538      6.8955     20.3063    113.6983
  1184.3000      7.9382      2.5771      0.1151      4.4158     20.7831    111.8381
  1184.4000      7.9382      2.5899      0.0949      3.6394     21.3268    111.4020
  1184.5000      7.9363      2.5706      0.0759      4.8124     21.8102    113.4007
  1184.6000      7.9363      2.5397      0.0432      6.6830     22.4150    112.1469
  1184.7000      7.9363      2.5141      0.0676      8.2349     23.1017    106.1791
  1184.8000      7.9349      2.5016     -0.0055      8.9942     23.6292    103.7942
  1184.9000      7.9349      2.5106      0.0647      8.4473     23.7657    106.7750
  1185.0000      7.9362      2.5324      0.0468      7.1271     23.5737    109.6345
  1185.1000      7.9362      2.5501      0.0445      6.0544     23.4011    112.1663
  1185.2000      7.9362      2.5672      0.0061      5.0166     23.4577    114.3600
  1185.3000      7.9385      2.5900      0.0616      3.6383     23.7106    112.2367
  1185.4000      7.9385      2.6027      0.0969      2.8672     23.9427    106.3039
  1185.5000      7.9388      2.5912      0.0924      3.5613     23.8883    100.6209
  1185.6000      7.9388      2.5609      0.0839      5.4022     23.5533     98.8247
  1185.7000      7.9388      2.5325      0.0370      7.1198     23.2629     99.9811
  1185.8000      7.9363      2.5251      0.0322      7.5698     23.3201    101.2673
  1185.9000      7.9363      2.5336      0.0260      7.0551     23.6217    101.6311
  1186.0000      7.9295      2.5432      0.0200      6.4753     23.6067    100.5031
  1186.1000      7.9295      2.5517      0.0436      5.9593     23.0927    100.1584
  1186.2000      7.9295      2.5635      0.0792      5.2451     22.5462    103.1207
  1186.3000      7.9204      2.5747      0.1395      4.5659     22.2542    104.8547
  1186.4000      7.9204      2.5764      0.1305      4.4633     22.1840    102.8635
  1186.5000      7.9164      2.5695      0.1067      4.8804     22.3901    103.5801
  1186.6000      7.9164      2.5616      0.1168      5.3601     22.8906    106.3318
  1186.7000      7.9164      2.5647      0.0534      5.1701     23.3558    104.3464
  1186.8000      7.9226      2.5882      0.0935      3.7470     23.5842    100.9939
  1186.9000      7.9226      2.6196      0.0926      1.8447     23.6984    101.4418
  1187.0000      7.9394      2.6351      0.1146      0.9048     23.7997    103.9627
  1187.1000      7.9394      2.6221      0.1130      1.6887     23.9533    106.8635
  1187.2000      7.9394      2.5956      0.0185      3.2956     24.0644    108.9680
  1187.3000      7.9564      2.5777      0.0936      4.3847     24.0560    108.3036
  1187.4000      7.9564      2.5710      0.0451      4.7859     24.1260    107.5497
  1187.5000      7.9638      2.5689      0.0859      4.9170     24.3261    111.1419
  1187.6000      7.9638      2.5602      0.0897      5.4413     24.5893    115.2843
  1187.7000      7.9638      2.5456      0.0429      6.3283     24.9325    115.0702
  1187.8000      7.9637      2.5454      0.0125      6.3372     25.1957    112.5586
  1187.9000      7.9637      2.5617      0.0809      5.3515     25.1716    112.6389
  1188.0000      7.9611      2.5664      0.0769      5.0681     24.8432    119.0146
  1188.1000      7.9611      2.5534      0.0416      5.8559     24.3213    127.7824
  1188.2000      7.9611      2.5411      0.0318      6.5992     23.8105    133.8600
  1188.3000      7.9592      2.5329      0.0315      7.0986     23.6165    140.0395
  1188.4000      7.9592      2.5201      0.0350      7.8712     23.8238    147.2749
  1188.5000      7.9585      2.4983      0.0377      9.1933     24.0886    151.6203
  1188.6000      7.9585      2.4745      0.0135     10.6335     24.1238    149.4581
  1188.7000      7.9585      2.4680     -0.0170     11.0329     23.9795    140.8332
  1188.8000      7.9581      2.4890      0.0223      9.7546     23.8307    132.3372
  1188.9000      7.9581      2.5283      0.0616      7.3758     23.7002    129.4138
  1189.0000      7.9550      2.5676      0.0584      4.9928     23.4030    130.2575
  1189.1000      7.9550      2.5986      0.0996      3.1168     22.9546    131.6034
  1189.2000      7.9550      2.6241      0.1171      1.5706     22.7332    131.1406
  1189.3000      7.9480      2.6467      0.1300      0.1976     23.0842    126.9793
  1189.4000      7.9480      2.6666      0.1464     -1.0060     23.6970    120.7799
  1189.5000      7.9411      2.6833      0.0898     -2.0171     23.7079    115.1914
  1189.6000      7.9411      2.6851      0.1415     -2.1281     23.0122    110.2065
  1189.7000      7.9411      2.6609      0.0616     -0.6634     22.3890    105.9323
