~Version Information
VERS.                      2.0: CWLS Log ASCII Standard - VERSION 2.0
WRAP.                       NO: One line per depth step
~Well Information Block
STRT.FT               330.0000: 
STOP.FT              1876.2000: 
STEP.FT                 0.1000: 
NULL.                -999.2500: 
COMP.          Pioneer Natural Resources: COMPANY
WELL.          Cooper 11-13 Tr: WELL
FLD.           Purgatoire River: FIELD
LOC.           476' FNL & 738' FWL: LOCATION
STAT.                 Colorado: State
CNTY.               Las Animas: COUNTY
CTRY. USA : Country
SECT. 13 : Section
TOWN. 32S : Township
RANG. 67W : Range 
SRVC.                Patterson: SERVICE COMPANY
DATE.          Mon Sep 26 10:28:17 2005: LOG DATE
API.           05 071 08525 00: UNIQUE WELL ID
~Curve Information Block
DEPT.FT            0 000 00 00: Depth
DCAL.in                       : CDL Caliper
RHOB.g/cc                     : CDL Bulk Density
RHOC.g/cc                     : CDL Density Correction
DPOR.pu                       : CDL Density Porosity
NPOR.pu                       : Neutron Porosity
GR.GAPI                       : Gamma Ray
~Parameter Information Block
~A  Depth       DCAL        RHOB        RHOC        DPOR        NPOR         GR     
# ...
   934.8000      7.8141      2.5819      0.0439      4.1293     28.0508    112.9949
   934.9000      7.8141      2.5921      0.0544      3.5088     27.5316    111.0524
   935.0000      7.7981      2.5863      0.0264      3.8595     27.1504    108.0443
   935.1000      7.7981      2.5765      0.0324      4.4572     26.9283    106.0159
   935.2000      7.7981      2.5658      0.0420      5.1049     26.5281    108.5724
   935.3000      7.7849      2.5495      0.0141      6.0897     25.6187    115.1456
   935.4000      7.7849      2.5352      0.0107      6.9570     24.4748    119.0267
   935.5000      7.7815      2.5343     -0.0124      7.0134     23.7403    113.8803
   935.6000      7.7815      2.5454     -0.0013      6.3409     23.5051    103.8362
   935.7000      7.7815      2.5570      0.0062      5.6336     23.4877     97.8551
   935.8000      7.7845      2.5653      0.0152      5.1304     23.8118     96.0336
   935.9000      7.7845      2.5691      0.0365      4.9012     24.6324     94.7371
   936.0000      7.7869      2.5671      0.0426      5.0239     25.5415     95.3801
   936.1000      7.7869      2.5652      0.0342      5.1419     25.9746     98.4611
   936.2000      7.7869      2.5691      0.0137      4.9003     25.9455    101.9277
   936.3000      7.7865      2.5773      0.0566      4.4045     26.0697    104.8412
   936.4000      7.7865      2.5849      0.0459      3.9438     26.5643    106.9200
   936.5000      7.7834      2.5879      0.0810      3.7666     27.0518    109.1238
   936.6000      7.7834      2.5823      0.0731      4.1001     27.2828    113.1105
   936.7000      7.7834      2.5737      0.0493      4.6232     27.2853    116.8451
   936.8000      7.7802      2.5742      0.0598      4.5912     27.1279    118.6071
   936.9000      7.7802      2.5886      0.0924      3.7223     26.9523    121.6079
   937.0000      7.7787      2.6016      0.1473      2.9316     26.9325    125.3027
   937.1000      7.7787      2.5946      0.1127      3.3593     26.8403    125.1128
   937.2000      7.7787      2.5742      0.0752      4.5943     26.2995    122.5496
   937.3000      7.7779      2.5586      0.0565      5.5407     25.4878    122.6758
   937.4000      7.7779      2.5536      0.0701      5.8419     24.9335    126.7990
   937.5000      7.7771      2.5583      0.0665      5.5552     25.2108    130.9873
   937.6000      7.7771      2.5729      0.0671      4.6733     26.4878    130.4632
   937.7000      7.7771      2.5962      0.0784      3.2592     27.8078    125.4079
   937.8000      7.7759      2.6213      0.1192      1.7390     28.1047    119.8488
   937.9000      7.7759      2.6310      0.1043      1.1488     27.8377    116.2405
   938.0000      7.7749      2.6083      0.1103      2.5254     27.7835    114.3568
   938.1000      7.7749      2.5607      0.0270      5.4117     27.7853    117.1046
   938.2000      7.7749      2.5248      0.0163      7.5856     27.7179    128.1251
   938.3000      7.7755      2.5198      0.0732      7.8897     27.7943    141.2747
   938.4000      7.7755      2.5246      0.0730      7.6021     27.9065    146.0379
   938.5000      7.7757      2.5162      0.0666      8.1073     27.7046    140.6681
   938.6000      7.7757      2.4978      0.0232      9.2232     27.2234    133.8718
   938.7000      7.7757      2.4880      0.0298      9.8164     26.9086    133.9765
   938.8000      7.7759      2.4942      0.0575      9.4412     26.7725    138.9391
   938.9000      7.7759      2.5070      0.0520      8.6679     26.3914    141.5180
   939.0000      7.7777      2.5173      0.0839      8.0454     26.0335    138.2805
   939.1000      7.7777      2.5309      0.0650      7.2178     26.2284    132.6912
   939.2000      7.7777      2.5605      0.1191      5.4237     26.5557    130.6428
   939.3000      7.7793      2.5902      0.1853      3.6234     26.5211    134.0879
   939.4000      7.7793      2.5984      0.1222      3.1243     26.4505    139.3709
   939.5000      7.7801      2.5999      0.1092      3.0341     26.6176    141.1891
   939.6000      7.7801      2.6074      0.1794      2.5790     26.8509    137.8817
   939.7000      7.7801      2.6142      0.1456      2.1722     26.8754    132.9416
   939.8000      7.7840      2.6276      0.0735      1.3552     26.7661    131.0305
   939.9000      7.7840      2.6507      0.1338     -0.0436     26.9281    132.4689
   940.0000      7.7933      2.6596      0.1115     -0.5827     27.2943    135.0461
   940.1000      7.7933      2.6422      0.1029      0.4708     27.2900    137.0508
   940.2000      7.7933      2.6110      0.0963      2.3643     27.0343    136.9675
   940.3000      7.8070      2.5825      0.0317      4.0934     27.0493    133.8217
   940.4000      7.8070      2.5655      0.0470      5.1200     27.3775    130.4694
   940.5000      7.8192      2.5551      0.0662      5.7486     27.7383    130.5396
   940.6000      7.8192      2.5501      0.0157      6.0539     27.8778    131.7311
   940.7000      7.8192      2.5566      0.0470      5.6604     28.0243    130.4838
   940.8000      7.8282      2.5650      0.0444      5.1502     28.1405    131.2972
   940.9000      7.8282      2.5648      0.0197      5.1617     27.7151    135.3530
   941.0000      7.8346      2.5654      0.0011      5.1249     27.1354    136.3193
   941.1000      7.8346      2.5753      0.0508      4.5257     27.0998    133.8314
   941.2000      7.8346      2.5880      0.0483      3.7605     27.1371    130.5804
   941.3000      7.8412      2.5960      0.0617      3.2724     26.7555    126.0699
   941.4000      7.8412      2.5989      0.0771      3.0965     26.4768    121.7201
   941.5000      7.8496      2.6015      0.0750      2.9365     26.5844    121.1809
   941.6000      7.8496      2.6079      0.0330      2.5538     26.8390    127.3303
   941.7000      7.8496      2.6106      0.0530      2.3878     27.1919    133.7244
   941.8000      7.8560      2.6020      0.0190      2.9062     27.4581    128.7312
   941.9000      7.8560      2.5899      0.0268      3.6431     27.5061    118.6322
   942.0000      7.8587      2.5804      0.0517      4.2207     27.5859    120.9244
   942.1000      7.8587      2.5722      0.0327      4.7180     27.7356    132.1774
   942.2000      7.8587      2.5670      0.0156      5.0294     27.7509    135.4525
   942.3000      7.8587      2.5690      0.0165      4.9099     27.6811    129.1983
   942.4000      7.8587      2.5752      0.0026      4.5336     27.4928    124.4693
   942.5000      7.8568      2.5714      0.0362      4.7612     27.0245    123.9803
   942.6000      7.8568      2.5523     -0.0201      5.9208     26.4338    121.6098
   942.7000      7.8568      2.5334     -0.0299      7.0666     25.9932    116.6462
   942.8000      7.8530      2.5217      0.0007      7.7787     25.7966    114.4485
   942.9000      7.8530      2.5146     -0.0163      8.2066     25.6468    116.2747
   943.0000      7.8456      2.5208      0.0091      7.8320     25.4688    118.5160
   943.1000      7.8456      2.5429      0.0162      6.4932     25.6563    119.9363
   943.2000      7.8456      2.5695      0.0379      4.8771     26.2396    122.9040
   943.3000      7.8358      2.5827      0.0970      4.0760     26.7263    127.3786
   943.4000      7.8358      2.5732      0.0515      4.6561     26.8497    129.0022
   943.5000      7.8301      2.5514      0.0525      5.9782     26.6837    125.5247
   943.6000      7.8301      2.5285      0.0521      7.3640     26.5879    121.1995
   943.7000      7.8301      2.5106      0.0218      8.4470     26.6329    121.3167
   943.8000      7.8263      2.5008      0.0655      9.0409     26.5073    125.1086
   943.9000      7.8263      2.5023     -0.0081      8.9542     25.9807    126.7182
   944.0000      7.8225      2.5202      0.0260      7.8664     25.2520    123.0969
   944.1000      7.8225      2.5390      0.0802      6.7242     24.9821    116.7498
   944.2000      7.8225      2.5382      0.0525      6.7780     25.3506    111.2466
   944.3000      7.8229      2.5301      0.0253      7.2663     25.6772    110.0108
