~Version Information
VERS.                      2.0: CWLS Log ASCII Standard - VERSION 2.0
WRAP.                       NO: One line per depth step
~Well Information Block
STRT.FT               240.0000: 
STOP.FT              1185.5000: 
STEP.FT                 0.2500: 
NULL.                -999.2500: 
COMP.          Pioneer Natural Resources: COMPANY
WELL.          Whitecoat 14-36: WELL
FLD.           Purgatorie River: FIELD
LOC.           606' FSL & 260' FWL: LOCATION
PROV.                 Colorado: PROVINCE
CNTY.               Las Animas: COUNTRY
SRVC.                Patterson: SERVICE COMPANY
DATE.          Mon Dec 05 16:51:12 2005: LOG DATE
UWI.                          : UNIQUE WELL ID
~Curve Information Block
DEPT.FT            0 000 00 00: Depth
DIR.Ohm-m                     : IEL Induction Resistivity
GR.GAPI                       : Gamma Ray
~Parameter Information Block
~A  Depth       DIR          GR     
# ...
   574.5000     28.7424    116.3416
   574.7500     28.5031    116.0885
   575.0000     28.1105    114.6527
   575.2500     27.4966    113.0896
   575.5000     26.7059    110.4890
   575.7500     25.8967    109.0766
   576.0000     25.2579    107.9168
   576.2500     24.9134    107.7505
   576.5000     24.8835    108.1800
   576.7500     25.1045    108.8253
   577.0000     25.4701    110.1409
   577.2500     25.8620    111.0803
   577.5000     26.1667    112.3664
   577.7500     26.2957    113.0830
   578.0000     26.2215    113.8171
   578.2500     26.0004    114.0262
   578.5000     25.7492    114.1744
   578.7500     25.5881    114.4587
   579.0000     25.5880    115.2685
   579.2500     25.7415    115.7196
   579.5000     25.9599    115.6116
   579.7500     26.1048    115.0669
   580.0000     26.0605    114.4161
   580.2500     25.8086    114.6439
   580.5000     25.4408    116.2810
   580.7500     25.0930    118.0483
   581.0000     24.8612    121.2814
   581.2500     24.7589    123.6395
   581.5000     24.7338    127.0241
   581.7500     24.7249    128.8097
   582.0000     24.7221    130.3628
   582.2500     24.7814    130.6347
   582.5000     24.9781    130.0376
   582.7500     25.3376    129.0533
   583.0000     25.8037    126.8197
   583.2500     26.2639    124.8207
   583.5000     26.6065    120.9495
   583.7500     26.7528    117.9663
   584.0000     26.6591    114.1214
   584.2500     26.3247    112.9233
   584.5000     25.8257    113.7597
   584.7500     25.3165    115.4964
   585.0000     24.9643    118.3544
   585.2500     24.8598    119.9554
   585.5000     24.9714    121.9889
   585.7500     25.1718    123.2778
   586.0000     25.3113    125.0389
   586.2500     25.2915    125.8878
   586.5000     25.0841    126.6358
   586.7500     24.7010    127.1697
   587.0000     24.1734    129.0444
   587.2500     23.5607    131.4022
   587.5000     22.9633    136.4189
   587.7500     22.5011    140.1683
   588.0000     22.2636    145.1375
   588.2500     22.2672    147.4958
   588.5000     22.4454    149.3230
   588.7500     22.6784    149.4451
   589.0000     22.8459    148.2361
   589.2500     22.8720    146.8031
   589.5000     22.7456    144.3659
   589.7500     22.5225    142.7953
   590.0000     22.3161    140.5865
   590.2500     22.2678    139.2409
   590.5000     22.4962    137.8665
   590.7500     23.0458    137.8075
   591.0000     23.8585    139.0953
   591.2500     24.7902    140.0427
   591.5000     25.6683    139.0468
   591.7500     26.3651    135.6030
   592.0000     26.8378    126.4221
   592.2500     27.1245    118.9369
   592.5000     27.3222    108.4317
   592.7500     27.5572    102.9472
   593.0000     27.9380     97.3067
   593.2500     28.4999     94.8946
   593.5000     29.1722     92.4012
   593.7500     29.8007     91.0593
   594.0000     30.2258     89.2908
   594.2500     30.3786     88.4939
   594.5000     30.3206     88.5269
   594.7500     30.1876     89.6074
   595.0000     30.0894     92.6760
   595.2500     30.0425     95.3979
   595.5000     29.9736    100.1058
   595.7500     29.7767    103.5496
   596.0000     29.3714    108.7274
   596.2500     28.7251    111.6200
   596.5000     27.8346    114.0700
   596.7500     26.7100    114.1681
   597.0000     25.3769    112.3990
   597.2500     23.8916    110.5547
   597.5000     22.3408    107.9585
   597.7500     20.8160    106.7484
   598.0000     19.3834    105.7668
   598.2500     18.0747    105.5528
   598.5000     16.9008    105.9223
   598.7500     15.8672    106.7922
   599.0000     14.9766    109.3209
   599.2500     14.2237    111.9060
   599.5000     13.5953    117.1707
   599.7500     13.0748    121.6214
   600.0000     12.6472    129.7532
   600.2500     12.2994    136.0624
   600.5000     12.0214    146.1237
   600.7500     11.8078    152.3841
   601.0000     11.6566    159.5138
   601.2500     11.5647    162.2660
   601.5000     11.5250    163.7578
   601.7500     11.5290    163.7360
   602.0000     11.5724    163.7225
   602.2500     11.6557    164.4493
   602.5000     11.7779    166.9467
   602.7500     11.9323    169.0065
   603.0000     12.1128    171.0934
   603.2500     12.3225    171.1145
   603.5000     12.5784    168.8734
   603.7500     12.9044    166.1489
   604.0000     13.3183    160.8623
   604.2500     13.8203    156.9366
   604.5000     14.3881    151.4684
   604.7500     14.9819    148.9864
   605.0000     15.5599    148.4815
   605.2500     16.0947    150.5488
   605.5000     16.5817    156.0145
   605.7500     17.0348    159.7252
   606.0000     17.4777    162.4344
   606.2500     17.9398    160.9372
   606.5000     18.4537    152.7506
   606.7500     19.0465    143.9105
   607.0000     19.7246    128.4286
   607.2500     20.4571    118.8021
   607.5000     21.1707    108.5374
   607.7500     21.7599    105.3638
   608.0000     22.1145    105.8086
   608.2500     22.1572    108.6737
   608.5000     21.8784    114.7588
   608.7500     21.3441    118.7130
   609.0000     20.6669    122.4632
   609.2500     19.9560    122.8053
   609.5000     19.2860    120.3130
   609.7500     18.6956    117.5336
   610.0000     18.2020    113.5899
   610.2500     17.8095    111.9786
   610.5000     17.5066    111.9575
   610.7500     17.2664    113.7937
   611.0000     17.0578    119.4082
   611.2500     16.8621    124.8160
   611.5000     16.6832    134.3107
   611.7500     16.5452    140.5720
   612.0000     16.4832    148.2278
   612.2500     16.5270    151.6753
   612.5000     16.6842    154.5031
   612.7500     16.9300    155.2814
   613.0000     17.2154    155.6964
   613.2500     17.4853    155.8370
   613.5000     17.6906    155.8595
   613.7500     17.7886    155.3698
   614.0000     17.7525    152.8270
   614.2500     17.5946    149.3214
   614.5000     17.3746    140.8436
   614.7500     17.1699    133.2868
   615.0000     17.0309    120.4262
   615.2500     16.9617    111.9553
   615.5000     16.9310    101.5064
   615.7500     16.8968     97.1169
   616.0000     16.8243     95.4484
   616.2500     16.6909     97.6988
   616.5000     16.4838    105.7349
   616.7500     16.1939    113.8178
   617.0000     15.8147    128.8121
   617.2500     15.3526    139.4373
   617.5000     14.8378    153.2979
   617.7500     14.3247    159.4669
   618.0000     13.8766    162.5621
   618.2500     13.5436    160.7075
   618.5000     13.3462    154.0144
   618.7500     13.2700    148.5852
   619.0000     13.2719    141.4386
   619.2500     13.2951    138.0211
   619.5000     13.2878    134.8262
   619.7500     13.2203    133.7137
   620.0000     13.0916    133.5969
   620.2500     12.9240    134.8155
   620.5000     12.7480    138.6806
   620.7500     12.5866    142.1868
   621.0000     12.4460    147.5969
   621.2500     12.3158    150.7053
   621.5000     12.1740    154.2820
   621.7500     11.9975    156.0695
   622.0000     11.7765    158.2417
   622.2500     11.5242    159.5849
   622.5000     11.2708    161.8122
   622.7500     11.0466    163.4760
   623.0000     10.8669    165.7365
   623.2500     10.7308    166.6588
   623.5000     10.6291    166.8959
   623.7500     10.5531    166.5241
   624.0000     10.4965    165.8662
   624.2500     10.4535    165.7434
   624.5000     10.4165    166.6049
   624.7500     10.3793    168.0908
   625.0000     10.3406    171.3911
   625.2500     10.3061    173.6110
   625.5000     10.2848    175.5277
   625.7500     10.2829    175.4898
   626.0000     10.3002    174.0429
   626.2500     10.3311    172.8647
   626.5000     10.3691    171.8375
   626.7500     10.4120    171.9769
   627.0000     10.4637    173.3200
   627.2500     10.5340    174.4775
   627.5000     10.6351    175.5137
   627.7500     10.7774    175.4363
   628.0000     10.9677    174.5548
   628.2500     11.2088    173.9004
   628.5000     11.4993    173.2801
   628.7500     11.8287    173.1623
   629.0000     12.1744    173.4771
   629.2500     12.5028    174.0326
   629.5000     12.7815    175.0799
   629.7500     12.9967    175.5109
   630.0000     13.1671    175.0482
