~Version Information
VERS.                      2.0: CWLS Log ASCII Standard - VERSION 2.0
WRAP.                       NO: One line per depth step
~Well Information Block
STRT.FT               665.0000: 
STOP.FT              2193.5000: 
STEP.FT                 0.1000: 
NULL.                -999.2500: 
COMP.          Pioneer Natural Resources: COMPANY
WELL.          Bear Cub Federal 11-23: WELL
FLD.           Purgatoire River: FIELD
LOC.           1225' FNL & 1268' FWL--: LOCATION
CNTY.               Las Animas: COUNTY
SRVC.                Patterson: SERVICE COMPANY
DATE.          Tue Jun 20 09:14:02 2006: LOG DATE
UWI.           05 071 08509 00: UNIQUE WELL ID
STAT.                 Colorado: STATE
~Curve Information Block
DEPT.FT            0 000 00 00: Depth
DCAL.in                       : CDL Caliper
RHOB.g/cc                     : CDL Bulk Density
RHOC.g/cc                     : CDL Density Correction
DPOR.pu                       : CDL Density Porosity
NPOR.pu                       : Neutron Porosity
GR.GAPI                       : Gamma Ray
~Parameter Information Block
~A  Depth       DCAL        RHOB        RHOC        DPOR        NPOR         GR     
# ...
  1951.4000      7.9491      2.5398      0.0834      6.6789     21.4081     81.6133
  1951.5000      7.9501      2.5488      0.0715      6.1316     21.7117     80.1317
  1951.6000      7.9501      2.5738      0.1190      4.6160     22.1996     77.9796
  1951.7000      7.9501      2.5923      0.1206      3.4970     22.6919     80.7575
  1951.8000      7.9350      2.5973      0.0991      3.1932     22.8852     92.8835
  1951.9000      7.9350      2.5901      0.1786      3.6310     22.6419    107.6852
  1952.0000      7.9131      2.5626      0.1614      5.2996     22.0365    115.4798
  1952.1000      7.9131      2.5287      0.0908      7.3538     21.2886    115.5914
  1952.2000      7.9131      2.5160      0.1116      8.1229     20.7335    111.7634
  1952.3000      7.8966      2.5210      0.1108      7.8192     20.5178    107.2823
  1952.4000      7.8966      2.5278      0.0848      7.4045     20.5472    105.5497
  1952.5000      7.8896      2.5408      0.0774      6.6171     20.6145    106.2343
  1952.6000      7.8896      2.5595      0.1155      5.4820     20.5368    104.2965
  1952.7000      7.8896      2.5653      0.1423      5.1321     20.4031     97.8712
  1952.8000      7.8875      2.5595      0.1101      5.4831     20.3436     91.2717
  1952.9000      7.8875      2.5641      0.0995      5.2069     20.3153     88.2354
  1953.0000      7.8932      2.5763      0.1591      4.4672     20.2492     88.5185
  1953.1000      7.8932      2.5767      0.1580      4.4428     20.2063     89.0084
  1953.2000      7.8932      2.5670      0.1142      5.0324     20.2812     87.1795
  1953.3000      7.9115      2.5579      0.1258      5.5802     20.4469     85.5596
  1953.4000      7.9115      2.5489      0.0730      6.1292     20.4955     87.8602
  1953.5000      7.9285      2.5374      0.0724      6.8261     20.2944     92.9673
  1953.6000      7.9285      2.5302      0.0097      7.2599     20.0224     98.2189
  1953.7000      7.9285      2.5360      0.0478      6.9081     19.8939    101.1228
  1953.8000      7.9325      2.5453      0.0830      6.3465     19.9039     96.4432
  1953.9000      7.9325      2.5408      0.0771      6.6205     19.9103     84.6334
  1954.0000      7.9294      2.5133      0.0649      8.2853     20.0027     76.3849
  1954.1000      7.9294      2.4556      0.0619     11.7845     20.3612     77.9154
  1954.2000      7.9294      2.3688      0.0260     17.0444     20.7084     82.4641
  1954.3000      7.9280      2.2729     -0.0191     22.8547     20.7157     85.5730
  1954.4000      7.9280      2.1956     -0.0751     27.5412     20.3293     88.8759
  1954.5000      7.9286      2.1504     -0.0641     30.2809     19.3448     89.2715
  1954.6000      7.9286      2.1273     -0.0484     31.6815     17.9223     85.7265
  1954.7000      7.9286      2.1127     -0.0366     32.5658     16.7659     83.3822
  1954.8000      7.9347      2.1063      0.0241     32.9538     16.1417     83.6659
  1954.9000      7.9347      2.1158      0.0439     32.3742     15.7434     83.9150
  1955.0000      7.9471      2.1440      0.1005     30.6646     15.1815     86.4075
  1955.1000      7.9471      2.1766      0.1824     28.6925     14.4589     93.9413
  1955.2000      7.9471      2.1971      0.1663     27.4478     13.9838    101.1831
  1955.3000      7.9582      2.2097      0.1614     26.6836     13.9359    104.0884
  1955.4000      7.9582      2.2271      0.1639     25.6331     14.0527    105.5070
  1955.5000      7.9698      2.2497      0.2025     24.2591     14.0227    106.3835
  1955.6000      7.9698      2.2659      0.1960     23.2812     14.0222    106.8482
  1955.7000      7.9698      2.2648      0.2114     23.3448     14.1988    109.1279
  1955.8000      7.9813      2.2533      0.1209     24.0433     14.1846    113.0710
  1955.9000      7.9813      2.2517      0.1355     24.1376     13.8528    117.9259
  1956.0000      7.9859      2.2661      0.1533     23.2667     13.5376    121.5359
  1956.1000      7.9859      2.2865      0.1531     22.0274     13.5405    119.2014
  1956.2000      7.9859      2.3026      0.1373     21.0551     13.8674    114.7586
  1956.3000      7.9874      2.3071      0.1170     20.7804     14.2493    116.8964
  1956.4000      7.9874      2.3088      0.0676     20.6779     14.5415    125.8639
  1956.5000      7.9901      2.3279      0.0801     19.5206     14.9351    133.5507
  1956.6000      7.9901      2.3664      0.0825     17.1906     15.5288    132.7895
  1956.7000      7.9901      2.4061      0.1104     14.7817     16.1501    129.3210
  1956.8000      7.9916      2.4312      0.1096     13.2625     16.7874    131.0524
  1956.9000      7.9916      2.4434      0.0903     12.5201     17.5320    135.2241
  1957.0000      7.9933      2.4575      0.0749     11.6688     18.2020    137.1499
  1957.1000      7.9933      2.4807      0.1065     10.2609     18.6857    137.3383
  1957.2000      7.9933      2.5103      0.1077      8.4658     19.0730    138.5585
  1957.3000      7.9935      2.5387      0.1269      6.7430     19.4892    143.8669
  1957.4000      7.9935      2.5498      0.1721      6.0714     20.0416    151.3213
  1957.5000      7.9915      2.5387      0.1260      6.7447     20.5727    155.2500
  1957.6000      7.9915      2.5304      0.0790      7.2455     20.8328    152.8875
  1957.7000      7.9915      2.5399      0.1128      6.6700     20.8637    147.1033
  1957.8000      7.9908      2.5481      0.1016      6.1739     20.9359    144.6889
  1957.9000      7.9908      2.5444      0.0607      6.4025     21.2557    148.5928
  1958.0000      7.9896      2.5389      0.0962      6.7308     21.7977    152.6169
  1958.1000      7.9896      2.5401      0.0650      6.6607     22.2908    150.8044
  1958.2000      7.9896      2.5471      0.0766      6.2379     22.7226    148.3152
  1958.3000      7.9876      2.5514      0.0847      5.9747     23.3096    149.2020
  1958.4000      7.9876      2.5472      0.0988      6.2332     23.6984    149.1471
  1958.5000      7.9838      2.5372      0.0709      6.8368     23.5243    146.6452
  1958.6000      7.9838      2.5308      0.0590      7.2227     23.2138    143.4574
  1958.7000      7.9838      2.5351      0.0648      6.9663     23.0790    143.0371
  1958.8000      7.9808      2.5410      0.0881      6.6038     22.9580    145.9467
  1958.9000      7.9808      2.5336      0.0967      7.0544     22.9314    148.4464
  1959.0000      7.9840      2.5154      0.0756      8.1549     23.1293    150.5297
  1959.1000      7.9840      2.5013      0.0654      9.0149     23.2578    152.6051
  1959.2000      7.9840      2.4964      0.0767      9.3092     23.0415    151.2324
  1959.3000      7.9894      2.4955      0.0710      9.3628     22.7242    145.9915
  1959.4000      7.9894      2.4901      0.0836      9.6913     22.6786    139.9125
  1959.5000      7.9791      2.4773      0.0500     10.4680     22.8560    133.8669
  1959.6000      7.9791      2.4621      0.0822     11.3853     22.9170    129.9462
  1959.7000      7.9791      2.4534      0.0417     11.9129     22.7998    132.1089
  1959.8000      7.9489      2.4604      0.0663     11.4893     22.6360    138.0512
  1959.9000      7.9489      2.4777      0.1294     10.4409     22.3290    143.1296
  1960.0000      7.9215      2.4897      0.1039      9.7160     21.9097    147.1218
  1960.1000      7.9215      2.4864      0.1291      9.9166     21.5996    150.3590
  1960.2000      7.9215      2.4597      0.1334     11.5307     21.4451    153.2898
  1960.3000      7.9131      2.4158      0.1074     14.1947     21.2610    155.4222
  1960.4000      7.9131      2.3831      0.0552     16.1775     20.9931    156.2146
  1960.5000      7.9303      2.3771      0.0566     16.5366     20.7879    157.3590
  1960.6000      7.9303      2.3825      0.0769     16.2103     20.4855    161.7245
  1960.7000      7.9303      2.3832      0.0825     16.1689     19.6806    167.0952
  1960.8000      7.9774      2.3817      0.0621     16.2592     18.5044    164.4585
  1960.9000      7.9774      2.3840      0.0976     16.1236     17.5854    152.2573
