~Version Information
VERS.                      2.0: CWLS Log ASCII Standard - VERSION 2.0
WRAP.                       NO: One line per depth step
~Well Information Block
STRT.FT                -7.5000: 
STOP.FT              1572.0000: 
STEP.FT                 0.2500: 
NULL.                -999.2500: 
COMP.          Pioneer Natural Resources: COMPANY
WELL.          Galloway 32-13 Tr: WELL
FLD.           Purgatoire River: FIELD
LOC.           --1910' FNL & 2002' FEL----: LOCATION
PROV.                       CO: PROVINCE
CNTY.               Las Animas: COUNTRY
SRVC.          Patterson Wireline: SERVICE COMPANY
DATE.          Thu Nov 17 12:46:45 2005: LOG DATE
UWI.           05 071 08608 00: UNIQUE WELL ID
~Curve Information Block
DEPT.FT            0 000 00 00: Depth
CCL.                          : Casing Collar Locator
TT3.usec                      : CBL 3' Travel Time
AMP3.mV                       : CBL 3' Amplitude
GR.GAPI                       : Gamma Ray
~Parameter Information Block
~A  Depth       CCL         TT3         AMP3         GR     
# ...
   830.0000      0.0000    281.1108     62.1935    104.4681
   830.2500      0.0000    281.1254     62.2153    100.7788
   830.5000      0.0000    281.1318     62.3119     95.9024
   830.7500      0.0000    281.1237     62.4996     90.5816
   831.0000      0.0000    281.0993     62.7913     86.3054
   831.2500      0.0000    281.0592     63.1860     84.2166
   831.5000      0.0000    281.0057     63.6529     84.2193
   831.7500      0.0000    280.9441     64.1354     85.3166
   832.0000      0.0000    280.8841     64.5788     86.4522
   832.2500      0.0000    280.8391     64.9550     86.8635
   832.5000      0.0000    280.8199     65.2558     86.2384
   832.7500      0.0000    280.8280     65.4667     85.0067
   833.0000      0.0000    280.8556     65.5545     84.1212
   833.2500      0.0000    280.8918     65.4819     84.1119
   833.5000      0.0000    280.9278     65.2331     84.5882
   833.7500      0.0000    280.9581     64.8284     84.9363
   834.0000      0.0000    280.9786     64.3229     85.1372
   834.2500      0.0000    280.9869     63.7911     85.5893
   834.5000      0.0000    280.9836     63.3042     86.4408
   834.7500      0.0000    280.9745     62.9132     87.2819
   835.0000      0.0000    280.9678     62.6407     87.1862
   835.2500      0.0000    280.9679     62.4776     85.1513
   835.5000      0.0000    280.9717     62.3904     81.3279
   835.7500      0.0000    280.9706     62.3421     78.0202
   836.0000      0.0000    280.9566     62.3138     78.5740
   836.2500      0.0000    280.9274     62.3168     84.6930
   836.5000      0.0000    280.8867     62.3945     95.1093
   836.7500      0.0000    280.8431     62.6069    106.7904
   837.0000      0.0000    280.8067     62.9980    116.8091
   837.2500      0.0000    280.7846     63.5700    123.1223
   837.5000      0.0000    280.7793     64.2775    124.6858
   837.7500      0.0000    280.7901     65.0343    121.8338
   838.0000      0.0000    280.8143     65.7341    116.5482
   838.2500      0.0000    280.8469     66.2846    111.5740
   838.5000      0.0000    280.8799     66.6315    108.5006
   838.7500      0.0000    280.9033     66.7569    106.5218
   839.0000      0.0000    280.9095     66.6703    103.3454
   839.2500      0.0000    280.8963     66.4060     97.5013
   839.5000      0.0000    280.8680     66.0210     89.8290
   839.7500      0.0000    280.8333     65.5849     82.9769
   840.0000      0.0000    280.8025     65.1676     79.7795
   840.2500      0.0000    280.7870     64.8263     81.8348
   840.5000      0.0000    280.8045     64.5758     88.8633
   840.7500      0.0000    280.9227     64.3048     98.7963
   841.0000      0.0000    281.3502     63.6717    108.4237
   841.2500      0.0000    282.5134     62.1135    114.5400
   841.5000      0.0000    284.9003     59.1235    115.4166
   841.7500      0.0000    288.5316     54.7434    111.7537
   842.0000      0.0000    292.4689     49.8591    106.1156
   842.2500      0.0000    295.1762     45.8150    101.1554
   842.5000      0.0000    295.7395     43.4878     98.2156
   842.7500      0.0000    294.6343     42.7223     97.1695
   843.0000      0.0000    293.1573     42.6946     96.9711
   843.2500      0.0000    292.3589     42.6716     96.4653
   843.5000     -2.0000    292.7108     42.3492     95.2887
   843.7500      0.0000    294.3831     41.7461     94.0536
   844.0000      0.0000    297.2733     41.1175     93.4152
   844.2500      0.0000    300.6263     40.9920     93.1997
   844.5000      0.0000    302.9796     42.0145     92.6495
   844.7500      0.0000    302.9001     44.5331     91.1392
   845.0000      0.0000    299.9527     48.3302     88.4337
   845.2500      0.0000    295.0347     52.7117     84.6737
   845.5000      0.0000    289.8130     56.8000     80.4086
   845.7500      0.0000    285.7144     59.9027     76.4601
   846.0000      0.0000    283.2433     61.8204     73.6374
   846.2500      0.0000    282.0800     62.8304     72.5609
   846.5000      0.0000    281.6381     63.3689     73.5547
   846.7500      0.0000    281.4815     63.7473     76.6005
   847.0000      0.0000    281.4052     64.0895     81.5999
   847.2500      0.0000    281.3445     64.3999     88.7026
   847.5000      0.0000    281.2949     64.6309     98.1385
   847.7500      0.0000    281.2646     64.7356    109.7120
   848.0000      0.0000    281.2583     64.7065    122.4717
   848.2500      0.0000    281.2705     64.5943    134.7446
   848.5000      0.0000    281.2893     64.4827    144.5597
   848.7500      0.0000    281.3036     64.4279    150.3303
   849.0000      0.0000    281.3105     64.4151    151.3354
   849.2500      0.0000    281.3150     64.3833    147.9377
   849.5000      0.0000    281.3238     64.2902    141.7955
   849.7500      0.0000    281.3393     64.1432    135.5036
   850.0000      0.0000    281.3596     63.9721    131.1294
   850.2500      0.0000    281.3826     63.7873    129.0306
   850.5000      0.0000    281.4095     63.5686    128.6128
   850.7500      0.0000    281.4427     63.2890    129.9615
   851.0000      0.0000    281.4806     62.9489    133.8887
   851.2500      0.0000    281.5157     62.5943    140.2841
   851.5000      0.0000    281.5380     62.3017    147.0361
   851.7500      0.0000    281.5396     62.1362    150.8477
   852.0000      0.0000    281.5196     62.1112    149.1587
   852.2500      0.0000    281.4846     62.1827    141.8366
   852.5000      0.0000    281.4459     62.2842    131.4254
   852.7500      0.0000    281.4146     62.3700    121.5076
   853.0000      0.0000    281.3987     62.4265    114.4657
   853.2500      0.0000    281.4025     62.4470    110.5718
   853.5000      0.0000    281.4266     62.4087    108.7409
   853.7500      0.0000    281.4670     62.2824    107.7417
   854.0000      0.0000    281.5144     62.0660    106.9661
   854.2500      0.0000    281.5559     61.8127    106.6961
   854.5000      0.0000    281.5797     61.6292    107.8315
   854.7500      0.0000    281.5799     61.6285    111.1401
   855.0000      0.0000    281.5587     61.8538    116.5626
   855.2500      0.0000    281.5249     62.2396    123.0708
   855.5000      0.0000    281.4898     62.6588    129.0622
   855.7500      0.0000    281.4628     63.0089    132.9793
   856.0000      0.0000    281.4485     63.2564    133.8616
   856.2500      0.0000    281.4454     63.4196    131.5915
   856.5000      0.0000    281.4475     63.5325    126.7081
   856.7500      0.0000    281.4474     63.6269    120.0617
   857.0000      0.0000    281.4399     63.7337    112.6919
   857.2500      0.0000    281.4239     63.8840    105.8090
   857.5000      0.0000    281.4014     64.0970    100.7167
   857.7500      0.0000    281.3764     64.3612     98.7710
   858.0000      0.0000    281.3536     64.6324    101.0891
   858.2500      0.0000    281.3381     64.8574    107.6013
   858.5000      0.0000    281.3338     65.0044    116.0634
   858.7500      0.0000    281.3413     65.0741    122.4279
   859.0000      0.0000    281.3568     65.0901    123.1252
   859.2500      0.0000    281.3732     65.0823    117.7496
   859.5000      0.0000    281.3837     65.0740    109.4435
   859.7500      0.0000    281.3834     65.0750    102.3353
   860.0000      0.0000    281.3709     65.0819     98.7873
   860.2500      0.0000    281.3477     65.0847     99.0384
   860.5000      0.0000    281.3184     65.0784    102.3260
   860.7500      0.0000    281.2899     65.0667    107.3529
   861.0000      0.0000    281.2696     65.0520    112.1948
   861.2500      0.0000    281.2627     65.0254    114.9118
   861.5000      0.0000    281.2699     64.9736    114.6348
   861.7500      0.0000    281.2873     64.8978    111.8286
   862.0000      0.0000    281.3077     64.8191    107.5254
   862.2500      0.0000    281.3242     64.7655    102.5512
   862.5000      0.0000    281.3328     64.7583     97.5029
   862.7500      0.0000    281.3322     64.8092     93.1129
   863.0000      0.0000    281.3232     64.9201     90.1662
   863.2500      0.0000    281.3093     65.0813     89.0189
