~Version Information
VERS.                      2.0: CWLS Log ASCII Standard - VERSION 2.0
WRAP.                       NO: One line per depth step
~Well Information Block
STRT.FT                15.0000: 
STOP.FT              1532.0000: 
STEP.FT                 0.2500: 
NULL.                -999.2500: 
COMP.          Pioneer Natural Resources: COMPANY
WELL.           Bobsy 34-11 Tr: WELL
FLD.           Purgatoire River: FIELD
LOC.           514' FSL & 1784' FEL: LOCATION
PROV.                 Colorado: PROVINCE
CNTY.               Las Animas: COUNTRY
SRVC.                Patterson: SERVICE COMPANY
DATE.          Fri Jul 22 12:22:14 2005: LOG DATE
UWI.           05 071 08438 00: UNIQUE WELL ID
~Curve Information Block
DEPT.FT            0 000 00 00: Depth
GR.GAPI                       : Gamma Ray
CCL.                          : Casing Collar Locator
TT3.usec                      : CBL 3' Travel Time
AMP3.mV                       : CBL 3' Amplitude
~Parameter Information Block
~A  Depth        GR         CCL         TT3         AMP3    
# ...
   986.5000     99.2102      0.0000    716.2978     12.1441
   986.7500     98.2818      0.0000    717.5273     12.2167
   987.0000     97.9793      0.0000    714.4244     12.3066
   987.2500     98.6284      0.0000    707.1241     12.3994
   987.5000    101.1225      0.0000    698.3333     12.4707
   987.7500    105.9971      0.0000    691.2256     12.4889
   988.0000    112.5303      0.0000    687.3044     12.4255
   988.2500    119.0468      0.0000    686.4933     12.2776
   988.5000    124.1267      0.0000    688.4064     12.0768
   988.7500    127.4608      0.0000    692.8456     11.8698
   989.0000    129.6661      0.0000    699.2420     11.6881
   989.2500    131.4643      0.0000    706.2070     11.5354
   989.5000    133.1307      0.0000    712.1203     11.3959
   989.7500    134.7239      0.0000    716.1875     11.2485
   990.0000    136.4771      0.0000    718.5777     11.0832
   990.2500    138.3624      0.0000    719.3750     10.9136
   990.5000    139.3525      0.0000    717.7622     10.7696
   990.7500    138.0664      0.0000    712.7826     10.6747
   991.0000    134.5415      0.0000    704.9622     10.6332
   991.2500    130.6173      0.0000    696.5965     10.6355
   991.5000    128.1436      0.0000    690.0876     10.6696
   991.7500    127.2810      0.0000    686.2981     10.7276
   992.0000    126.8520      0.0000    684.5966     10.8080
   992.2500    125.9156      0.0000    683.9738     10.9145
   992.5000    124.5722      0.0000    683.8488     11.0456
   992.7500    123.3698      0.0000    684.1638     11.1877
   993.0000    122.4851      0.0000    685.1578     11.3239
   993.2500    121.8036      0.0000    687.0597     11.4523
   993.5000    121.5582      0.0000    689.6599     11.5867
   993.7500    122.4041      0.0000    692.0154     11.7381
   994.0000    124.8023      0.0000    692.8735     11.8989
   994.2500    128.6819      0.0000    691.7565     12.0498
   994.5000    133.6836      0.0000    689.4760     12.1756
   994.7500    139.1975      0.0000    687.3338     12.2728
   995.0000    143.9406      0.0000    686.0045     12.3424
   995.2500    146.0618      0.0000    685.3427     12.3800
   995.5000    144.3391      0.0000    684.9558     12.3786
   995.7500    139.3187      0.0000    684.6589     12.3431
   996.0000    133.0341      0.0000    684.4817     12.2956
   996.2500    127.6513      0.0000    684.4877     12.2610
   996.5000    124.5100      0.0000    684.6725     12.2530
   996.7500    124.0965      0.0000    684.9620     12.2761
   997.0000    126.2418      0.0000    685.2502     12.3362
   997.2500    130.1685      0.0000    685.4333     12.4440
   997.5000    134.7627      0.0000    685.4504     12.6060
   997.7500    139.1163      0.0000    685.3155     12.8107
   998.0000    142.9135      0.0000    685.1030     13.0258
   998.2500    146.2603      0.0000    684.8846     13.2174
   998.5000    149.0192      0.0000    684.6820     13.3740
   998.7500    150.4003      0.0000    684.4911     13.5083
   999.0000    149.7133      0.0000    684.3407     13.6293
   999.2500    147.5934      0.0000    684.3008     13.7112
   999.5000    145.8372      0.0000    684.4347     13.6905
   999.7500    145.7015      0.0000    684.7548     13.5023
  1000.0000    146.7262      0.0000    685.2039     13.1303
  1000.2500    147.2812      0.0000    685.6506     12.6243
  1000.5000    145.8992      0.0000    685.9218     12.0727
  1000.7500    142.0312      0.0000    685.8915     11.5665
  1001.0000    135.8875      0.0000    685.5735     11.1808
  1001.2500    127.9941      0.0000    685.1233     10.9591
  1001.5000    119.0949      0.0000    684.7306     10.8938
  1001.7500    110.3000      0.0000    684.4874     10.9248
  1002.0000    103.0006      0.0000    684.3507     10.9705
  1002.2500     98.4787      0.0000    684.2366     10.9718
  1002.5000     97.6500      0.0000    684.1412     10.9207
  1002.7500    100.9140      0.0000    684.1470     10.8644
  1003.0000    107.7528      0.0000    684.3048     10.8885
  1003.2500    116.3861      0.0000    684.4940     11.0823
  1003.5000    124.3758      0.0000    684.3573     11.4976
  1003.7500    129.8842      0.0000    683.2921     12.1193
  1004.0000    132.1987      0.0000    680.5483     12.8600
  1004.2500    131.1660      0.0000    675.6819     13.5792
  1004.5000    126.9460      0.0000    669.3943     14.1293
  1004.7500    120.8396      0.0000    663.9332     14.4207
  1005.0000    115.7228      0.0000    662.0173     14.4623
  1005.2500    114.6157      0.0000    664.7772     14.3409
  1005.5000    118.6034      0.0000    670.7662     14.1660
  1005.7500    126.4032      0.0000    677.1689     14.0325
  1006.0000    135.5310      0.0000    681.8912     14.0069
  1006.2500    143.3375      0.0000    684.5131     14.1149
  1006.5000    147.5438      0.0000    685.8021     14.3277
  1006.7500    147.0795      0.0000    686.9306     14.5655
  1007.0000    143.1430      0.0000    689.2551     14.7220
  1007.2500    139.0587      0.0000    694.0899     14.6904
  1007.5000    138.1170      0.0000    701.5754     14.3843
  1007.7500    141.0078      0.0000    708.6478     13.7846
  1008.0000    145.5863      0.0000    708.8345     13.0011
  1008.2500    149.1103      0.0000    696.5781     12.2376
  1008.5000    150.2380      0.0000    673.3914     11.6265
  1008.7500    149.2578      0.0000    648.3192     11.1303
  1009.0000    147.4549      0.0000    630.7807     10.6686
  1009.2500    146.2787      0.0000    624.1189     10.2726
  1009.5000    146.3193      0.0000    626.0089     10.0333
  1009.7500    146.8856      0.0000    631.8033      9.9648
  1010.0000    146.7586      1.7583    635.8872      9.9996
  1010.2500    145.3720      3.0000    632.7339     10.0793
  1010.5000    143.2018      1.6278    620.5053     10.2164
  1010.7500    141.0524      0.0000    604.7729     10.4919
  1011.0000    139.2575      0.0000    596.7901     10.9822
  1011.2500    137.7238      0.0000    603.9742     11.6390
  1011.5000    136.4842      0.0000    620.9650     12.2642
  1011.7500    135.7854      0.0000    634.3203     12.6768
  1012.0000    135.5651      0.0000    638.3087     12.8807
  1012.2500    135.1893      0.0000    641.3308     13.0062
  1012.5000    133.9994      0.0000    654.1238     13.1341
  1012.7500    131.9867      0.0000    676.3268     13.2451
  1013.0000    129.7509      0.0000    698.0833     13.2960
  1013.2500    127.9660      0.0000    711.0549     13.2814
  1013.5000    127.0308      0.0000    713.1338     13.2315
  1013.7500    127.1196      0.0000    703.9145     13.1839
  1014.0000    128.3064      0.0000    680.9767     13.1610
  1014.2500    130.4695      0.0000    643.1840     13.1608
  1014.5000    133.0992      0.0000    594.9969     13.1693
  1014.7500    135.5137      0.0000    544.8095     13.1790
  1015.0000    137.5667      0.0000    500.0895     13.1921
  1015.2500    139.9676      0.0000    465.4003     13.2107
  1015.5000    143.5022      0.0000    443.1228     13.2281
  1015.7500    147.8282      0.0000    433.0277     13.2329
  1016.0000    151.2370      0.0000    431.0485     13.2208
  1016.2500    151.6850      0.0000    431.0348     13.2006
  1016.5000    148.1345      0.0000    429.5141     13.1857
  1016.7500    141.3058      0.0000    428.0634     13.1816
  1017.0000    133.5868      0.0000    429.9170     13.1834
  1017.2500    127.9737      0.0000    435.0629     13.1847
  1017.5000    126.3833      0.0000    439.8587     13.1888
  1017.7500    128.5113      0.0000    440.9309     13.2073
  1018.0000    132.3009      0.0000    438.4121     13.2492
  1018.2500    135.6693      0.0000    435.4167     13.3070
  1018.5000    137.9157      0.0000    434.6720     13.3576
  1018.7500    139.7712      0.0000    435.3943     13.3786
  1019.0000    142.4286      0.0000    433.7043     13.3680
  1019.2500    146.4958      0.0000    426.8734     13.3442
  1019.5000    151.4783      0.0000    416.6363     13.3252
  1019.7500    156.0107      0.0000    407.5988     13.3096
