~Version Information
 VERS.                                  2.0 : CWLS LAS VERSION
 WRAP.                                   NO : WRAPING MODE
 SWARE .                 MController 2.5.0J : SOFTWARE VERSION
~Well Information
 WELL.                   Stock Canyon 34-33 : WELL
 COMP.   Pioneer Natrural Resources USA Inc : COMPANY
 FLD.                      Purgatoire River : FIELD
 LOC.                 SW/SE SEC33 T31S R65W : LOCATION
 DATE.                             12/04/05 : DATE(S) LOGGED
 SRVC.       Blanco Geological Services LLC : SERVICE COMPANY
 STAT.                             Colorado : STATE
 CNTY.                           Las Animas : COUNTY
 CTRY.                                  USA : COUNTRY
 API.                       05-071-08601-00 : API NUMBER
 STRT.FT                             618.00 : START DEPTH
 STOP.FT                            1661.00 : STOP DEPTH
 STEP.FT                               1.00 : DEPTH INCREMENT
 NULL.                                -9999 : NULL VALUE
~Curve information
 DEPTH.FT                                   :
 ROP.MIN/FT                                 :
 GAS.UNITS                                  :
~ASCII Log data
# ...
      1018.0         0.28          4.5 
      1019.0         0.53          4.3 
      1020.0         0.80          4.8 
      1021.0         0.53          4.8 
      1022.0         0.53          4.7 
      1023.0         0.53          4.8 
      1024.0         0.28          4.6 
      1025.0         0.27          4.4 
      1026.0         0.27          4.6 
      1027.0         0.27          4.8 
      1028.0         0.53          5.2 
      1029.0         0.27          4.5 
      1030.0         0.27          4.2 
      1031.0         0.27          4.1 
      1032.0         0.27          4.3 
      1033.0         0.27          4.2 
      1034.0         0.27          4.7 
      1035.0         0.27          4.5 
      1036.0         0.28          4.8 
      1037.0         0.27          4.6 
      1038.0         0.53          4.6 
      1039.0         0.53          4.4 
      1040.0         0.27          4.9 
      1041.0         0.20          4.7 
      1042.0         0.30          5.0 
      1043.0         0.27          8.9 
      1044.0         0.27         14.7 
      1045.0         0.27         47.3 
      1046.0         2.48        165.0 
      1047.0         0.30         26.0 
      1048.0         0.27         12.7 
      1049.0         0.43         11.4 
      1050.0         0.25          8.0 
      1051.0         0.23          6.8 
      1052.0         0.20          6.1 
      1053.0         0.20          6.6 
      1054.0         0.20          5.6 
      1055.0         0.20          5.6 
      1056.0         0.23          6.2 
      1057.0         0.27          5.4 
      1058.0         0.20          5.3 
      1059.0         0.20          5.4 
      1060.0         0.20          5.5 
      1061.0         0.17          5.4 
      1062.0         0.20          5.8 
      1063.0         0.20          5.7 
      1064.0         0.20          5.7 
      1065.0         0.23          7.4 
      1066.0         0.22          6.2 
      1067.0         0.20          6.1 
      1068.0         0.20          5.9 
      1069.0         0.20          5.9 
      1070.0         0.30          4.8 
      1071.0         0.23          5.7 
      1072.0         0.30          7.8 
      1073.0         0.23         17.5 
      1074.0         0.17         17.5 
      1075.0         0.17         23.2 
      1076.0         2.72        162.5 
      1077.0         0.43         28.0 
      1078.0         0.30         21.2 
      1079.0         0.17         19.6 
      1080.0         0.20         18.1 
      1081.0         0.13         17.5 
      1082.0         0.20         15.9 
      1083.0         0.27         15.7 
      1084.0         0.22         15.7 
      1085.0         0.23         15.0 
      1086.0         0.27         13.9 
      1087.0         0.23         12.6 
      1088.0         0.30         12.5 
      1089.0         0.20         12.6 
      1090.0         0.23         11.8 
      1091.0         0.27         10.6 
      1092.0         0.23         11.3 
      1093.0         0.20         11.3 
      1094.0         0.23         13.8 
      1095.0         0.20         15.0 
      1096.0         0.17         14.6 
      1097.0         0.17         14.4 
      1098.0         0.17         14.4 
      1099.0         0.25         12.9 
      1100.0         0.23         10.8 
      1101.0         0.17          9.5 
      1102.0         0.17          9.6 
      1103.0         0.23          9.0 
      1104.0         0.20          9.7 
      1105.0         3.75        179.8 
      1106.0         0.10         21.4 
      1107.0         0.27         17.9 
      1108.0         0.27         15.0 
      1109.0         0.30         11.4 
      1110.0         0.27         11.4 
      1111.0         0.27         11.0 
      1112.0         0.23         10.7 
      1113.0         0.25         10.4 
      1114.0         0.17         10.3 
      1115.0         0.13         10.7 
      1116.0         0.20          9.9 
      1117.0         0.30          9.3 
      1118.0         0.27          9.2 
      1119.0         0.20         14.7 
      1120.0         0.23         28.3 
      1121.0         0.20         39.4 
      1122.0         0.27         67.8 
      1123.0         0.30         80.1 
      1124.0         0.23         78.3 
      1125.0         0.20         71.8 
      1126.0         0.30         65.7 
      1127.0         0.28         64.3 
      1128.0         0.30         57.3 
      1129.0         0.20         49.8 
      1130.0         0.17         38.9 
      1131.0         0.20         27.4 
      1132.0         0.17         18.7 
      1133.0         0.27         15.4 
      1134.0         0.20         12.4 
      1135.0         0.43          9.6 
      1136.0         2.22          6.6 
      1137.0         0.33          3.7 
      1138.0         0.27          3.9 
      1139.0         0.30          4.5 
      1140.0         0.30          4.6 
      1141.0         0.37          5.3 
      1142.0         0.20          5.6 
      1143.0         0.17          6.0 
      1144.0         0.23          5.7 
      1145.0         0.23          6.1 
      1146.0         0.25          6.5 
      1147.0         0.23          6.5 
      1148.0         0.23          6.7 
      1149.0         0.20          6.6 
      1150.0         0.20          6.7 
      1151.0         0.20          6.7 
      1152.0         0.23          7.4 
      1153.0         0.20          7.1 
      1154.0         0.23          7.1 
      1155.0         0.23          7.1 
      1156.0         0.20          6.9 
      1157.0         0.23          6.8 
      1158.0         0.23          6.7 
      1159.0         0.20          7.5 
      1160.0         0.23          7.2 
      1161.0         0.25          6.6 
      1162.0         0.23          6.0 
      1163.0         0.20          5.3 
      1164.0         0.20          5.1 
      1165.0         0.23          5.1 
      1166.0         2.20          5.0 
      1167.0         0.25          3.8 
      1168.0         0.33          4.0 
      1169.0         0.40          3.9 
      1170.0         0.33          4.5 
      1171.0         0.30          4.4 
      1172.0         0.23          4.1 
      1173.0         0.20          4.6 
      1174.0         0.23          4.3 
      1175.0         0.30          4.0 
      1176.0         0.23          4.8 
      1177.0         0.27          4.2 
      1178.0         0.23          4.5 
      1179.0         0.25          4.2 
      1180.0         0.23          4.4 
      1181.0         0.20          4.4 
      1182.0         0.37          5.4 
      1183.0         0.30          5.2 
      1184.0         0.23          5.5 
      1185.0         0.23          5.5 
      1186.0         0.40          6.1 
      1187.0         0.33          5.6 
      1188.0         0.20          4.8 
      1189.0         0.17          5.1 
      1190.0         0.17          5.1 
      1191.0         0.20          4.8 
      1192.0         0.27          4.0 
      1193.0         0.35          4.2 
      1194.0         0.37          4.3 
      1195.0         0.23          4.2 
      1196.0         3.98          4.5 
      1197.0         0.30          3.9 
      1198.0         0.27          4.3 
      1199.0         0.33          4.2 
      1200.0         0.23          3.9 
      1201.0         0.23          4.1 
      1202.0         0.23          3.9 
      1203.0         0.38          4.3 
      1204.0         0.33          3.8 
      1205.0         0.33          4.1 
      1206.0         0.43          4.1 
      1207.0         0.30          4.4 
      1208.0         0.23          3.8 
      1209.0         0.23          4.7 
      1210.0         0.23          4.7 
      1211.0         0.27          5.2 
      1212.0         0.23          4.7 
      1213.0         0.20          4.5 
      1214.0         0.23          4.4 
      1215.0         0.22          3.9 
      1216.0         0.27          4.7 
      1217.0         0.23          8.5 
