~Version Information
VERS.                      2.0: CWLS Log ASCII Standard - VERSION 2.0
WRAP.                       NO: One line per depth step
~Well Information Block
STRT.FT               694.2000: 
STOP.FT              1498.5000: 
STEP.FT                 0.1000: 
NULL.                -999.2500: 
COMP.          Pioneer Natural Resources: COMPANY
WELL.          Pallet Ranch 34-25 Tr: WELL
FLD.           Purgatoire River: FIELD
LOC.           465' FSL & 2138' FEL: LOCATION
PROV.                 Colorado: PROVINCE
CNTY.               Las Animas: COUNTRY
SRVC.                Patterson: SERVICE COMPANY
DATE.          Thu Jan 19 06:39:54 2006: LOG DATE
UWI.           05 071 08657 00: UNIQUE WELL ID
~Curve Information Block
DEPT.FT            0 000 00 00: Depth
DCAL.in                       : CDL Caliper
RHOB.g/cc                     : CDL Bulk Density
RHOC.g/cc                     : CDL Density Correction
DPOR.pu                       : CDL Density Porosity
GR.GAPI                       : Gamma Ray
~Parameter Information Block
~A  Depth       DCAL        RHOB        RHOC        DPOR         GR     
# ...
  1075.0000      7.9007      2.6385     -0.0156      0.6967     83.5554
  1075.1000      7.9007      2.6232     -0.0470      1.6239     93.1361
  1075.2000      7.9007      2.6047     -0.0124      2.7437    106.7880
  1075.3000      7.9048      2.5694     -0.0135      4.8875    125.5222
  1075.4000      7.9048      2.5293     -0.0870      7.3147    145.2831
  1075.5000      7.9090      2.5186     -0.0572      7.9655    157.4467
  1075.6000      7.9090      2.5442     -0.0108      6.4098    160.1790
  1075.7000      7.9090      2.5803      0.1172      4.2243    159.8749
  1075.8000      7.9009      2.5985      0.1205      3.1221    162.4428
  1075.9000      7.9009      2.5980      0.0980      3.1507    166.7896
  1076.0000      7.9166      2.5886      0.1070      3.7241    168.9891
  1076.1000      7.9166      2.5660      0.1526      5.0910    169.2117
  1076.2000      7.9166      2.5321      0.0930      7.1462    167.0636
  1076.3000      7.9220      2.5044      0.1006      8.8246    161.2506
  1076.4000      7.9220      2.4913      0.0514      9.6207    158.0209
  1076.5000      7.9042      2.4850      0.0293      9.9971    159.7972
  1076.6000      7.9042      2.4709      0.0632     10.8523    157.9931
  1076.7000      7.9042      2.4492     -0.0262     12.1718    150.2617
  1076.8000      7.9596      2.4408     -0.0034     12.6794    145.4265
  1076.9000      7.9596      2.4487      0.0772     12.2020    145.5473
  1077.0000      8.0019      2.4610      0.0180     11.4529    142.6930
  1077.1000      8.0019      2.4808     -0.0040     10.2575    139.4282
  1077.2000      8.0019      2.5062      0.0800      8.7147    143.5334
  1077.3000      8.0442      2.5286      0.0508      7.3551    147.7637
  1077.4000      8.0442      2.5461      0.0661      6.2988    145.6483
  1077.5000      8.0457      2.5547      0.1220      5.7783    142.8784
  1077.6000      8.0457      2.5550      0.0841      5.7598    144.7971
  1077.7000      8.0457      2.5601      0.1217      5.4501    150.1073
  1077.8000      8.0346      2.5784      0.1307      4.3378    151.7407
  1077.9000      8.0346      2.6021      0.1584      2.9012    148.3666
  1078.0000      8.0523      2.6121      0.1599      2.2984    150.5783
  1078.1000      8.0523      2.6027      0.1262      2.8665    160.5480
  1078.2000      8.0523      2.5910      0.1080      3.5783    164.5777
  1078.3000      8.0055      2.5897      0.1322      3.6561    155.3093
  1078.4000      8.0055      2.5945      0.1310      3.3622    141.8584
  1078.5000      7.9133      2.5962      0.1445      3.2590    132.2054
  1078.6000      7.9133      2.5889      0.1259      3.7039    128.4862
  1078.7000      7.9133      2.5780      0.1090      4.3615    129.5453
  1078.8000      7.9287      2.5757      0.0580      4.5051    129.3237
  1078.9000      7.9287      2.5832      0.0599      4.0502    126.3444
  1079.0000      7.9889      2.5984     -0.0155      3.1268    123.2162
  1079.1000      7.9889      2.6206      0.0363      1.7848    117.8680
  1079.2000      7.9889      2.6364      0.0327      0.8222    108.4933
  1079.3000      8.0528      2.6414      0.0735      0.5183     99.0512
  1079.4000      8.0528      2.6530      0.0581     -0.1830     90.7269
  1079.5000      8.0472      2.6798      0.0612     -1.8055     82.3261
  1079.6000      8.0472      2.7015      0.0593     -3.1215     76.9124
  1079.7000      8.0472      2.6968      0.0489     -2.8351     79.2585
  1079.8000      7.9926      2.6767      0.0147     -1.6170     89.6162
  1079.9000      7.9926      2.6691     -0.0333     -1.1570     99.9153
  1080.0000      7.9976      2.6801     -0.0041     -1.8249    100.6322
  1080.1000      7.9976      2.6928      0.0254     -2.5926     94.3464
  1080.2000      7.9976      2.6971     -0.0199     -2.8525     91.9409
  1080.3000      7.9386      2.7017     -0.0008     -3.1319     95.7575
  1080.4000      7.9386      2.7095      0.0477     -3.6052    101.4077
  1080.5000      7.9144      2.7017      0.1099     -3.1317    106.3798
  1080.6000      7.9144      2.6697      0.0579     -1.1962    107.7025
  1080.7000      7.9144      2.6357      0.0086      0.8660    103.4555
  1080.8000      7.9028      2.6216      0.0473      1.7203     98.7247
  1080.9000      7.9028      2.6270      0.0623      1.3934     98.8332
  1081.0000      7.8925      2.6472      0.0227      0.1714    100.9353
  1081.1000      7.8925      2.6790      0.0335     -1.7597    100.1650
  1081.2000      7.8925      2.7062      0.0716     -3.4088     99.7805
  1081.3000      7.9094      2.7272      0.0536     -4.6779    103.4801
  1081.4000      7.9094      2.7597      0.0586     -6.6513    106.0476
  1081.5000      7.9018      2.7918      0.1095     -8.5957     99.1235
  1081.6000      7.9018      2.8077      0.0800     -9.5604     84.6164
  1081.7000      7.9018      2.8203      0.1092    -10.3225     76.2049
  1081.8000      7.8971      2.8262      0.0986    -10.6803     81.1102
  1081.9000      7.8971      2.8059      0.1285     -9.4486     93.8199
  1082.0000      7.8822      2.7563      0.0423     -6.4441    103.6899
  1082.1000      7.8822      2.7044     -0.0122     -3.2971    103.8242
  1082.2000      7.8822      2.6823     -0.0517     -1.9590     98.5088
  1082.3000      7.8994      2.6822      0.0149     -1.9511     96.4967
  1082.4000      7.8994      2.6699     -0.0028     -1.2069     99.4311
  1082.5000      7.8897      2.6469     -0.0261      0.1898    105.1450
  1082.6000      7.8897      2.6400     -0.0146      0.6067    111.6476
  1082.7000      7.8897      2.6464      0.0249      0.2199    116.8172
  1082.8000      7.9135      2.6447      0.0710      0.3216    122.0178
  1082.9000      7.9135      2.6370     -0.0323      0.7874    130.2154
  1083.0000      7.9248      2.6286      0.0208      1.2990    139.8191
  1083.1000      7.9248      2.6109     -0.0317      2.3699    145.1366
  1083.2000      7.9248      2.5879     -0.0235      3.7611    142.7911
  1083.3000      7.9217      2.5666     -0.0086      5.0552    136.5326
  1083.4000      7.9217      2.5517     -0.0496      5.9579    133.8080
  1083.5000      7.9166      2.5527     -0.0431      5.8990    136.6989
  1083.6000      7.9166      2.5679     -0.0684      4.9786    140.7684
  1083.7000      7.9166      2.5774      0.0357      4.3982    140.4480
  1083.8000      7.9466      2.5724     -0.0152      4.7005    136.0784
  1083.9000      7.9466      2.5726     -0.0367      4.6936    131.1280
  1084.0000      7.9574      2.5845      0.0227      3.9670    127.1263
  1084.1000      7.9574      2.5886      0.0548      3.7207    127.9515
  1084.2000      7.9574      2.5789      0.0532      4.3103    130.5265
  1084.3000      7.9652      2.5659      0.0744      5.0951    126.0752
  1084.4000      7.9652      2.5553      0.0163      5.7406    118.8092
  1084.5000      7.9398      2.5549     -0.0030      5.7652    119.8246
  1084.6000      7.9398      2.5663      0.0313      5.0751    129.5355
  1084.7000      7.9398      2.5757      0.0395      4.5031    138.2524
  1084.8000      7.9126      2.5773      0.0518      4.4060    139.9783
  1084.9000      7.9126      2.5671      0.1006      5.0230    134.1838
  1085.0000      7.9096      2.5468     -0.0330      6.2565    122.8808
  1085.1000      7.9096      2.5441      0.0050      6.4184    110.7872
  1085.2000      7.9096      2.5702      0.0167      4.8368    103.0359
  1085.3000      7.9215      2.5936      0.0613      3.4174    103.5086
  1085.4000      7.9215      2.5896      0.0362      3.6627    108.9647
  1085.5000      7.9245      2.5832     -0.0046      4.0470    113.4989
  1085.6000      7.9245      2.6033      0.0535      2.8311    116.1424
  1085.7000      7.9245      2.6259      0.0758      1.4595    116.9841
  1085.8000      7.9285      2.6249      0.0432      1.5217    113.2727
  1085.9000      7.9285      2.6135      0.0349      2.2149    103.8740
  1086.0000      7.9350      2.6035      0.0543      2.8175     94.5936
  1086.1000      7.9350      2.5877      0.0271      3.7767     91.8720
