~Version Information
VERS.                      2.0: CWLS Log ASCII Standard - VERSION 2.0
WRAP.                       NO: One line per depth step
~Well Information Block
STRT.FT                -7.2500: 
STOP.FT              1273.5000: 
STEP.FT                 0.2500: 
NULL.                -999.2500: 
COMP.          Pioneer Natural Resources: COMPANY
WELL.            Keiko 14-6 Tr: WELL
FLD.           Purgatorie River: FIELD
LOC.           462' FSL & 1202' FWL--: LOCATION
PROV.                       CO: PROVINCE
CNTY.               Las Animas: COUNTRY
SRVC.          Patterson Wireline: SERVICE COMPANY
DATE.          Wed Jan 04 09:22:19 2006: LOG DATE
UWI.           05 071 08629 00: UNIQUE WELL ID
~Curve Information Block
DEPT.FT            0 000 00 00: Depth
CCL.                          : Casing Collar Locator
TT3.usec                      : CBL 3' Travel Time
AMP3.mV                       : CBL 3' Amplitude
GR.GAPI                       : Gamma Ray
~Parameter Information Block
~A  Depth       CCL         TT3         AMP3         GR     
# ...
  1064.7500      0.0000    527.5345      8.2704    140.8843
  1065.0000      0.0000    508.0714      8.2380    135.2196
  1065.2500      0.0000    497.1381      8.2140    128.3441
  1065.5000      0.0000    494.5386      8.2061    120.7965
  1065.7500      0.0000    507.5854      8.2247    112.7157
  1066.0000      0.0000    541.5569      8.2780    103.9233
  1066.2500      0.0000    588.9836      8.3646     94.6005
  1066.5000      0.0000    633.5653      8.4701     85.7385
  1066.7500      0.0000    663.5454      8.5728     78.4819
  1067.0000      0.0000    678.1846      8.6540     73.0600
  1067.2500      0.0000    683.2823      8.7044     68.7609
  1067.5000      0.0000    684.4811      8.7219     64.9410
  1067.7500      0.0000    684.8591      8.7089     61.6226
  1068.0000      0.0000    685.8013      8.6713     59.1817
  1068.2500      0.0000    688.2066      8.6189     58.0003
  1068.5000      0.0000    692.6503      8.5644     58.4463
  1068.7500      0.0000    698.8068      8.5184     60.5694
  1069.0000      0.0000    705.1389      8.4816     63.7427
  1069.2500      0.0000    709.8121      8.4442     67.2239
  1069.5000      0.0000    712.1885      8.3969     71.2234
  1069.7500      0.0000    713.1943      8.3552     76.8095
  1070.0000      0.0000    714.1145      8.3685     84.3935
  1070.2500      0.0000    715.4479      8.4941     92.5289
  1070.5000      0.0000    717.1242      8.7491     98.3753
  1070.7500      0.0000    719.2670      9.0850     99.5332
  1071.0000      0.0000    722.0496      9.4067     96.0510
  1071.2500      0.0000    724.7933      9.6253     91.0385
  1071.5000      0.0000    725.9247      9.7045     88.8331
  1071.7500      0.0000    724.5079      9.6707     92.1222
  1072.0000      0.0000    721.6871      9.5771    100.9396
  1072.2500      0.0000    719.7220      9.4620    113.9837
  1072.5000      0.0000    719.2629      9.3402    129.8094
  1072.7500      0.0000    717.5220      9.2226    146.4690
  1073.0000      0.0000    709.0650      9.1245    160.9243
  1073.2500      0.0000    688.9990      9.0463    169.8256
  1073.5000      0.0000    656.8874      8.9579    171.2757
  1073.7500      0.0000    618.7974      8.8196    165.9046
  1074.0000      0.0000    585.8911      8.6158    156.4007
  1074.2500      0.0000    569.7239      8.3612    146.1465
  1074.5000      0.0000    575.3689      8.0770    137.8225
  1074.7500      0.0000    596.1193      7.7780    132.2522
  1075.0000      0.0000    616.4772      7.4806    128.1108
  1075.2500      0.0000    623.9538      7.1987    123.2312
  1075.5000      0.0000    619.3204      6.9272    116.6548
  1075.7500      0.0000    614.5998      6.6601    109.5586
  1076.0000      0.0000    620.7678      6.4429    104.2523
  1076.2500      0.0000    638.4617      6.3828    102.2890
  1076.5000      0.0000    660.1921      6.5753    103.3100
  1076.7500      0.0000    678.0355      7.0143    105.3907
  1077.0000      0.0000    688.2167      7.5830    106.4698
  1077.2500      2.0000    692.4135      8.1281    105.7339
  1077.5000      0.0000    696.9619      8.5402    103.8748
  1077.7500      0.0000    708.0359      8.7892    102.1277
  1078.0000      0.0000    725.9972      8.9325    101.1753
  1078.2500      0.0000    745.3214      9.0950    100.9877
  1078.5000      0.0000    759.5033      9.3952    101.2900
  1078.7500      0.0000    765.2815      9.8503    101.7513
  1079.0000      0.0000    763.4721     10.3519    102.0622
  1079.2500      0.0000    757.2078     10.7414    102.3965
  1079.5000      0.0000    749.5458     10.9108    103.6555
  1079.7500      0.0000    741.5148     10.8472    106.9015
  1080.0000      0.0000    730.2393     10.6154    112.4919
  1080.2500      0.0000    708.1694     10.3150    119.6134
  1080.5000      0.0000    666.7606     10.0370    126.5447
  1080.7500      0.0000    604.6978      9.8355    131.7452
  1081.0000      0.0000    532.9282      9.7190    134.9048
  1081.2500      0.0000    469.0096      9.6611    136.7134
  1081.5000      0.0000    425.5045      9.6243    137.6366
  1081.7500      0.0000    404.8028      9.5817    137.1737
  1082.0000      0.0000    404.3580      9.5228    134.2507
  1082.2500      0.0000    423.8529      9.4435    128.1364
  1082.5000      0.0000    464.7461      9.3390    118.9854
  1082.7500      0.0000    522.1799      9.2075    107.7251
  1083.0000      0.0000    579.0681      9.0602     95.8471
  1083.2500      0.0000    611.9171      8.9237     85.4274
  1083.5000      0.0000    605.7327      8.8291     78.5741
  1083.7500      0.0000    565.1823      8.7962     76.0074
  1084.0000      0.0000    513.0298      8.8252     76.3041
  1084.2500      0.0000    477.6236      8.9016     77.0579
  1084.5000      0.0000    477.7773      9.0049     76.7967
  1084.7500      0.0000    514.0994      9.1166     75.6308
  1085.0000      0.0000    571.6668      9.2260     74.3641
  1085.2500      0.0000    630.9901      9.3341     73.5319
  1085.5000      0.0000    677.7706      9.4507     73.4384
  1085.7500      0.0000    703.8838      9.5857     74.6262
  1086.0000      0.0000    702.9478      9.7416     77.7708
  1086.2500      0.0000    670.2189      9.9134     83.1320
  1086.5000      0.0000    609.0650     10.0914     90.3880
  1086.7500      0.0000    534.8572     10.2636     98.8433
  1087.0000      0.0000    468.1827     10.4166    107.2775
  1087.2500      0.0000    422.9142     10.5369    113.6445
  1087.5000      0.0000    401.6368     10.6123    115.8444
  1087.7500      0.0000    401.6977     10.6329    113.4135
  1088.0000      0.0000    423.0525     10.5940    108.1096
  1088.2500      0.0000    468.5461     10.5041    102.6146
  1088.5000      0.0000    536.5424     10.3942     98.9284
  1088.7500      0.0000    614.9096     10.3144     97.7176
  1089.0000      0.0000    684.8798     10.3088     98.3018
  1089.2500      0.0000    732.0392     10.3888     99.0513
  1089.5000      0.0000    753.5582     10.5272     98.4062
  1089.7500      0.0000    756.1614     10.6728     95.9239
  1090.0000      0.0000    749.2269     10.7730     92.3631
  1090.2500      0.0000    739.5992     10.7917     88.9269
  1090.5000      0.0000    730.7419     10.7210     86.8056
  1090.7500      0.0000    724.5346     10.5845     87.3962
  1091.0000      0.0000    722.1808     10.4259     92.1058
  1091.2500      0.0000    722.6603     10.2851    101.0633
  1091.5000      0.0000    720.3035     10.1788    112.1813
  1091.7500      0.0000    704.8911     10.1027    122.1920
  1092.0000      0.0000    666.7318     10.0439    128.8913
  1092.2500      0.0000    605.0557      9.9877    132.2899
  1092.5000      0.0000    532.1501      9.9186    133.7052
  1092.7500      0.0000    466.7577      9.8273    134.1774
  1093.0000      0.0000    421.6761      9.7197    134.0202
  1093.2500      0.0000    397.7217      9.6159    133.5918
  1093.5000      0.0000    387.9254      9.5361    133.8295
  1093.7500      0.0000    384.7834      9.4870    135.6373
  1094.0000      0.0000    383.8737      9.4610    138.9174
  1094.2500      0.0000    384.1048      9.4453    142.6936
  1094.5000      0.0000    387.6180      9.4291    146.2157
  1094.7500      0.0000    400.0391      9.4033    149.4995
  1095.0000      0.0000    428.7299      9.3591    152.7406
  1095.2500      0.0000    477.1755      9.2913    155.7414
  1095.5000      0.0000    538.5790      9.2080    158.1575
  1095.7500      0.0000    595.3342      9.1286    159.8925
  1096.0000      0.0000    627.1716      9.0699    161.0204
  1096.2500      0.0000    623.2014      9.0385    161.7881
  1096.5000      0.0000    590.1928      9.0368    163.1101
  1096.7500      0.0000    550.7517      9.0670    166.3986
  1097.0000      0.0000    528.9564      9.1221    171.7665
  1097.2500      0.0000    531.5168      9.1823    176.4181
  1097.5000      0.0000    542.1699      9.2283    175.8591
  1097.7500      0.0000    537.8494      9.2579    167.3493
  1098.0000      0.0000    511.0813      9.2857    152.1821
