~Version Information
VERS.                      2.0: CWLS Log ASCII Standard - VERSION 2.0
WRAP.                       NO: One line per depth step
~Well Information Block
STRT.FT               860.0000: 
STOP.FT              2362.5000: 
STEP.FT                 0.2500: 
NULL.                -999.2500: 
COMP.          Pioneer Natural Resources: COMPANY
WELL.            Cayenne 23-23: WELL
FLD.           Purgatoire River: FIELD
LOC.           2555' FSL & 2386' FWL: LOCATION
PROV.                 Colorado: PROVINCE
CNTY.               Las Animas: COUNTRY
SRVC.                Patterson: SERVICE COMPANY
DATE.          Wed Aug 17 06:47:40 2005: LOG DATE
UWI.           05 071 08476 00: UNIQUE WELL ID
~Curve Information Block
DEPT.FT            0 000 00 00: Depth
SN.Ohm-m                      : IEL Short Normal
SP.mV                         : IEL Spontaneous Potential
DIR.Ohm-m                     : IEL Induction Resistivity
GR.GAPI                       : Gamma Ray
~Parameter Information Block
~A  Depth        SN          SP         DIR          GR     
# ...
   960.5000   2000.0000   2000.0000     18.2256    111.5266
   960.7500   2000.0000   2000.0000     18.0912    111.1794
   961.0000   2000.0000   2000.0000     18.0104    112.0339
   961.2500   2000.0000   2000.0000     17.9527    113.8898
   961.5000   2000.0000   2000.0000     17.8735    118.4464
   961.7500   2000.0000   2000.0000     17.7360    122.1796
   962.0000   2000.0000   2000.0000     17.5275    127.7604
   962.2500   2000.0000   2000.0000     17.2570    130.8636
   962.5000   2000.0000   2000.0000     16.9410    133.7003
   962.7500   2000.0000   2000.0000     16.5940    134.0874
   963.0000   2000.0000   2000.0000     16.2333    132.5801
   963.2500   2000.0000   2000.0000     15.8844    130.6034
   963.5000   2000.0000   2000.0000     15.5763    127.0317
   963.7500   2000.0000   2000.0000     15.3288    124.7566
   964.0000   2000.0000   2000.0000     15.1452    122.4386
   964.2500   2000.0000   2000.0000     15.0185    121.9934
   964.5000   2000.0000   2000.0000     14.9464    122.9033
   964.7500   2000.0000   2000.0000     14.9394    124.3371
   965.0000   2000.0000   2000.0000     15.0141    127.6578
   965.2500   2000.0000   2000.0000     15.1762    130.5979
   965.5000   2000.0000   2000.0000     15.4111    135.1026
   965.7500   2000.0000   2000.0000     15.6915    137.1301
   966.0000   2000.0000   2000.0000     15.9977    137.2675
   966.2500   2000.0000   2000.0000     16.3284    135.1234
   966.5000   2000.0000   2000.0000     16.6930    128.5009
   966.7500   2000.0000   2000.0000     17.0919    121.7616
   967.0000   2000.0000   2000.0000     17.5140    108.4281
   967.2500   2000.0000   2000.0000     17.9562     98.1673
   967.5000   2000.0000   2000.0000     18.4464     82.9801
   967.7500   2000.0000   2000.0000     19.0390     74.2325
   968.0000   2000.0000   2000.0000     19.7798     64.2484
   968.2500   2000.0000   2000.0000     20.6630     59.7547
   968.5000   2000.0000   2000.0000     21.6115     56.0437
   968.7500   2000.0000   2000.0000     22.4993     55.3452
   969.0000   2000.0000   2000.0000     23.2099     56.0839
   969.2500   2000.0000   2000.0000     23.6835     57.0459
   969.5000   2000.0000   2000.0000     23.9092     58.3086
   969.7500   2000.0000   2000.0000     23.8771     59.0936
   970.0000   2000.0000   2000.0000     23.5533     61.4092
   970.2500   2000.0000   2000.0000     22.9115     64.8351
   970.5000   2000.0000   2000.0000     21.9862     74.3508
   970.7500   2000.0000   2000.0000     20.8787     83.5655
   971.0000   2000.0000   2000.0000     19.7100     99.4485
   971.2500   2000.0000   2000.0000     18.5706    109.5034
   971.5000   2000.0000   2000.0000     17.5062    121.6770
   971.7500   2000.0000   2000.0000     16.5306    127.8630
   972.0000   2000.0000   2000.0000     15.6450    135.1931
   972.2500   2000.0000   2000.0000     14.8458    138.9114
   972.5000   2000.0000   2000.0000     14.1248    142.2225
   972.7500   2000.0000   2000.0000     13.4701    142.9714
   973.0000   2000.0000   2000.0000     12.8697    143.1557
   973.2500   2000.0000   2000.0000     12.3188    143.4873
   973.5000   2000.0000   2000.0000     11.8212    144.7614
   973.7500   2000.0000   2000.0000     11.3861    145.7986
   974.0000   2000.0000   2000.0000     11.0203    146.7985
   974.2500   2000.0000   2000.0000     10.7243    146.8739
   974.5000   2000.0000   2000.0000     10.4917    146.5129
   974.7500   2000.0000   2000.0000     10.3112    146.5398
   975.0000   2000.0000   2000.0000     10.1690    147.8723
   975.2500   2000.0000   2000.0000     10.0502    149.6446
   975.5000   2000.0000   2000.0000      9.9415    152.6760
   975.7500   2000.0000   2000.0000      9.8339    154.1845
   976.0000   2000.0000   2000.0000      9.7246    154.6973
   976.2500   2000.0000   2000.0000      9.6166    153.5609
   976.5000   2000.0000   2000.0000      9.5162    149.6676
   976.7500   2000.0000   2000.0000      9.4313    146.1689
   977.0000   2000.0000   2000.0000      9.3692    141.4264
   977.2500   2000.0000   2000.0000      9.3365    139.7476
   977.5000   2000.0000   2000.0000      9.3375    140.3224
   977.7500   2000.0000   2000.0000      9.3745    142.3746
   978.0000   2000.0000   2000.0000      9.4476    146.3230
   978.2500   2000.0000   2000.0000      9.5547    148.5967
   978.5000   2000.0000   2000.0000      9.6927    150.4981
   978.7500   2000.0000   2000.0000      9.8554    150.5591
   979.0000   2000.0000   2000.0000     10.0338    148.9060
   979.2500   2000.0000   2000.0000     10.2148    146.8262
   979.5000   2000.0000   2000.0000     10.3837    142.7181
   979.7500   2000.0000   2000.0000     10.5288    139.7472
   980.0000   2000.0000   2000.0000     10.6477    135.9847
   980.2500   2000.0000   2000.0000     10.7499    134.4474
   980.5000   2000.0000   2000.0000     10.8526    133.5417
   980.7500   2000.0000   2000.0000     10.9700    133.4081
   981.0000   2000.0000   2000.0000     11.1023    133.5665
   981.2500   2000.0000   2000.0000     11.2326    134.1839
   981.5000   2000.0000   2000.0000     11.3354    136.2062
   981.7500   2000.0000   2000.0000     11.3922    137.9799
   982.0000   2000.0000   2000.0000     11.4034    140.4100
   982.2500   2000.0000   2000.0000     11.3877    141.6286
   982.5000   2000.0000   2000.0000     11.3705    143.0278
   982.7500   2000.0000   2000.0000     11.3717    143.8854
   983.0000   2000.0000   2000.0000     11.3983    145.1746
   983.2500   2000.0000   2000.0000     11.4444    145.9404
   983.5000   2000.0000   2000.0000     11.4943    146.8705
   983.7500   2000.0000   2000.0000     11.5277    147.4232
   984.0000   2000.0000   2000.0000     11.5254    148.0938
   984.2500   2000.0000   2000.0000     11.4761    148.1116
   984.5000   2000.0000   2000.0000     11.3817    146.6487
   984.7500   2000.0000   2000.0000     11.2589    144.3533
   985.0000   2000.0000   2000.0000     11.1328    139.4127
   985.2500   2000.0000   2000.0000     11.0297    136.1923
   985.5000   2000.0000   2000.0000     10.9709    133.6157
   985.7500   2000.0000   2000.0000     10.9698    133.9048
   986.0000   2000.0000   2000.0000     11.0306    136.5535
   986.2500   2000.0000   2000.0000     11.1474    138.9881
   986.5000   2000.0000   2000.0000     11.3036    142.6174
   986.7500   2000.0000   2000.0000     11.4734    144.5766
   987.0000   2000.0000   2000.0000     11.6280    145.9368
   987.2500   2000.0000   2000.0000     11.7438    145.2406
   987.5000   2000.0000   2000.0000     11.8099    141.3687
   987.7500   2000.0000   2000.0000     11.8266    137.2686
   988.0000   2000.0000   2000.0000     11.7986    130.2802
   988.2500   2000.0000   2000.0000     11.7307    125.7971
   988.5000   2000.0000   2000.0000     11.6324    119.7661
   988.7500   2000.0000   2000.0000     11.5252    116.2272
   989.0000   2000.0000   2000.0000     11.4413    111.9145
   989.2500   2000.0000   2000.0000     11.4119    109.8909
   989.5000   2000.0000   2000.0000     11.4548    108.1041
   989.7500   2000.0000   2000.0000     11.5692    107.5774
   990.0000   2000.0000   2000.0000     11.7406    107.5250
   990.2500   2000.0000   2000.0000     11.9468    107.8197
   990.5000   2000.0000   2000.0000     12.1638    108.2126
   990.7500   2000.0000   2000.0000     12.3667    107.8901
   991.0000   2000.0000   2000.0000     12.5325    105.4582
   991.2500   2000.0000   2000.0000     12.6454    102.2733
   991.5000   2000.0000   2000.0000     12.7030     96.0044
   991.7500   2000.0000   2000.0000     12.7184     91.9385
   992.0000   2000.0000   2000.0000     12.7137     87.9072
   992.2500   2000.0000   2000.0000     12.7105     87.1467
   992.5000     13.2573   -154.3238     12.7240     88.3401
   992.7500     12.9280   -154.4223     12.7627     89.6546
   993.0000     12.7178   -154.5475     12.8310     90.7128
   993.2500     12.7726   -154.6337     12.9286     90.6488
   993.5000     12.9530   -154.6665     13.0457     90.5738
   993.7500     13.1611   -154.6835     13.1632     91.2689
