~Version Information
 VERS.                                  2.0 : CWLS LAS VERSION
 WRAP.                                   NO : WRAPING MODE
 SWARE .                 MController 2.5.0J : SOFTWARE VERSION
~Well Information
 WELL.                         Norton 9-14R : WELL
 COMP.                Petrogulf Corporation : COMPANY
 FLD.                       Purgatoire River: FIELD
 LOC.                SW/SW Sec 9 T33S R67W  : LOCATION
 DATE.                            10/5-6/05 : DATE(S) LOGGED
 SRVC.       BLANCO Geological Services LLC : SERVICE COMPANY
 STAT.                                   CO : STATE
 CNTY.                           Las Animas : COUNTY
 CTRY.                                  USA : COUNTRY
 API.                       05-071-08444-00 : API NUMBER
 STRT.FT                              56.00 : START DEPTH
 STOP.FT                            1880.00 : STOP DEPTH
 STEP.FT                               1.00 : DEPTH INCREMENT
 NULL.                                -9999 : NULL VALUE
~Curve information
 DEPTH.FT                                   :
 ROP.MIN/FT                                 :
 GAS.UNITS                                  :
~ASCII Log data
# ...
      1056.0         0.33          4.8 
      1057.0         0.42          4.4 
      1058.0         0.27          4.4 
      1059.0         0.27          4.4 
      1060.0         0.30          4.4 
      1061.0         0.23          4.5 
      1062.0         0.23          4.6 
      1063.0         0.20          4.7 
      1064.0         0.20          4.5 
      1065.0         0.27          4.5 
      1066.0         0.20          4.8 
      1067.0         0.20          5.1 
      1068.0         0.17          5.4 
      1069.0         0.13          5.6 
      1070.0         0.22          5.5 
      1071.0         0.17          5.5 
      1072.0         0.23          5.0 
      1073.0         0.37          5.0 
      1074.0         0.20          4.5 
      1075.0         0.20          4.8 
      1076.0         2.08          6.9 
      1077.0         0.30         10.6 
      1078.0         0.13         13.6 
      1079.0         0.20         13.6 
      1080.0         0.23         14.3 
      1081.0         0.20         19.4 
      1082.0         0.07         19.5 
      1083.0         0.10         20.1 
      1084.0         0.17         19.9 
      1085.0         0.13         18.9 
      1086.0         0.17         17.3 
      1087.0         0.23         13.0 
      1088.0         0.20         10.0 
      1089.0         0.13          9.2 
      1090.0         0.17          7.8 
      1091.0         0.22          6.6 
      1092.0         0.17          5.9 
      1093.0         0.30          5.3 
      1094.0         0.17          4.9 
      1095.0         0.23          4.5 
      1096.0         0.20          5.0 
      1097.0         0.20          4.6 
      1098.0         0.13          4.8 
      1099.0         0.17          4.8 
      1100.0         0.17          4.6 
      1101.0         0.20          4.8 
      1102.0         0.23          4.8 
      1103.0         0.20          5.2 
      1104.0         0.17          5.5 
      1105.0         0.17          5.5 
      1106.0         3.10          9.8 
      1107.0         0.37          5.7 
      1108.0         0.23          5.4 
      1109.0         0.23          5.7 
      1110.0         0.27          7.0 
      1111.0         0.20          7.2 
      1112.0         0.20          6.9 
      1113.0         0.13          6.6 
      1114.0         0.33          6.1 
      1115.0         0.40          6.1 
      1116.0         0.20          5.6 
      1117.0         0.25          5.9 
      1118.0         0.27          5.5 
      1119.0         0.33          5.4 
      1120.0         0.20          5.6 
      1121.0         0.20          6.2 
      1122.0         0.23          7.2 
      1123.0         0.20          7.6 
      1124.0         0.17          7.9 
      1125.0         0.17          8.2 
      1126.0         0.17          8.8 
      1127.0         0.17          8.7 
      1128.0         0.17          8.8 
      1129.0         0.17          9.0 
      1130.0         0.17          9.1 
      1131.0         0.20          8.8 
      1132.0         0.22          7.5 
      1133.0         0.23          7.0 
      1134.0         0.20          5.7 
      1135.0         0.20          5.1 
      1136.0         1.93          8.5 
      1137.0         0.38          6.8 
      1138.0         0.30          6.0 
      1139.0         0.47          5.2 
      1140.0         0.30          4.9 
      1141.0         0.53          4.8 
      1142.0         0.33          4.7 
      1143.0         0.33          4.6 
      1144.0         0.27          4.7 
      1145.0         0.25          4.7 
      1146.0         0.20          4.6 
      1147.0         0.20          4.5 
      1148.0         0.17          4.3 
      1149.0         0.23          4.8 
      1150.0         0.20          4.9 
      1151.0         0.20          4.8 
      1152.0         0.20          5.0 
      1153.0         0.20          9.6 
      1154.0         0.13         19.0 
      1155.0         0.13         26.2 
      1156.0         0.07         27.6 
      1157.0         0.10         27.8 
      1158.0         0.07         27.7 
      1159.0         0.10         29.8 
      1160.0         0.13         36.6 
      1161.0         0.10         40.6 
      1162.0         0.07         40.8 
      1163.0         0.10         40.7 
      1164.0         0.07         38.2 
      1165.0         0.12         35.3 
      1166.0         1.87         31.3 
      1167.0         0.10         42.0 
      1168.0         0.13         56.8 
      1169.0         0.13         63.9 
      1170.0         0.10         64.2 
      1171.0         0.20         62.1 
      1172.0         0.32         51.3 
      1173.0         0.23         35.1 
      1174.0         0.17         25.9 
      1175.0         0.20         20.5 
      1176.0         0.27         15.5 
      1177.0         0.20         11.8 
      1178.0         0.30         11.0 
      1179.0         0.23          9.2 
      1180.0         0.27          8.3 
      1181.0         0.27          8.2 
      1182.0         0.13          7.3 
      1183.0         0.40          7.5 
      1184.0         0.17          7.0 
      1185.0         0.20          7.5 
      1186.0         0.22          7.8 
      1187.0         0.17         10.8 
      1188.0         0.13         14.3 
      1189.0         0.10         17.8 
      1190.0         0.10         21.6 
      1191.0         0.13         24.1 
      1192.0         0.07         25.8 
      1193.0         0.13         26.2 
      1194.0         0.10         26.4 
      1195.0         0.10         24.4 
      1196.0         1.83         36.3 
      1197.0         0.23         38.9 
      1198.0         0.25         37.6 
      1199.0         0.23         30.3 
      1200.0         0.27         24.5 
      1201.0         0.23         17.9 
      1202.0         0.23         13.4 
      1203.0         0.23         11.0 
      1204.0         0.23          9.0 
      1205.0         0.27          8.5 
      1206.0         0.30          8.0 
      1207.0         0.17          7.7 
      1208.0         0.20          8.3 
      1209.0         0.13          8.8 
      1210.0         0.13          8.8 
      1211.0         0.10          8.6 
      1212.0         0.13          8.6 
      1213.0         0.13          8.0 
      1214.0         0.25          7.8 
      1215.0         0.30          8.2 
      1216.0         0.13          9.8 
      1217.0         0.13         11.4 
      1218.0         0.10         12.2 
      1219.0         0.13         12.8 
      1220.0         0.10         12.7 
      1221.0         0.17         12.3 
      1222.0         0.30         11.8 
      1223.0         0.37         11.0 
      1224.0         0.20         10.3 
      1225.0         0.17          9.6 
      1226.0         1.88         45.9 
      1227.0         0.47         37.4 
      1228.0         0.27         21.8 
      1229.0         0.20         16.6 
      1230.0         0.20         14.4 
      1231.0         0.20         12.6 
      1232.0         0.13         11.5 
      1233.0         0.13         11.4 
      1234.0         0.17         11.1 
      1235.0         0.23         10.1 
      1236.0         0.23         10.1 
      1237.0         0.22          8.8 
      1238.0         0.23          9.3 
      1239.0         0.23          8.9 
      1240.0         0.17          8.4 
      1241.0         0.17          8.6 
      1242.0         0.37          8.8 
      1243.0         0.17          8.2 
      1244.0         0.13          8.3 
      1245.0         0.13          8.2 
      1246.0         0.17          8.5 
      1247.0         0.13          8.4 
      1248.0         0.13          8.2 
      1249.0         0.17          7.9 
      1250.0         0.13          8.2 
      1251.0         0.13          8.1 
      1252.0         0.13          8.1 
      1253.0         0.17          8.5 
      1254.0         0.17          8.0 
      1255.0         0.13          8.0 
