~Version Information
VERS.                      2.0: CWLS Log ASCII Standard - VERSION 2.0
WRAP.                       NO: One line per depth step
~Well Information Block
STRT.FT                -7.5000: 
STOP.FT              1350.7500: 
STEP.FT                 0.2500: 
NULL.                -999.2500: 
COMP.          Pioneer Natural Resources: COMPANY
WELL.            Gamma 13-3 Tr: WELL
FLD.           Purgatorie River: FIELD
LOC.           2127' FSL & 738' FWL: LOCATION
STAT.                       CO: State
CNTY.               Las Animas: COUNTY
CTRY.                      USA: Country
SECT.                        3: Section
TOWN.                      33S: Township
RANG.                      67W: Range
SRVC.          Patterson Wireline: SERVICE COMPANY
DATE.          Fri Sep 23 13:24:40 2005: LOG DATE
API.           05 071 08524 00: API
~Curve Information Block
DEPT.FT            0 000 00 00: Depth
CCL.                          : Casing Collar Locator
TT3.usec                      : CBL 3' Travel Time
AMP3.mV                       : CBL 3' Amplitude
GR.GAPI                       : Gamma Ray
~Parameter Information Block
~A  Depth       CCL         TT3         AMP3         GR     
    -7.5000   -999.2500   -999.2500   -999.2500     65.0725
    -7.2500   -999.2500   -999.2500   -999.2500     65.7622
    -7.0000   -999.2500   -999.2500   -999.2500     67.3081
    -6.7500   -999.2500   -999.2500   -999.2500     69.6685
    -6.5000   -999.2500   -999.2500   -999.2500     73.2523
    -6.2500   -999.2500   -999.2500   -999.2500     77.9314
    -6.0000   -999.2500   -999.2500   -999.2500     82.7106
    -5.7500   -999.2500   -999.2500   -999.2500     86.4832
    -5.5000   -999.2500   -999.2500   -999.2500     88.7030
    -5.2500   -999.2500   -999.2500   -999.2500     89.3131
    -5.0000   -999.2500   -999.2500   -999.2500     88.3867
    -4.7500   -999.2500   -999.2500   -999.2500     86.1542
    -4.5000   -999.2500   -999.2500   -999.2500     83.1607
    -4.2500   -999.2500   -999.2500   -999.2500     79.9210
    -4.0000   -999.2500   -999.2500   -999.2500     76.5756
    -3.7500   -999.2500   -999.2500   -999.2500     73.2675
    -3.5000   -999.2500   -999.2500   -999.2500     70.4976
    -3.2500   -999.2500   -999.2500   -999.2500     68.5822
    -3.0000   -999.2500   -999.2500   -999.2500     67.1260
    -2.7500   -999.2500   -999.2500   -999.2500     65.6353
    -2.5000   -999.2500   1149.0000      2.4914     64.4105
    -2.2500   -999.2500   1149.0000      2.4996     64.3610
    -2.0000   -999.2500   1149.0000      2.5037     66.0738
    -1.7500   -999.2500   1149.0000      2.5030     69.2615
    -1.5000   -999.2500   1149.0000      2.4995     72.7753
    -1.2500   -999.2500   1149.0000      2.4958     74.8853
    -1.0000   -999.2500   1149.0000      2.4929     73.9406
    -0.7500   -999.2500   1149.0000      2.4903     69.3667
    -0.5000   -999.2500   1149.0000      2.4885     62.2344
    -0.2500   -999.2500   1149.0000      2.4891     54.8265
     0.0000   -999.2500   1149.0000      2.4927     49.3187
     0.2500   -999.2500   1149.0000      2.4968     46.3929
     0.5000   -999.2500   1149.0000      2.4955     43.4947
     0.7500   -999.2500   1149.0000      2.4899     41.0519
     1.0000   -999.2500   1149.0000      2.4824     37.7236
     1.2500   -999.2500   1149.0000      2.4738     34.0071
     1.5000   -999.2500   1149.0000      2.4661     30.7097
     1.7500   -999.2500   1149.0000      2.4620     28.9264
     2.0000   -999.2500   1149.0000      2.4621     29.4857
     2.2500   -999.2500   1149.0000      2.4640     32.3600
     2.5000   -999.2500   1149.0000      2.4638     36.6936
     2.7500      0.0000   1149.0000      2.4588     41.1977
     3.0000      0.0000   1149.0000      2.4503     44.5829
     3.2500      0.0000   1149.0000      2.4422     46.0728
     3.5000      0.0000   1149.0000      2.4392     45.7477
     3.7500      0.0000   1149.0000      2.4434     44.3169
     4.0000      0.0000   1149.0000      2.4531     42.5089
     4.2500      0.0000   1149.0000      2.4630     40.6108
     4.5000      0.0000   1149.0000      2.4672     38.4873
     4.7500      0.0000   1148.9644      2.4633     36.0558
     5.0000      0.0000   1148.7084      2.4584     33.7667
     5.2500      0.0000   1147.3735      2.4792     32.5215
     5.5000      0.0000   1141.9193      2.6208     32.9435
     5.7500      0.0000   1124.4261      3.1756     34.6494
     6.0000      0.0000   1080.3285      4.8275     36.3752
     6.2500      0.0000    992.8248      8.6801     36.9746
     6.5000      0.0000    855.9458     15.7301     36.3161
     6.7500      0.0000    686.9299     25.8345     35.1938
     7.0000      0.0000    522.0114     37.1598     34.4419
     7.2500      0.0000    394.7565     47.0748     34.2512
     7.5000      0.0000    317.0856     53.8462     34.3384
     7.7500      0.0000    279.5959     57.4457     34.6113
     8.0000      0.0000    265.2982     58.9297     35.3951
     8.2500      0.0000    260.9981     59.4060     36.9402
     8.5000      0.0000    259.9843     59.5376     38.9782
     8.7500      0.0000    259.8017     59.5916     40.9617
     9.0000      0.0000    259.7841     59.6390     42.4725
     9.2500      0.0000    259.7869     59.6868     43.2536
     9.5000      0.0000    259.7862     59.7276     43.1874
     9.7500      0.0000    259.7835     59.7445     42.4337
    10.0000      0.0000    259.7854     59.6968     41.3630
    10.2500      0.0000    259.8139     59.4761     40.2968
    10.5000      0.0000    259.9488     58.8429     39.3438
    10.7500      0.0000    260.4137     57.4232     38.3346
    11.0000      0.0000    261.6866     54.8618     36.9064
    11.2500      0.0000    264.4916     51.0817     34.8207
    11.5000      0.0000    269.4780     46.4045     32.2652
    11.7500      0.0000    276.6813     41.3710     29.8665
    12.0000      0.0000    285.5835     36.4349     28.4481
    12.2500      0.0000    296.5753     31.8296     28.6398
    12.5000      0.0000    313.2816     27.6464     30.4360
    12.7500      0.0000    343.2332     23.9366     33.0554
    13.0000      0.0000    394.0783     20.7269     35.4076
    13.2500      0.0000    466.1706     17.9975     36.8986
    13.5000      0.0000    548.1996     15.6944     37.8178
    13.7500      0.0000    622.3261     13.7689     38.9530
    14.0000      0.0000    675.4729     12.2067     40.8680
    14.2500      0.0000    705.9436     11.0196     43.5000
    14.5000      0.0000    720.5533     10.2092     46.2258
    14.7500      0.0000    727.7144      9.7339     48.2255
    15.0000      0.0000    733.0955      9.5094     49.0034
    15.2500      0.0000    739.0417      9.4403     48.7428
    15.5000      0.0000    745.8115      9.4516     48.0611
    15.7500      0.0000    752.9134      9.4986     47.3840
    16.0000      0.0000    759.8298      9.5585     46.6609
    16.2500      0.0000    766.2693      9.6177     45.6213
    16.5000      0.0000    772.5010      9.6642     44.1729
    16.7500      0.0000    779.2553      9.6883     42.5735
    17.0000      0.0000    786.3187      9.6887     41.2306
    17.2500      0.0000    790.9646      9.6752     40.2571
    17.5000      0.0000    789.1331      9.6629     39.3731
    17.7500      0.0000    779.5880      9.6632     38.4273
    18.0000      0.0000    766.3757      9.6800     37.7313
    18.2500      0.0000    755.7882      9.7109     37.6850
    18.5000      0.0000    750.9813      9.7522     38.4561
    18.7500      0.0000    750.3821      9.8048     40.1996
    19.0000      0.0000    750.9645      9.8736     43.2420
    19.2500      0.0000    751.7494      9.9611     47.6927
    19.5000      0.0000    753.5768     10.0597     52.8361
    19.7500      0.0000    756.6042     10.1523     57.1368
    20.0000      0.0000    759.5983     10.2232     59.2500
    20.2500      0.0000    761.6764     10.2688     59.2782
    20.5000      0.0000    763.4489     10.2998     58.7684
    20.7500      0.0000    765.9006     10.3317     59.2052
    21.0000      0.0000    768.9698     10.3736     60.8421
    21.2500      0.0000    771.7650     10.4246     63.2072
    21.5000      0.0000    773.6523     10.4779     66.2022
    21.7500      0.0000    774.6658     10.5262     70.1158
    22.0000      0.0000    775.1509     10.5630     74.5318
    22.2500      0.0000    775.3959     10.5833     77.5845
    22.5000      0.0000    775.5468     10.5864     76.9828
    22.7500      0.0000    775.6461     10.5799     72.2419
    23.0000      0.0000    775.6663     10.5760     65.4837
    23.2500      0.0000    775.5629     10.5853     59.5300
    23.5000      0.0000    775.3348     10.6107     55.6812
    23.7500      0.0000    775.0465     10.6472     53.7633
    24.0000      0.0000    774.7830     10.6843     53.5372
    24.2500      0.0000    774.5935     10.7103     54.9904
    24.5000      0.0000    774.4852     10.7179     57.2916
    24.7500      0.0000    774.4532     10.7109     58.4745
    25.0000      0.0000    774.4857     10.7033     56.9389
    25.2500      0.0000    774.5044     10.7103     53.1384
    25.5000      0.0000    774.2588     10.7388     49.2249
    25.7500      0.0000    773.1960     10.7866     46.9893
