~Version Information
VERS.                      2.0: CWLS Log ASCII Standard - VERSION 2.0
WRAP.                       NO: One line per depth step
~Well Information Block
STRT.FT               620.0000: 
STOP.FT              3067.2000: 
STEP.FT                 0.1000: 
NULL.                -999.2500: 
COMP.          Pioneer Natural Resources: COMPANY
WELL.          Interceptor 43-13 Kv: WELL
FLD.           Purgatoire River: FIELD
LOC.           2073' FSL & 519' FEL--: LOCATION
PROV.                 Colorado: PROVINCE
CNTY.               Las Animas: COUNTRY
SRVC.                Patterson: SERVICE COMPANY
DATE.          Sat Jan 14 20:27:27 2006: LOG DATE
UWI.           05 071 08655 00: UNIQUE WELL ID
~Curve Information Block
DEPT.FT            0 000 00 00: Depth
DCAL.in                       : CDL Caliper
RHOB.g/cc                     : CDL Bulk Density
RHOC.g/cc                     : CDL Density Correction
DPOR.pu                       : CDL Density Porosity
NPOR.pu                       : Neutron Porosity
GR.GAPI                       : Gamma Ray
~Parameter Information Block
~A  Depth       DCAL        RHOB        RHOC        DPOR        NPOR         GR     
# ...
  2712.8000      7.9523      2.5635      0.0341      5.2434     18.9327     81.4463
  2712.9000      7.9523      2.5701      0.0401      4.8409     19.4202     83.5925
  2713.0000      7.9516      2.5754      0.0313      4.5184     19.7873     81.0350
  2713.1000      7.9516      2.5671      0.0480      5.0264     19.9323     79.7529
  2713.2000      7.9516      2.5520     -0.0132      5.9418     20.0116     83.6387
  2713.3000      7.9503      2.5525     -0.0089      5.9097     19.9951     87.1133
  2713.4000      7.9503      2.5752      0.0678      4.5324     19.7647     85.3909
  2713.5000      7.9504      2.6000      0.0595      3.0317     19.5197     79.2248
  2713.6000      7.9504      2.6066      0.0666      2.6309     19.4327     71.1762
  2713.7000      7.9504      2.5983      0.0386      3.1330     19.3284     65.9273
  2713.8000      7.9504      2.5915      0.0905      3.5430     19.1917     66.7628
  2713.9000      7.9504      2.5914      0.0742      3.5529     19.2232     70.4744
  2714.0000      7.9496      2.5995      0.0434      3.0622     19.5029     71.9511
  2714.1000      7.9496      2.6158      0.0637      2.0747     19.8953     70.9621
  2714.2000      7.9496      2.6229      0.0350      1.6443     20.0994     73.0730
  2714.3000      7.9490      2.6042      0.0388      2.7744     19.8622     79.9929
  2714.4000      7.9490      2.5728      0.0073      4.6786     19.2668     86.8464
  2714.5000      7.9499      2.5579      0.0201      5.5796     18.8784     88.4958
  2714.6000      7.9499      2.5659      0.0570      5.0960     18.9440     85.6143
  2714.7000      7.9499      2.5787      0.0425      4.3184     19.1043     81.8152
  2714.8000      7.9518      2.5741      0.0574      4.6006     18.9698     76.2929
  2714.9000      7.9518      2.5468     -0.0059      6.2556     18.4899     69.5838
  2715.0000      7.9529      2.5220      0.0043      7.7578     18.1747     66.4668
  2715.1000      7.9529      2.5148      0.0268      8.1936     18.2875     67.9054
  2715.2000      7.9529      2.5213     -0.0107      7.7991     18.4450     68.9874
  2715.3000      7.9526      2.5423      0.0211      6.5270     18.3660     68.3151
  2715.4000      7.9526      2.5683      0.0676      4.9517     18.1657     67.9534
  2715.5000      7.9535      2.5873      0.0544      3.8009     17.9321     67.3837
  2715.6000      7.9535      2.6051      0.0407      2.7228     17.8585     67.6141
  2715.7000      7.9535      2.6259      0.0588      1.4589     18.1497     71.9239
  2715.8000      7.9528      2.6363      0.0887      0.8328     18.6210     78.1328
  2715.9000      7.9528      2.6224      0.0431      1.6702     18.8903     80.2770
  2716.0000      7.9469      2.5863      0.0805      3.8604     18.9325     76.5887
  2716.1000      7.9469      2.5452      0.0134      6.3519     19.1311     71.5872
  2716.2000      7.9469      2.5242     -0.0067      7.6256     19.4801     70.9094
  2716.3000      7.9374      2.5296     -0.0011      7.2965     19.7100     75.8261
  2716.4000      7.9374      2.5468      0.0008      6.2549     20.0220     82.6268
  2716.5000      7.9306      2.5660      0.0412      5.0889     20.5394     85.0475
  2716.6000      7.9306      2.5847      0.0676      3.9560     20.7750     79.8748
  2716.7000      7.9306      2.6015      0.0466      2.9406     20.4956     71.6602
  2716.8000      7.9303      2.6101      0.1105      2.4188     20.0989     67.0678
  2716.9000      7.9303      2.6021      0.0659      2.9024     19.8568     69.6555
  2717.0000      7.9326      2.5835      0.0530      4.0277     19.6108     75.3271
  2717.1000      7.9326      2.5705      0.0365      4.8152     19.2891     79.4542
  2717.2000      7.9326      2.5732      0.0293      4.6522     19.2040     82.0735
  2717.3000      7.9317      2.5807      0.0844      4.2009     19.4656     81.3993
  2717.4000      7.9317      2.5768      0.0708      4.4354     19.6186     78.0937
  2717.5000      7.9293      2.5690      0.0150      4.9097     19.3356     75.0100
  2717.6000      7.9293      2.5673      0.0506      5.0110     19.0663     72.0801
  2717.7000      7.9293      2.5650      0.0337      5.1490     19.1409     70.8530
  2717.8000      7.9289      2.5652      0.0239      5.1412     19.0484     74.5389
  2717.9000      7.9289      2.5787      0.0177      4.3200     18.7694     81.3519
  2718.0000      7.9296      2.5937      0.0705      3.4111     18.8588     87.0973
  2718.1000      7.9296      2.5996      0.0116      3.0575     19.0513     88.1270
  2718.2000      7.9296      2.6124      0.0232      2.2790     18.7818     86.1495
  2718.3000      7.9314      2.6351      0.0968      0.9006     18.4250     84.3712
  2718.4000      7.9314      2.6489      0.0781      0.0649     18.5456     81.5368
  2718.5000      7.9305      2.6399      0.1228      0.6119     18.9078     77.0037
  2718.6000      7.9305      2.6107      0.0999      2.3832     19.0748     73.2367
  2718.7000      7.9305      2.5912      0.0157      3.5648     19.0413     73.3259
  2718.8000      7.9268      2.6015      0.0972      2.9384     18.9231     77.0407
  2718.9000      7.9268      2.6196      0.0752      1.8395     18.7480     80.9884
  2719.0000      7.9245      2.6246      0.0591      1.5373     18.5031     83.1892
  2719.1000      7.9245      2.6167      0.0725      2.0181     18.2160     83.8526
  2719.2000      7.9245      2.6035      0.0455      2.8154     18.1399     82.9831
  2719.3000      7.9246      2.5970      0.0249      3.2150     18.5366     78.9041
  2719.4000      7.9246      2.5978      0.0719      3.1647     19.3419     71.5563
  2719.5000      7.9256      2.5985      0.0326      3.1199     20.3278     66.2445
  2719.6000      7.9256      2.6003      0.0249      3.0099     21.0045     67.8721
  2719.7000      7.9256      2.6041      0.0530      2.7792     21.0102     74.9034
  2719.8000      7.9257      2.6031      0.0917      2.8394     20.6189     81.9515
  2719.9000      7.9257      2.5932      0.0563      3.4422     20.1827     87.1349
  2720.0000      7.9232      2.5766      0.0636      4.4462     19.8163     92.1752
  2720.1000      7.9232      2.5578      0.0298      5.5870     19.6230     96.2209
  2720.2000      7.9232      2.5454      0.0258      6.3421     19.4356     97.0681
  2720.3000      7.9218      2.5441      0.0401      6.4177     18.9106     95.9733
  2720.4000      7.9218      2.5525      0.0271      5.9111     18.1813     94.5159
  2720.5000      7.9235      2.5689      0.0558      4.9155     17.7000     91.1654
  2720.6000      7.9235      2.5910      0.0340      3.5770     17.4509     87.6419
  2720.7000      7.9235      2.6139      0.0922      2.1888     17.0909     88.3928
  2720.8000      7.9263      2.6306      0.0432      1.1751     16.7794     90.4037
  2720.9000      7.9263      2.6367      0.1174      0.8082     16.7063     88.3942
  2721.0000      7.9278      2.6268      0.0631      1.4083     16.4521     81.9822
  2721.1000      7.9278      2.6072      0.0351      2.5941     15.7627     77.7832
  2721.2000      7.9278      2.5966      0.0233      3.2361     15.0830     80.5949
  2721.3000      7.9278      2.5973      0.0445      3.1937     14.9976     81.5122
  2721.4000      7.9278      2.5921      0.0596      3.5090     15.4502     73.8640
  2721.5000      7.9260      2.5791     -0.0095      4.2955     15.8288     65.3673
  2721.6000      7.9260      2.5737      0.0090      4.6254     15.6860     62.3159
  2721.7000      7.9260      2.5793      0.0105      4.2823     15.2365     62.4474
  2721.8000      7.9252      2.5920      0.0300      3.5156     14.8773     62.6519
  2721.9000      7.9252      2.6047      0.1022      2.7457     14.7619     64.2199
  2722.0000      7.9250      2.6041      0.0297      2.7805     14.8503     67.3399
  2722.1000      7.9250      2.5842      0.0365      3.9890     14.8090     68.2858
  2722.2000      7.9250      2.5603     -0.0028      5.4346     14.4967     66.4923
  2722.3000      7.9253      2.5643     -0.0208      5.1963     14.2459     64.1235
