~Version Information
VERS.                      2.0: CWLS Log ASCII Standard - VERSION 2.0
WRAP.                       NO: One line per depth step
~Well Information Block
STRT.FT               245.0000: 
STOP.FT              1217.7000: 
STEP.FT                 0.1000: 
NULL.                -999.2500: 
COMP.          Pioneer Natural Resources: COMPANY
WELL.          Lucky Lady 42-29: WELL
FLD.           Purgatoire River: FIELD
LOC.           2482' FNL & 662' FEL--: LOCATION
CNTY.               Las Animas: COUNTY
SRVC.                Patterson: SERVICE COMPANY
DATE.          Thu Mar 09 18:39:54 2006: LOG DATE
UWI.           05 071 08659 00: UNIQUE WELL ID
STAT.                 Colorado: STATE
~Curve Information Block
DEPT.FT            0 000 00 00: Depth
DCAL.in                       : CDL Caliper
RHOB.g/cc                     : CDL Bulk Density
RHOC.g/cc                     : CDL Density Correction
DPOR.pu                       : CDL Density Porosity
NPOR.pu                       : Neutron Porosity
GR.GAPI                       : Gamma Ray
~Parameter Information Block
~A  Depth       DCAL        RHOB        RHOC        DPOR        NPOR         GR     
# ...
   494.6000      7.8949      2.5051      0.0859      8.7808     25.5033    114.1162
   494.7000      7.8949      2.5026      0.0594      8.9361     25.4863    114.5615
   494.8000      7.8993      2.4866      0.0253      9.9022     25.4955    117.6408
   494.9000      7.8993      2.4659      0.0382     11.1547     25.4964    121.4012
   495.0000      7.8990      2.4448      0.0072     12.4370     25.4854    126.0871
   495.1000      7.8990      2.4457     -0.0121     12.3822     25.6438    132.3214
   495.2000      7.8990      2.4823      0.0829     10.1640     25.8399    137.0353
   495.3000      7.8988      2.5175      0.1621      8.0303     25.8925    137.6034
   495.4000      7.8988      2.5158      0.0916      8.1357     25.9006    139.5986
   495.5000      7.8990      2.4968      0.0568      9.2819     25.8505    148.5056
   495.6000      7.8990      2.4864      0.0827      9.9151     25.5678    157.4881
   495.7000      7.8990      2.4805      0.0794     10.2750     25.1573    161.3444
   495.8000      7.8989      2.4665      0.1655     11.1213     24.8190    164.4550
   495.9000      7.8989      2.4381      0.1205     12.8399     24.5844    166.9850
   496.0000      7.9013      2.4001      0.1129     15.1425     24.1989    164.4297
   496.1000      7.9013      2.3627      0.0765     17.4092     23.3794    157.5253
   496.2000      7.9013      2.3390      0.0128     18.8483     22.4814    152.9777
   496.3000      7.9088      2.3300      0.0833     19.3940     22.0343    153.8238
   496.4000      7.9088      2.3211      0.0222     19.9336     21.8123    156.0802
   496.5000      7.9205      2.2989      0.0950     21.2794     21.3848    156.6505
   496.6000      7.9205      2.2548      0.0746     23.9508     20.8264    156.2393
   496.7000      7.9205      2.1991      0.0514     27.3302     20.3424    156.2561
   496.8000      7.9321      2.1532      0.0655     30.1108     19.9958    158.4386
   496.9000      7.9321      2.1318      0.0232     31.4065     19.5818    161.0473
   497.0000      7.9415      2.1432      0.0202     30.7167     18.8871    158.4079
   497.1000      7.9415      2.1799      0.0452     28.4919     18.0791    152.0529
   497.2000      7.9415      2.2221      0.0883     25.9363     17.3784    148.5555
   497.3000      7.9533      2.2571      0.1287     23.8123     16.7742    149.7519
   497.4000      7.9533      2.2910      0.1636     21.7602     16.3043    151.3204
   497.5000      7.9643      2.3397      0.1810     18.8056     16.1309    149.4162
   497.6000      7.9643      2.4024      0.2551     15.0037     16.5301    144.7875
   497.7000      7.9643      2.4552      0.2836     11.8077     17.6266    139.6829
   497.8000      7.9584      2.4832      0.2085     10.1077     18.8860    138.0672
   497.9000      7.9584      2.4912      0.1688      9.6270     19.6009    141.8448
   498.0000      7.9373      2.4848      0.0816     10.0128     19.9376    144.4743
   498.1000      7.9373      2.4720      0.0618     10.7896     20.5880    142.9462
   498.2000      7.9373      2.4619      0.0590     11.3973     21.5433    145.6475
   498.3000      7.9270      2.4496      0.0386     12.1435     22.2141    155.5116
   498.4000      7.9270      2.4250      0.0320     13.6359     22.3350    161.5032
   498.5000      7.9292      2.4030     -0.0247     14.9690     22.1308    157.3087
   498.6000      7.9292      2.4075      0.0123     14.6977     21.8243    152.5581
   498.7000      7.9292      2.4330      0.0328     13.1508     21.3780    154.7820
   498.8000      7.9309      2.4581      0.0725     11.6275     20.8764    156.7642
   498.9000      7.9309      2.4811      0.0432     10.2343     20.5476    152.2379
   499.0000      7.9296      2.5172      0.1070      8.0498     20.3448    145.9202
   499.1000      7.9296      2.5599      0.1607      5.4620     20.3547    142.2364
   499.2000      7.9296      2.5823      0.1474      4.1014     20.7587    139.2666
   499.3000      7.9277      2.5836      0.0984      4.0260     21.3468    136.8817
   499.4000      7.9277      2.5918      0.0380      3.5262     22.0150    132.9511
   499.5000      7.9204      2.6144      0.1080      2.1602     22.7635    122.7964
   499.6000      7.9204      2.6316      0.1066      1.1160     23.3925    113.0554
   499.7000      7.9204      2.6377      0.0548      0.7467     23.8083    113.7517
   499.8000      7.9086      2.6325      0.1348      1.0627     23.9558    120.6163
   499.9000      7.9086      2.6124      0.0615      2.2810     23.7987    123.5168
   500.0000      7.9018      2.5954      0.0388      3.3078     23.5866    123.0434
   500.1000      7.9018      2.5953      0.0767      3.3161     23.5830    121.1985
   500.2000      7.9018      2.5979      0.0875      3.1546     23.6854    114.6080
   500.3000      7.9001      2.5836      0.0871      4.0230     23.8046    106.3278
   500.4000      7.9001      2.5508     -0.0067      6.0144     24.0466    104.8280
   500.5000      7.9005      2.5268     -0.0081      7.4674     24.2982    111.4508
   500.6000      7.9005      2.5277      0.0206      7.4144     24.3265    118.8505
   500.7000      7.9005      2.5298      0.0805      7.2851     23.8921    119.4362
   500.8000      7.9001      2.5208      0.0271      7.8326     23.0308    114.1539
   500.9000      7.9001      2.5249      0.0488      7.5788     22.3642    109.3087
   501.0000      7.8996      2.5500      0.0847      6.0579     22.1940    108.3857
   501.1000      7.8996      2.5691      0.0846      4.9022     22.1136    111.1832
   501.2000      7.8996      2.5663      0.0765      5.0700     21.9233    116.6861
   501.3000      7.8997      2.5509      0.0716      6.0056     21.7634    121.9769
   501.4000      7.8997      2.5361      0.1042      6.9044     21.6694    122.9163
   501.5000      7.9000      2.5335      0.0436      7.0609     21.6831    120.0522
   501.6000      7.9000      2.5480      0.1179      6.1803     21.8841    119.4945
   501.7000      7.9000      2.5681      0.1411      4.9655     22.1908    122.0576
   501.8000      7.9023      2.5816      0.1113      4.1446     22.3417    120.2323
   501.9000      7.9023      2.5858      0.0751      3.8909     22.2047    113.8837
   502.0000      7.9066      2.5847      0.0721      3.9576     22.0209    110.8303
   502.1000      7.9066      2.5823      0.0601      4.1035     22.0010    110.1781
   502.2000      7.9066      2.5736      0.0527      4.6327     21.9070    105.3010
   502.3000      7.9138      2.5569      0.0464      5.6413     21.6304     99.9757
   502.4000      7.9138      2.5423      0.0296      6.5249     21.4203    102.4129
   502.5000      7.9209      2.5410      0.0111      6.6070     21.4595    107.4069
   502.6000      7.9209      2.5522      0.0105      5.9264     21.6402    105.8975
   502.7000      7.9209      2.5550      0.0716      5.7603     21.8783    102.8385
   502.8000      7.9266      2.5418     -0.0161      6.5582     22.2578    103.8937
   502.9000      7.9266      2.5403      0.0072      6.6468     22.7781    105.5614
   503.0000      7.9294      2.5580      0.0545      5.5765     23.2801    103.6924
   503.1000      7.9294      2.5663      0.0179      5.0727     23.5830     99.1851
   503.2000      7.9294      2.5554     -0.0462      5.7312     23.6280     98.5711
   503.3000      7.9287      2.5508     -0.0475      6.0121     23.3820    103.4167
   503.4000      7.9287      2.5685      0.0081      4.9415     23.0636    106.1209
   503.5000      7.9282      2.5868      0.0559      3.8332     23.2603    101.5389
   503.6000      7.9282      2.5732      0.0598      4.6551     23.9408     95.4342
   503.7000      7.9282      2.5299     -0.0095      7.2780     24.5265     97.4777
   503.8000      7.9295      2.4917     -0.0235      9.5925     24.8231    107.1921
   503.9000      7.9295      2.4817     -0.0188     10.2020     24.8365    116.6174
   504.0000      7.9348      2.5045     -0.0444      8.8179     24.7546    120.1864
   504.1000      7.9348      2.5537      0.0302      5.8385     24.8187    118.5347
