~Version Information
VERS.                      2.0: CWLS Log ASCII Standard - VERSION 2.0
WRAP.                       NO: One line per depth step
~Well Information Block
STRT.FT               350.0000: 
STOP.FT              2808.2500: 
STEP.FT                 0.2500: 
NULL.                -999.2500: 
COMP.          Pioneer Natural Resources: COMPANY
WELL.          Grey Goose 33-30: WELL
FLD.           Purgatoire River: FIELD
LOC.           2136' FSL & 2065' FEL--: LOCATION
STAT.                 Colorado: State
CNTY.               Las Animas: COUNTY
CTRY. USA : Country
SECT. 30 : Section
TOWN. 32S : Township
RANG. 67W : Range
SRVC.                Patterson: SERVICE COMPANY
DATE.          Fri Nov 04 09:00:45 2005: LOG DATE
API.           05 071 08546 00: UNIQUE WELL ID
~Curve Information Block
DEPT.FT            0 000 00 00: Depth
DIR.Ohm-m                     : IEL Induction Resistivity
SN.Ohm-m                      : IEL Short Normal
SP.mV                         : IEL Spontaneous Potential
GR.GAPI                       : Gamma Ray
~Parameter Information Block
~A  Depth       DIR          SN          SP          GR     
# ...
  1154.0000     13.4894   2000.0000   2000.0000    114.1748
  1154.2500     13.9214   2000.0000   2000.0000    111.5732
  1154.5000     14.4438   2000.0000   2000.0000    108.0652
  1154.7500     15.0609   2000.0000   2000.0000    106.3619
  1155.0000     15.7623   2000.0000   2000.0000    104.3484
  1155.2500     16.5160   2000.0000   2000.0000    102.6231
  1155.5000     17.2721   2000.0000   2000.0000     98.3544
  1155.7500     17.9761   2000.0000   2000.0000     94.3607
  1156.0000     18.5842   2000.0000   2000.0000     87.5810
  1156.2500     19.0739   2000.0000   2000.0000     83.1562
  1156.5000     19.4484   2000.0000   2000.0000     77.3298
  1156.7500     19.7306   2000.0000   2000.0000     74.4500
  1157.0000     19.9462   2000.0000   2000.0000     73.1648
  1157.2500     20.1014   2000.0000   2000.0000     75.2689
  1157.5000     20.0120   2000.0000   2000.0000     82.9873
  1157.7500     19.9420   2000.0000   2000.0000     90.0568
  1158.0000     19.6819   2000.0000   2000.0000    100.6999
  1158.2500     19.2093   2000.0000   2000.0000    106.5387
  1158.5000     18.5458   2000.0000   2000.0000    112.8219
  1158.7500     17.7493   2000.0000   2000.0000    115.8205
  1159.0000     16.8909   2000.0000   2000.0000    119.7358
  1159.2500     16.0347   2000.0000   2000.0000    122.4709
  1159.5000     15.2279   2000.0000   2000.0000    127.1761
  1159.7500     14.5002   2000.0000   2000.0000    130.7557
  1160.0000     13.8665   2000.0000   2000.0000    136.5320
  1160.2500     13.3297   2000.0000   2000.0000    140.3275
  1160.5000     11.8759   2000.0000   2000.0000    145.3762
  1160.7500     11.5688   2000.0000   2000.0000    148.1630
  1161.0000     11.3229   2000.0000   2000.0000    151.5463
  1161.2500     11.1355   2000.0000   2000.0000    153.3260
  1161.5000     11.0073   2000.0000   2000.0000    155.2120
  1161.7500     10.9396   2000.0000   2000.0000    155.8704
  1162.0000     10.9310   2000.0000   2000.0000    155.7653
  1162.2500     10.9763   2000.0000   2000.0000    154.7408
  1162.5000     11.0676   2000.0000   2000.0000    151.4570
  1162.7500     11.1967   2000.0000   2000.0000    148.2708
  1163.0000     11.3569   2000.0000   2000.0000    142.8876
  1163.2500     11.5426   2000.0000   2000.0000    139.4409
  1163.5000     11.6920   2000.0000   2000.0000    135.0569
  1163.7500     11.9055   2000.0000   2000.0000    132.8187
  1164.0000     12.1175   2000.0000   2000.0000    130.5018
  1164.2500     12.3168   2000.0000   2000.0000    129.4669
  1164.5000     12.4958   2000.0000   2000.0000    128.1633
  1164.7500     12.6514   2000.0000   2000.0000    127.2724
  1165.0000     12.7835   2000.0000   2000.0000    126.1220
  1165.2500     12.8931   2000.0000   2000.0000    125.9010
  1165.5000     12.9817   2000.0000   2000.0000    127.0366
  1165.7500     13.0525   2000.0000   2000.0000    128.7675
  1166.0000     13.1117   2000.0000   2000.0000    132.1422
  1166.2500     13.1680   2000.0000   2000.0000    134.3407
  1166.5000     13.2308   2000.0000   2000.0000    136.4927
  1166.7500     13.3080   2000.0000   2000.0000    136.5722
  1167.0000     13.4637   2000.0000   2000.0000    134.3067
  1167.2500     13.5772   2000.0000   2000.0000    131.6676
  1167.5000     13.7054   2000.0000   2000.0000    127.5715
  1167.7500     13.8467   2000.0000   2000.0000    125.5598
  1168.0000     14.0025   2000.0000   2000.0000    124.1878
  1168.2500     14.1769   2000.0000   2000.0000    124.2566
  1168.5000     14.3730   2000.0000   2000.0000    125.3709
  1168.7500     14.5894   2000.0000   2000.0000    126.5878
  1169.0000     14.8198   2000.0000   2000.0000    128.7597
  1169.2500     15.0545   2000.0000   2000.0000    129.9410
  1169.5000     15.2842   2000.0000   2000.0000    130.0934
  1169.7500     15.5042   2000.0000   2000.0000    128.7420
  1170.0000     15.7172   2000.0000   2000.0000    125.2015
  1170.2500     15.9355   2000.0000   2000.0000    122.6611
  1170.5000     16.1799   2000.0000   2000.0000    119.4262
  1170.7500     16.4755   2000.0000   2000.0000    117.5624
  1171.0000     16.8443   2000.0000   2000.0000    114.9872
  1171.2500     17.2960   2000.0000   2000.0000    113.7822
  1171.5000     17.8220   2000.0000   2000.0000    113.6963
  1171.7500     18.3964   2000.0000   2000.0000    114.7662
  1172.0000     18.9839   2000.0000   2000.0000    116.6933
  1172.2500     19.5528   2000.0000   2000.0000    117.2313
  1172.5000     20.0870   2000.0000   2000.0000    116.1597
  1172.7500     20.5884   2000.0000   2000.0000    114.3688
  1173.0000     21.0722   2000.0000   2000.0000    110.9004
  1173.2500     21.5579   2000.0000   2000.0000    108.5063
  1173.5000     22.0620   2000.0000   2000.0000    105.0323
  1173.7500     22.5925   2000.0000   2000.0000    102.6491
  1174.0000     23.1476   2000.0000   2000.0000     98.6917
  1174.2500     23.7169   2000.0000   2000.0000     95.8906
  1174.5000     24.2812   2000.0000   2000.0000     92.0953
  1174.7500     24.8088   2000.0000   2000.0000     90.2218
  1175.0000     25.2546   2000.0000   2000.0000     88.5633
  1175.2500     25.5766   2000.0000   2000.0000     88.0965
  1175.5000     25.7627   2000.0000   2000.0000     88.2945
  1175.7500     25.8459   2000.0000   2000.0000     89.2055
  1176.0000     25.8879   2000.0000   2000.0000     91.9403
  1176.2500     25.9436   2000.0000   2000.0000    117.9595
  1176.5000     26.0340   2000.0000   2000.0000    122.0699
  1176.7500     26.1437   2000.0000   2000.0000    123.7104
  1177.0000     26.2370   2000.0000   2000.0000    124.5747
  1177.2500     26.2832   2000.0000   2000.0000    149.7636
  1177.5000     26.2730   2000.0000   2000.0000    150.5103
  1177.7500     26.2206   2000.0000   2000.0000    150.8350
  1178.0000     26.1524   2000.0000   2000.0000    149.5661
  1178.2500     26.0943   2000.0000   2000.0000    147.0810
  1178.5000     26.0675   2000.0000   2000.0000    141.5233
  1178.7500     26.0913   2000.0000   2000.0000    137.6337
  1179.0000     26.1828   2000.0000   2000.0000    133.6605
  1179.2500     26.3483   2000.0000   2000.0000    133.0630
  1179.5000     26.5721   2000.0000   2000.0000    134.6877
  1179.7500     26.8164   2000.0000   2000.0000    136.0453
  1180.0000     27.0391   2000.0000   2000.0000    135.9568
  1180.2500     27.2170   2000.0000   2000.0000    133.9535
  1180.5000     27.3540   2000.0000   2000.0000    129.1297
  1180.7500     27.4675   2000.0000   2000.0000    125.8135
  1181.0000     27.5685   2000.0000   2000.0000    121.7241
  1181.2500     27.6553   2000.0000   2000.0000    119.4321
  1181.5000     27.7237   2000.0000   2000.0000    116.1135
  1181.7500     27.7789   2000.0000   2000.0000    114.0959
  1182.0000     27.8377   2000.0000   2000.0000    111.9516
  1182.2500     27.9219   2000.0000   2000.0000    111.0882
  1182.5000     28.0498   2000.0000   2000.0000    109.6880
  1182.7500     28.2344   2000.0000   2000.0000    108.0494
  1183.0000     28.4858   2000.0000   2000.0000    104.2118
  1183.2500     28.8119   2000.0000   2000.0000    101.0311
  1183.5000     29.2103   2000.0000   2000.0000     96.0621
  1183.7500     29.6573   2000.0000   2000.0000     92.8924
  1184.0000     30.1095   2000.0000   2000.0000     88.4153
  1184.2500     30.5263   2000.0000   2000.0000     85.4792
  1184.5000     30.8956   2000.0000   2000.0000     80.9878
  1184.7500     31.2410   2000.0000   2000.0000     78.0729
  1185.0000     31.6043   2000.0000   2000.0000     74.2751
  1185.2500     32.0226   2000.0000   2000.0000     72.2269
  1185.5000     32.5175   2000.0000   2000.0000     69.6937
  1185.7500     33.0927   2000.0000   2000.0000     68.2367
  1186.0000     33.7392   2000.0000   2000.0000     66.2545
  1186.2500     34.4455   2000.0000   2000.0000     64.9842
  1186.5000     35.2128   2000.0000   2000.0000     63.2872
  1186.7500     36.0676   2000.0000   2000.0000     62.7088
  1187.0000     37.0606   2000.0000   2000.0000     63.4803
  1187.2500     38.2552   2000.0000   2000.0000     65.0587
