~Version Information
VERS.                      2.0: CWLS Log ASCII Standard - VERSION 2.0
WRAP.                       NO: One line per depth step
~Well Information Block
STRT.FT               570.0000: 
STOP.FT              2094.0000: 
STEP.FT                 0.2500: 
NULL.                -999.2500: 
COMP.          XTO Energy Inc.: COMPANY
WELL.          Golden Eagle 19-10: WELL
FLD.           Purgatoire River: FIELD
LOC.           2684' FSL & 1825' FEL: LOCATION
CNTY.               Las Animas: COUNTY
CTRY.                      USA: COUNTRY
API.               05 071 08697:  
SRVC.                Patterson: SERVICE COMPANY
DATE.          Sun Mar 05 02:13:24 2006: LOG DATE
UWI.           05 071 08697 00: UNIQUE WELL ID
STAT.                 Colorado: STATE
~Curve Information Block
DEPT.FT            0 000 00 00: Depth
SP.mV                         : DIL Spontaneous Potential
RILD.Ohm-m                    : DIL Deep Resistivity
RILM.Ohm-m                    : DIL Medium Resistivity
RLL3.Ohm-m                    : DIL Shallow Resistivity
GR.GAPI                       : Gamma Ray
~Parameter Information Block
~A  Depth        SP         RILD        RILM        RLL3         GR     
# ...
  1746.0000     55.4904     12.9025     14.0651     24.4540    118.1640
  1746.2500     55.6811     13.0112     14.0044     21.3089    122.2368
  1746.5000     55.9584     13.1066     13.9413     18.5164    126.4332
  1746.7500     56.3431     13.1996     13.9052     16.7589    127.3448
  1747.0000     56.8505     13.2962     13.9231     16.1821    125.8447
  1747.2500     57.4921     13.3905     14.0151     16.6215    123.2612
  1747.5000     58.2756     13.4633     14.1909     18.0571    117.1905
  1747.7500     59.2034     13.4884     14.4459     20.9056    111.3048
  1748.0000     60.2668     13.4472     14.7572     25.7211     99.1708
  1748.2500     61.4366     13.3390     15.0815     32.3156     89.4010
  1748.5000     62.6587     13.1824     15.3581     39.0564     74.8870
  1748.7500     63.8620     13.0039     15.5198     43.3302     67.2954
  1749.0000     64.9754     12.8273     15.5133     43.1764     61.7132
  1749.2500     65.9424     12.6685     15.3188     38.6846     62.3869
  1749.5000     66.7285     12.5368     14.9586     31.8191     68.7279
  1749.7500     67.3212     12.4353     14.4865     24.9954     74.9452
  1750.0000     67.7295     12.3604     13.9670     19.7980     84.6083
  1750.2500     67.9788     12.3002     13.4553     16.6335     90.2324
  1750.5000     68.0956     12.2359     12.9883     15.0955     96.5767
  1750.7500     68.0907     12.1472     12.5831     14.5065     99.4270
  1751.0000     67.9608     12.0207     12.2425     14.3007    102.3454
  1751.2500     67.7141     11.8557     11.9607     14.1575    103.7469
  1751.5000     67.3913     11.6629     11.7285     13.9678    104.8346
  1751.7500     67.0598     11.4563     11.5367     13.7543    104.5518
  1752.0000     66.7867     11.2463     11.3778     13.5938    102.8217
  1752.2500     66.6145     11.0396     11.2460     13.5371    101.4719
  1752.5000     66.5542     10.8448     11.1373     13.5581    100.2047
  1752.7500     66.5920     10.6764     11.0484     13.5780     99.8953
  1753.0000     66.7001     10.5536     10.9770     13.5496     99.4851
  1753.2500     66.8425     10.4920     10.9214     13.5065     98.8457
  1753.5000     66.9758     10.4952     10.8814     13.5144     97.2899
  1753.7500     67.0528     10.5511     10.8578     13.5835     96.0993
  1754.0000     67.0352     10.6351     10.8517     13.6579     94.5957
  1754.2500     66.9063     10.7226     10.8640     13.6955     94.0969
  1754.5000     66.6704     10.8016     10.8937     13.7204     94.6402
  1754.7500     66.3400     10.8760     10.9380     13.7603     95.9139
  1755.0000     65.9240     10.9567     10.9921     13.7621     98.4328
  1755.2500     65.4296     11.0461     11.0500     13.6374     99.7683
  1755.5000     64.8697     11.1323     11.1066     13.4081    100.2436
  1755.7500     64.2660     11.1974     11.1587     13.2495     99.3928
  1756.0000     63.6426     11.2338     11.2058     13.3346     96.9420
  1756.2500     63.0209     11.2550     11.2505     13.6498     95.2119
  1756.5000     62.4213     11.2931     11.2991     13.9987     93.7564
  1756.7500     61.8651     11.3857     11.3617     14.1790     94.0427
  1757.0000     61.3707     11.5627     11.4534     14.1275     96.2901
  1757.2500     60.9475     11.8383     11.5944     13.9237     98.2627
  1757.5000     60.6011     12.2081     11.8099     13.7505     99.8132
  1757.7500     60.3473     12.6502     12.1277     13.9601     98.8061
  1758.0000     60.2205     13.1282     12.5757     15.3041     93.6820
  1758.2500     60.2618     13.5934     13.1775     19.4518     88.3220
  1758.5000     60.4981     13.9866     13.9460     30.0417     78.6115
  1758.7500     60.9275     14.2417     14.8724     53.8143     71.6667
  1759.0000     61.5197     14.3009     15.9100     99.4809     61.6519
  1759.2500     62.2248     14.1386     16.9542    171.4317     56.0354
  1759.5000     62.9850     13.7760     17.8312    260.3047     50.4712
  1759.7500     63.7461     13.2709     18.3197    339.9686     49.0414
  1760.0000     64.4655     12.6890     18.2270    379.0537     50.2747
  1760.2500     65.1173     12.0836     17.4922    360.9076     53.1966
  1760.5000     65.6898     11.4921     16.2344    294.6272     60.5688
  1760.7500     66.1778     10.9409     14.6931    207.5416     67.3886
  1761.0000     66.5758     10.4461     13.1136    127.3867     80.1327
  1761.2500     66.8793     10.0091     11.6677     69.3714     89.8547
  1761.5000     67.0948      9.6159     10.4392     34.8839    104.7050
  1761.7500     67.2427      9.2445      9.4478     17.6920    113.3911
  1762.0000     67.3481      8.8759      8.6778     10.4760    122.2857
  1762.2500     67.4274      8.5019      8.0986      8.0526    124.7301
  1762.5000     67.4878      8.1258      7.6764      7.6657    123.1051
  1762.7500     67.5384      7.7580      7.3786      8.1039    118.8862
  1763.0000     67.5949      7.4111      7.1758      8.8582    109.2394
  1763.2500     67.6717      7.0974      7.0425      9.6561    101.9072
  1763.5000     67.7696      6.8274      6.9571     10.3091     91.9439
  1763.7500     67.8746      6.6092      6.9023     10.7079     86.7686
  1764.0000     67.9681      6.4467      6.8654     10.8399     81.0742
  1764.2500     68.0364      6.3385      6.8381     10.7653     78.2361
  1764.5000     68.0740      6.2792      6.8155     10.5671     75.2731
  1764.7500     68.0784      6.2605      6.7954     10.3161     74.4470
  1765.0000     68.0468      6.2738      6.7766     10.0578     75.1180
  1765.2500     67.9716      6.3102      6.7587      9.8127     76.4150
  1765.5000     67.8391      6.3602      6.7414      9.5861     78.3810
  1765.7500     67.6324      6.4128      6.7247      9.3825     79.1807
  1766.0000     67.3381      6.4573      6.7090      9.2136     79.6963
  1766.2500     66.9543      6.4866      6.6951      9.0977     80.1125
  1766.5000     66.4936      6.4999      6.6845      9.0460     81.6926
  1766.7500     65.9809      6.5030      6.6797      9.0418     83.3872
  1767.0000     65.4492      6.5047      6.6838      9.0342     86.1543
  1767.2500     64.9327      6.5138      6.7012      8.9721     87.7413
  1767.5000     64.4607      6.5372      6.7368      8.8613     89.5505
  1767.7500     64.0523      6.5814      6.7963      8.7858     90.3590
  1768.0000     63.7172      6.6532      6.8852      8.8540     90.5743
  1768.2500     63.4598      6.7604      7.0089      9.1217     89.7131
  1768.5000     63.2900      6.9085      7.1720      9.6221     87.0705
  1768.7500     63.2333      7.0962      7.3772     10.5371     85.2867
  1769.0000     63.3291      7.3135      7.6253     12.3278     84.9138
  1769.2500     63.6096      7.5457      7.9136     15.5059     87.3536
  1769.5000     64.0735      7.7822      8.2359     19.9775     95.8031
  1769.7500     64.6732      8.0229      8.5831     24.5147    104.3464
  1770.0000     65.3266      8.2766      8.9446     27.1952    120.1064
  1770.2500     65.9413      8.5536      9.3110     26.7912    131.3435
  1770.5000     66.4405      8.8600      9.6775     23.8063    146.6487
  1770.7500     66.7793      9.1967     10.0448     20.0432    154.2141
  1771.0000     66.9523      9.5629     10.4186     17.2173    159.7944
  1771.2500     66.9904      9.9562     10.8066     16.0042    159.6883
  1771.5000     66.9471     10.3692     11.2144     16.0952    155.5533
  1771.7500     66.8786     10.7853     11.6419     16.7950    151.6216
  1772.0000     66.8258     11.1796     12.0819     17.5497    146.2206
  1772.2500     66.8060     11.5263     12.5219     18.1557    143.6751
  1772.5000     66.8154     11.8103     12.9477     18.6934    141.2371
  1772.7500     66.8372     12.0313     13.3480     19.3349    139.8710
  1773.0000     66.8486     12.1995     13.7166     20.1688    137.4783
  1773.2500     66.8252     12.3254     14.0517     21.1199    135.7596
  1773.5000     66.7445     12.4144     14.3530     21.9917    133.2519
  1773.7500     66.5909     12.4690     14.6176     22.5909    131.3707
