~Version Information
VERS.                      2.0: CWLS Log ASCII Standard - VERSION 2.0
WRAP.                       NO: One line per depth step
~Well Information Block
STRT.FT               555.0000: 
STOP.FT              1158.0000: 
STEP.FT                 0.1000: 
NULL.                -999.2500: 
COMP.          Pioneer Natural Resources: COMPANY
WELL.              Draco 31-21: WELL
FLD.           Purgatoire River: FIELD
LOC.           491' FNL & 2446' FEL: LOCATION
CNTY.               Las Animas: COUNTY
SRVC.                Patterson: SERVICE COMPANY
DATE.          Wed Feb 01 07:01:32 2006: LOG DATE
UWI.           05 071 08672 00: UNIQUE WELL ID
STAT.                 Colorado: STATE
~Curve Information Block
DEPT.FT            0 000 00 00: Depth
DCAL.in                       : CDL Caliper
RHOB.g/cc                     : CDL Bulk Density
RHOC.g/cc                     : CDL Density Correction
DPOR.pu                       : CDL Density Porosity
GR.GAPI                       : Gamma Ray
NPOR.pu                       : Neutron Porosity
~Parameter Information Block
~A  Depth       DCAL        RHOB        RHOC        DPOR         GR         NPOR    
# ...
  1025.4000      7.8015      2.5432      0.0813      6.4737     62.1307     24.0480
  1025.5000      7.8073      2.5226      0.0934      7.7207     63.7003     24.4072
  1025.6000      7.8073      2.4956      0.0855      9.3564     64.6991     24.2247
  1025.7000      7.8073      2.4681      0.0108     11.0222     61.7422     23.7804
  1025.8000      7.8214      2.4643      0.0016     11.2573     59.7313     23.6494
  1025.9000      7.8214      2.4887      0.0352      9.7748     64.6383     23.7179
  1026.0000      7.8299      2.5166      0.0799      8.0826     70.4262     23.9008
  1026.1000      7.8299      2.5248      0.0839      7.5867     68.6863     24.2730
  1026.2000      7.8299      2.5125      0.0485      8.3336     61.4305     24.2045
  1026.3000      7.8306      2.4937      0.0552      9.4698     56.6866     23.3134
  1026.4000      7.8306      2.4774      0.0752     10.4633     58.2479     22.1091
  1026.5000      7.8209      2.4649      0.0519     11.2204     63.3065     21.4291
  1026.6000      7.8209      2.4551      0.0605     11.8148     67.5535     21.5910
  1026.7000      7.8209      2.4436      0.0519     12.5107     70.8148     22.3114
  1026.8000      7.8259      2.4347      0.0101     13.0465     74.9647     23.1840
  1026.9000      7.8259      2.4334      0.0435     13.1246     79.3905     24.1438
  1027.0000      7.8341      2.4305      0.0496     13.3055     81.7667     25.3936
  1027.1000      7.8341      2.4242      0.0059     13.6837     78.9349     26.3637
  1027.2000      7.8341      2.4244      0.0277     13.6736     72.5201     26.3026
  1027.3000      7.8170      2.4294      0.0462     13.3723     70.7206     25.8227
  1027.4000      7.8170      2.4347      0.0277     13.0482     76.5778     25.8916
  1027.5000      7.8143      2.4434      0.0668     12.5206     82.5568     26.4716
  1027.6000      7.8143      2.4543      0.1037     11.8621     82.1298     26.6459
  1027.7000      7.8143      2.4569      0.0870     11.7002     81.5039     25.9145
  1027.8000      7.8178      2.4465      0.0741     12.3319     86.8308     25.2089
  1027.9000      7.8178      2.4397      0.0272     12.7464     90.3711     25.5273
  1028.0000      7.8293      2.4518      0.0662     12.0128     87.6408     26.4214
  1028.1000      7.8293      2.4655      0.1014     11.1822     84.9230     26.8166
  1028.2000      7.8293      2.4614      0.0560     11.4275     86.8510     26.2706
  1028.3000      7.8448      2.4506      0.0341     12.0859     92.0466     25.1539
  1028.4000      7.8448      2.4431      0.0591     12.5399     95.5959     24.4363
  1028.5000      7.8542      2.4350      0.0259     13.0329     93.1652     24.3319
  1028.6000      7.8542      2.4317      0.0042     13.2284     88.1939     24.0983
  1028.7000      7.8542      2.4440      0.0026     12.4823     89.0412     23.7124
  1028.8000      7.8552      2.4684      0.0356     11.0058     94.8316     23.5663
  1028.9000      7.8552      2.4860      0.0577      9.9372     97.9937     23.5217
  1029.0000      7.8490      2.4819      0.0371     10.1902     95.6343     23.4832
  1029.1000      7.8490      2.4633     -0.0055     11.3141     91.7101     23.3247
  1029.2000      7.8490      2.4445      0.0044     12.4530     91.6892     22.9587
  1029.3000      7.8474      2.4222      0.0007     13.8067     93.8541     22.4610
  1029.4000      7.8474      2.3934     -0.0239     15.5531     92.9403     21.8526
  1029.5000      7.8443      2.3727     -0.0300     16.8084     92.5344     21.6724
  1029.6000      7.8443      2.3711      0.0000     16.9024     99.1116     22.5361
  1029.7000      7.8443      2.3854      0.0056     16.0367    108.1721     23.4116
  1029.8000      7.8454      2.4083      0.0056     14.6457    109.5097     23.0390
  1029.9000      7.8454      2.4319      0.0293     13.2208    103.0536     21.9595
  1030.0000      7.8437      2.4447      0.0570     12.4437     97.2808     21.1157
  1030.1000      7.8437      2.4430      0.0326     12.5438     94.6415     21.1394
  1030.2000      7.8437      2.4370      0.0406     12.9102     91.9312     22.2830
  1030.3000      7.8426      2.4320      0.0436     13.2091     86.6500     23.5507
  1030.4000      7.8426      2.4246      0.0545     13.6603     80.7414     24.0423
  1030.5000      7.8428      2.4186      0.0051     14.0264     80.6658     24.2236
  1030.6000      7.8428      2.4215      0.0364     13.8510     86.2105     24.7723
  1030.7000      7.8428      2.4240      0.0448     13.6972     86.7661     25.7950
  1030.8000      7.8449      2.4136      0.0256     14.3288     81.0352     26.4736
  1030.9000      7.8449      2.3962      0.0139     15.3816     80.5383     26.0607
  1031.0000      7.8458      2.3830      0.0124     16.1827     85.9789     25.1701
  1031.1000      7.8458      2.3781     -0.0183     16.4794     90.3538     24.5400
  1031.2000      7.8458      2.3845     -0.0283     16.0914     95.5712     24.3848
  1031.3000      7.8452      2.3995      0.0273     15.1817    103.7957     24.9469
  1031.4000      7.8452      2.4129      0.0432     14.3687    112.1243     25.5938
  1031.5000      7.8453      2.4202      0.0359     13.9276    116.7256     25.5714
  1031.6000      7.8453      2.4203      0.0266     13.9227    115.3321     25.6025
  1031.7000      7.8453      2.4121      0.0191     14.4204    113.1635     26.3546
  1031.8000      7.8457      2.4023     -0.0042     15.0110    115.6085     26.9743
  1031.9000      7.8457      2.4012      0.0109     15.0761    119.5596     26.5944
  1032.0000      7.8424      2.4070      0.0299     14.7263    123.4009     26.0119
  1032.1000      7.8424      2.4090      0.0606     14.6059    129.0926     26.1930
  1032.2000      7.8424      2.4049      0.0376     14.8535    134.8472     26.7038
  1032.3000      7.8435      2.4017      0.0119     15.0470    138.8744     26.9706
  1032.4000      7.8435      2.4031     -0.0078     14.9610    141.6413     26.9467
  1032.5000      7.8441      2.4076      0.0142     14.6905    144.1879     26.8137
  1032.6000      7.8441      2.4156      0.0281     14.2081    146.4488     26.6346
  1032.7000      7.8441      2.4279      0.0259     13.4612    145.4078     25.8783
  1032.8000      7.8426      2.4329      0.0749     13.1560    140.9295     24.4917
  1032.9000      7.8426      2.4234      0.0355     13.7349    137.8506     23.5592
  1033.0000      7.8412      2.4164      0.0255     14.1596    137.3684     23.6931
  1033.1000      7.8412      2.4220      0.0559     13.8158    137.2815     24.3211
  1033.2000      7.8412      2.4294      0.0264     13.3683    135.7591     24.3729
  1033.3000      7.8339      2.4313      0.0273     13.2554    133.9699     23.2664
  1033.4000      7.8339      2.4309      0.0303     13.2792    131.6794     22.0565
  1033.5000      7.8308      2.4320      0.0446     13.2107    128.8773     21.9635
  1033.6000      7.8308      2.4390      0.0319     12.7863    128.9003     22.1973
  1033.7000      7.8308      2.4563      0.0300     11.7408    128.4090     21.3817
  1033.8000      7.8333      2.4766      0.0952     10.5112    121.7847     20.0915
  1033.9000      7.8333      2.4874      0.0664      9.8573    112.1284     20.0781
  1034.0000      7.8266      2.4847      0.0718     10.0188    104.7968     21.3180
  1034.1000      7.8266      2.4683      0.0662     11.0119    101.5002     22.1375
  1034.2000      7.8266      2.4521     -0.0265     11.9952     99.9772     21.5584
  1034.3000      7.8275      2.4603      0.0131     11.4967     95.6799     20.5691
  1034.4000      7.8275      2.4865      0.0470      9.9081     89.4368     20.5277
  1034.5000      7.8260      2.5034      0.0449      8.8848     87.4664     21.1292
  1034.6000      7.8260      2.5034      0.0404      8.8852     90.6646     21.5524
  1034.7000      7.8260      2.4939      0.0416      9.4597     93.1665     21.6514
  1034.8000      7.8237      2.4786      0.0244     10.3849     92.9345     21.8446
  1034.9000      7.8237      2.4652     -0.0214     11.2009     93.1285     22.3101
