~Version Information
VERS.                      2.0: CWLS Log ASCII Standard - VERSION 2.0
WRAP.                       NO: One line per depth step
~Well Information Block
STRT.FT                -7.5000: 
STOP.FT              1350.7500: 
STEP.FT                 0.2500: 
NULL.                -999.2500: 
COMP.          Pioneer Natural Resources: COMPANY
WELL.            Gamma 13-3 Tr: WELL
FLD.           Purgatorie River: FIELD
LOC.           2127' FSL & 738' FWL: LOCATION
STAT.                       CO: State
CNTY.               Las Animas: COUNTY
CTRY.                      USA: Country
SECT.                        3: Section
TOWN.                      33S: Township
RANG.                      67W: Range
SRVC.          Patterson Wireline: SERVICE COMPANY
DATE.          Fri Sep 23 13:24:40 2005: LOG DATE
API.           05 071 08524 00: API
~Curve Information Block
DEPT.FT            0 000 00 00: Depth
CCL.                          : Casing Collar Locator
TT3.usec                      : CBL 3' Travel Time
AMP3.mV                       : CBL 3' Amplitude
GR.GAPI                       : Gamma Ray
~Parameter Information Block
~A  Depth       CCL         TT3         AMP3         GR     
# ...
   796.5000      0.0000    738.2814     10.1963    124.0936
   796.7500      0.0000    738.0270     10.6225    130.1128
   797.0000      0.0000    742.0602     10.9642    134.7728
   797.2500      0.0000    748.4213     11.2083    137.5166
   797.5000      0.0000    756.5295     11.3720    137.3688
   797.7500      0.0000    766.2769     11.4905    134.2580
   798.0000      0.0000    776.4719     11.5913    129.7608
   798.2500      0.0000    784.9653     11.6812    126.0783
   798.5000      0.0000    790.1700     11.7535    124.4235
   798.7500      0.0000    792.1229     11.8029    124.6097
   799.0000      0.0000    792.2190     11.8324    126.0081
   799.2500      0.0000    792.1317     11.8489    128.5781
   799.5000      0.0000    792.8068     11.8569    132.6775
   799.7500      0.0000    794.1698     11.8577    137.7356
   800.0000      0.0000    795.6245     11.8559    141.6736
   800.2500      0.0000    796.6661     11.8648    142.5016
   800.5000      0.0000    796.9938     11.9021    140.5184
   800.7500      0.0000    796.3373     11.9776    138.1275
   801.0000      0.0000    794.6475     12.0843    137.1590
   801.2500      0.0000    792.5200     12.2030    136.9403
   801.5000      0.0000    790.8978     12.3144    135.2761
   801.7500      0.0000    789.8792     12.4086    130.9209
   802.0000      0.0000    788.2772     12.4879    124.8648
   802.2500      0.0000    785.0924     12.5618    119.4560
   802.5000      0.0000    781.1424     12.6359    116.5294
   802.7500      0.0000    778.5269     12.7045    116.2198
   803.0000      0.0000    778.5688     12.7538    117.1032
   803.2500      0.0000    780.5341     12.7728    117.2895
   803.5000      0.0000    782.0755     12.7624    115.7274
   803.7500      0.0000    780.6617     12.7330    112.8603
   804.0000      0.0000    774.7469     12.6931    110.1461
   804.2500      0.0000    763.9954     12.6445    108.9484
   804.5000      0.0000    749.0826     12.5882    109.8861
   804.7500      0.0000    731.7733     12.5328    112.8590
   805.0000      0.0000    714.9437     12.4925    117.1698
   805.2500      0.0000    701.7834     12.4766    121.7072
   805.5000      0.0000    694.4047     12.4834    125.5120
   805.7500      0.0000    692.9094     12.5031    128.2321
   806.0000      0.0000    695.7160     12.5268    129.7985
   806.2500      0.0000    700.7544     12.5533    129.8350
   806.5000      0.0000    706.4043     12.5860    127.7741
   806.7500      0.0000    711.7701     12.6250    123.6572
   807.0000      0.0000    716.8480     12.6638    118.6510
   807.2500      0.0000    722.4992     12.6940    114.7850
   807.5000      0.0000    729.5583     12.7096    114.1185
   807.7500      0.0000    737.4490     12.7082    117.6908
   808.0000      0.0000    743.9322     12.6909    124.6882
   808.2500      0.0000    746.7837     12.6626    132.5436
   808.5000      0.0000    746.1082     12.6295    138.3175
   808.7500      0.0000    744.7037     12.5974    140.4438
   809.0000      0.0000    745.5872     12.5716    139.2791
   809.2500      0.0000    749.0487     12.5561    136.0663
   809.5000      0.0000    752.9075     12.5511    131.6878
   809.7500      0.0000    755.3353     12.5499    126.5621
   810.0000      0.0000    756.2077     12.5415    121.2324
   810.2500      0.0000    755.8732     12.5187    116.4039
   810.5000      0.0000    754.0009     12.4829    112.5140
   810.7500      0.0000    750.2069     12.4422    109.8469
   811.0000      0.0000    745.7899     12.4001    108.8887
   811.2500      0.0000    744.1476     12.3371    109.8165
   811.5000      0.0000    747.9034     12.1911    111.6628
   811.7500      0.0000    754.8339     11.8563    112.8044
   812.0000      0.0000    758.3007     11.2423    112.4010
   812.2500      0.0000    753.5566     10.3896    110.8883
   812.5000      0.0000    743.6658      9.5246    109.1709
   812.7500      0.0000    738.3016      8.9292    107.8279
   813.0000      0.0000    745.6808      8.7220    107.0424
   813.2500      0.0000    764.9840      8.8001    106.8076
   813.5000      0.0000    787.2140      8.9845    107.0540
   813.7500      0.0000    803.3494      9.1626    107.8111
   814.0000     -2.0000    810.6320      9.3039    109.3659
   814.2500      2.0000    811.0388      9.4181    112.2565
   814.5000      0.0000    805.7704      9.5338    117.0001
   814.7500      0.0000    792.4202      9.7056    123.5644
   815.0000      0.0000    767.4841     10.0210    130.8212
   815.2500      0.0000    732.4266     10.5509    136.5265
   815.5000      0.0000    697.8780     11.2434    138.1652
   815.7500      0.0000    678.6669     11.8930    134.2608
   816.0000      0.0000    681.1337     12.2919    125.1425
   816.2500      0.0000    697.0144     12.4078    112.5593
   816.5000      0.0000    712.3909     12.3688     98.6956
   816.7500      0.0000    720.2480     12.3153     85.6323
   817.0000      0.0000    722.7408     12.3117     75.2271
   817.2500      0.0000    725.1370     12.3590     68.6006
   817.5000      0.0000    730.7408     12.4297     65.3960
   817.7500      0.0000    739.7850     12.4904     63.8031
   818.0000      0.0000    750.2020     12.5207     61.6726
   818.2500      0.0000    758.3111     12.5250     58.0129
   818.5000      0.0000    759.3516     12.5231     53.7032
   818.7500      0.0000    749.2921     12.5322     50.7338
   819.0000      0.0000    728.8643     12.5550     50.5793
   819.2500      0.0000    705.9423     12.5822     53.0702
   819.5000      0.0000    691.5485     12.6025     56.5371
   819.7500      0.0000    692.0571     12.6034     58.9735
   820.0000      0.0000    705.5969     12.5623     59.4419
   820.2500      0.0000    724.9473     12.4438     58.7737
   820.5000      0.0000    741.6989     12.2187     58.9262
   820.7500      0.0000    748.5684     11.8933     61.3156
   821.0000      0.0000    741.9653     11.5165     65.4444
   821.2500      0.0000    724.6058     11.1556     69.2663
   821.5000      0.0000    704.6079     10.8650     71.2747
   821.7500      0.0000    690.7585     10.6705     71.9637
   822.0000      0.0000    688.3012     10.5743     72.6101
   822.2500      0.0000    698.0466     10.5662     73.0377
   822.5000      0.0000    717.3619     10.6279     71.6487
   822.7500      0.0000    741.2792     10.7281     67.5415
   823.0000      0.0000    764.3821     10.8234     61.7374
   823.2500      0.0000    783.3267     10.8711     56.3061
   823.5000      0.0000    797.7817     10.8479     52.7421
   823.7500      0.0000    808.6111     10.7617     51.1013
   824.0000      0.0000    815.4362     10.6475     50.3877
   824.2500      0.0000    816.4713     10.5462     49.6399
   824.5000      0.0000    810.8395     10.4758     48.6552
   824.7500      0.0000    800.6147     10.4203     47.8910
   825.0000      0.0000    789.9266     10.3480     47.9848
   825.2500      0.0000    781.5468     10.2410     49.5068
   825.5000      0.0000    774.5771     10.1067     52.9368
   825.7500      0.0000    766.1340      9.9686     58.3626
   826.0000      0.0000    755.4084      9.8498     64.9471
   826.2500      0.0000    745.6956      9.7661     70.8575
   826.5000      0.0000    742.3672      9.7264     74.0218
   826.7500      0.0000    748.6189      9.7340     73.2604
   827.0000      0.0000    762.0510      9.7853     69.0893
   827.2500      0.0000    774.6701      9.8669     63.6173
   827.5000      0.0000    777.5255      9.9571     59.3995
   827.7500      0.0000    767.2508     10.0309     57.8833
   828.0000      0.0000    748.5187     10.0641     58.6400
   828.2500      0.0000    729.6666     10.0379     60.0103
   828.5000      0.0000    716.0313      9.9457     60.4745
   828.7500      0.0000    707.6846      9.8004     59.6404
   829.0000      0.0000    702.5619      9.6318     58.4434
   829.2500      0.0000    700.0149      9.4751     58.5486
   829.5000      0.0000    700.8010      9.3577     60.9698
   829.7500      0.0000    704.9399      9.2912     65.0064
