~Version Information
VERS.                      2.0: CWLS Log ASCII Standard - VERSION 2.0
WRAP.                       NO: One line per depth step
~Well Information Block
STRT.FT                 0.0000: 
STOP.FT              1193.0000: 
STEP.FT                 0.1000: 
NULL.                -999.2500: 
COMP.          Pioneer Natural Resources: COMPANY
WELL.          Big Pine 32-15 Tr: WELL
FLD.           Purgatorie River: FIELD
LOC.           2546' FNL & 1451' FEL: LOCATION
STAT.                 Colorado: State
CNTY.               Las Animas: COUNTY
CTRY. USA : Country
SECT. 15 : Section
TOWN. 33S : Township
RANG. 67W : Range
SRVC.                Patterson: SERVICE COMPANY
DATE.          Tue Nov 08 07:11:35 2005: LOG DATE
API. 05-071-08604                         : UNIQUE WELL ID
~Curve Information Block
DEPT.FT            0 000 00 00: Depth
DCAL.in                       : CDL Caliper
RHOB.g/cc                     : CDL Bulk Density
RHOC.g/cc                     : CDL Density Correction
DPOR.pu                       : CDL Density Porosity
GR.GAPI                       : Gamma Ray
NPOR.pu                       : Neutron Porosity
~Parameter Information Block
~A  Depth       DCAL        RHOB        RHOC        DPOR         GR         NPOR    
# ...
   163.2000     -2.8029      0.0000      2.0000     -0.0530    150.1070     29.7895
   163.3000     -2.8029      0.0000      2.0000     -0.0530    156.7989     29.5621
   163.4000     -2.8029      0.0000      2.0000     -0.0530    161.7748     30.0289
   163.5000     -2.8029      0.0000      2.0000     -0.0530    163.9449     30.8123
   163.6000     -2.8029      0.0000      2.0000     -0.0530    167.2816     31.1372
   163.7000     -2.8029      0.0000      2.0000     -0.0530    171.0686     30.9525
   163.8000     -2.8029      0.0000      2.0000     -0.0530    170.9723     30.6079
   163.9000     -2.8029      0.0000      2.0000     -0.0530    170.3649     30.1961
   164.0000     -2.8029      0.0000      2.0000     -0.0530    173.7184     29.8053
   164.1000     -2.8029      0.0000      2.0000     -0.0530    176.7160     29.3665
   164.2000     -2.8029      0.0000      2.0000     -0.0530    175.3536     28.7766
   164.3000     -2.8029      0.0000      2.0000     -0.0530    170.5263     28.2058
   164.4000     -2.8029      0.0000      2.0000     -0.0530    165.0763     27.4732
   164.5000     -2.8029      0.0000      2.0000     -0.0530    163.6770     26.4315
   164.6000     -2.8029      0.0000      2.0000     -0.0530    167.4632     25.5681
   164.7000     -2.8029      0.0000      2.0000     -0.0530    172.4750     25.3405
   164.8000     -2.8029      0.0000      2.0000     -0.0530    174.7043     25.6408
   164.9000     -2.8029      0.0000      2.0000     -0.0530    173.7242     25.7881
   165.0000     -2.8029      0.0000      2.0000     -0.0530    171.7930     25.5222
   165.1000     -2.8029      0.0000      2.0000     -0.0530    170.1435     25.0446
   165.2000     -2.8029      0.0000      2.0000     -0.0530    168.4217     24.3014
   165.3000     -2.8029      0.0000      2.0000     -0.0530    166.7602     23.5894
   165.4000     -2.8029      0.0000      2.0000     -0.0530    165.9056     23.2057
   165.5000     -2.8029      0.0000      2.0000     -0.0530    164.6138     22.9013
   165.6000     -2.8029      0.0000      2.0000     -0.0530    161.6131     22.5399
   165.7000     -2.8029      0.0000      2.0000     -0.0530    156.0886     22.2605
   165.8000     -2.8029      0.0008      2.0000     -0.0530    149.6650     22.0360
   165.9000     -2.8029      0.0146      2.0000     -0.0527    147.5341     21.6928
   166.0000     -2.8029      0.1437      2.0000     -0.0502    149.8153     21.2955
   166.1000     -2.8029      0.7721      2.0000     -0.0376    153.0580     21.1629
   166.2000     -2.8029      2.3645      2.0000     -0.0057    154.3355     21.3718
   166.3000     -2.8029      4.4018      2.0000      0.0351    152.1286     21.6856
   166.4000     -2.8029      5.3926      2.0000      0.0549    147.7832     21.9800
   166.5000     -2.8029      4.5114      2.0000      0.0372    144.9174     22.2796
   166.6000     -2.8029      2.4662      2.0000     -0.0037    146.3409     22.6912
   166.7000     -2.8029      0.8134      2.0000     -0.0368    150.4978     23.2563
   166.8000     -2.8029      0.1521      2.0000     -0.0500    153.7402     23.9643
   166.9000     -2.8029      0.0155      2.0000     -0.0527    154.4932     24.5873
   167.0000     -2.8029      0.0008      2.0000     -0.0530    152.9976     24.7921
   167.1000     -2.8029      0.0000      2.0000     -0.0530    151.2309     24.6353
   167.2000     -2.8029      0.0000      2.0000     -0.0530    151.6599     24.4128
   167.3000     -2.8029      0.0000      2.0000     -0.0530    154.0217     24.3753
   167.4000     -2.8029      0.0000      2.0000     -0.0530    156.0895     24.3589
   167.5000     -2.8029      0.0000      2.0000     -0.0530    156.6259     24.0089
   167.6000     -2.8029      0.0000      2.0000     -0.0530    155.5367     23.4901
   167.7000     -2.8029      0.0000      2.0000     -0.0530    152.5365     23.0931
   167.8000     -2.8029      0.0000      2.0000     -0.0530    150.3536     22.7287
   167.9000     -2.8029      0.0000      2.0000     -0.0530    151.1249     22.4203
   168.0000     -2.8029      0.0000      2.0000     -0.0530    153.9246     22.4905
   168.1000     -2.8029      0.0000      2.0000     -0.0530    158.7077     22.8842
   168.2000     -2.8029      0.0000      2.0000     -0.0530    163.4971     23.1477
   168.3000     -2.8029      0.0000      2.0000     -0.0530    162.7553     23.0867
   168.4000     -2.8029      0.0000      2.0000     -0.0530    156.4529     23.0308
   168.5000     -2.8029      0.0000      2.0000     -0.0530    152.3177     23.3065
   168.6000     -2.8029      0.0000      2.0000     -0.0530    152.8941     23.7345
   168.7000     -2.8029      0.0000      2.0000     -0.0530    152.7963     24.2934
   168.8000     -2.8029      0.0000      2.0000     -0.0530    153.4283     24.9029
   168.9000     -2.8029      0.0000      2.0000     -0.0530    159.6918     25.0978
   169.0000     -2.8029      0.0000      2.0000     -0.0530    169.4941     24.9289
   169.1000     -2.8029      0.0008      2.0000     -0.0530    176.4739     24.8781
   169.2000     -2.8029      0.0145      2.0000     -0.0527    177.4819     25.0654
   169.3000     -2.8029      0.1416      2.0000     -0.0502    177.8454     25.3697
   169.4000     -2.8029      0.7583      2.0000     -0.0379    179.7936     25.5817
   169.5000     -2.8029      2.3061      2.0000     -0.0069    177.2670     25.3568
   169.6000     -2.8029      4.2394      2.0000      0.0318    173.2546     25.0433
   169.7000     -2.8029      5.0999      2.0000      0.0490    175.7615     25.2953
   169.8000     -2.8029      4.1873      2.0000      0.0308    179.3413     25.9765
   169.9000     -2.8029      2.2578      2.0000     -0.0078    178.5833     26.5373
   170.0000     -2.8029      0.7387      2.0000     -0.0382    180.4130     26.7065
   170.1000     -2.8029      0.1376      2.0000     -0.0503    185.4095     26.5763
   170.2000     -2.8029      0.0140      2.0000     -0.0527    185.4086     26.5994
   170.3000     -2.8029      0.0008      2.0000     -0.0530    180.1369     26.9867
   170.4000     -2.8029      0.0008      2.0000     -0.0530    173.9467     27.2187
   170.5000     -2.8029      0.0148      2.0000     -0.0527    167.8210     27.0487
   170.6000     -2.8029      0.1454      2.0000     -0.0501    163.3495     26.8403
   170.7000     -2.8029      0.7788      2.0000     -0.0374    162.3316     26.6046
   170.8000     -2.8029      2.3673      2.0000     -0.0057    164.9109     26.3376
   170.9000     -2.8029      4.3460      2.0000      0.0339    167.9821     26.5633
   171.0000     -2.8029      5.2258      2.0000      0.0515    167.7763     27.0986
   171.1000     -2.8029      4.4099      2.0000      0.0352    166.2241     26.9602
   171.2000     -2.8029      3.0940      2.0000      0.0089    165.9538     26.1037
   171.3000     -2.8029      3.2178      2.0000      0.0114    165.5535     25.4714
   171.4000     -2.8029      4.8208      2.0000      0.0434    166.0442     25.4296
   171.5000     -2.8029      6.2765      2.0000      0.0726    167.8085     25.6783
   171.6000     -2.8029      6.8959      2.0000      0.0850    168.4321     26.0105
   171.7000     -2.8029      6.9264      2.0000      0.0856    169.1780     26.3791
   171.8000     -2.8029      6.7768      2.0000      0.0826    170.1553     26.5644
   171.9000     -2.8029      6.6860      2.0000      0.0808    167.7012     26.4454
   172.0000     -2.8029      6.5035      2.0000      0.0771    162.6924     26.1089
   172.1000     -2.8029      6.2812      2.0000      0.0727    158.8182     25.6820
   172.2000     -2.8029      6.1666      2.0000      0.0704    157.1594     25.2208
   172.3000     -2.8029      5.9335      2.0000      0.0657    157.6688     24.9819
   172.4000     -2.8029      5.6061      2.0000      0.0592    160.5239     25.0568
   172.5000     -2.8029      5.5593      2.0000      0.0582    163.6547     25.2972
   172.6000     -2.8029      5.7186      2.0000      0.0614    165.6760     25.7500
   172.7000     -2.8029      5.6781      2.0000      0.0606    170.7851     26.1865
