~Version Information
VERS.                      2.0: CWLS Log ASCII Standard - VERSION 2.0
WRAP.                       NO: One line per depth step
~Well Information Block
STRT.FT                -8.2500: 
STOP.FT               686.7500: 
STEP.FT                 0.2500: 
NULL.                -999.2500: 
COMP.          Pioneer Natural Resources: COMPANY
WELL.           Quintessa 23-7: WELL
FLD.           Purgatorie River: FIELD
LOC.           1964' FSL & 2589' FWL--: LOCATION
PROV.                       CO: PROVINCE
CNTY.               Las Animas: COUNTRY
SRVC.          Patterson Wireline: SERVICE COMPANY
DATE.          Wed Nov 23 10:31:07 2005: LOG DATE
UWI.           05 071 08558 00: UNIQUE WELL ID
~Curve Information Block
DEPT.FT            0 000 00 00: Depth
CCL.                          : Casing Collar Locator
TT3.usec                      : CBL 3' Travel Time
AMP3.mV                       : CBL 3' Amplitude
GR.GAPI                       : Gamma Ray
~Parameter Information Block
~A  Depth       CCL         TT3         AMP3         GR     
# ...
   293.2500      0.0000    787.4556     19.8281    154.5739
   293.5000      0.0000    788.4594     19.9068    153.7094
   293.7500      0.0000    785.6732     19.9564    150.3388
   294.0000      0.0000    773.6626     20.0065    145.6417
   294.2500      0.0000    743.6674     20.0960    141.0308
   294.5000      0.0000    687.3773     20.2522    137.9594
   294.7500      0.0000    605.4504     20.4786    137.5795
   295.0000      0.0000    512.5938     20.7485    140.0238
   295.2500      0.0000    430.5983     21.0095    143.7357
   295.5000      0.0000    374.1792     21.2064    146.0395
   295.7500      0.0000    343.9179     21.3148    144.9978
   296.0000      0.0000    331.2661     21.3514    140.5254
   296.2500      0.0000    327.1681     21.3520    133.4134
   296.5000      0.0000    326.1911     21.3465    123.8961
   296.7500      0.0000    326.0811     21.3555    111.8980
   297.0000      0.0000    326.1308     21.3962     98.4649
   297.2500      0.0000    326.1720     21.4777     86.1533
   297.5000      0.0000    326.1849     21.5933     77.6049
   297.7500      0.0000    326.1922     21.7296     73.8343
   298.0000      0.0000    326.1982     21.8747     73.8550
   298.2500      0.0000    326.2236     22.0112     75.4880
   298.5000      0.0000    326.3741     22.1085     76.4720
   298.7500      0.0000    327.1379     22.1395     75.4631
   299.0000      0.0000    329.9473     22.1050     72.5788
   299.2500      0.0000    337.7303     22.0288     69.0567
   299.5000      0.0000    353.8228     21.9263     66.3136
   299.7500      0.0000    377.8136     21.7937     65.1218
   300.0000      0.0000    401.4552     21.6287     65.2476
   300.2500      0.0000    412.2588     21.4466     65.6829
   300.5000      0.0000    405.1363     21.2680     65.4638
   300.7500      0.0000    389.5167     21.1035     64.3815
   301.0000      0.0000    381.7199     20.9544     62.8777
   301.2500      0.0000    389.7956     20.8175     61.5068
   301.5000      0.0000    406.5016     20.6884     60.6086
   301.7500      0.0000    417.7671     20.5630     60.1168
   302.0000      0.0000    419.5731     20.4322     59.5651
   302.2500      0.0000    426.0395     20.2714     58.7117
   302.5000      0.0000    458.1527     20.0490     58.1317
   302.7500      0.0000    523.4316     19.7573     58.7262
   303.0000      0.0000    607.1901     19.4289     60.6660
   303.2500      0.0000    683.6533     19.1123     63.1820
   303.5000      0.0000    734.7140     18.8387     65.3139
   303.7500      0.0000    758.9030     18.6189     66.6201
   304.0000      0.0000    766.2311     18.4580     67.2160
   304.2500      0.0000    768.0118     18.3556     67.2781
   304.5000      0.0000    770.4819     18.2985     66.6684
   304.7500      0.0000    774.2203     18.2664     65.3172
   305.0000      0.0000    776.9849     18.2423     63.9868
   305.2500      0.0000    776.9464     18.2127     64.2520
   305.5000      0.0000    774.0533     18.1656     67.5098
   305.7500      0.0000    769.4290     18.0972     74.2556
   306.0000      0.0000    764.4791     18.0112     84.0906
   306.2500      0.0000    760.5677     17.9086     95.5356
   306.5000      0.0000    758.7760     17.7867    105.6284
   306.7500      0.0000    759.3679     17.6540    110.7625
   307.0000      0.0000    761.5148     17.5362    108.9121
   307.2500      0.0000    763.8565     17.4556    101.0970
   307.5000      0.0000    765.4712     17.4137     90.4482
   307.7500      0.0000    766.2399     17.4004     80.0438
   308.0000      0.0000    766.3961     17.4137     71.6816
   308.2500      0.0000    766.0667     17.4602     65.8952
   308.5000      0.0000    765.1265     17.5408     62.2906
   308.7500      0.0000    763.2283     17.6488     59.8873
   309.0000      0.0000    759.8196     17.7825     57.6590
   309.2500      0.0000    753.8402     17.9535     55.0986
   309.5000      0.0000    742.5432     18.1784     52.4751
   309.7500      0.0000    721.0324     18.4662     50.6652
   310.0000      0.0000    684.7313     18.8119     50.5854
   310.2500      0.0000    633.3668     19.2023     52.6258
   310.5000      0.0000    571.7388     19.6242     56.5982
   310.7500      0.0000    506.6737     20.0646     61.9153
   311.0000      0.0000    445.0597     20.5013     67.4382
   311.2500      0.0000    393.8946     20.8984     71.4429
   311.5000      0.0000    358.2912     21.2179     72.3604
   311.7500      0.0000    338.3192     21.4379     69.8290
   312.0000      0.0000    329.4796     21.5595     65.0282
   312.2500      0.0000    326.4176     21.6003     59.9142
   312.5000      0.0000    325.6025     21.5827     56.0544
   312.7500      0.0000    325.4807     21.5279     54.0266
   313.0000      0.0000    325.5388     21.4577     53.5378
   313.2500      0.0000    325.6440     21.3949     53.7101
   313.5000      0.0000    325.7318     21.3513     53.5112
   313.7500      0.0000    325.7859     21.3165     52.5472
   314.0000      0.0000    325.8166     21.2634     51.4958
   314.2500      0.0000    325.8500     21.1667     51.3875
   314.5000      0.0000    325.9078     21.0180     52.5052
   314.7500      0.0000    325.9917     20.8334     54.2183
   315.0000      0.0000    326.0864     20.6456     55.7331
   315.2500      0.0000    326.1762     20.4827     56.7116
   315.5000      0.0000    326.2560     20.3542     57.2697
   315.7500      0.0000    326.3285     20.2559     57.7062
   316.0000      0.0000    326.4030     20.1817     58.2007
   316.2500      0.0000    326.5319     20.1227     58.5287
   316.5000      0.0000    326.9049     20.0622     58.1218
   316.7500      0.0000    327.9581     19.9818     56.6271
   317.0000      0.0000    330.3134     19.8735     54.3590
   317.2500      0.0000    334.2624     19.7449     52.1205
   317.5000      0.0000    338.9918     19.6173     50.7727
   317.7500      0.0000    342.5984     19.5197     51.0040
   318.0000      0.0000    343.6432     19.4732     53.1805
   318.2500      0.0000    343.1937     19.4715     57.0786
   318.5000      0.0000    345.4679     19.4757     61.7232
   318.7500      0.0000    357.2118     19.4300     65.8073
   319.0000      0.0000    386.7065     19.2835     68.5584
   319.2500      0.0000    440.6615     19.0142     70.1622
   319.5000      0.0000    517.6246     18.6561     71.3769
   319.7500      0.0000    603.7029     18.3006     73.1136
   320.0000      0.0000    678.7050     18.0440     76.3119
   320.2500      0.0000    729.3499     17.9202     81.5979
   320.5000      0.0000    756.1154     17.8913     88.8700
   320.7500      0.0000    768.0367     17.8947     97.3580
   321.0000      0.0000    773.6599     17.8884    105.8231
   321.2500      0.0000    777.2188     17.8645    112.7224
   321.5000      0.0000    779.9467     17.8377    116.9105
   321.7500      0.0000    781.4752     17.8205    118.4263
   322.0000      0.0000    779.6411     17.8113    118.1847
   322.2500      0.0000    770.5172     17.8238    116.9805
   322.5000      0.0000    750.6381     17.9138    115.3652
   322.7500      0.0000    721.1664     18.1356    114.5243
   323.0000      0.0000    689.9745     18.4645    116.4820
   323.2500      0.0000    665.8679     18.7976    122.4691
   323.5000      0.0000    647.8136     19.0417    131.0293
   323.7500      0.0000    623.6713     19.1733    138.4740
   324.0000      0.0000    585.2171     19.2161    141.6489
   324.2500      0.0000    542.8881     19.1802    140.3078
   324.5000      0.0000    519.6656     19.0374    136.9369
   324.7500      0.0000    529.9489     18.7409    134.2621
   325.0000      0.0000    569.8480     18.2563    132.7775
   325.2500      0.0000    629.3337     17.5806    130.7509
   325.5000      0.0000    705.0910     16.7703    126.5776
   325.7500      0.0000    794.2987     15.9737    120.6331
   326.0000      0.0000    883.1450     15.3760    114.7133
   326.2500      0.0000    952.4086     15.0635    110.2603
   326.5000      0.0000    992.4158     14.9654    107.5000
