~Version Information
VERS.                      2.0: CWLS Log ASCII Standard - VERSION 2.0
WRAP.                       NO: One line per depth step
~Well Information Block
STRT.FT               620.0000: 
STOP.FT              3067.2500: 
STEP.FT                 0.2500: 
NULL.                -999.2500: 
COMP.          Pioneer Natural Resources: COMPANY
WELL.          Interceptor 43-13 Kv: WELL
FLD.           Purgatoire River: FIELD
LOC.           2073' FSL & 519' FEL--: LOCATION
PROV.                 Colorado: PROVINCE
CNTY.               Las Animas: COUNTRY
SRVC.                Patterson: SERVICE COMPANY
DATE.          Sat Jan 14 19:35:17 2006: LOG DATE
UWI.           05 071 08655 00: UNIQUE WELL ID
~Curve Information Block
DEPT.FT            0 000 00 00: Depth
SN.Ohm-m                      : IEL Short Normal
SP.mV                         : IEL Spontaneous Potential
DIR.Ohm-m                     : IEL Induction Resistivity
GR.GAPI                       : Gamma Ray
~Parameter Information Block
~A  Depth        SN          SP         DIR          GR     
# ...
   955.0000   2000.0000   1977.0000     19.1032    120.2192
   955.2500   2000.0000   1977.0000     19.0189    120.8124
   955.5000   2000.0000   1977.0000     18.9381    120.5521
   955.7500   2000.0000   1977.0000     18.8183    119.5678
   956.0000   2000.0000   1977.0000     18.6254    117.8675
   956.2500   2000.0000   1977.0000     18.3500    117.3843
   956.5000   2000.0000   1977.0000     18.0104    118.4504
   956.7500   2000.0000   1977.0000     17.6405    120.3644
   957.0000   2000.0000   1977.0000     17.2712    124.5375
   957.2500   2000.0000   1977.0000     16.9220    127.6624
   957.5000   2000.0000   1977.0000     16.6024    131.5812
   957.7500   2000.0000   1977.0000     16.3181    133.0798
   958.0000   2000.0000   1977.0000     16.0751    133.9807
   958.2500   2000.0000   1977.0000     15.8786    134.6131
   958.5000   2000.0000   1977.0000     15.7325    136.7571
   958.7500   2000.0000   1977.0000     15.6396    138.6774
   959.0000   2000.0000   1977.0000     15.6018    140.7717
   959.2500   2000.0000   1977.0000     15.6158    140.9656
   959.5000   2000.0000   1977.0000     15.6696    139.0842
   959.7500   2000.0000   1977.0000     15.7436    136.4610
   960.0000   2000.0000   1977.0000     15.8160    131.1289
   960.2500   2000.0000   1977.0000     15.8720    127.3742
   960.5000   2000.0000   1977.0000     15.9083    122.8310
   960.7500   2000.0000   1977.0000     15.9314    121.0462
   961.0000   2000.0000   1977.0000     15.9507    120.2677
   961.2500   2000.0000   1977.0000     15.9728    120.5796
   961.5000   2000.0000   1977.0000     15.9991    121.2899
   961.7500   2000.0000   1977.0000     16.0275    121.6228
   962.0000   2000.0000   1977.0000     16.0550    122.3943
   962.2500   2000.0000   1977.0000     16.0799    123.7736
   962.5000   2000.0000   1977.0000     16.1031    127.8965
   962.7500   2000.0000   1977.0000     16.1287    131.6036
   963.0000   2000.0000   1977.0000     16.1647    136.3480
   963.2500   2000.0000   1977.0000     16.2204    137.5301
   963.5000   2000.0000   1977.0000     16.3019    135.5460
   963.7500   2000.0000   1977.0000     16.4073    132.5041
   964.0000   2000.0000   1977.0000     16.5275    127.5442
   964.2500   2000.0000   1977.0000     16.6538    124.8779
   964.5000   2000.0000   1977.0000     16.7865    122.3493
   964.7500   2000.0000   1977.0000     16.9377    121.6148
   965.0000   2000.0000   1977.0000     17.1225    121.6913
   965.2500   2000.0000   1977.0000     17.3489    122.2047
   965.5000   2000.0000   1977.0000     17.6119    122.8157
   965.7500   2000.0000   1977.0000     17.8947    122.7147
   966.0000   2000.0000   1977.0000     18.1736    121.7346
   966.2500   2000.0000   1977.0000     18.4244    120.8401
   966.5000   2000.0000   1977.0000     18.6288    119.9765
   966.7500   2000.0000   1977.0000     18.7789    120.2345
   967.0000   2000.0000   1977.0000     18.8776    122.3896
   967.2500   2000.0000   1977.0000     18.9341    124.8433
   967.5000   2000.0000   1977.0000     18.9573    128.8835
   967.7500   2000.0000   1977.0000     18.9531    130.9102
   968.0000   2000.0000   1977.0000     18.9256    131.8530
   968.2500   2000.0000   1977.0000     18.8813    130.9836
   968.5000   2000.0000   1977.0000     18.8285    128.0248
   968.7500   2000.0000   1977.0000     18.7723    125.4798
   969.0000   2000.0000   1977.0000     18.7094    121.7313
   969.2500   2000.0000   1977.0000     18.6285    119.7376
   969.5000   2000.0000   1977.0000     18.5191    117.9202
   969.7500   2000.0000   1977.0000     18.3785    117.4858
   970.0000   2000.0000   1977.0000     18.2148    117.9109
   970.2500   2000.0000   1977.0000     18.0436    118.9455
   970.5000   2000.0000   1977.0000     17.8839    121.3916
   970.7500   2000.0000   1977.0000     17.7554    123.0127
   971.0000   2000.0000   1977.0000     17.6743    124.0074
   971.2500   2000.0000   1977.0000     17.6503    123.3260
   971.5000   2000.0000   1977.0000     17.6852    120.9606
   971.7500   2000.0000   1977.0000     17.7751    119.2812
   972.0000   2000.0000   1977.0000     17.9183    117.5064
   972.2500   2000.0000   1977.0000     18.1212    116.7765
   972.5000   2000.0000   1977.0000     18.4011    115.6007
   972.7500   2000.0000   1977.0000     18.7805    114.3543
   973.0000   2000.0000   1977.0000     19.2782    111.7823
   973.2500   2000.0000   1977.0000     19.8987    109.9680
   973.5000   2000.0000   1977.0000     20.6269    107.7816
   973.7500   2000.0000   1977.0000     21.4304    106.8360
   974.0000   2000.0000   1977.0000     22.2717    105.9734
   974.2500   2000.0000   1977.0000     23.1210    105.4665
   974.5000   2000.0000   1977.0000     23.9611    104.1348
   974.7500   2000.0000   1977.0000     24.7811    102.4599
   975.0000   2000.0000   1977.0000     25.5657     98.3871
   975.2500   2000.0000   1977.0000     26.2931     94.8432
   975.5000   2000.0000   1977.0000     26.9436     89.5645
   975.7500   2000.0000   1977.0000     27.5145     87.1142
   976.0000   2000.0000   1977.0000     28.0268     86.4199
   976.2500   2000.0000   1977.0000     28.5118     87.9936
   976.5000   2000.0000   1977.0000     28.9791     91.8838
   976.7500   2000.0000   1977.0000     29.3917     94.1339
   977.0000   2000.0000   1977.0000     29.6721     95.6088
   977.2500   2000.0000   1977.0000     29.7403     95.7023
   977.5000   2000.0000   1977.0000     29.5557     96.5004
   977.7500   2000.0000   1977.0000     29.1308     98.4197
   978.0000   2000.0000   1977.0000     28.5149    103.5037
   978.2500   2000.0000   1977.0000     27.7696    107.7596
   978.5000   2000.0000   1977.0000     26.9501    114.2120
   978.7500   2000.0000   1977.0000     26.0963    118.0433
   979.0000   2000.0000   1977.0000     25.2326    122.6441
   979.2500   2000.0000   1977.0000     24.3745    124.9053
   979.5000   2000.0000   1977.0000     23.5354    127.1184
   979.7500   2000.0000   1977.0000     22.7297    127.7134
   980.0000   2000.0000   1977.0000     21.9713    126.9877
   980.2500   2000.0000   1977.0000     21.2721    125.5146
   980.5000   2000.0000   1977.0000     20.6414    122.9524
   980.7500   2000.0000   1977.0000     20.0861    122.0012
   981.0000   2000.0000   1977.0000     19.6077    122.7627
   981.2500   2000.0000   1977.0000     19.2019    124.5443
   981.5000   2000.0000   1977.0000     18.8612    127.8790
   981.7500   2000.0000   1977.0000     18.5790    129.8191
   982.0000   2000.0000   1977.0000     18.3510    131.5843
   982.2500   2000.0000   1977.0000     18.1727    131.8224
   982.5000   2000.0000   1977.0000     18.0373    130.7661
   982.7500   2000.0000   1977.0000     17.9375    129.3315
   983.0000   2000.0000   1977.0000     17.8679    126.7844
   983.2500   2000.0000   1977.0000     17.8267    125.2288
   983.5000   2000.0000   1977.0000     17.8126    123.4126
   983.7500   2000.0000   1977.0000     17.8233    122.5057
   984.0000   2000.0000   1977.0000     17.8527    121.5157
   984.2500   2000.0000   1977.0000     17.8915    121.1878
   984.5000   2000.0000   1977.0000     17.9280    121.5871
   984.7500   2000.0000   1977.0000     17.9498    122.7373
   985.0000   2000.0000   1977.0000     17.9467    125.9605
   985.2500   2000.0000   1977.0000     17.9123    128.7597
   985.5000   2000.0000   1977.0000     17.8442    132.8148
   985.7500   2000.0000   1977.0000     17.7451    134.9278
   986.0000   2000.0000   1977.0000     17.6224    136.9486
   986.2500   2000.0000   1977.0000     17.4864    137.4592
   986.5000   2000.0000   1977.0000     17.3465    136.8613
   986.7500   2000.0000   1977.0000     17.2076    135.7703
   987.0000   2000.0000   1977.0000     17.0716    134.0280
   987.2500   2000.0000   1977.0000     16.9423    133.2777
   987.5000   2000.0000   1977.0000     16.8284    132.9761
   987.7500   2000.0000   1977.0000     16.7389    133.1871
   988.0000   2000.0000   1977.0000     16.6755    133.8862
   988.2500   2000.0000   1977.0000     16.6285    134.5828
