~Version Information
VERS.                      2.0: CWLS Log ASCII Standard - VERSION 2.0
WRAP.                       NO: One line per depth step
~Well Information Block
STRT.FT               262.8000: 
STOP.FT              1134.7000: 
STEP.FT                 0.1000: 
NULL.                -999.2500: 
COMP.          Pioneer Natural Resources: COMPANY
WELL.          Black Cat 13-32 Tr: WELL
FLD.           Purgatoire River: FIELD
LOC.           1679' FSL & 1150' FWL--: LOCATION
CNTY.               Las Animas: COUNTY
SRVC.                Patterson: SERVICE COMPANY
DATE.          Tue Mar 07 12:42:54 2006: LOG DATE
UWI.           05 071 08721 00: UNIQUE WELL ID
STAT.                 Colorado: STATE
~Curve Information Block
DEPT.FT            0 000 00 00: Depth
DCAL.in                       : CDL Caliper
RHOB.g/cc                     : CDL Bulk Density
RHOC.g/cc                     : CDL Density Correction
DPOR.pu                       : CDL Density Porosity
GR.GAPI                       : Gamma Ray
~Parameter Information Block
~A  Depth       DCAL        RHOB        RHOC        DPOR         GR     
# ...
   442.0000      7.9243      2.5727      0.0036      4.6838    112.5707
   442.1000      7.9243      2.5622      0.0560      5.3200    117.6034
   442.2000      7.9243      2.5570      0.0059      5.6348    118.9940
   442.3000      7.9208      2.5612      0.0347      5.3822    113.5580
   442.4000      7.9208      2.5730      0.0130      4.6639    108.5546
   442.5000      7.9193      2.5911      0.0126      3.5699    108.6133
   442.6000      7.9193      2.6143      0.0290      2.1657    110.9094
   442.7000      7.9193      2.6330      0.0293      1.0332    110.9071
   442.8000      7.9198      2.6347      0.0629      0.9292    109.9531
   442.9000      7.9198      2.6137      0.0603      2.2024    109.5870
   443.0000      7.9216      2.5818      0.0155      4.1360    106.5644
   443.1000      7.9216      2.5579      0.0078      5.5803    102.1943
   443.2000      7.9216      2.5457     -0.0037      6.3237    101.2789
   443.3000      7.9225      2.5373      0.0363      6.8277    102.6087
   443.4000      7.9225      2.5298     -0.0208      7.2878    103.0997
   443.5000      7.9232      2.5231      0.0154      7.6882    102.6447
   443.6000      7.9232      2.5165     -0.0024      8.0937    102.4642
   443.7000      7.9232      2.5188      0.0030      7.9540    103.7774
   443.8000      7.9242      2.5391      0.0158      6.7203    104.4707
   443.9000      7.9242      2.5683      0.0426      4.9520    102.2999
   444.0000      7.9238      2.5928      0.0491      3.4659    101.9852
   444.1000      7.9238      2.6080      0.0451      2.5464    106.8374
   444.2000      7.9238      2.6145      0.0684      2.1485    110.6752
   444.3000      7.9222      2.6129      0.0198      2.2494    109.4014
   444.4000      7.9222      2.5986      0.0793      3.1126    107.6437
   444.5000      7.9205      2.5810     -0.0094      4.1796    107.5224
   444.6000      7.9205      2.5842      0.0138      3.9889    107.6316
   444.7000      7.9205      2.6042      0.0738      2.7778    109.9996
   444.8000      7.9207      2.6141      0.0424      2.1765    113.1838
   444.9000      7.9207      2.5992      0.0630      3.0764    113.1667
   445.0000      7.9212      2.5659      0.0119      5.0956    113.0502
   445.1000      7.9212      2.5379      0.0209      6.7957    117.1144
   445.2000      7.9212      2.5267      0.0154      7.4752    122.9555
   445.3000      7.9206      2.5214      0.0003      7.7915    125.8120
   445.4000      7.9206      2.5177     -0.0010      8.0152    124.3787
   445.5000      7.9216      2.5214      0.0255      7.7923    119.0883
   445.6000      7.9216      2.5350      0.0618      6.9689    110.6106
   445.7000      7.9216      2.5577      0.0312      5.5926    102.7481
   445.8000      7.9232      2.5791      0.0508      4.2987    100.9304
   445.9000      7.9232      2.5857      0.0634      3.8958    106.1066
   446.0000      7.9234      2.5841      0.0355      3.9909    113.0934
   446.1000      7.9234      2.5834      0.0613      4.0366    115.9606
   446.2000      7.9234      2.5769      0.0174      4.4275    115.5819
   446.3000      7.9219      2.5641      0.0603      5.2037    116.7843
   446.4000      7.9219      2.5502      0.0318      6.0513    117.4769
   446.5000      7.9212      2.5365      0.0176      6.8763    115.8194
   446.6000      7.9212      2.5292      0.0118      7.3225    114.3159
   446.7000      7.9212      2.5337      0.0121      7.0505    110.8322
   446.8000      7.9236      2.5438      0.0225      6.4367    104.3719
   446.9000      7.9236      2.5515      0.0046      5.9681    101.0908
   447.0000      7.9241      2.5614      0.0510      5.3675    104.8157
   447.1000      7.9241      2.5817      0.0304      4.1410    113.1248
   447.2000      7.9241      2.6083      0.0797      2.5297    119.2579
   447.3000      7.9226      2.6209      0.0368      1.7638    116.8439
   447.4000      7.9226      2.6062      0.0497      2.6575    108.0823
   447.5000      7.9235      2.5774      0.0313      4.3979    101.1702
   447.6000      7.9235      2.5583      0.0078      5.5567    100.1847
   447.7000      7.9235      2.5609     -0.0056      5.4002    103.7477
   447.8000      7.9238      2.5865      0.0289      3.8504    107.4371
   447.9000      7.9238      2.6234      0.0403      1.6147    109.0002
   448.0000      7.9220      2.6588      0.0926     -0.5356    110.0514
   448.1000      7.9220      2.6938      0.0920     -2.6553    112.4048
   448.2000      7.9220      2.7255      0.1184     -4.5735    116.0887
   448.3000      7.9203      2.7345      0.1401     -5.1196    118.4474
   448.4000      7.9203      2.7131      0.0558     -3.8231    117.0045
   448.5000      7.9200      2.6737      0.0463     -1.4350    114.7244
   448.6000      7.9200      2.6272      0.0304      1.3832    115.8846
   448.7000      7.9200      2.5879     -0.0187      3.7615    120.1803
   448.8000      7.9214      2.5713      0.0010      4.7672    125.1293
   448.9000      7.9214      2.5777     -0.0304      4.3822    128.5712
   449.0000      7.9273      2.5914     -0.0018      3.5494    128.8522
   449.1000      7.9273      2.5928     -0.0097      3.4643    126.9656
   449.2000      7.9273      2.5825     -0.0699      4.0889    124.7931
   449.3000      7.9390      2.5765     -0.0015      4.4550    120.2954
   449.4000      7.9390      2.5722     -0.0060      4.7144    115.8090
   449.5000      7.9479      2.5576     -0.0021      5.6020    120.3792
   449.6000      7.9479      2.5449     -0.0359      6.3690    133.0824
   449.7000      7.9479      2.5598     -0.0198      5.4671    140.8042
   449.8000      7.9507      2.5979      0.0520      3.1567    137.8244
   449.9000      7.9507      2.6288      0.0536      1.2831    134.1023
   450.0000      7.9501      2.6328      0.0905      1.0447    138.1196
   450.1000      7.9501      2.6095      0.0385      2.4541    143.9207
   450.2000      7.9501      2.5807     -0.0089      4.2009    142.3515
   450.3000      7.9488      2.5669      0.0362      5.0337    136.5917
   450.4000      7.9488      2.5625      0.0245      5.3018    134.9848
   450.5000      7.9467      2.5598     -0.0015      5.4684    136.4222
   450.6000      7.9467      2.5677     -0.0114      4.9908    136.2102
   450.7000      7.9467      2.5865      0.0229      3.8479    134.3445
   450.8000      7.9451      2.5984      0.0647      3.1289    133.8514
   450.9000      7.9451      2.5974      0.0011      3.1887    133.3893
   451.0000      7.9459      2.5949      0.0252      3.3385    131.2971
   451.1000      7.9459      2.5940      0.0367      3.3922    127.6340
   451.2000      7.9459      2.5885      0.0304      3.7262    122.6395
   451.3000      7.9445      2.5795      0.0172      4.2720    119.8076
   451.4000      7.9445      2.5697      0.0438      4.8638    123.0703
   451.5000      7.9358      2.5574      0.0351      5.6103    129.3893
   451.6000      7.9358      2.5487      0.0170      6.1368    130.7591
   451.7000      7.9358      2.5452      0.0067      6.3504    126.5004
   451.8000      7.9255      2.5395      0.0249      6.6998    125.8919
   451.9000      7.9255      2.5313     -0.0027      7.1910    129.5210
   452.0000      7.9217      2.5253      0.0584      7.5555    129.6235
   452.1000      7.9217      2.5258      0.0051      7.5281    127.7294
   452.2000      7.9217      2.5449      0.0395      6.3690    130.0691
   452.3000      7.9214      2.5846      0.0561      3.9664    133.7055
   452.4000      7.9214      2.6197      0.1294      1.8385    131.5115
   452.5000      7.9216      2.6228      0.0929      1.6457    122.9073
   452.6000      7.9216      2.5983      0.0798      3.1320    115.2820
   452.7000      7.9216      2.5763      0.0202      4.4694    114.6231
   452.8000      7.9216      2.5738      0.0539      4.6167    117.7005
   452.9000      7.9216      2.5801      0.0038      4.2349    119.4900
   453.0000      7.9222      2.5882      0.0104      3.7429    120.5675
   453.1000      7.9222      2.5980      0.0350      3.1517    121.9774
