~Version Information
VERS.                      2.0: CWLS Log ASCII Standard - VERSION 2.0
WRAP.                       NO: One line per depth step
~Well Information Block
STRT.FT               390.0000: 
STOP.FT              1434.5000: 
STEP.FT                 0.1000: 
NULL.                -999.2500: 
COMP.          Pioneer Natural Resources: COMPANY
WELL.             John K 12-28: WELL
FLD.           Purgatoire River: FIELD
LOC.           1476' FNL & 465' FWL: LOCATION
CNTY.               Las Animas: COUNTY
SRVC.                Patterson: SERVICE COMPANY
DATE.          Mon Apr 10 06:53:47 2006: LOG DATE
UWI.           05 071 08723 00: UNIQUE WELL ID
STAT.                 Colorado: STATE
~Curve Information Block
DEPT.FT            0 000 00 00: Depth
DCAL.in                       : CDL Caliper
RHOB.g/cc                     : CDL Bulk Density
RHOC.g/cc                     : CDL Density Correction
DPOR.pu                       : CDL Density Porosity
GR.GAPI                       : Gamma Ray
NPOR.pu                       : Neutron Porosity
~Parameter Information Block
~A  Depth       DCAL        RHOB        RHOC        DPOR         GR         NPOR    
# ...
  1292.4000      7.9061      2.5336      0.0378      7.0528     74.0424     17.7907
  1292.5000      7.9063      2.5339      0.0444      7.0343     73.1240     18.0562
  1292.6000      7.9063      2.5172      0.0216      8.0480     72.2181     19.2072
  1292.7000      7.9063      2.4911     -0.0136      9.6327     67.4698     20.2675
  1292.8000      7.9065      2.4746     -0.0473     10.6275     63.5720     20.1794
  1292.9000      7.9065      2.4842      0.0151     10.0466     65.3090     20.0096
  1293.0000      7.9070      2.5115      0.0727      8.3944     70.0380     21.0725
  1293.1000      7.9070      2.5436      0.0169      6.4513     69.8788     22.1430
  1293.2000      7.9070      2.5729      0.0789      4.6721     62.4200     21.7176
  1293.3000      7.9075      2.5840      0.0602      4.0005     56.4160     20.9182
  1293.4000      7.9075      2.5760      0.0266      4.4855     57.3273     20.4301
  1293.5000      7.9075      2.5617      0.0488      5.3518     61.0325     19.5341
  1293.6000      7.9075      2.5472      0.0053      6.2278     64.0450     18.4988
  1293.7000      7.9075      2.5354      0.0240      6.9467     67.4817     18.2465
  1293.8000      7.9075      2.5275      0.0076      7.4267     70.9060     19.2882
  1293.9000      7.9075      2.5223      0.0112      7.7424     70.7984     20.8051
  1294.0000      7.9079      2.5156      0.0097      8.1431     65.6118     21.0346
  1294.1000      7.9079      2.5060      0.0168      8.7261     57.5572     20.1014
  1294.2000      7.9079      2.4974      0.0173      9.2503     51.6263     19.3668
  1294.3000      7.9085      2.4953      0.0054      9.3737     50.6225     19.1149
  1294.4000      7.9085      2.5051     -0.0261      8.7802     52.7892     18.6790
  1294.5000      7.9080      2.5254     -0.0072      7.5497     55.4760     18.0171
  1294.6000      7.9080      2.5423      0.0120      6.5246     57.7975     17.7898
  1294.7000      7.9080      2.5439      0.0195      6.4319     58.9734     18.2583
  1294.8000      7.9074      2.5372     -0.0103      6.8380     58.9806     19.3486
  1294.9000      7.9074      2.5352      0.0411      6.9583     58.0906     20.5631
  1295.0000      7.9071      2.5367      0.0205      6.8653     57.4585     20.8039
  1295.1000      7.9071      2.5400      0.0124      6.6657     58.7544     20.0391
  1295.2000      7.9071      2.5534      0.0241      5.8560     59.9754     19.2872
  1295.3000      7.9070      2.5774      0.0743      4.3985     60.4573     18.8100
  1295.4000      7.9070      2.5949      0.0685      3.3381     61.9291     18.8093
  1295.5000      7.9071      2.6008      0.0325      2.9796     63.2504     19.5359
  1295.6000      7.9071      2.6078      0.0430      2.5571     64.8406     20.4332
  1295.7000      7.9071      2.6113      0.0687      2.3479     67.5719     20.6602
  1295.8000      7.9070      2.6015      0.0509      2.9397     68.0007     19.8366
  1295.9000      7.9070      2.5834      0.0656      4.0391     64.2918     18.0452
  1296.0000      7.9074      2.5638      0.0563      5.2248     61.3445     16.2114
  1296.1000      7.9074      2.5451      0.0656      6.3562     64.1876     15.5687
  1296.2000      7.9074      2.5265      0.0480      7.4865     68.6651     16.1995
  1296.3000      7.9083      2.5116      0.0233      8.3858     67.8034     17.2152
  1296.4000      7.9083      2.5111      0.0096      8.4167     63.0524     17.3617
  1296.5000      7.9078      2.5266      0.0397      7.4797     57.6549     16.5009
  1296.6000      7.9078      2.5388      0.0673      6.7367     53.9192     15.8131
  1296.7000      7.9078      2.5307      0.0454      7.2275     53.5067     15.9912
  1296.8000      7.9053      2.5182      0.0325      7.9894     54.9633     16.6587
  1296.9000      7.9053      2.5276      0.0524      7.4178     57.4675     16.6220
  1297.0000      7.9037      2.5515      0.0879      5.9717     57.6825     15.6478
  1297.1000      7.9037      2.5630      0.0529      5.2705     53.0646     15.1184
  1297.2000      7.9037      2.5566      0.0645      5.6586     48.8642     15.5963
  1297.3000      7.9057      2.5450      0.0390      6.3641     47.8739     16.1687
  1297.4000      7.9057      2.5366      0.0345      6.8738     49.4684     16.6235
  1297.5000      7.9081      2.5274      0.0507      7.4297     53.2118     16.9797
  1297.6000      7.9081      2.5187      0.0042      7.9570     55.8093     16.4622
  1297.7000      7.9081      2.5214      0.0342      7.7948     54.8371     15.5291
  1297.8000      7.9102      2.5356      0.0106      6.9345     53.4711     15.4714
  1297.9000      7.9102      2.5482      0.0567      6.1714     55.5262     16.3500
  1298.0000      7.9109      2.5499      0.0726      6.0694     59.1686     17.5170
  1298.1000      7.9109      2.5464      0.0507      6.2765     60.6441     18.1474
  1298.2000      7.9109      2.5466      0.0611      6.2649     58.2202     17.8298
  1298.3000      7.9091      2.5484      0.0218      6.1579     53.2254     17.5155
  1298.4000      7.9091      2.5523      0.0326      5.9237     49.9277     17.3386
  1298.5000      7.9080      2.5657      0.0175      5.1069     49.4791     16.2235
  1298.6000      7.9080      2.5806      0.0995      4.2044     49.8801     14.7226
  1298.7000      7.9080      2.5787      0.0219      4.3223     49.6031     14.2765
  1298.8000      7.9076      2.5623      0.0387      5.3131     47.8791     14.6769
  1298.9000      7.9076      2.5508      0.0066      6.0103     47.0911     15.2043
  1299.0000      7.9066      2.5570      0.0186      5.6393     48.8489     16.0610
  1299.1000      7.9066      2.5695      0.0482      4.8796     52.5336     17.4686
  1299.2000      7.9066      2.5703      0.0653      4.8332     57.4693     18.5861
  1299.3000      7.9057      2.5659      0.0249      5.0949     58.7964     18.4328
  1299.4000      7.9057      2.5706      0.0510      4.8105     55.0859     17.5976
  1299.5000      7.9051      2.5771      0.0424      4.4157     51.5657     17.0073
  1299.6000      7.9051      2.5768      0.0458      4.4379     48.7544     16.5553
  1299.7000      7.9051      2.5693      0.0345      4.8888     45.0133     15.9888
  1299.8000      7.9048      2.5510      0.0429      5.9975     44.2826     15.5173
  1299.9000      7.9048      2.5226      0.0091      7.7232     48.0714     15.5102
  1300.0000      7.9063      2.5047     -0.0365      8.8041     50.2959     15.9932
  1300.1000      7.9063      2.5100      0.0385      8.4859     47.6455     16.7493
  1300.2000      7.9063      2.5231      0.0296      7.6930     45.8248     17.6999
  1300.3000      7.9083      2.5345      0.0254      7.0026     49.1790     18.2720
  1300.4000      7.9083      2.5437      0.0191      6.4418     55.3290     17.6202
  1300.5000      7.9084      2.5463      0.0273      6.2838     58.8029     16.1594
  1300.6000      7.9084      2.5430      0.0377      6.4836     56.2009     15.4149
  1300.7000      7.9084      2.5446      0.0007      6.3873     55.0261     15.8516
  1300.8000      7.9074      2.5552      0.0304      5.7434     61.7578     16.5339
  1300.9000      7.9074      2.5599      0.0382      5.4581     67.2103     17.1267
  1301.0000      7.9078      2.5468      0.0484      6.2546     64.3871     17.7959
  1301.1000      7.9078      2.5305     -0.0255      7.2405     59.2435     17.5801
  1301.2000      7.9078      2.5305     -0.0093      7.2429     55.9606     16.2526
  1301.3000      7.9083      2.5342      0.0692      7.0209     53.0799     15.3131
  1301.4000      7.9083      2.5250     -0.0074      7.5746     50.2957     15.4190
  1301.5000      7.9071      2.5203     -0.0467      7.8607     48.6959     16.1474
  1301.6000      7.9071      2.5317      0.0009      7.1717     49.0684     17.0133
  1301.7000      7.9071      2.5447      0.0110      6.3808     50.1917     17.7643
  1301.8000      7.9061      2.5487      0.0318      6.1392     51.2560     18.1949
  1301.9000      7.9061      2.5423      0.0235      6.5245     51.7315     17.7592
