~Version Information
VERS.                      2.0: CWLS Log ASCII Standard - VERSION 2.0
WRAP.                       NO: One line per depth step
~Well Information Block
STRT.FT               530.7500: 
STOP.FT              1325.2500: 
STEP.FT                 0.2500: 
NULL.                -999.2500: 
COMP.          Pioneer Natural Resources: COMPANY
WELL.            Erin 21-15 Tr: WELL
FLD.           Purgatoire River: FIELD
LOC.           1217' FNL & 2284' FWL--: LOCATION
CNTY.               Las Animas: COUNTY
SRVC.                Patterson: SERVICE COMPANY
DATE.          Fri Mar 03 23:07:06 2006: LOG DATE
UWI.           05 071 08712 00: UNIQUE WELL ID
STAT.                 Colorado: STATE
~Curve Information Block
DEPT.FT            0 000 00 00: Depth
SN.Ohm-m                      : IEL Short Normal
SP.mV                         : IEL Spontaneous Potential
DIR.Ohm-m                     : IEL Induction Resistivity
GR.GAPI                       : Gamma Ray
~Parameter Information Block
~A  Depth        SN          SP         DIR          GR     
# ...
   899.2500     13.6513     69.0889     13.7801    125.4720
   899.5000     13.6880     69.0681     13.5149    126.2278
   899.7500     13.7347     69.0509     13.2264    127.1359
   900.0000     13.8132     69.0288     12.9639    128.8458
   900.2500     13.9488     68.9930     12.7749    129.8403
   900.5000     14.1644     68.9350     12.6995    130.3694
   900.7500     14.4718     68.8491     12.7655    129.5891
   901.0000     14.8689     68.7350     12.9835    125.8696
   901.2500     15.3471     68.6004     13.3437    121.4072
   901.5000     15.9080     68.4643     13.8169    111.6843
   901.7500     16.5794     68.3575     14.3605    103.2340
   902.0000     17.4161     68.3209     14.9281     88.0506
   902.2500     18.4684     68.4005     15.4766     77.1119
   902.5000     19.7244     68.6388     15.9638     62.1143
   902.7500     21.0578     69.0657     16.3428     54.7888
   903.0000     22.2251     69.6897     16.5612     50.0689
   903.2500     22.9309     70.4942     16.5717     51.7633
   903.5000     22.9366     71.4386     16.3475     61.5884
   903.7500     22.1631     72.4653     15.8915     72.2651
   904.0000     20.7366     73.5095     15.2362     91.6606
   904.2500     18.9484     74.5097     14.4371    104.5105
   904.5000     17.1395     75.4150     13.5645    120.0638
   904.7500     15.5721     76.1891     12.6926    127.0490
   905.0000     14.3644     76.8099     11.8888    133.2559
   905.2500     13.5122     77.2679     11.2036    135.6512
   905.5000     12.9545     77.5630     10.6670    138.0547
   905.7500     12.6216     77.7037     10.2899    139.1320
   906.0000     12.4487     77.7067     10.0682    139.8026
   906.2500     12.3727     77.5985      9.9868    139.4742
   906.5000     12.3354     77.4149     10.0207    137.9015
   906.7500     12.2953     77.2002     10.1368    136.4187
   907.0000     12.2369     77.0019     10.2989    133.9861
   907.2500     12.1660     76.8650     10.4746    132.1201
   907.5000     12.0938     76.8248     10.6418    128.1631
   907.7500     12.0221     76.9014     10.7886    124.3882
   908.0000     11.9424     77.0976     10.9070    117.4607
   908.2500     11.8479     77.4002     10.9864    113.0061
   908.5000     11.7449     77.7837     11.0113    108.8585
   908.7500     11.6546     78.2163     10.9670    108.6644
   909.0000     11.6057     78.6649     10.8498    111.7991
   909.2500     11.6278     79.0992     10.6740    114.9284
   909.5000     11.7460     79.4938     10.4699    118.9968
   909.7500     11.9737     79.8293     10.2738    120.8471
   910.0000     12.3025     80.0919     10.1202    123.1908
   910.2500     12.6933     80.2738     10.0375    125.2228
   910.5000     13.0788     80.3728     10.0461    128.9684
   910.7500     13.3828     80.3929     10.1583    130.8600
   911.0000     13.5521     80.3442     10.3771    130.5400
   911.2500     13.5863     80.2427     10.6963    127.7543
   911.5000     13.5503     80.1084     11.1033    120.7030
   911.7500     13.5610     79.9635     11.5827    115.0477
   912.0000     13.7476     79.8273     12.1196    106.7102
   912.2500     14.1949     79.7126     12.6977    102.2764
   912.5000     14.8910     79.6219     13.2931     99.1594
   912.7500     15.7140     79.5452     13.8656    100.0193
   913.0000     16.4767     79.4621     14.3552    105.0734
   913.2500     17.0111     79.3462     14.6914    109.8068
   913.5000     17.2358     79.1737     14.8127    116.8255
   913.7500     17.1681     78.9322     14.6911    120.7352
   914.0000     16.8875     78.6283     14.3460    125.4931
   914.2500     16.4912     78.2916     13.8406    128.3061
   914.5000     16.0664     77.9730     13.2619    132.2073
   914.7500     15.6804     77.7369     12.6970    134.4215
   915.0000     15.3772     77.6485     12.2163    137.1170
   915.2500     15.1740     77.7594     11.8646    138.7374
   915.5000     15.0568     78.0948     11.6609    141.0119
   915.7500     14.9744     78.6453     11.5997    142.0118
   916.0000     14.8316     79.3665     11.6541    141.7131
   916.2500     14.5020     80.1866     11.7786    139.8558
   916.5000     13.8787     81.0205     11.9161    133.9911
   916.7500     12.9506     81.7882     12.0086    127.8318
   917.0000     11.8513     82.4309     12.0118    115.9639
   917.2500     10.8230     82.9227     11.9071    107.7023
   917.5000     10.1004     83.2731     11.7047     98.0824
   917.7500      9.7909     83.5198     11.4347     95.0116
   918.0000      9.8318     83.7153     11.1303     95.8593
   918.2500     10.0480     83.9113     10.8126     98.9775
   918.5000     10.2582     84.1461     10.4847    104.4704
   918.7500     10.3569     84.4377     10.1381    107.2539
   919.0000     10.3275     84.7842      9.7662    109.4176
   919.2500     10.2077     85.1700      9.3757    109.9144
   919.5000     10.0496     85.5729      8.9878    110.0728
   919.7500      9.8970     85.9716      8.6297    110.0690
   920.0000      9.7783     86.3493      8.3247    110.3149
   920.2500      9.7043     86.6958      8.0863    110.9307
   920.5000      9.6696     87.0059      7.9182    112.6841
   920.7500      9.6592     87.2776      7.8164    114.1324
   921.0000      9.6585     87.5110      7.7722    116.0095
   921.2500      9.6587     87.7077      7.7745    116.8375
   921.5000      9.6577     87.8705      7.8109    117.5098
   921.7500      9.6590     88.0044      7.8697    117.7261
   922.0000      9.6694     88.1168      7.9412    118.0596
   922.2500      9.6959     88.2169      8.0200    118.5993
   922.5000      9.7398     88.3152      8.1058    120.3649
   922.7500      9.7920     88.4216      8.2027    122.2028
   923.0000      9.8380     88.5438      8.3167    125.6062
   923.2500      9.8688     88.6859      8.4526    128.0907
   923.5000      9.8875     88.8480      8.6123    131.8207
   923.7500      9.9042     89.0262      8.7947    134.0184
   924.0000      9.9269     89.2138      8.9961    136.2598
   924.2500      9.9607     89.4020      9.2114    136.8539
   924.5000     10.0163     89.5823      9.4352    136.6516
   924.7500     10.1121     89.7470      9.6623    136.2492
   925.0000     10.2661     89.8906      9.8881    136.0622
   925.2500     10.4828     90.0094     10.1102    136.2008
   925.5000     10.7479     90.1017     10.3300    135.5031
   925.7500     11.0366     90.1662     10.5539    133.5955
   926.0000     11.3245     90.2016     10.7917    128.8713
   926.2500     11.5960     90.2052     11.0531    125.7197
   926.5000     11.8463     90.1733     11.3436    123.0274
   926.7500     12.0791     90.1013     11.6621    122.8550
   927.0000     12.3016     89.9843     12.0010    124.0507
   927.2500     12.5170     89.8183     12.3465    124.9409
   927.5000     12.7203     89.5998     12.6806    125.0523
   927.7500     12.9028     89.3263     12.9841    123.7986
   928.0000     13.0653     88.9949     13.2425    120.0008
   928.2500     13.2271     88.6029     13.4517    116.8845
   928.5000     13.4222     88.1485     13.6221    113.0489
   928.7500     13.6803     87.6334     13.7756    111.7995
   929.0000     14.0035     87.0667     13.9381    112.0364
   929.2500     14.3529     86.4687     14.1292    112.9571
   929.5000     14.6573     85.8720     14.3533    113.5965
   929.7500     14.8441     85.3192     14.5964    112.5348
   930.0000     14.8773     84.8551     14.8308    108.2453
   930.2500     14.7820     84.5157     15.0277    104.2426
   930.5000     14.6374     84.3168     15.1731     98.5902
   930.7500     14.5422     84.2462     15.2760     96.1482
   931.0000     14.5712     84.2632     15.3625     95.1827
   931.2500     14.7417     84.3075     15.4604     96.1176
   931.5000     15.0044     84.3126     15.5850     99.2541
   931.7500     15.2660     84.2231     15.7331    102.2175
   932.0000     15.4373     84.0067     15.8858    107.3727
   932.2500     15.4785     83.6595     16.0155    110.7537
   932.5000     15.4097     83.2034     16.0962    114.7006
