~Version Information
VERS.                      2.0: CWLS Log ASCII Standard - VERSION 2.0
WRAP.                       NO: One line per depth step
~Well Information Block
STRT.FT               245.0000: 
STOP.FT              1273.7000: 
STEP.FT                 0.1000: 
NULL.                -999.2500: 
COMP.          Pioneer Natural Resources: COMPANY
WELL.                 Ray 34-6: WELL
FLD.           Purgatoire River: FIELD
LOC.           684' FSL & 2254' FEL--: LOCATION
CNTY.               Las Animas: COUNTY
SRVC.                Patterson: SERVICE COMPANY
DATE.          Fri May 26 09:17:30 2006: LOG DATE
UWI.           05 071 08695 00: UNIQUE WELL ID
STAT.                 Colorado: STATE
~Curve Information Block
DEPT.FT            0 000 00 00: Depth
DCAL.in                       : CDL Caliper
RHOB.g/cc                     : CDL Bulk Density
RHOC.g/cc                     : CDL Density Correction
DPOR.pu                       : CDL Density Porosity
NPOR.pu                       : Neutron Porosity
GR.GAPI                       : Gamma Ray
~Parameter Information Block
~A  Depth       DCAL        RHOB        RHOC        DPOR        NPOR         GR     
# ...
  1243.4000      7.7907      2.5896      0.0774      3.6626     24.3910   -999.2500
  1243.5000      7.7988      2.5750      0.0511      4.5444     24.5100   -999.2500
  1243.6000      7.7988      2.5593      0.0452      5.4995     24.7316   -999.2500
  1243.7000      7.7988      2.5588      0.0096      5.5277     24.5858   -999.2500
  1243.8000      7.8045      2.5783      0.0582      4.3476     24.3998   -999.2500
  1243.9000      7.8045      2.5975      0.0846      3.1808     25.0834   -999.2500
  1244.0000      7.8021      2.5979      0.0549      3.1574     26.3200   -999.2500
  1244.1000      7.8021      2.5901      0.0653      3.6326     26.9404   -999.2500
  1244.2000      7.8021      2.5885      0.0781      3.7269     26.9270   -999.2500
  1244.3000      7.7998      2.5865      0.0923      3.8508     26.9866   -999.2500
  1244.4000      7.7998      2.5828      0.0211      4.0698     27.3687   -999.2500
  1244.5000      7.7967      2.5927      0.0699      3.4707     27.9949   -999.2500
  1244.6000      7.7967      2.6090      0.1108      2.4863     28.7055   -999.2500
  1244.7000      7.7967      2.6106      0.0894      2.3869     29.1878   -999.2500
  1244.8000      7.7881      2.6001      0.0974      3.0236     29.2201   -999.2500
  1244.9000      7.7881      2.5934      0.0915      3.4280     28.8884   -999.2500
  1245.0000      7.7780      2.5954      0.0631      3.3064     28.3191   -999.2500
  1245.1000      7.7780      2.5939      0.1029      3.4012     27.7982   -999.2500
  1245.2000      7.7780      2.5800      0.0621      4.2412     27.7553   -999.2500
  1245.3000      7.7737      2.5700      0.0589      4.8508     27.9792   -999.2500
  1245.4000      7.7737      2.5757      0.0887      4.5016     27.6726   -999.2500
  1245.5000      7.7845      2.5838      0.1031      4.0119     26.7321   -999.2500
  1245.6000      7.7845      2.5873      0.0505      3.8017     25.9227   -999.2500
  1245.7000      7.7845      2.5970      0.0653      3.2138     25.5405   -999.2500
  1245.8000      7.8004      2.6105      0.0833      2.3940     25.3663   -999.2500
  1245.9000      7.8004      2.6116      0.0905      2.3298     25.1743   -999.2500
  1246.0000      7.8004      2.5961      0.0540      3.2667     25.1817   -999.2500
  1246.1000      7.8004      2.5784      0.0239      4.3392     25.7826   -999.2500
  1246.2000      7.8004      2.5712      0.0274      4.7754     26.6082   -999.2500
  1246.3000      7.7902      2.5729      0.0480      4.6756     26.8968   -999.2500
  1246.4000      7.7902      2.5725      0.0768      4.6961     26.6431   -999.2500
  1246.5000      7.7823      2.5627      0.0582      5.2894     26.4591   -999.2500
  1246.6000      7.7823      2.5466      0.0531      6.2674     26.3864   -999.2500
  1246.7000      7.7823      2.5284      0.0620      7.3709     26.1468   -999.2500
  1246.8000      7.7827      2.5181      0.0140      7.9910     26.4630   -999.2500
  1246.9000      7.7827      2.5280      0.0437      7.3948     29.5453   -999.2500
  1247.0000      7.7904      2.5473      0.0944      6.2239     38.1006   -999.2500
  1247.1000      7.7904      2.5623      0.0432      5.3143     49.8948   -999.2500
  1247.2000      7.7904      2.5673      0.1047      5.0098     57.7562   -999.2500
  1247.3000      7.8025      2.5535      0.0777      5.8482     60.4758   -999.2500
  1247.4000      7.8025      2.5372      0.0414      6.8362     61.0000   -999.2500
  1247.5000      7.7952      2.5464      0.0608      6.2758     61.0553   -999.2500
  1247.6000      7.7952      2.5783      0.0878      4.3458     61.0584   -999.2500
  1247.7000      7.7952      2.6077      0.1351      2.5607   -999.2500   -999.2500
  1247.8000      7.7680      2.6174      0.0920      1.9755   -999.2500   -999.2500
  1247.9000      7.7680      2.6126      0.1030      2.2670   -999.2500   -999.2500
  1248.0000      7.7584      2.6055      0.0913      2.6994   -999.2500   -999.2500
  1248.1000      7.7584      2.6023      0.0734      2.8927   -999.2500   -999.2500
  1248.2000      7.7584      2.6010      0.0658      2.9693   -999.2500   -999.2500
  1248.3000      7.7782      2.5956      0.0544      3.2951   -999.2500   -999.2500
  1248.4000      7.7782      2.5901      0.0418      3.6290   -999.2500   -999.2500
  1248.5000      7.8029      2.5903      0.0695      3.6179   -999.2500   -999.2500
  1248.6000      7.8029      2.5887      0.0820      3.7169   -999.2500   -999.2500
  1248.7000      7.8029      2.5753      0.0626      4.5285   -999.2500   -999.2500
  1248.8000      7.8127      2.5500      0.0483      6.0586   -999.2500   -999.2500
  1248.9000      7.8127      2.5189      0.0300      7.9429   -999.2500   -999.2500
  1249.0000      7.8058      2.4940      0.0129      9.4520   -999.2500   -999.2500
  1249.1000      7.8058      2.4931      0.0015      9.5096   -999.2500   -999.2500
  1249.2000      7.8058      2.5181      0.0353      7.9948   -999.2500   -999.2500
  1249.3000      7.7848      2.5490      0.0671      6.1191   -999.2500   -999.2500
  1249.4000      7.7848      2.5725      0.0646      4.6993   -999.2500   -999.2500
  1249.5000      7.7736      2.5881      0.0762      3.7500   -999.2500   -999.2500
  1249.6000      7.7736      2.5913      0.0895      3.5556   -999.2500   -999.2500
  1249.7000      7.7736      2.5793      0.0504      4.2868   -999.2500   -999.2500
  1249.8000      7.7808      2.5652      0.0207      5.1382   -999.2500   -999.2500
  1249.9000      7.7808      2.5645      0.0159      5.1839   -999.2500   -999.2500
  1250.0000      7.7832      2.5711      0.0695      4.7828   -999.2500   -999.2500
  1250.1000      7.7832      2.5733      0.0431      4.6491   -999.2500   -999.2500
  1250.2000      7.7832      2.5765      0.0292      4.4557   -999.2500   -999.2500
  1250.3000      7.7775      2.5834      0.0694      4.0344   -999.2500   -999.2500
  1250.4000      7.7775      2.5836      0.0875      4.0220   -999.2500   -999.2500
  1250.5000      7.7726      2.5779      0.0358      4.3711   -999.2500   -999.2500
  1250.6000      7.7726      2.5815      0.0539      4.1514   -999.2500   -999.2500
  1250.7000      7.7726      2.5978      0.0628      3.1627   -999.2500   -999.2500
  1250.8000      7.7689      2.6130      0.0817      2.2418   -999.2500   -999.2500
  1250.9000      7.7689      2.6114      0.1197      2.3375   -999.2500   -999.2500
  1251.0000      7.7618      2.5929      0.0468      3.4584   -999.2500   -999.2500
  1251.1000      7.7618      2.5775      0.0707      4.3954   -999.2500   -999.2500
  1251.2000      7.7618      2.5780      0.0773      4.3644   -999.2500   -999.2500
  1251.3000      7.7465      2.5879      0.0969      3.7624   -999.2500   -999.2500
  1251.4000      7.7465      2.5973      0.0837      3.1916   -999.2500   -999.2500
  1251.5000      7.7336      2.6061      0.0596      2.6596   -999.2500   -999.2500
  1251.6000      7.7336      2.6093      0.1163      2.4697   -999.2500   -999.2500
  1251.7000      7.7336      2.5906      0.0768      3.5974   -999.2500   -999.2500
  1251.8000      7.7363      2.5584      0.0276      5.5519   -999.2500   -999.2500
  1251.9000      7.7363      2.5452      0.0366      6.3524   -999.2500   -999.2500
  1252.0000      7.7443      2.5581      0.0631      5.5713   -999.2500   -999.2500
  1252.1000      7.7443      2.5713      0.1162      4.7709   -999.2500   -999.2500
  1252.2000      7.7443      2.5709      0.0640      4.7967   -999.2500   -999.2500
  1252.3000      7.7470      2.5672      0.0970      5.0181   -999.2500   -999.2500
  1252.4000      7.7470      2.5678      0.0765      4.9829   -999.2500   -999.2500
  1252.5000      7.7473      2.5741      0.0685      4.5971   -999.2500   -999.2500
  1252.6000      7.7473      2.5854      0.0485      3.9158   -999.2500   -999.2500
  1252.7000      7.7473      2.5920      0.0930      3.5142   -999.2500   -999.2500
  1252.8000      7.7459      2.5819      0.1010      4.1279   -999.2500   -999.2500
  1252.9000      7.7459      2.5590      0.0802      5.5165   -999.2500   -999.2500
