~Version Information
VERS.                      2.0: CWLS Log ASCII Standard - VERSION 2.0
WRAP.                       NO: One line per depth step
~Well Information Block
STRT.FT               550.0000: 
STOP.FT              1981.5000: 
STEP.FT                 0.2500: 
NULL.                -999.2500: 
COMP.          Pioneer Natural Resources: COMPANY
WELL.          Flying Horse 12-11 Tr: WELL
FLD.           Purgatoire River: FIELD
LOC.           2459' FNL & 410' FWL: LOCATION
STAT.                 Colorado: State
CNTY.               Las Animas: COUNTY
CTRY. USA : Country
SECT. 11 : Section
TOWN. 32S : Township
RANG. 66W : Range
SRVC.                Patterson: SERVICE COMPANY
DATE.          Sat Sep 03 20:17:31 2005: LOG DATE
API.           05 071 08485 00: UNIQUE WELL ID
~Curve Information Block
DEPT.FT            0 000 00 00: Depth
SN.Ohm-m                      : IEL Short Normal
SP.mV                         : IEL Spontaneous Potential
DIR.Ohm-m                     : IEL Induction Resistivity
GR.GAPI                       : Gamma Ray
~Parameter Information Block
~A  Depth        SN          SP         DIR          GR     
# ...
  1287.0000     33.5800    200.5277     33.5617     68.3021
  1287.2500     33.3350    200.5913     33.0961     71.0990
  1287.5000     32.9775    200.7257     32.6574     76.5294
  1287.7500     32.6016    200.9380     32.2257     80.3718
  1288.0000     32.2447    201.2017     31.8090     85.2482
  1288.2500     31.9129    201.4664     31.4555     87.4675
  1288.5000     31.6998    201.6702     31.2014     89.4291
  1288.7500     31.7197    201.7641     31.0249     90.3152
  1289.0000     31.9308    201.7380     30.8541     91.7872
  1289.2500     32.1971    201.6289     30.6252     93.0523
  1289.5000     32.4929    201.5009     30.3368     95.2459
  1289.7500     32.8784    201.4020     30.0616     96.5642
  1290.0000     33.3118    201.3223     29.9060     97.3755
  1290.2500     33.6739    201.1826     29.9523     96.7054
  1290.5000     33.9338    200.8773     30.2117     94.0610
  1290.7500     34.1381    200.3484     30.6131     91.8105
  1291.0000     34.3612    199.6357     31.0362     88.7983
  1291.2500     34.7090    198.8643     31.3728     87.3429
  1291.5000     35.1848    198.1835     31.5764     85.9537
  1291.7500     35.6049    197.6989     31.6662     85.4620
  1292.0000     35.8052    197.4380     31.6940     85.4447
  1292.2500     35.8630    197.3470     31.7077     86.0160
  1292.5000     35.9940    197.3076     31.7402     87.6061
  1292.7500     36.3088    197.1739     31.8211     88.8661
  1293.0000     36.7735    196.8225     31.9818     90.5512
  1293.2500     37.2713    196.1829     32.2289     91.3781
  1293.5000     37.5834    195.2272     32.5005     92.0674
  1293.7500     37.5005    193.9528     32.6537     92.1308
  1294.0000     37.1040    192.3999     32.5282     91.7291
  1294.2500     36.7141    190.6904     32.0554     91.4025
  1294.5000     36.5079    189.0199     31.3093     91.6974
  1294.7500     36.3756    187.5783     30.4563     92.9140
  1295.0000     36.1320    186.4640     29.6646     96.2620
  1295.2500     35.7476    185.6743     29.0498     98.7752
  1295.5000     35.3385    185.1635     28.6622    101.3367
  1295.7500     34.9701    184.8933     28.4925    102.0073
  1296.0000     34.5721    184.8269     28.4877    102.9138
  1296.2500     34.0880    184.8932     28.5794    104.5494
  1296.5000     33.5955    184.9698     28.7146    108.6625
  1296.7500     33.2192    184.9210     28.8642    111.3145
  1297.0000     33.0301    184.6768     29.0074    112.6751
  1297.2500     33.0565    184.2813     29.1150    111.1723
  1297.5000     33.2743    183.8618     29.1589    105.7890
  1297.7500     33.6050    183.5524     29.1437    100.8805
  1298.0000     33.9860    183.4296     29.1211     93.1596
  1298.2500     34.4103    183.4724     29.1685     88.8251
  1298.5000     34.9631    183.5571     29.3443     84.8094
  1298.7500     35.8551    183.5128     29.6629     83.7206
  1299.0000     37.2141    183.2307     30.1070     83.1472
  1299.2500     38.8783    182.7539     30.6641     82.5951
  1299.5000     40.6244    182.2655     31.3407     80.3524
  1299.7500     42.4535    181.9748     32.1274     77.3065
  1300.0000     44.5550    181.9927     32.9415     69.8547
  1300.2500     47.2694    182.2933     33.6081     63.4874
  1300.5000     51.0895    182.7635     33.9181     54.1814
  1300.7500     56.2998    183.2684     33.7336     49.5286
  1301.0000     62.2622    183.6773     33.0553     46.1205
  1301.2500     67.0977    183.8711     32.0017     46.4965
  1301.5000     68.5968    183.7848     30.7297     51.5166
  1301.7500     65.8065    183.4748     29.3685     57.9807
  1302.0000     59.6420    183.1205     28.0015     71.3828
  1302.2500     52.0078    182.9126     26.6829     81.3915
  1302.5000     44.4960    182.9295     25.4553     95.3462
  1302.7500     37.8685    183.1256     24.3458    102.9626
  1303.0000     32.3784    183.4098     23.3494    111.4825
  1303.2500     28.0837    183.7113     22.4272    115.5122
  1303.5000     24.9153    183.9807     21.5292    119.9837
  1303.7500     22.7564    184.1618     20.6280    122.4566
  1304.0000     21.4120    184.1918     19.7355    125.8337
  1304.2500     20.5414    184.0499     18.8920    127.7623
  1304.5000     19.8506    183.8085     18.1395    129.7136
  1304.7500     19.2856    183.6057     17.5031    130.0471
  1305.0000     18.9267    183.5384     16.9909    128.5068
  1305.2500     18.7718    183.5807     16.6025    126.1318
  1305.5000     18.7004    183.5990     16.3370    121.7587
  1305.7500     18.6078    183.4323     16.1919    119.3580
  1306.0000     18.4789    182.9753     16.1585    117.4387
  1306.2500     18.3457    182.2342     16.2200    116.9658
  1306.5000     18.2591    181.3332     16.3566    116.4694
  1306.7500     18.2706    180.4527     16.5539    116.1111
  1307.0000     18.3781    179.7289     16.8050    115.9891
  1307.2500     18.5402    179.1850     17.1028    116.3720
  1307.5000     18.7408    178.7440     17.4302    117.2860
  1307.7500     18.9681    178.3022     17.7565    117.7739
  1308.0000     19.1817    177.7980     18.0462    118.0413
  1308.2500     19.3550    177.2343     18.2728    117.7600
  1308.5000     19.5306    176.6581     18.4294    115.9491
  1308.7500     19.7971    176.1311     18.5244    113.4174
  1309.0000     20.1894    175.7167     18.5688    107.9144
  1309.2500     20.6094    175.4740     18.5663    103.8867
  1309.5000     20.8928    175.4421     18.5141     99.1280
  1309.7500     20.9808    175.6142     18.4133     97.9346
  1310.0000     20.9539    175.9302     18.2754    100.6215
  1310.2500     20.8448    176.3042     18.1180    105.5163
  1310.5000     20.5537    176.6692     17.9532    115.8930
  1310.7500     20.0475    177.0015     17.7796    123.3278
  1311.0000     19.4512    177.3084     17.5843    133.2876
  1311.2500     18.8986    177.6019     17.3526    138.5652
  1311.5000     18.4263    177.8841     17.0756    143.6482
  1311.7500     17.9653    178.1518     16.7551    144.7104
  1312.0000     17.4455    178.4087     16.4047    143.0854
  1312.2500     16.9301    178.6698     16.0499    140.7753
  1312.5000     16.5514    178.9539     15.7249    137.3206
  1312.7500     16.3533    179.2689     15.4661    135.7897
  1313.0000     16.2374    179.5953     15.3018    135.2796
  1313.2500     16.0678    179.8824     15.2433    136.0270
  1313.5000     15.8452    180.0673     15.2818    137.5305
  1313.7500     15.6971    180.1098     15.3915    137.6934
  1314.0000     15.7389    180.0151     15.5393    135.5380
  1314.2500     16.0248    179.8244     15.6953    132.8003
  1314.5000     16.5628    179.5845     15.8447    128.3344
  1314.7500     17.3118    179.3239     15.9922    125.8407
  1315.0000     18.1748    179.0516     16.1575    123.0111
  1315.2500     18.9982    178.7651     16.3670    121.4796
  1315.5000     19.6125    178.4560     16.6475    119.2537
  1315.7500     19.9873    178.1214     17.0258    117.6638
  1316.0000     20.3133    177.7799     17.5287    115.2693
  1316.2500     20.7752    177.4751     18.1733    114.0230
  1316.5000     21.3069    177.2515     18.9533    113.3165
  1316.7500     21.7520    177.1246     19.8311    113.6798
  1317.0000     22.1634    177.0756     20.7487    114.8817
  1317.2500     22.7773    177.0713     21.6511    115.4883
  1317.5000     23.7704    177.0850     22.5043    114.7831
  1317.7500     25.1171    177.1027     23.2888    112.4713
  1318.0000     26.6469    177.1193     23.9800    105.6688
  1318.2500     28.2431    177.1248     24.5423     99.4491
  1318.5000     29.9829    177.0837     24.9494     89.8118
  1318.7500     32.0815    176.9377     25.2143     84.5658
  1319.0000     34.6550    176.6469     25.3927     79.9580
  1319.2500     37.4033    176.2332     25.5512     79.2686
  1319.5000     39.6006    175.7733     25.7291     81.1512
  1319.7500     40.5669    175.3449     25.9223     83.6688
  1320.0000     40.0997    174.9854     26.0948     88.5655
  1320.2500     38.4728    174.6937     26.1990     92.6379
