~Version Information
VERS.                      2.0: CWLS Log ASCII Standard - VERSION 2.0
WRAP.                       NO: One line per depth step
~Well Information Block
STRT.FT               240.0000: 
STOP.FT              1456.0000: 
STEP.FT                 0.1000: 
NULL.                -999.2500: 
COMP.          Pioneer Natural Resources: COMPANY
WELL.              Darren 11-7: WELL
FLD.           Purgatoire River: FIELD
LOC.           230' FNL & 596' FWL: LOCATION
CNTY.               Las Animas: COUNTY
SRVC.                Patterson: SERVICE COMPANY
DATE.          Mon Mar 20 07:16:06 2006: LOG DATE
UWI.           05 071 08720 00: UNIQUE WELL ID
STAT.                 Colorado: STATE
~Curve Information Block
DEPT.FT            0 000 00 00: Depth
DCAL.in                       : CDL Caliper
RHOB.g/cc                     : CDL Bulk Density
RHOC.g/cc                     : CDL Density Correction
DPOR.pu                       : CDL Density Porosity
GR.GAPI                       : Gamma Ray
NPOR.pu                       : Neutron Porosity
~Parameter Information Block
~A  Depth       DCAL        RHOB        RHOC        DPOR         GR         NPOR    
# ...
   403.2000      8.1068      2.5603      0.1051      5.4378    119.0248     28.1861
   403.3000      8.1108      2.5319      0.0522      7.1604    120.8835     28.1031
   403.4000      8.1108      2.5081      0.0470      8.6003    121.5185     28.2462
   403.5000      8.1160      2.5036      0.0398      8.8701    118.6046     28.6496
   403.6000      8.1160      2.5229      0.1068      7.7015    116.5382     28.8986
   403.7000      8.1160      2.5448      0.1454      6.3733    118.3543     28.9737
   403.8000      8.1333      2.5481      0.1047      6.1746    121.1571     29.0217
   403.9000      8.1333      2.5351      0.0767      6.9651    122.9085     29.0455
   404.0000      8.1463      2.5155      0.0693      8.1543    124.3823     29.0243
   404.1000      8.1463      2.4954      0.0403      9.3701    122.0490     28.8536
   404.2000      8.1463      2.4772      0.0382     10.4751    113.1329     28.4631
   404.3000      8.1263      2.4614     -0.0057     11.4290    104.8527     28.1445
   404.4000      8.1263      2.4546      0.0263     11.8452    104.6778     28.2068
   404.5000      8.1082      2.4577      0.0164     11.6558    111.0232     28.4607
   404.6000      8.1082      2.4614      0.0748     11.4314    116.5281     28.5396
   404.7000      8.1082      2.4574      0.0518     11.6748    116.4303     28.2916
   404.8000      8.1049      2.4502      0.0338     12.1086    110.5584     27.9316
   404.9000      8.1049      2.4523     -0.0058     11.9790    102.2370     27.6852
   405.0000      8.1155      2.4640      0.0262     11.2698    100.4408     27.5141
   405.1000      8.1155      2.4757      0.0673     10.5609    108.0153     27.3492
   405.2000      8.1155      2.4918      0.0120      9.5861    114.4659     27.3303
   405.3000      8.1198      2.5137      0.0892      8.2616    112.6888     27.4291
   405.4000      8.1198      2.5249      0.1047      7.5798    109.3541     27.4484
   405.5000      8.1233      2.5255      0.0730      7.5451    110.0323     27.4972
   405.6000      8.1233      2.5340      0.0344      7.0284    109.8726     27.6365
   405.7000      8.1233      2.5477      0.1226      6.2024    107.6568     27.6021
   405.8000      8.1051      2.5411      0.1148      6.6013    107.9364     27.3050
   405.9000      8.1051      2.5095      0.0652      8.5175    108.9767     26.9148
   406.0000      8.0807      2.4753      0.0567     10.5885    109.5058     26.6934
   406.1000      8.0807      2.4617      0.0231     11.4103    112.7281     26.6897
   406.2000      8.0807      2.4735      0.0367     10.6950    117.5929     26.7374
   406.3000      8.1038      2.4876      0.1050      9.8402    120.7521     26.7946
   406.4000      8.1038      2.4813      0.0273     10.2242    120.6821     26.6981
   406.5000      8.1240      2.4656      0.0293     11.1766    115.6157     26.2243
   406.6000      8.1240      2.4588      0.0863     11.5856    110.5674     25.4732
   406.7000      8.1240      2.4574      0.0811     11.6724    112.5477     24.8309
   406.8000      8.1515      2.4518      0.0956     12.0119    118.1031     24.5298
   406.9000      8.1515      2.4382      0.1147     12.8335    120.0318     24.3250
   407.0000      8.1476      2.4188      0.0549     14.0140    118.3697     24.0698
   407.1000      8.1476      2.4060      0.0558     14.7866    115.1828     23.9150
   407.2000      8.1476      2.4094      0.0623     14.5846    111.0813     23.7388
   407.3000      8.1307      2.4234      0.1427     13.7336    110.5624     23.5787
   407.4000      8.1307      2.4376      0.1207     12.8723    117.1241     23.8259
   407.5000      8.0802      2.4522      0.1286     11.9898    125.2249     24.3584
   407.6000      8.0802      2.4673      0.1753     11.0738    126.5768     24.6837
   407.7000      8.0802      2.4704      0.2366     10.8846    121.0259     25.0839
   407.8000      8.0612      2.4562      0.2014     11.7428    116.7693     26.0621
   407.9000      8.0612      2.4448      0.1675     12.4367    119.5511     27.2299
   408.0000      8.0967      2.4555      0.2017     11.7897    123.1553     27.8751
   408.1000      8.0967      2.4765      0.1951     10.5156    120.3372     27.9107
   408.2000      8.0967      2.4886      0.1386      9.7843    115.9337     27.8392
   408.3000      8.1921      2.4932      0.1979      9.5015    114.3078     27.9780
   408.4000      8.1921      2.5023      0.1760      8.9530    112.6326     28.1055
   408.5000      8.2810      2.5204      0.1631      7.8548    110.5219     28.0006
   408.6000      8.2810      2.5349      0.1924      6.9783    107.9201     27.8491
   408.7000      8.2810      2.5275      0.1240      7.4224    106.4433     27.9568
   408.8000      8.1895      2.5050      0.0291      8.7902    108.4710     28.2267
   408.9000      8.1895      2.4861      0.0145      9.9364    110.3512     28.2852
   409.0000      8.1719      2.4737      0.0393     10.6876    107.8272     28.0886
   409.1000      8.1719      2.4689      0.0261     10.9745    102.7125     27.9436
   409.2000      8.1719      2.4812      0.0122     10.2274     99.1397     27.9253
   409.3000      8.0794      2.5069      0.0634      8.6702     99.4384     27.8523
   409.4000      8.0794      2.5276      0.1255      7.4155    102.6908     27.8071
   409.5000      8.0712      2.5401      0.0854      6.6608    103.5687     28.0269
   409.6000      8.0712      2.5578      0.1191      5.5895    104.1795     28.5609
   409.7000      8.0712      2.5815      0.0998      4.1531    112.0596     29.2249
   409.8000      8.0969      2.5955      0.1236      3.3014    120.3728     29.6446
   409.9000      8.0969      2.5963      0.1092      3.2558    121.3520     29.5621
   410.0000      8.0962      2.6043      0.0338      2.7712    118.8249     29.0820
   410.1000      8.0962      2.6310      0.1139      1.1510    114.5438     28.4751
   410.2000      8.0962      2.6654      0.0732     -0.9339    108.9841     28.1885
   410.3000      8.1113      2.7003      0.1106     -3.0458    104.9565     28.4742
   410.4000      8.1113      2.7290      0.1612     -4.7862    103.4098     28.7379
   410.5000      8.1067      2.7328      0.0968     -5.0203    102.8814     28.3609
   410.6000      8.1067      2.6946      0.0733     -2.7014    101.3650     27.7701
   410.7000      8.1067      2.6204      0.0074      1.7933    101.4875     27.3667
   410.8000      8.1290      2.5489     -0.0665      6.1276    106.5871     27.0325
   410.9000      8.1290      2.5159     -0.1369      8.1266    109.8333     26.6836
   411.0000      8.1573      2.5121     -0.0543      8.3550    104.6801     26.2745
   411.1000      8.1573      2.5077     -0.0646      8.6264     96.2698     25.9909
   411.2000      8.1573      2.5047     -0.0868      8.8045     91.4047     25.9071
   411.3000      8.2274      2.5166      0.0068      8.0824     89.8125     25.5892
   411.4000      8.2274      2.5258      0.0920      7.5254     88.1596     25.0729
   411.5000      8.2784      2.5171      0.0716      8.0520     86.5876     24.9325
   411.6000      8.2784      2.5078     -0.0020      8.6187     87.4575     25.1613
   411.7000      8.2784      2.5107      0.0568      8.4438     88.6196     25.3444
   411.8000      8.1843      2.5147      0.0217      8.1999     85.3753     25.4051
   411.9000      8.1843      2.5076      0.0543      8.6314     77.8537     25.2883
   412.0000      8.1414      2.4903      0.0153      9.6773     68.9474     24.9414
   412.1000      8.1414      2.4760      0.0100     10.5471     60.2421     24.6536
   412.2000      8.1414      2.4759     -0.0074     10.5531     52.4944     24.7000
   412.3000      8.0544      2.4929      0.0208      9.5238     46.6905     24.8740
   412.4000      8.0544      2.5211      0.0149      7.8100     43.4698     24.6753
   412.5000      8.0060      2.5462      0.0631      6.2936     43.1360     23.9842
   412.6000      8.0060      2.5594      0.0425      5.4915     44.6000     23.2289
   412.7000      8.0060      2.5671      0.0487      5.0253     47.1559     22.7896
