~Version Information
VERS.                      2.0: CWLS Log ASCII Standard - VERSION 2.0
WRAP.                       NO: One line per depth step
~Well Information Block
STRT.FT                15.0000: 
STOP.FT              1532.0000: 
STEP.FT                 0.2500: 
NULL.                -999.2500: 
COMP.          Pioneer Natural Resources: COMPANY
WELL.           Bobsy 34-11 Tr: WELL
FLD.           Purgatoire River: FIELD
LOC.           514' FSL & 1784' FEL: LOCATION
PROV.                 Colorado: PROVINCE
CNTY.               Las Animas: COUNTRY
SRVC.                Patterson: SERVICE COMPANY
DATE.          Fri Jul 22 12:22:14 2005: LOG DATE
UWI.           05 071 08438 00: UNIQUE WELL ID
~Curve Information Block
DEPT.FT            0 000 00 00: Depth
GR.GAPI                       : Gamma Ray
CCL.                          : Casing Collar Locator
TT3.usec                      : CBL 3' Travel Time
AMP3.mV                       : CBL 3' Amplitude
~Parameter Information Block
~A  Depth        GR         CCL         TT3         AMP3    
# ...
   517.5000     86.3107      0.0000    722.3611     10.3829
   517.7500     83.2392      0.0000    717.9398     10.1605
   518.0000     80.9293      0.0000    712.3085      9.9332
   518.2500     78.5905      0.0000    709.8110      9.7083
   518.5000     76.0257      0.0000    712.3265      9.4787
   518.7500     73.8463      0.0000    720.2722      9.2396
   519.0000     73.0507      0.0000    732.6920      8.9996
   519.2500     74.2320      0.0000    747.1641      8.7738
   519.5000     76.8797      0.0000    760.7545      8.5706
   519.7500     79.4185      0.0000    771.6968      8.3899
   520.0000     80.1760      0.0000    780.2086      8.2328
   520.2500     78.6590      0.0000    787.2515      8.1080
   520.5000     76.0270      0.0000    792.9014      8.0325
   520.7500     74.1541      0.0000    796.6707      8.0288
   521.0000     74.1044      0.0000    798.7215      8.1127
   521.2500     75.5770      0.0000    799.8696      8.2744
   521.5000     77.6614      0.0000    800.7991      8.4732
   521.7500     79.7010      0.0000    801.4918      8.6602
   522.0000     81.4281      0.0000    800.7380      8.8092
   522.2500     82.7481      0.0000    795.8641      8.9243
   522.5000     83.6697      0.0000    783.7594      9.0157
   522.7500     84.3190      0.0000    763.2842      9.0659
   523.0000     84.9904      0.0000    736.9768      9.0188
   523.2500     86.1532      0.0000    710.0367      8.8308
   523.5000     88.1326      0.0000    687.8422      8.5606
   523.7500     90.6195      0.0000    674.8973      8.3751
   524.0000     92.7069      0.0000    674.8272      8.3936
   524.2500     93.5625      0.0000    688.8386      8.5403
   524.5000     92.9458      0.0000    713.2570      8.6355
   524.7500     91.0796      0.0000    739.8073      8.6105
   525.0000     88.2783      0.0000    759.8925      8.5483
   525.2500     84.8627      0.0000    769.6111      8.5387
   525.5000     81.3395     -3.0000    770.8644      8.5799
   525.7500     78.5988      3.0000    767.4883      8.6074
   526.0000     77.9338      1.6612    759.7203      8.5745
   526.2500     80.6250      0.0000    742.8170      8.5204
   526.5000     87.1681      0.0000    713.0806      8.5787
   526.7500     96.8004      0.0000    676.1475      8.8806
   527.0000    107.8093      0.0000    646.4418      9.4203
   527.2500    118.3499      0.0000    635.6022     10.0480
   527.5000    127.1677      0.0000    642.8964     10.5992
   527.7500    133.9144      0.0000    658.3412     10.9976
   528.0000    138.9833      0.0000    672.2383     11.2475
   528.2500    142.9032      0.0000    679.9395     11.3846
   528.5000    145.9128      0.0000    680.8362     11.4480
   528.7500    148.2391      0.0000    676.4442     11.4703
   529.0000    150.3816      0.0000    669.4199     11.4735
   529.2500    152.5934      0.0000    662.5818     11.4689
   529.5000    154.2986      0.0000    657.7128     11.4592
   529.7500    154.6941      0.0000    655.1230     11.4419
   530.0000    154.0782      0.0000    654.1542     11.4162
   530.2500    154.1039      0.0000    654.0125     11.3895
   530.5000    156.3383      0.0000    654.1866     11.3785
   530.7500    160.6228      0.0000    654.4888     11.3987
   531.0000    164.9172      0.0000    655.0243     11.4549
   531.2500    166.7401      0.0000    656.2277     11.5396
   531.5000    164.9041      0.0000    658.8441     11.6422
   531.7500    160.1428      0.0000    663.5878     11.7551
   532.0000    154.2172      0.0000    670.4498     11.8729
   532.2500    148.3908      0.0000    678.2756     11.9898
   532.5000    142.7451      0.0000    685.3066     12.1014
   532.7500    136.9386      0.0000    690.3184     12.2050
   533.0000    131.3386      0.0000    693.2053     12.2945
   533.2500    126.9722      0.0000    694.6030     12.3550
   533.5000    124.4634      0.0000    695.2130     12.3696
   533.7500    123.4414      0.0000    695.4731     12.3344
   534.0000    122.9009      0.0000    695.5770     12.2649
   534.2500    121.8176      0.0000    695.5878     12.1864
   534.5000    119.5441      0.0000    695.4968     12.1206
   534.7500    115.8954      0.0000    695.2142     12.0774
   535.0000    110.9135      0.0000    694.5242     12.0545
   535.2500    104.7178      0.0000    693.1633     12.0411
   535.5000     97.7795      0.0000    691.1682     12.0256
   535.7500     91.1874      0.0000    689.2401     12.0053
   536.0000     86.3853      0.0000    688.4818     11.9852
   536.2500     84.5280      0.0000    689.4527     11.9703
   536.5000     85.8663      0.0000    691.5963     11.9623
   536.7500     89.5222      0.0000    693.7939     11.9628
   537.0000     93.9122      0.0000    695.3197     11.9723
   537.2500     97.5728      0.0000    696.0980     11.9864
   537.5000     99.8609      0.0000    696.2485     11.9970
   537.7500    101.1240      0.0000    695.5682     11.9976
   538.0000    102.1131      0.0000    693.4307     11.9877
   538.2500    102.9237      0.0000    689.2655     11.9702
   538.5000    102.6193      0.0000    683.3959     11.9473
   538.7500    100.2542      0.0000    677.3580     11.9175
   539.0000     96.1702      0.0000    672.9028     11.8778
   539.2500     91.9822      0.0000    670.4537     11.8299
   539.5000     89.3151      0.0000    668.8718     11.7817
   539.7500     88.6449      0.0000    666.9393     11.7432
   540.0000     89.3000      0.0000    664.7332     11.7211
   540.2500     90.4867      0.0000    663.4318     11.7169
   540.5000     92.1549      0.0000    664.1970     11.7275
   540.7500     94.7060      0.0000    667.2910     11.7477
   541.0000     98.0351      0.0000    671.7255     11.7716
   541.2500    101.2451      0.0000    675.6749     11.7923
   541.5000    103.4333      0.0000    677.8667     11.8005
   541.7500    104.5129      0.0000    678.7275     11.7868
   542.0000    104.9845      0.0000    679.6976     11.7475
   542.2500    104.9621      0.0000    681.5382     11.6889
   542.5000    103.7300      0.0000    683.9525     11.6275
   542.7500    100.4892      0.0000    686.5567     11.5800
   543.0000     95.5532      0.0000    689.2876     11.5517
   543.2500     90.6504      0.0000    691.9147     11.5358
   543.5000     87.8236      0.0000    693.9311     11.5211
   543.7500     87.8280      0.0000    695.0510     11.4982
   544.0000     89.5251      0.0000    695.4432     11.4588
   544.2500     90.9642      0.0000    695.4630     11.3960
   544.5000     91.1026      0.0000    695.3593     11.3075
   544.7500     90.3570      0.0000    695.2308     11.2010
   545.0000     89.7161      0.0000    695.1115     11.0940
   545.2500     89.8535      0.0000    695.0208     11.0041
   545.5000     91.0328      0.0000    694.9608     10.9361
   545.7500     93.0578      0.0000    694.9080     10.8817
   546.0000     94.8626      0.0000    694.8381     10.8308
   546.2500     94.7816      0.0000    694.7473     10.7828
   546.5000     91.9323      0.0000    694.6492     10.7454
   546.7500     87.2880      0.0000    694.5618     10.7272
   547.0000     83.0920      0.0000    694.5007     10.7323
   547.2500     81.1854      0.0000    694.4762     10.7600
   547.5000     81.9217      0.0000    694.4875     10.8059
   547.7500     84.4383      0.0000    694.5215     10.8617
   548.0000     87.5573      0.0000    694.5609     10.9161
   548.2500     90.3075      0.0000    694.5922     10.9592
   548.5000     92.0062      0.0000    694.6057     10.9884
   548.7500     92.3531      0.0000    694.5910     11.0081
   549.0000     91.6076      0.0000    694.5388     11.0236
   549.2500     90.5270      0.0000    694.4487     11.0371
   549.5000     89.8391      0.0000    694.3364     11.0468
   549.7500     89.5637      0.0000    694.2310     11.0499
   550.0000     89.0371      0.0000    694.1599     11.0472
   550.2500     87.8475      0.0000    694.1346     11.0450
   550.5000     86.4898      0.0000    694.1508     11.0519
   550.7500     85.8150      0.0000    694.1981     11.0716
