~Version Information
VERS.                      2.0: CWLS Log ASCII Standard - VERSION 2.0
WRAP.                       NO: One line per depth step
~Well Information Block
STRT.FT               660.0000: 
STOP.FT              2488.5000: 
STEP.FT                 0.1000: 
NULL.                -999.2500: 
COMP.          Petrogulf Corporation: COMPANY
WELL.          Montoya 18-11V-B: WELL
FLD.           Purgatorie River: FIELD
LOC.           848' FNL & 619' FWL: LOCATION
PROV.                 Colorado: PROVINCE
CNTY.               Las Animas: COUNTRY
SRVC.                Patterson: SERVICE COMPANY
DATE.          Wed Oct 05 07:28:13 2005: LOG DATE
UWI.                          : UNIQUE WELL ID
~Curve Information Block
DEPT.FT            0 000 00 00: Depth
DCAL.in                       : CDL Caliper
RHOB.g/cc                     : CDL Bulk Density
RHOC.g/cc                     : CDL Density Correction
DPOR.pu                       : CDL Density Porosity
GR.GAPI                       : Gamma Ray
NPOR.pu                       : Neutron Porosity
~Parameter Information Block
~A  Depth       DCAL        RHOB        RHOC        DPOR         GR         NPOR    
# ...
  1024.8000      7.9508      2.6427      0.0372      0.4417    115.4231     22.9241
  1024.9000      7.9508      2.6444      0.0116      0.3419    117.0096     22.9990
  1025.0000      7.9502      2.6402      0.0546      0.5964    120.0757     23.3462
  1025.1000      7.9502      2.6224      0.0259      1.6703    121.1645     23.6514
  1025.2000      7.9502      2.6002     -0.0047      3.0206    117.8296     23.6581
  1025.3000      7.9529      2.5851      0.0255      3.9362    115.2677     23.4932
  1025.4000      7.9529      2.5734      0.0181      4.6403    117.7202     23.4990
  1025.5000      7.9582      2.5680     -0.0284      4.9727    120.2390     23.6211
  1025.6000      7.9582      2.5762      0.0223      4.4732    119.2268     23.6067
  1025.7000      7.9582      2.5904     -0.0278      3.6131    119.3344     23.5136
  1025.8000      7.9490      2.5975      0.0225      3.1828    123.9488     23.4284
  1025.9000      7.9490      2.5908      0.0402      3.5903    129.6948     23.2839
  1026.0000      7.9364      2.5735      0.0254      4.6380    133.1087     23.1337
  1026.1000      7.9364      2.5568      0.0125      5.6495    134.5650     23.2222
  1026.2000      7.9364      2.5520     -0.0007      5.9402    134.4955     23.6291
  1026.3000      7.9483      2.5651      0.0023      5.1449    133.1539     24.0545
  1026.4000      7.9483      2.5973      0.0221      3.1942    132.3513     24.2550
  1026.5000      7.9445      2.6355      0.0947      0.8779    132.8328     24.3307
  1026.6000      7.9445      2.6553      0.0648     -0.3234    132.3116     24.3687
  1026.7000      7.9445      2.6481      0.0713      0.1157    129.6929     24.3022
  1026.8000      7.9401      2.6253      0.0704      1.4986    127.3213     24.1447
  1026.9000      7.9401      2.5979      0.0685      3.1590    126.0742     24.0174
  1027.0000      7.9438      2.5733      0.0310      4.6482    124.9369     23.9745
  1027.1000      7.9438      2.5616      0.0331      5.3599    125.8924     24.1185
  1027.2000      7.9438      2.5690      0.0076      4.9110    130.3314     24.5828
  1027.3000      7.9521      2.6001      0.0353      3.0259    134.5216     25.2473
  1027.4000      7.9521      2.6488      0.1074      0.0699    135.3876     25.8141
  1027.5000      7.9513      2.6913      0.1345     -2.5026    135.2665     26.0153
  1027.6000      7.9513      2.7122      0.1596     -3.7714    136.8112     25.9205
  1027.7000      7.9513      2.7133      0.2042     -3.8381    138.9486     25.8729
  1027.8000      7.9611      2.7013      0.1553     -3.1121    139.1723     25.8842
  1027.9000      7.9611      2.6878      0.1096     -2.2918    135.6629     25.7917
  1028.0000      7.9669      2.6800      0.1115     -1.8182    128.5883     25.8070
  1028.1000      7.9669      2.6769      0.0782     -1.6296    121.3865     26.1171
  1028.2000      7.9669      2.6747      0.1059     -1.4991    118.3143     26.3745
  1028.3000      7.9549      2.6629      0.1200     -0.7823    118.5396     26.2660
  1028.4000      7.9549      2.6387      0.0786      0.6867    120.3022     26.0714
  1028.5000      7.9498      2.6146      0.0861      2.1427    123.3258     25.9665
  1028.6000      7.9498      2.5990      0.0785      3.0908    126.2292     25.6681
  1028.7000      7.9498      2.5922      0.0972      3.5051    128.3119     25.1196
  1028.8000      7.9480      2.5915      0.0735      3.5425    130.6435     24.5652
  1028.9000      7.9480      2.5961      0.0626      3.2675    133.4982     24.1445
  1029.0000      7.9535      2.6061      0.0404      2.6603    135.5147     23.8423
  1029.1000      7.9535      2.6110      0.0580      2.3616    137.0770     23.7940
  1029.2000      7.9535      2.5984      0.0843      3.1271    139.4590     24.0614
  1029.3000      7.9580      2.5832     -0.0094      4.0477    141.8412     24.3830
  1029.4000      7.9580      2.5858      0.0590      3.8915    142.8839     24.5533
  1029.5000      7.9568      2.5940      0.0856      3.3942    142.1116     24.6701
  1029.6000      7.9568      2.5869      0.0928      3.8235    140.7609     24.7772
  1029.7000      7.9568      2.5636      0.0824      5.2370    141.8759     24.9361
  1029.8000      7.9575      2.5435      0.0205      6.4569    146.0213     25.2613
  1029.9000      7.9575      2.5478      0.0480      6.1942    149.5594     25.4962
  1030.0000      7.9505      2.5717      0.0780      4.7465    148.8313     25.5267
  1030.1000      7.9505      2.5957      0.0930      3.2925    145.8462     25.7598
  1030.2000      7.9505      2.6116      0.1131      2.3287    146.9942     26.3014
  1030.3000      7.9567      2.6214      0.1083      1.7321    152.4568     26.7441
  1030.4000      7.9567      2.6296      0.1300      1.2377    156.2927     26.7998
  1030.5000      7.9596      2.6362      0.1154      0.8367    156.1044     26.7000
  1030.6000      7.9596      2.6381      0.0927      0.7217    153.3414     26.7471
  1030.7000      7.9596      2.6351      0.0543      0.9045    149.8840     26.8653
  1030.8000      7.9645      2.6308      0.0306      1.1634    147.2071     27.0717
  1030.9000      7.9645      2.6339      0.0473      0.9760    144.7897     27.3751
  1031.0000      7.9553      2.6493      0.0458      0.0435    141.1179     27.5614
  1031.1000      7.9553      2.6673      0.1020     -1.0496    136.8304     27.6069
  1031.2000      7.9553      2.6714      0.1012     -1.2943    134.0443     27.6656
  1031.3000      7.9554      2.6593      0.0691     -0.5629    131.4623     27.7342
  1031.4000      7.9554      2.6402      0.0334      0.5947    127.5959     27.6460
  1031.5000      7.9515      2.6199      0.0618      1.8253    124.5764     27.3515
  1031.6000      7.9515      2.6016      0.0387      2.9334    123.7329     26.9902
  1031.7000      7.9515      2.5860     -0.0115      3.8817    124.0849     26.7577
  1031.8000      7.9515      2.5736      0.0006      4.6317    124.4876     26.6169
  1031.9000      7.9515      2.5694      0.0112      4.8859    124.6324     26.2694
  1032.0000      7.9553      2.5720      0.0188      4.7283    124.5835     25.7195
  1032.1000      7.9553      2.5693      0.0497      4.8930    123.9117     25.3964
  1032.2000      7.9553      2.5628     -0.0105      5.2821    123.1647     25.4039
  1032.3000      7.9533      2.5657      0.0345      5.1075    122.2727     25.4276
  1032.4000      7.9533      2.5717      0.0756      4.7434    120.8327     25.3439
  1032.5000      7.9576      2.5729      0.0363      4.6718    119.6088     25.2188
  1032.6000      7.9576      2.5751      0.0799      4.5404    118.7209     25.0188
  1032.7000      7.9576      2.5773      0.0198      4.4084    116.9239     24.7380
  1032.8000      7.9618      2.5768      0.0532      4.4337    114.0797     24.4725
  1032.9000      7.9618      2.5833      0.0162      4.0415    111.7207     24.2069
  1033.0000      7.9637      2.6062      0.0343      2.6526    111.2504     23.8910
  1033.1000      7.9637      2.6402      0.0917      0.5945    112.7702     23.6778
  1033.2000      7.9637      2.6720      0.1085     -1.3363    114.8737     23.6441
  1033.3000      7.9999      2.6921      0.1611     -2.5535    116.7633     23.6564
  1033.4000      7.9999      2.6992      0.1909     -2.9805    119.5736     23.8570
  1033.5000      8.0439      2.6954      0.1911     -2.7528    122.8035     24.2836
  1033.6000      8.0439      2.6813      0.1627     -1.8954    124.5783     24.5216
  1033.7000      8.0439      2.6633      0.1520     -0.8046    126.4231     24.3573
  1033.8000      8.0947      2.6499      0.1214      0.0060    129.5568     24.0964
  1033.9000      8.0947      2.6360      0.1178      0.8500    132.4447     24.0247
  1034.0000      8.1455      2.6074      0.1149      2.5800    133.5288     24.1232
  1034.1000      8.1455      2.5694      0.0699      4.8848    134.4215     24.2135
  1034.2000      8.1455      2.5507      0.0423      6.0184    138.9321     24.1039
  1034.3000      8.1672      2.5671      0.0817      5.0265    146.6000     23.9345
