~Version Information
VERS.                      2.0: CWLS Log ASCII Standard - VERSION 2.0
WRAP.                       NO: One line per depth step
~Well Information Block
STRT.FT               575.0000: 
STOP.FT              1558.5000: 
STEP.FT                 0.2500: 
NULL.                -999.2500: 
COMP.          Pioneer Natural Resources: COMPANY
WELL.          McClaren 13-34 Tr: WELL
FLD.           Purgatoire River: FIELD
LOC.           1934' FSL & 826' FWL: LOCATION
PROV.                 Colorado: PROVINCE
CNTY.               Las Animas: COUNTRY
SRVC.                Patterson: SERVICE COMPANY
DATE.          Mon Jul 11 20:01:13 2005: LOG DATE
UWI.           05 071 08437 00: UNIQUE WELL ID
~Curve Information Block
DEPT.FT            0 000 00 00: Depth
SN.Ohm-m                      : IEL Short Normal
SP.mV                         : IEL Spontaneous Potential
DIR.Ohm-m                     : IEL Induction Resistivity
GR.GAPI                       : Gamma Ray
~Parameter Information Block
~A  Depth        SN          SP         DIR          GR     
# ...
  1278.5000     36.0094    113.2854     31.3455    114.5486
  1278.7500     36.9629    114.2489     32.5278    113.6687
  1279.0000     38.0262    115.3050     33.3683    109.3160
  1279.2500     39.1805    116.4391     33.7941    104.3542
  1279.5000     40.3508    117.6381     33.8113     94.9320
  1279.7500     41.5177    118.8934     33.4845     88.6365
  1280.0000     42.6931    120.1898     32.9161     81.4108
  1280.2500     43.8161    121.4883     32.2213     78.7808
  1280.5000     44.6685    122.7191     31.4899     78.1898
  1280.7500     44.8618    123.8026     30.7557     79.7175
  1281.0000     43.9848    124.6824     29.9918     84.3636
  1281.2500     41.8883    125.3470     29.1339     88.9247
  1281.5000     38.8938    125.8224     28.1268     97.8440
  1281.7500     35.6533    126.1443     26.9759    104.7403
  1282.0000     32.7222    126.3354     25.7667    114.9419
  1282.2500     30.2698    126.4062     24.6235    120.6661
  1282.5000     28.1700    126.3743     23.6342    126.6747
  1282.7500     26.2738    126.2769     22.8002    128.9600
  1283.0000     24.5605    126.1616     22.0513    130.4868
  1283.2500     23.1236    126.0656     21.3093    130.7054
  1283.5000     22.0449    126.0069     20.5454    130.1586
  1283.7500     21.2819    125.9860     19.7846    129.1464
  1284.0000     20.7414    125.9851     19.0678    126.8159
  1284.2500     20.3746    125.9674     18.4175    125.2917
  1284.5000     20.1306    125.8983     17.8335    124.4681
  1284.7500     19.9335    125.7818     17.3064    125.3146
  1285.0000     19.7402    125.6707     16.8338    127.9329
  1285.2500     19.5588    125.6351     16.4252    129.6729
  1285.5000     19.4060    125.7187     16.0968    131.3640
  1285.7500     19.2511    125.9180     15.8583    132.0447
  1286.0000     19.0423    126.1905     15.7016    133.2151
  1286.2500     18.7894    126.4897     15.5996    134.2852
  1286.5000     18.5714    126.8028     15.5157    135.6614
  1286.7500     18.4610    127.1681     15.4166    135.7553
  1287.0000     18.4447    127.6563     15.2803    133.9083
  1287.2500     18.4455    128.3246     15.0958    131.2039
  1287.5000     18.3490    129.1708     14.8592    124.8433
  1287.7500     17.9603    130.1190     14.5749    119.3672
  1288.0000     17.1266    131.0476     14.2575    111.4557
  1288.2500     15.9592    131.8428     13.9314    108.4431
  1288.5000     14.8035    132.4430     13.6231    110.0852
  1288.7500     13.9880    132.8479     13.3509    115.3128
  1289.0000     13.6322    133.0946     13.1186    126.6262
  1289.2500     13.6222    133.2297     12.9145    134.2643
  1289.5000     13.7685    133.2967     12.7158    142.9639
  1289.7500     13.9838    133.3346     12.4976    146.2505
  1290.0000     14.2224    133.3739     12.2432    147.9930
  1290.2500     14.3547    133.4284     11.9529    148.0945
  1290.5000     14.2841    133.4889     11.6471    148.5052
  1290.7500     14.0989    133.5301     11.3619    149.2065
  1291.0000     13.9773    133.5269     11.1381    149.6494
  1291.2500     13.9684    133.4698     11.0098    148.7619
  1291.5000     13.9396    133.3686     10.9967    146.0009
  1291.7500     13.7886    133.2455     11.1022    144.1322
  1292.0000     13.5941    133.1274     11.3174    142.0638
  1292.2500     13.4931    133.0424     11.6262    140.5982
  1292.5000     13.5611    133.0147     12.0093    136.4481
  1292.7500     13.8117    133.0536     12.4434    131.5760
  1293.0000     14.2204    133.1440     12.8990    120.6504
  1293.2500     14.8307    133.2509     13.3433    111.2784
  1293.5000     15.7903    133.3370     13.7477     96.0702
  1293.7500     17.1778    133.3824     14.0951     87.1148
  1294.0000     18.8862    133.3874     14.3811     78.6476
  1294.2500     20.7036    133.3580     14.6125     77.0618
  1294.5000     22.3758    133.2902     14.8072     79.7988
  1294.7500     23.6228    133.1643     14.9926     83.8277
  1295.0000     24.2304    132.9496     15.1952     91.4494
  1295.2500     24.1046    132.6151     15.4203     97.0843
  1295.5000     23.2823    132.1402     15.6360    106.0520
  1295.7500     21.9927    131.5252     15.7779    112.1589
  1296.0000     20.6093    130.7994     15.7798    120.9384
  1296.2500     19.3916    130.0220     15.6137    126.2271
  1296.5000     18.3425    129.2693     15.3078    132.8747
  1296.7500     17.3948    128.6132     14.9271    136.1916
  1297.0000     16.6128    128.1024     14.5379    139.2845
  1297.2500     16.1233    127.7568     14.1852    140.3057
  1297.5000     15.9177    127.5727     13.8902    141.1269
  1297.7500     15.8277    127.5334     13.6594    141.7053
  1298.0000     15.7210    127.6160     13.4911    142.9376
  1298.2500     15.6089    127.7927     13.3772    143.7724
  1298.5000     15.5736    128.0342     13.3016    144.3435
  1298.7500     15.6490    128.3205     13.2435    143.9665
  1299.0000     15.7206    128.6508     13.1838    141.8329
  1299.2500     15.6273    129.0330     13.1151    139.0149
  1299.5000     15.3802    129.4556     13.0468    132.4287
  1299.7500     15.1197    129.8685     13.0014    127.0051
  1300.0000     14.9235    130.2003     13.0036    119.5639
  1300.2500     14.7735    130.4003     13.0677    116.5815
  1300.5000     14.6578    130.4659     13.1931    116.5948
  1300.7500     14.6445    130.4284     13.3663    119.3536
  1301.0000     14.8205    130.3207     13.5678    125.4793
  1301.2500     15.1632    130.1570     13.7746    129.3743
  1301.5000     15.5116    129.9358     13.9585    133.4649
  1301.7500     15.7267    129.6516     14.0866    135.0791
  1302.0000     15.8201    129.2990     14.1318    136.5496
  1302.2500     15.8465    128.8699     14.0893    137.1135
  1302.5000     15.8120    128.3525     13.9821    137.2865
  1302.7500     15.7638    127.7353     13.8494    136.9134
  1303.0000     15.8080    127.0154     13.7258    135.7624
  1303.2500     15.9546    126.2071     13.6282    134.8332
  1303.5000     16.0559    125.3439     13.5559    133.7800
  1303.7500     15.9478    124.4731     13.4977    133.5694
  1304.0000     15.6050    123.6433     13.4381    133.8960
  1304.2500     15.1811    122.8938     13.3590    134.1183
  1304.5000     14.8720    122.2541     13.2430    133.4437
  1304.7500     14.7223    121.7505     13.0760    131.9297
  1305.0000     14.6244    121.4043     12.8513    128.2737
  1305.2500     14.4793    121.2143     12.5707    125.3937
  1305.5000     14.2704    121.1426     12.2436    120.9244
  1305.7500     14.0138    121.1295     11.8861    117.8175
  1306.0000     13.7507    121.1292     11.5176    113.3413
  1306.2500     13.5254    121.1312     11.1570    111.4144
  1306.5000     13.3052    121.1493     10.8182    112.1224
  1306.7500     13.0431    121.1992     10.5072    115.3890
  1307.0000     12.7743    121.2934     10.2226    122.9483
  1307.2500     12.5344    121.4486      9.9580    128.0690
  1307.5000     12.2908    121.6898      9.7062    133.1392
  1307.7500     12.0059    122.0433      9.4664    133.8580
  1308.0000     11.6870    122.5247      9.2480    131.0823
  1308.2500     11.4008    123.1268      9.0691    127.8480
  1308.5000     11.2631    123.8150      8.9498    124.1522
  1308.7500     11.3155    124.5370      8.9046    123.9815
  1309.0000     11.4618    125.2422      8.9394    127.1739
  1309.2500     11.6032    125.8948      9.0528    130.0919
  1309.5000     11.7101    126.4721      9.2387    132.6409
  1309.7500     11.7802    126.9589      9.4878    132.2971
  1310.0000     11.8615    127.3497      9.7858    129.0116
  1310.2500     12.0286    127.6579     10.1130    125.3031
  1310.5000     12.2730    127.9173     10.4456    117.1848
  1310.7500     12.5787    128.1758     10.7616    109.7080
  1311.0000     13.1515    128.4830     11.0452     95.6572
  1311.2500     14.4261    128.8764     11.2909     85.3383
  1311.5000     16.8045    129.3624     11.5018     71.0741
  1311.7500     20.3069    129.9030     11.6861     64.1398
