~Version Information
VERS.                      2.0: CWLS Log ASCII Standard - VERSION 2.0
WRAP.                       NO: One line per depth step
~Well Information Block
STRT.FT               880.0000: 
STOP.FT              1995.0000: 
STEP.FT                 0.2500: 
NULL.                -999.2500: 
COMP.          Petrogulf Corporation: COMPANY
WELL.          Collister 17-31R: WELL
FLD.           Purgatorie River: FIELD
LOC.           962' FNL & 1520' FEL: LOCATION
PROV.                 Colorado: PROVINCE
CNTY.               Las Animas: COUNTRY
SRVC.                Patterson: SERVICE COMPANY
DATE.          Mon Sep 26 09:32:26 2005: LOG DATE
UWI.                          : UNIQUE WELL ID
~Curve Information Block
DEPT.FT            0 000 00 00: Depth
SP.mV                         : DIL Spontaneous Potential
RILD.Ohm-m                    : DIL Deep Resistivity
RILM.Ohm-m                    : DIL Medium Resistivity
RLL3.Ohm-m                    : DIL Shallow Resistivity
GR.GAPI                       : Gamma Ray
~Parameter Information Block
~A  Depth        SP         RILD        RILM        RLL3         GR     
   880.0000   -147.3318      9.0451 100000.0000     -2.1215     62.0430
   880.2500   -146.7117      8.7420 100000.0000     -1.5068     81.8363
   880.5000   -146.2256      8.6808 100000.0000     -8.6103     69.8425
   880.7500   -146.0859      8.6881 100000.0000      2.0265     77.1507
   881.0000   -146.6135      8.5969 100000.0000      2.4647     83.7952
   881.2500   -145.0337      8.6154 100000.0000      0.9955     74.8505
   881.5000   -145.0602      8.6673 100000.0000      1.2195     72.9226
   881.7500   -145.7803      8.6523 100000.0000      3.4985     84.9232
   882.0000   -145.3013      8.6322 100000.0000      0.3551     70.6224
   882.2500   -145.6158      8.5217 100000.0000     -1.1921     72.7250
   882.5000   -146.4269      8.4975 100000.0000     -0.1159     77.6254
   882.7500   -146.9260      8.5478 100000.0000      0.8242     64.0611
   883.0000   -146.8266      8.5069 100000.0000      6.5812     89.2636
   883.2500   -146.7419      8.5600 100000.0000      0.1899     83.4017
   883.5000   -145.6115      8.6801 100000.0000      2.4622    113.9546
   883.7500   -143.8901      8.5689 100000.0000     -1.1412     94.9401
   884.0000   -142.8239      8.4444 100000.0000     -3.4936     93.3157
   884.2500   -141.5615      8.4251 100000.0000      2.1363     61.0550
   884.5000   -141.0308      8.4079 100000.0000      3.3452     82.5579
   884.7500   -141.3570      8.4282 100000.0000      4.4396     80.4073
   885.0000   -142.3187      8.4629 100000.0000      5.1174     76.9188
   885.2500   -143.4332      8.5467 100000.0000      6.2498     71.0722
   885.5000   -144.7079      8.5962 100000.0000      7.4831     60.3491
   885.7500   -146.2312      8.5700 100000.0000      5.0929     83.0533
   886.0000   -147.4132      8.5837 100000.0000      2.5643     74.1921
   886.2500   -147.5838      8.6731 100000.0000      3.4550     82.3372
   886.5000   -147.6292      8.7358 100000.0000      7.1371     97.0829
   886.7500   -147.3973      8.7167 100000.0000     15.0001     86.9154
   887.0000   -144.8579      8.7395 100000.0000      7.2165     77.1918
   887.2500   -140.4428      8.6593 100000.0000      4.8982     71.1228
   887.5000   -135.5169      8.6086 100000.0000     -4.6819     90.2606
   887.7500   -132.7135      8.6899 100000.0000     -4.8334     98.4385
   888.0000   -134.2387      8.4722 100000.0000     18.3946     98.9253
   888.2500   -138.6100      8.3016 100000.0000      8.9281     87.7044
   888.5000   -144.9456      7.8296 100000.0000      4.9945     62.1896
   888.7500   -151.1805      7.2442 100000.0000      8.8519     63.6297
   889.0000   -154.3005      7.2597 100000.0000      2.4796     68.2464
   889.2500   -155.2185      8.4661 100000.0000      2.1458     77.0911
   889.5000   -155.0090     10.4032 100000.0000      4.3477     86.7774
   889.7500   -154.5614     11.9371 100000.0000     -2.1165     76.9714
   890.0000   -154.6028     11.6051 100000.0000      3.0198     95.1064
   890.2500   -154.4206     11.0111 100000.0000      2.2766     84.4435
   890.5000   -154.1867     10.7156 100000.0000     -1.8846     82.1166
   890.7500   -154.4859     10.4237 100000.0000     -5.1900     83.6470
   891.0000   -155.0829     10.0806 100000.0000     -1.9117     74.9365
   891.2500   -154.0490      9.4597 100000.0000      1.6395     64.2097
   891.5000   -151.0067      9.3292 100000.0000      0.4881     79.7734
   891.7500   -156.7113     11.0627 100000.0000      2.0668     63.5202
   892.0000   -158.6873     17.3155 100000.0000     -4.5165     62.5669
   892.2500   -158.5424     31.8191 100000.0000     -0.5997     70.4811
   892.5000   -154.6111     29.3158 100000.0000      0.3979     74.2105
   892.7500   -152.5024     14.5109 100000.0000      2.7367     74.1662
   893.0000   -154.1909      9.6461 100000.0000      0.2853     86.8540
   893.2500   -152.3128      8.4404 100000.0000      0.3975     80.6493
   893.5000   -151.0694      7.9291 100000.0000      2.6668     90.9008
   893.7500   -150.9478      7.9832 100000.0000      1.0789     99.2231
   894.0000   -150.0624      7.9750 100000.0000      1.9317     89.4256
   894.2500   -150.5597      7.7968 100000.0000      1.1626     73.0698
   894.5000   -151.3697      7.5200 100000.0000      4.7595     80.0833
   894.7500   -149.1970      7.6639 100000.0000      1.2606     98.7379
   895.0000   -144.0746     12.5357 100000.0000     -0.1755     94.6472
   895.2500   -137.8171 100000.0000 100000.0000      0.4266     68.9064
   895.5000   -131.3652 100000.0000 100000.0000      2.3978     83.5307
   895.7500   -119.2111 100000.0000 100000.0000     -0.2432     79.1960
   896.0000   -101.4243      5.1113 100000.0000     -1.0762     61.8619
   896.2500    -75.1358      3.4188 100000.0000     -0.3567     58.2745
   896.5000    -50.4063      3.5322 100000.0000     -0.3294     57.1618
   896.7500    -30.0317      4.6828 100000.0000     -5.3605     62.2671
   897.0000     -3.2722      5.6398 100000.0000      2.9472     45.3340
   897.2500     30.6404      6.3796 100000.0000     18.7484     46.2362
   897.5000     56.5639      7.3663 100000.0000     49.0734     45.6753
   897.7500     78.7795     12.2680 100000.0000     31.9958     54.2009
   898.0000     97.8587 100000.0000 100000.0000     35.2651     84.5912
   898.2500    114.9485     26.4078 100000.0000     35.2140     90.4793
   898.5000    130.6658      3.1793 100000.0000     23.9703     64.8974
   898.7500    141.4440      1.3137 100000.0000     22.8298     78.7714
   899.0000    148.2077      1.1081 100000.0000     27.9107     98.4007
   899.2500    153.2944      1.9983      6.5876     45.4517     91.8604
   899.5000    157.8847      5.6027      2.5041     70.2678     75.1858
   899.7500    162.6749     19.6408      3.7676     87.8607     90.4302
   900.0000    168.4226    183.1623     11.2741     86.3025     99.0060
   900.2500    172.2171 100000.0000 100000.0000     67.6995     71.2526
   900.5000    176.0855 100000.0000     56.5643     40.0746     61.2920
   900.7500    177.7815 100000.0000     25.2621     25.4020     50.9051
   901.0000    178.3595 100000.0000     20.2228     19.2636     72.2762
   901.2500    179.2969 100000.0000     18.8646     19.9830     72.5941
   901.5000    179.5268 100000.0000     19.4768     22.9747    102.8036
   901.7500    179.5140 100000.0000     27.6477     19.9837    114.9990
   902.0000    180.6876     16.6852 100000.0000     19.7142    134.0396
   902.2500    180.9049     15.8626 100000.0000     18.5249    152.9407
   902.5000    181.5478     17.7510 100000.0000     19.1894    144.9275
   902.7500    181.8447     19.0570     49.8819     19.9329    137.6080
   903.0000    178.8387     19.5691     26.7123     21.1003    150.1660
   903.2500    177.8144     19.9436     22.7137     25.5502    150.9582
   903.5000    178.3232     20.6028     21.2188     24.2273    134.1476
   903.7500    177.9422     21.4758     20.4657     23.5460    117.9846
   904.0000    176.1089     23.8969     20.0658     22.0360    130.9194
   904.2500    173.3731     30.3323     18.7421     21.4379    124.8243
   904.5000    168.0543     36.4066     17.8425     21.9599    123.8551
   904.7500    161.6167     27.3657     18.9370     26.1447    114.9852
   905.0000    158.3149     26.4579     18.6143     33.1952    120.6473
   905.2500    153.5616     26.6181     18.1178     42.6145    128.3993
   905.5000    148.3985     27.1021     24.4226     50.0666    131.3564
   905.7500    145.0558     28.5301     29.6234     50.5049    125.0883
   906.0000    142.3341     29.1782     34.0219     50.5378    100.8550
   906.2500    139.5268     30.7865     38.2480     52.2078     84.6139
   906.5000    136.8714     33.0541     42.3109     54.0645     96.8763
   906.7500    134.6117     34.4983     48.0960     56.6869    106.3425
   907.0000    133.4946     36.8314     56.6736     60.5910     98.0849
   907.2500    135.1575     38.2359     68.3029     64.7578     98.9195
   907.5000    140.5978     37.6503     65.8475     70.9172     87.6821
   907.7500    143.2870     38.0220     66.6282     74.0299     74.4478
