~Version Information
VERS.                      2.0: CWLS Log ASCII Standard - VERSION 2.0
WRAP.                       NO: One line per depth step
~Well Information Block
STRT.FT                -7.2500: 
STOP.FT              1334.7500: 
STEP.FT                 0.2500: 
NULL.                -999.2500: 
COMP.          Pioneer Natural Resources: COMPANY
WELL.          Buffet 41-36 Tr: WELL
FLD.           Purgatorie River: FIELD
LOC.           119' FNL & 271' FEL--: LOCATION
PROV.                       CO: PROVINCE
CNTY.               Las Animas: COUNTRY
SRVC.          Patterson Wireline: SERVICE COMPANY
DATE.          Tue Jan 03 09:43:31 2006: LOG DATE
UWI.           05 071 08627 00: UNIQUE WELL ID
~Curve Information Block
DEPT.FT            0 000 00 00: Depth
CCL.                          : Casing Collar Locator
TT3.usec                      : CBL 3' Travel Time
AMP3.mV                       : CBL 3' Amplitude
GR.GAPI                       : Gamma Ray
~Parameter Information Block
~A  Depth       CCL         TT3         AMP3         GR     
# ...
  1198.7500      0.0000    701.9575      5.3316    105.8758
  1199.0000      0.0000    701.6304      5.2311    112.9178
  1199.2500      0.0000    702.7227      5.0897    118.3944
  1199.5000      0.0000    706.2141      4.9335    118.8663
  1199.7500      0.0000    710.8802      4.7706    112.4753
  1200.0000      0.0000    714.2262      4.6223    100.6822
  1200.2500      0.0000    715.3958      4.5434     87.3109
  1200.5000      0.0000    716.8413      4.5936     76.0014
  1200.7500      0.0000    722.3690      4.7881     68.5712
  1201.0000      0.0000    733.4271      5.0843     64.9968
  1201.2500      0.0000    747.3194      5.4163     64.3468
  1201.5000      0.0000    758.4507      5.7415     65.8737
  1201.7500      0.0000    761.6659      6.0544     69.6320
  1202.0000      0.0000    755.8672      6.3600     76.2144
  1202.2500      0.0000    744.4244      6.6455     85.7161
  1202.5000      0.0000    731.1483      6.8882     96.7437
  1202.7500      0.0000    716.4864      7.0903    106.5236
  1203.0000      0.0000    698.8660      7.2816    112.3449
  1203.2500      0.0000    679.0220      7.4750    113.1116
  1203.5000      0.0000    661.4091      7.6311    109.5567
  1203.7500      0.0000    650.2545      7.6823    103.3625
  1204.0000      0.0000    644.0695      7.5938     96.4592
  1204.2500      0.0000    636.3435      7.3918     90.7022
  1204.5000      0.0000    624.0197      7.1363     87.2858
  1204.7500      0.0000    613.2674      6.8750     86.2070
  1205.0000      0.0000    612.8600      6.6267     86.6581
  1205.2500      0.0000    622.8287      6.3956     88.0328
  1205.5000      0.0000    634.0402      6.1878     90.1923
  1205.7500      0.0000    638.8171      6.0134     92.7440
  1206.0000      0.0000    637.7797      5.8783     94.5887
  1206.2500      0.0000    636.2595      5.7794     94.7198
  1206.5000      0.0000    638.8829      5.7056     93.4249
  1206.7500      0.0000    648.2408      5.6433     92.0253
  1207.0000      0.0000    663.8728      5.5817     91.1519
  1207.2500      0.0000    680.3297      5.5196     89.9148
  1207.5000      0.0000    689.4925      5.4669     87.2753
  1207.7500      0.0000    687.4104      5.4382     83.6760
  1208.0000      0.0000    678.7446      5.4419     80.6132
  1208.2500      0.0000    673.4484      5.4733     78.7886
  1208.5000      0.0000    678.1213      5.5188     77.2534
  1208.7500      0.0000    690.7618      5.5640     74.4490
  1209.0000      0.0000    704.0849      5.6007     69.7616
  1209.2500      0.0000    712.2368      5.6256     64.0034
  1209.5000      0.0000    712.9776      5.6349     58.7480
  1209.7500      0.0000    705.0676      5.6246     55.4019
  1210.0000      0.0000    686.3052      5.5963     54.5029
  1210.2500      0.0000    655.2215      5.5599     55.5019
  1210.5000      0.0000    614.9903      5.5253     57.3138
  1210.7500      0.0000    575.7155      5.4935     59.4004
  1211.0000      0.0000    551.4881      5.4597     62.5060
  1211.2500      0.0000    552.6042      5.4255     68.1552
  1211.5000      0.0000    578.7375      5.4027     77.0852
  1211.7500      0.0000    619.0319      5.4011     88.1842
  1212.0000      0.0000    659.4517      5.4167     99.2051
  1212.2500      0.0000    691.0764      5.4331    108.2860
  1212.5000      0.0000    712.3876      5.4334    114.6214
  1212.7500      0.0000    725.4996      5.4099    118.3898
  1213.0000      0.0000    732.1693      5.3659    120.6562
  1213.2500      0.0000    733.3109      5.3118    122.9037
  1213.5000      0.0000    730.4259      5.2613    125.9317
  1213.7500      0.0000    725.8671      5.2308    129.0777
  1214.0000      0.0000    721.4858      5.2383    130.6639
  1214.2500      0.0000    717.6697      5.2962    129.3957
  1214.5000      0.0000    714.2449      5.3989    125.5115
  1214.7500      0.0000    712.0481      5.5179    120.4260
  1215.0000      0.0000    713.0706      5.6155    115.1432
  1215.2500      0.0000    718.8478      5.6695    109.5087
  1215.5000      0.0000    728.3824      5.6862    103.3749
  1215.7500      0.0000    737.5760      5.6893     97.9800
  1216.0000      0.0000    741.6749      5.6976     95.5472
  1216.2500      0.0000    739.1154      5.7115     97.3902
  1216.5000      0.0000    732.5390      5.7196    102.6050
  1216.7500      0.0000    725.8790      5.7155    108.8367
  1217.0000      0.0000    721.2495      5.7081    114.1680
  1217.2500      0.0000    718.4451      5.7119    117.9756
  1217.5000      0.0000    716.2160      5.7314    120.3535
  1217.7500      0.0000    713.8187      5.7593    121.4372
  1218.0000      0.0000    712.0185      5.7870    121.4318
  1218.2500      0.0000    712.9030      5.8136    120.9940
  1218.5000      0.0000    718.5558      5.8467    121.2146
  1218.7500      0.0000    729.2834      5.8948    122.8288
  1219.0000      0.0000    742.4741      5.9568    125.3145
  1219.2500      0.0000    753.4896      6.0185    127.1215
  1219.5000      0.0000    758.8071      6.0626    127.2212
  1219.7500      0.0000    758.8826      6.0815    126.3271
  1220.0000      0.0000    757.7090      6.0757    126.0749
  1220.2500      0.0000    759.3093      6.0415    127.0137
  1220.5000      0.0000    764.1867      5.9658    128.0994
  1220.7500      0.0000    768.2943      5.8416    128.2847
  1221.0000      0.0000    765.4905      5.6930    127.6881
  1221.2500      0.0000    752.5859      5.5684    126.8555
  1221.5000      0.0000    733.2747      5.4886    125.9274
  1221.7500      0.0000    716.6281      5.4166    125.0151
  1222.0000      0.0000    710.6594      5.3082    124.4157
  1222.2500      0.0000    717.2676      5.1769    123.8968
  1222.5000      0.0000    733.3077      5.0750    122.5105
  1222.7500      0.0000    755.7841      5.0267    119.7137
  1223.0000      2.0000    784.8104      5.0140    116.2000
  1223.2500      0.0000    819.9287      5.0105    113.0445
  1223.5000      0.0000    853.3391      5.0100    110.3530
  1223.7500      0.0000    870.4077      5.0282    107.4648
  1224.0000      0.0000    861.1997      5.0804    104.4619
  1224.2500      0.0000    830.9301      5.1484    102.7394
  1224.5000      0.0000    795.9772      5.1806    103.7266
  1224.7500      0.0000    770.6746      5.1497    107.3682
  1225.0000      0.0000    760.0834      5.0876    112.1404
  1225.2500      0.0000    761.9597      5.0415    116.3560
  1225.5000      0.0000    770.1857      5.0179    119.4207
  1225.7500      0.0000    776.7239      4.9899    122.0513
  1226.0000      0.0000    775.4052      4.9352    125.4650
  1226.2500      0.0000    766.6854      4.8552    130.3791
  1226.5000      0.0000    757.5762      4.7684    136.5607
  1226.7500      0.0000    755.8267      4.6965    142.7832
  1227.0000      0.0000    764.3907      4.6536    147.1138
  1227.2500      0.0000    780.6588      4.6438    148.0247
  1227.5000      0.0000    798.9310      4.6619    145.7220
  1227.7500      0.0000    813.4098      4.6951    141.9218
  1228.0000      0.0000    820.7642      4.7274    138.2245
  1228.2500      0.0000    821.1241      4.7449    135.4440
  1228.5000      0.0000    816.7914      4.7378    134.2998
  1228.7500      0.0000    810.2234      4.6995    135.2276
  1229.0000      0.0000    803.1530      4.6279    137.2398
  1229.2500      0.0000    796.9196      4.5292    138.3136
  1229.5000      0.0000    793.1344      4.4204    137.3098
  1229.7500      0.0000    793.6793      4.3235    134.5737
  1230.0000      0.0000    799.5009      4.2538    130.6564
  1230.2500      0.0000    809.2396      4.2130    125.5582
  1230.5000      0.0000    819.5430      4.1953    119.3573
  1230.7500      0.0000    827.5229      4.1968    112.5297
  1231.0000      0.0000    833.7618      4.2171    105.3450
  1231.2500      0.0000    843.2399      4.2571     97.7705
  1231.5000      0.0000    862.1390      4.3162     90.2056
  1231.7500      0.0000    891.1873      4.3932     83.5352
  1232.0000      0.0000    920.8572      4.4860     78.2102
