~Version Information
VERS.                      2.0: CWLS Log ASCII Standard - VERSION 2.0
WRAP.                       NO: One line per depth step
~Well Information Block
STRT.FT                -9.5000: 
STOP.FT              1401.5000: 
STEP.FT                 0.2500: 
NULL.                -999.2500: 
COMP.          Pioneer Natural Resources: COMPANY
WELL.             John K 12-28: WELL
FLD.           Purgatorie River: FIELD
LOC.           1476' FNL & 465' FWL--: LOCATION
CNTY.               Las Animas: COUNTY
SRVC.          Patterson Wireline: SERVICE COMPANY
DATE.          Fri Apr 28 08:36:46 2006: LOG DATE
UWI.           05 071 08723 00: UNIQUE WELL ID
STAT.                       CO: STATE
~Curve Information Block
DEPT.FT            0 000 00 00: Depth
CCL.                          : Casing Collar Locator
TT3.usec                      : CBL 3' Travel Time
AMP3.mV                       : CBL 3' Amplitude
GR.GAPI                       : Gamma Ray
~Parameter Information Block
~A  Depth       CCL         TT3         AMP3         GR     
# ...
  1196.5000      0.0000    701.6937      4.2334     96.1892
  1196.7500      0.0000    710.9021      4.2299     93.7946
  1197.0000      0.0000    707.7416      4.1937     92.5297
  1197.2500      0.0000    693.1416      4.1431     92.0526
  1197.5000      0.0000    671.4943      4.1033     92.4643
  1197.7500      0.0000    646.6768      4.0925     94.2235
  1198.0000      0.0000    618.7379      4.1119     97.4735
  1198.2500      0.0000    585.3727      4.1435    101.5614
  1198.5000      0.0000    547.8516      4.1607    105.0984
  1198.7500      0.0000    513.4613      4.1522    106.5217
  1199.0000      0.0000    490.6965      4.1435    104.9411
  1199.2500      0.0000    483.2932      4.1827    100.7146
  1199.5000      0.0000    488.3828      4.2863     95.2620
  1199.7500      0.0000    498.9067      4.4127     90.1051
  1200.0000      0.0000    508.9578      4.5084     85.9129
  1200.2500      0.0000    517.4438      4.5707     82.5369
  1200.5000      0.0000    524.6139      4.6391     79.8177
  1200.7500      0.0000    526.1274      4.7359     77.8512
  1201.0000      2.0000    515.5619      4.8370     76.6152
  1201.2500      0.0000    493.1657      4.8948     76.1168
  1201.5000      0.0000    467.6519      4.8798     76.9135
  1201.7500      0.0000    448.6388      4.8001     79.7382
  1202.0000      0.0000    440.0840      4.6839     84.4838
  1202.2500      0.0000    440.2990      4.5471     90.1649
  1202.5000      0.0000    444.9348      4.3926     95.9552
  1202.7500      0.0000    449.6197      4.2429    101.6278
  1203.0000      0.0000    452.3236      4.1450    106.7902
  1203.2500      0.0000    454.8200      4.1269    110.2679
  1203.5000      0.0000    462.1529      4.1701    110.8556
  1203.7500      0.0000    480.5496      4.2365    108.7718
  1204.0000      0.0000    514.1995      4.3064    105.9226
  1204.2500      0.0000    561.0746      4.3813    104.2602
  1204.5000      0.0000    610.8525      4.4637    104.0275
  1204.7500      0.0000    649.4689      4.5458    104.0397
  1205.0000      0.0000    668.6390      4.6141    103.4014
  1205.2500      0.0000    671.7328      4.6575    102.2570
  1205.5000      0.0000    670.2910      4.6683    101.0169
  1205.7500      0.0000    674.6955      4.6424     99.7754
  1206.0000      0.0000    687.1899      4.5832     98.6396
  1206.2500      0.0000    702.5740      4.5088     97.7591
  1206.5000      0.0000    714.6664      4.4538     96.6797
  1206.7500      0.0000    721.4849      4.4572     94.4322
  1207.0000      0.0000    725.0226      4.5438     90.5934
  1207.2500      0.0000    728.0104      4.7101     85.7267
  1207.5000      0.0000    731.7681      4.9251     80.7761
  1207.7500      0.0000    736.0609      5.1428     76.6571
  1208.0000      0.0000    739.8217      5.3163     74.3162
  1208.2500      0.0000    742.0311      5.4088     74.4088
  1208.5000      0.0000    742.5247      5.4029     76.6981
  1208.7500      0.0000    741.9219      5.3044     80.2347
  1209.0000      0.0000    740.2195      5.1394     84.1863
  1209.2500      0.0000    735.4428      4.9451     88.1236
  1209.5000      0.0000    723.6917      4.7598     91.5475
  1209.7500      0.0000    700.3718      4.6116     93.7097
  1210.0000      0.0000    662.4227      4.5123     94.1657
  1210.2500      0.0000    611.7576      4.4584     93.2517
  1210.5000      0.0000    557.3298      4.4376     91.8355
  1210.7500      0.0000    511.7227      4.4355     90.6657
  1211.0000      0.0000    483.7138      4.4403     89.8326
  1211.2500      0.0000    473.7360      4.4471     88.7484
  1211.5000      0.0000    475.7799      4.4574     86.9365
  1211.7500      0.0000    482.4579      4.4740     84.9573
  1212.0000      0.0000    488.6567      4.4943     84.1024
  1212.2500      0.0000    492.2910      4.5124     84.9572
  1212.5000      0.0000    493.2247      4.5241     86.6064
  1212.7500      0.0000    491.8707      4.5296     87.4947
  1213.0000      0.0000    488.3191      4.5289     86.9229
  1213.2500      0.0000    482.3324      4.5173     85.6321
  1213.5000      0.0000    474.0824      4.4853     85.0083
  1213.7500      0.0000    465.0703      4.4244     85.7402
  1214.0000      0.0000    458.4489      4.3353     87.1166
  1214.2500      0.0000    458.7744      4.2305     87.4549
  1214.5000      0.0000    471.2794      4.1300     85.3458
  1214.7500      0.0000    499.4377      4.0524     80.8539
  1215.0000      0.0000    540.7069      4.0080     75.6978
  1215.2500      0.0000    585.0256      3.9966     72.1289
  1215.5000      0.0000    620.6663      4.0113     71.4894
  1215.7500      0.0000    642.9827      4.0451     73.7355
  1216.0000      0.0000    656.3234      4.0938     78.0594
  1216.2500      0.0000    667.6431      4.1542     83.6569
  1216.5000      0.0000    679.5976      4.2223     89.8189
  1216.7500      0.0000    688.3951      4.2953     95.5040
  1217.0000      0.0000    685.8285      4.3719     99.3273
  1217.2500      0.0000    664.4991      4.4470    100.4522
  1217.5000      0.0000    624.5079      4.5096     99.4560
  1217.7500      0.0000    576.0280      4.5479     98.0728
  1218.0000      0.0000    533.5588      4.5544     97.9428
  1218.2500      0.0000    506.5565      4.5264     99.4452
  1218.5000      0.0000    495.2670      4.4675    101.5768
  1218.7500      0.0000    493.9972      4.3921    103.0131
  1219.0000      0.0000    496.4771      4.3232    103.3270
  1219.2500      0.0000    498.5293      4.2807    103.1087
  1219.5000      0.0000    498.1617      4.2729    103.1540
  1219.7500      0.0000    495.1599      4.2989    103.7737
  1220.0000      0.0000    490.7691      4.3529    104.6757
  1220.2500      0.0000    486.9764      4.4225    105.2197
  1220.5000      0.0000    485.4981      4.4884    104.8854
  1220.7500      0.0000    486.8104      4.5327    103.7132
  1221.0000      0.0000    489.7284      4.5490    102.2845
  1221.2500      0.0000    492.2088      4.5413    101.1847
  1221.5000      0.0000    492.9451      4.5180    100.5171
  1221.7500      0.0000    491.8986      4.4906     99.9494
  1222.0000      0.0000    489.1349      4.4735     99.1712
  1222.2500      0.0000    483.9285      4.4749     98.3022
  1222.5000      0.0000    475.6351      4.4892     97.8582
  1222.7500      0.0000    465.0023      4.5005     98.2226
  1223.0000      0.0000    453.8919      4.4945     99.1134
  1223.2500      0.0000    443.8477      4.4658     99.7019
  1223.5000      0.0000    435.4568      4.4151     99.3830
  1223.7500      0.0000    428.9810      4.3452     98.2184
  1224.0000      0.0000    424.8566      4.2632     96.4441
  1224.2500      0.0000    423.2205      4.1857     93.9179
  1224.5000      0.0000    423.4543      4.1357     90.5745
  1224.7500      0.0000    424.8022      4.1292     87.1348
  1225.0000      0.0000    427.6635      4.1621     84.7158
  1225.2500      0.0000    434.4358      4.2119     83.8818
  1225.5000      0.0000    449.2399      4.2539     84.5464
  1225.7500      0.0000    475.9591      4.2740     86.3838
  1226.0000      0.0000    514.9373      4.2672     88.5984
  1226.2500      0.0000    560.9127      4.2322     89.7723
  1226.5000      0.0000    605.1749      4.1742     88.9621
  1226.7500      0.0000    640.8130      4.1123     86.7387
  1227.0000      0.0000    665.9941      4.0753     84.3805
  1227.2500      0.0000    682.7365      4.0875     82.2955
  1227.5000      0.0000    693.8746      4.1552     79.9345
  1227.7500      0.0000    701.5370      4.2652     77.0275
  1228.0000      0.0000    707.2112      4.3911     74.2292
  1228.2500      0.0000    711.8103      4.5042     72.5292
  1228.5000      0.0000    715.2828      4.5822     72.4207
  1228.7500      0.0000    716.7289      4.6113     73.7761
  1229.0000      0.0000    715.4524      4.5842     76.2906
  1229.2500      0.0000    711.8522      4.5031     79.8418
  1229.5000      0.0000    707.2402      4.3858     84.4639
  1229.7500      0.0000    703.0406      4.2632     90.0104
