~Version Information
VERS.                      2.0: CWLS Log ASCII Standard - VERSION 2.0
WRAP.                       NO: One line per depth step
~Well Information Block
STRT.FT               615.0000: 
STOP.FT              2807.0000: 
STEP.FT                 0.1000: 
NULL.                -999.2500: 
COMP.          Pioneer Natural Resources: COMPANY
WELL.              Loews 41-32: WELL
FLD.           Purgatoire River: FIELD
LOC.           751' FNL & 128' FEL: LOCATION
CNTY.               Las Animas: COUNTY
SRVC.                Patterson: SERVICE COMPANY
DATE.          Mon Feb 13 07:19:27 2006: LOG DATE
UWI.           05 071 08693 00: UNIQUE WELL ID
STAT.                 Colorado: STATE
~Curve Information Block
DEPT.FT            0 000 00 00: Depth
DCAL.in                       : CDL Caliper
RHOB.g/cc                     : CDL Bulk Density
RHOC.g/cc                     : CDL Density Correction
DPOR.pu                       : CDL Density Porosity
GR.GAPI                       : Gamma Ray
NPOR.pu                       : Neutron Porosity
~Parameter Information Block
~A  Depth       DCAL        RHOB        RHOC        DPOR         GR         NPOR    
# ...
  1632.6000      8.0754      2.8969     -0.0837    -14.9660    101.7232     25.9908
  1632.7000      8.0754      2.8788     -0.0348    -13.8654     90.4728     25.9082
  1632.8000      8.0763      2.8620     -0.0565    -12.8463     84.1086     25.8683
  1632.9000      8.0763      2.8405     -0.0092    -11.5480     85.5556     25.9020
  1633.0000      8.0793      2.8092      0.0249     -9.6475     91.3175     26.1123
  1633.1000      8.0793      2.7674      0.0029     -7.1142     94.6556     26.6478
  1633.2000      8.0793      2.7228     -0.0019     -4.4103     96.3993     26.9953
  1633.3000      8.0798      2.6850     -0.0499     -2.1228    101.3572     26.7948
  1633.4000      8.0798      2.6547      0.0076     -0.2867    109.4998     26.5586
  1633.5000      8.0786      2.6365     -0.0570      0.8207    120.1197     26.6569
  1633.6000      8.0786      2.6391      0.0176      0.6616    131.8205     27.2432
  1633.7000      8.0786      2.6484     -0.0151      0.0958    139.0455     28.2705
  1633.8000      8.0782      2.6522     -0.0217     -0.1344    139.2690     29.0484
  1633.9000      8.0782      2.6615     -0.0388     -0.6958    137.6395     29.0916
  1634.0000      8.0782      2.6796      0.0347     -1.7912    138.7326     28.6271
  1634.1000      8.0782      2.6930      0.0264     -2.6080    141.6163     28.1945
  1634.2000      8.0782      2.6980     -0.0013     -2.9074    144.1033     27.8403
  1634.3000      8.0790      2.6980      0.0323     -2.9070    144.8133     27.1157
  1634.4000      8.0790      2.6958      0.0003     -2.7780    141.4603     26.2350
  1634.5000      8.0803      2.6992      0.0137     -2.9846    132.6161     25.5101
  1634.6000      8.0803      2.7083      0.0353     -3.5359    121.2285     24.7795
  1634.7000      8.0803      2.7156      0.0016     -3.9745    115.1844     24.1276
  1634.8000      8.0790      2.7167     -0.0100     -4.0419    118.2071     23.9330
  1634.9000      8.0790      2.7109      0.0245     -3.6901    123.7242     24.3132
  1635.0000      8.0801      2.7015      0.0413     -3.1187    123.4786     24.7006
  1635.1000      8.0801      2.6884     -0.0030     -2.3265    118.2960     24.5324
  1635.2000      8.0801      2.6669      0.0254     -1.0215    114.3276     24.2438
  1635.3000      8.0798      2.6360     -0.0101      0.8503    114.9857     24.6431
  1635.4000      8.0798      2.6069     -0.0352      2.6102    120.3014     25.8746
  1635.5000      8.0821      2.5960     -0.0371      3.2735    126.4508     27.2555
  1635.6000      8.0821      2.6061      0.0044      2.6612    128.1630     27.6398
  1635.7000      8.0821      2.6280      0.0131      1.3352    123.0501     26.7288
  1635.8000      8.0917      2.6522      0.0613     -0.1311    114.0082     25.6010
  1635.9000      8.0917      2.6658      0.0616     -0.9602    108.7815     25.3347
  1636.0000      8.0830      2.6562      0.0975     -0.3747    112.8903     25.8219
  1636.1000      8.0830      2.6321      0.0206      1.0831    123.7745     26.3904
  1636.2000      8.0830      2.6221      0.0062      1.6902    134.9145     26.8611
  1636.3000      8.0913      2.6340      0.0423      0.9672    139.6722     27.4892
  1636.4000      8.0913      2.6469      0.0711      0.1876    138.5976     27.8354
  1636.5000      8.1033      2.6441      0.0440      0.3571    139.6368     27.3532
  1636.6000      8.1033      2.6346      0.0132      0.9355    143.2545     26.6450
  1636.7000      8.1033      2.6349      0.0135      0.9168    144.2175     26.3196
  1636.8000      8.1062      2.6398      0.0641      0.6153    141.3938     26.3138
  1636.9000      8.1062      2.6377      0.0460      0.7461    137.8034     26.4183
  1637.0000      8.0958      2.6350      0.0196      0.9097    136.5826     26.4053
  1637.1000      8.0958      2.6386      0.0226      0.6881    139.1406     26.2161
  1637.2000      8.0958      2.6486      0.0120      0.0868    144.0296     26.1381
  1637.3000      8.1060      2.6585      0.0461     -0.5143    146.3065     26.2569
  1637.4000      8.1060      2.6499      0.0484      0.0062    145.2247     26.4055
  1637.5000      8.1078      2.6223      0.0012      1.6804    142.9288     26.5814
  1637.6000      8.1078      2.6025     -0.0112      2.8805    137.0796     26.6491
  1637.7000      8.1078      2.6042      0.0032      2.7748    128.4341     26.1766
  1637.8000      8.1093      2.6086      0.0294      2.5082    124.4778     25.1848
  1637.9000      8.1093      2.5990     -0.0129      3.0915    128.0021     24.3808
  1638.0000      8.1098      2.5923     -0.0172      3.4983    131.1812     24.3367
  1638.1000      8.1098      2.6078      0.0269      2.5571    128.7048     24.6365
  1638.2000      8.1098      2.6348      0.0700      0.9197    125.1073     24.4678
  1638.3000      8.1080      2.6534      0.0825     -0.2046    121.5410     23.9272
  1638.4000      8.1080      2.6545      0.0725     -0.2701    115.5026     23.1691
  1638.5000      8.1094      2.6374      0.0937      0.7654    110.3700     21.9665
  1638.6000      8.1094      2.6128      0.0324      2.2532    110.6459     20.8786
  1638.7000      8.1094      2.5957      0.0176      3.2923    114.7829     20.5407
  1638.8000      8.1108      2.5854      0.0124      3.9179    117.1922     20.5981
  1638.9000      8.1108      2.5745      0.0175      4.5744    113.9878     20.5551
  1639.0000      8.1095      2.5715     -0.0105      4.7564    107.5732     20.7285
  1639.1000      8.1095      2.5876      0.0352      3.7839    103.6592     21.5489
  1639.2000      8.1095      2.6101      0.0412      2.4177    102.5423     22.6328
  1639.3000      8.1087      2.6183      0.0312      1.9234    103.9119     23.4616
  1639.4000      8.1087      2.6090      0.0324      2.4875    108.0901     24.0129
  1639.5000      8.1082      2.5919      0.0267      3.5214    111.9387     23.9798
  1639.6000      8.1082      2.5751      0.0006      4.5412    112.7907     23.1739
  1639.7000      8.1082      2.5609      0.0064      5.3985    111.3567     22.3749
  1639.8000      8.1092      2.5484      0.0204      6.1578    108.5810     21.9975
  1639.9000      8.1092      2.5410      0.0099      6.6089    103.9181     21.7304
  1640.0000      8.1095      2.5450     -0.0066      6.3658    100.2175     22.0050
  1640.1000      8.1095      2.5532      0.0201      5.8653    100.8251     23.1184
  1640.2000      8.1095      2.5527      0.0113      5.8990    103.8367     24.2719
  1640.3000      8.1104      2.5454     -0.0198      6.3418    106.3311     24.7235
  1640.4000      8.1104      2.5412      0.0070      6.5953    107.8267     24.1236
  1640.5000      8.1119      2.5442      0.0005      6.4133    108.6596     22.6872
  1640.6000      8.1119      2.5605     -0.0274      5.4224    108.5544     21.1799
  1640.7000      8.1119      2.5872      0.0625      3.8080    107.3121     20.2507
  1640.8000      8.1208      2.5968      0.0795      3.2221    104.9769     20.4919
  1640.9000      8.1208      2.5853      0.0074      3.9231    103.0526     21.7494
  1641.0000      8.1108      2.5808      0.0062      4.1957    103.3384     22.8747
  1641.1000      8.1108      2.5843      0.0247      3.9788    102.5578     23.0539
  1641.2000      8.1108      2.5760      0.0393      4.4822     96.6357     22.2986
  1641.3000      8.1086      2.5643      0.0082      5.1930     92.3780     20.9323
  1641.4000      8.1086      2.5775      0.0261      4.3942     94.4045     19.4649
  1641.5000      8.1102      2.6182      0.0837      1.9274     97.5493     18.8155
  1641.6000      8.1102      2.6600      0.0764     -0.6082     99.3324     19.6955
  1641.7000      8.1102      2.6780      0.1060     -1.6958    100.1707     21.2701
  1641.8000      8.1134      2.6649      0.0741     -0.9032     98.9099     22.4292
  1641.9000      8.1134      2.6371      0.0645      0.7826     96.6223     23.3255
  1642.0000      8.1208      2.6231     -0.0008      1.6312     94.5085     23.9031
  1642.1000      8.1208      2.6408     -0.0060      0.5604     90.9133     23.6331
