~Version Information
VERS.                      2.0: CWLS Log ASCII Standard - VERSION 2.0
WRAP.                       NO: One line per depth step
~Well Information Block
STRT.FT                -8.0000: 
STOP.FT              1323.7500: 
STEP.FT                 0.2500: 
NULL.                -999.2500: 
COMP.          Pioneer Natural Resources: COMPANY
WELL.              Geyser 41-2: WELL
FLD.           Purgatorie River: FIELD
LOC.           506' FNL & 1127' FEL--: LOCATION
PROV.                       CO: PROVINCE
CNTY.               Las Animas: COUNTRY
SRVC.          Patterson Wireline: SERVICE COMPANY
DATE.          Tue Dec 06 09:28:14 2005: LOG DATE
UWI.           08 071 08598 00: UNIQUE WELL ID
~Curve Information Block
DEPT.FT            0 000 00 00: Depth
CCL.                          : Casing Collar Locator
TT3.usec                      : CBL 3' Travel Time
AMP3.mV                       : CBL 3' Amplitude
GR.GAPI                       : Gamma Ray
~Parameter Information Block
~A  Depth       CCL         TT3         AMP3         GR     
# ...
   528.0000      0.0000    720.4362     10.0862    101.6982
   528.2500      0.0000    721.4191     10.0156    110.0716
   528.5000      0.0000    724.0442      9.9570    117.1915
   528.7500      0.0000    727.6723      9.9621    121.7734
   529.0000      0.0000    730.6974     10.0660    124.6701
   529.2500      0.0000    731.6105     10.2622    127.9073
   529.5000      0.0000    730.4012     10.5092    132.7838
   529.7500      0.0000    729.0104     10.7675    139.0459
   530.0000      0.0000    729.7738     11.0259    145.5798
   530.2500      0.0000    733.2018     11.2849    151.2581
   530.5000      0.0000    737.6004     11.5214    155.1198
   530.7500      0.0000    740.7330     11.6793    156.4508
   531.0000      0.0000    741.4510     11.7039    155.2766
   531.2500      0.0000    740.0906     11.5890    152.6181
   531.5000      0.0000    738.0805     11.3948    149.7280
   531.7500      0.0000    737.1103     11.2132    147.0203
   532.0000      0.0000    738.0227     11.1091    144.1361
   532.2500      0.0000    740.2840     11.0901    141.0484
   532.5000      0.0000    742.6734     11.1273    138.4897
   532.7500      0.0000    744.3641     11.1923    137.0115
   533.0000      0.0000    745.2623     11.2719    136.0487
   533.2500      0.0000    745.6422     11.3601    134.1813
   533.5000      0.0000    745.7623     11.4443    130.1533
   533.7500      0.0000    745.7577     11.5016    123.7346
   534.0000      0.0000    745.6851     11.5051    116.0959
   534.2500      0.0000    745.5801     11.4425    109.1101
   534.5000      0.0000    745.4902     11.3291    103.7723
   534.7500      0.0000    745.4611     11.1926     99.5427
   535.0000      0.0000    745.4965     11.0454     95.4478
   535.2500      0.0000    745.5123     10.8821     91.0704
   535.5000      0.0000    745.2822     10.7036     86.3201
   535.7500      0.0000    744.3710     10.5282     81.3401
   536.0000      0.0000    742.1924     10.3721     76.9683
   536.2500      0.0000    738.4436     10.2305     74.2663
   536.5000      0.0000    733.7617     10.0895     73.2537
   536.7500      0.0000    729.6975      9.9498     72.7969
   537.0000      0.0000    727.4709      9.8276     71.7122
   537.2500      0.0000    726.8408      9.7332     69.5498
   537.5000      0.0000    726.8303      9.6600     66.7428
   537.7500      0.0000    727.3900      9.5939     64.4420
   538.0000      0.0000    729.3748      9.5254     63.7045
   538.2500      0.0000    732.8083      9.4456     64.3444
   538.5000      0.0000    736.1089      9.3222     64.7778
   538.7500      0.0000    737.6599      9.0751     63.3740
   539.0000      0.0000    738.3952      8.6025     60.0229
   539.2500      0.0000    743.0414      7.8877     56.1883
   539.5000      0.0000    757.9434      7.0981     53.3666
   539.7500      0.0000    785.5850      6.5347     51.7011
   540.0000      0.0000    820.2809      6.4364     50.2889
   540.2500      0.0000    850.6555      6.8196     48.6119
   540.5000      0.0000    868.2385      7.4911     47.2252
   540.7500      0.0000    873.8787      8.1953     46.9646
   541.0000      0.0000    875.2701      8.7564     47.8782
   541.2500     -2.0000    879.2725      9.1242     49.3357
   541.5000      0.0000    887.5408      9.3292     51.0251
   541.7500      0.0000    896.9418      9.4379     53.3880
   542.0000      0.0000    900.8220      9.5582     56.9643
   542.2500      0.0000    891.7150      9.8288     61.5388
   542.5000      0.0000    867.0436     10.3235     65.9267
   542.7500      0.0000    832.5551     10.9694     68.6320
   543.0000      0.0000    798.5383     11.6241     69.0091
   543.2500      0.0000    772.8173     12.2183     67.7499
   543.5000      0.0000    757.3759     12.7726     66.0997
   543.7500      0.0000    749.8789     13.3038     64.8512
   544.0000      0.0000    746.8561     13.7776     64.2094
   544.2500      0.0000    745.7138     14.1408     64.0412
   544.5000      0.0000    745.0647     14.3630     63.9271
   544.7500      0.0000    744.1989     14.4472     63.4384
   545.0000      0.0000    742.6658     14.4202     62.7431
   545.2500      0.0000    740.4222     14.3242     62.7255
   545.5000      0.0000    738.1863     14.2050     64.2525
   545.7500      0.0000    737.1755     14.1021     67.4677
   546.0000      0.0000    738.0562     14.0456     72.2196
   546.2500      0.0000    740.2887     14.0569     79.3168
   546.5000      0.0000    742.7539     14.1381     90.7152
   546.7500      0.0000    744.8795     14.2605    107.4807
   547.0000      0.0000    747.1055     14.3732    127.1881
   547.2500      0.0000    750.5674     14.4244    143.9725
   547.5000      0.0000    756.3447     14.3786    152.3481
   547.7500      0.0000    764.5196     14.2251    151.4799
   548.0000      0.0000    773.7028     13.9792    145.4355
   548.2500      0.0000    781.7173     13.6754    139.2829
   548.5000      0.0000    786.9202     13.3550    135.3297
   548.7500      0.0000    788.7445     13.0545    132.6874
   549.0000      0.0000    787.1667     12.7936    129.5679
   549.2500      0.0000    782.2579     12.5683    125.5913
   549.5000      0.0000    774.5990     12.3586    122.0335
   549.7500      0.0000    765.7863     12.1431    120.3449
   550.0000      0.0000    757.9169     11.9079    120.9319
   550.2500      0.0000    752.4142     11.6555    123.1742
   550.5000      0.0000    749.5247     11.4162    126.0095
   550.7500      0.0000    748.8918     11.2410    128.3679
   551.0000      0.0000    750.2502     11.1648    129.3881
   551.2500      0.0000    753.3466     11.1749    128.4092
   551.5000      0.0000    757.3320     11.2239    125.0287
   551.7500      0.0000    760.5701     11.2731    119.5325
   552.0000      0.0000    761.4970     11.3189    113.1056
   552.2500      0.0000    760.0202     11.3803    107.0216
   552.5000      0.0000    758.1125     11.4715    101.5534
   552.7500      0.0000    758.6111     11.5884     96.0961
   553.0000      0.0000    762.9648     11.7191     90.4517
   553.2500      0.0000    770.0465     11.8687     85.6493
   553.5000      0.0000    776.9993     12.0715     83.4386
   553.7500      0.0000    781.0558     12.3635     84.9950
   554.0000      0.0000    781.1646     12.7328     89.9918
   554.2500      0.0000    778.8969     13.1044     96.8580
   554.5000      0.0000    777.7438     13.3864    103.9129
   554.7500      0.0000    780.4495     13.5353    110.1506
   555.0000      0.0000    786.3737     13.5791    115.2046
   555.2500      0.0000    791.6794     13.5908    118.9418
   555.5000      0.0000    792.0203     13.6434    121.1628
   555.7500      0.0000    784.3625     13.7735    121.6924
   556.0000      0.0000    767.1545     13.9646    120.7339
   556.2500      0.0000    741.6597     14.1594    118.8492
   556.5000      0.0000    714.5143     14.2928    116.4336
   556.7500      0.0000    696.3427     14.3156    113.5007
   557.0000      0.0000    694.4683     14.2007    110.1198
   557.2500      0.0000    706.9636     13.9447    106.8008
   557.5000      0.0000    725.1478     13.5704    104.3431
   557.7500      0.0000    741.3094     13.1214    103.4462
   558.0000      0.0000    753.3129     12.6504    104.4638
   558.2500      0.0000    763.3132     12.2112    107.2716
   558.5000      0.0000    774.0982     11.8578    111.2733
   558.7500      0.0000    786.7372     11.6382    115.6524
   559.0000      0.0000    800.1597     11.5821    119.6697
   559.2500      0.0000    811.8405     11.6863    122.5745
   559.5000      0.0000    819.0958     11.9034    123.5401
   559.7500      0.0000    820.4706     12.1470    122.1538
   560.0000      0.0000    816.5723     12.3157    118.7028
   560.2500      0.0000    809.7697     12.3340    113.6575
   560.5000      0.0000    802.8178     12.1921    107.3418
   560.7500      0.0000    797.3084     11.9625    100.4872
   561.0000      0.0000    793.0085     11.7748     94.6743
   561.2500      0.0000    788.4205     11.7548     91.7632
