~Version Information
VERS.                      2.0: CWLS Log ASCII Standard - VERSION 2.0
WRAP.                       NO: One line per depth step
~Well Information Block
STRT.FT               330.0000: 
STOP.FT              2874.7000: 
STEP.FT                 0.1000: 
NULL.                -999.2500: 
COMP.          Pioneer Natural Resources: COMPANY
WELL.                AMX 13-13: WELL
FLD.           Purgatoire River: FIELD
LOC.           2316' FSL & 865' FWL--: LOCATION
PROV.                 Colorado: PROVINCE
CNTY.               Las Animas: COUNTRY
SRVC.                Patterson: SERVICE COMPANY
DATE.          Tue Dec 20 09:57:28 2005: LOG DATE
UWI.           05 071 08630 00: UNIQUE WELL ID
~Curve Information Block
DEPT.FT            0 000 00 00: Depth
DCAL.in                       : CDL Caliper
RHOB.g/cc                     : CDL Bulk Density
RHOC.g/cc                     : CDL Density Correction
DPOR.pu                       : CDL Density Porosity
NPOR.pu                       : Neutron Porosity
GR.GAPI                       : Gamma Ray
~Parameter Information Block
~A  Depth       DCAL        RHOB        RHOC        DPOR        NPOR         GR     
# ...
  2509.2000      7.9202      2.5520      0.0275      5.9414     19.9445     87.2570
  2509.3000      7.9478      2.5599      0.0589      5.4578     19.7998     81.4591
  2509.4000      7.9478      2.5718      0.0588      4.7378     20.0235     80.5360
  2509.5000      7.9566      2.5770      0.0824      4.4234     20.2940     85.5146
  2509.6000      7.9566      2.5631      0.0574      5.2673     20.2801     88.4926
  2509.7000      7.9566      2.5316      0.0332      7.1787     19.9240     85.3449
  2509.8000      7.9490      2.5111     -0.0461      8.4178     19.5058     80.9955
  2509.9000      7.9490      2.5233      0.0022      7.6803     19.5628     81.1581
  2510.0000      7.9534      2.5511      0.0215      5.9967     20.0660     85.3590
  2510.1000      7.9534      2.5747      0.0356      4.5645     20.5666     86.0562
  2510.2000      7.9534      2.5917      0.0536      3.5326     20.8672     79.9288
  2510.3000      7.9854      2.5968      0.0541      3.2264     20.8738     73.8058
  2510.4000      7.9854      2.5865      0.0402      3.8459     20.6828     74.6209
  2510.5000      8.0189      2.5697      0.0338      4.8677     20.7508     79.5556
  2510.6000      8.0189      2.5552      0.0083      5.7430     21.0633     82.1839
  2510.7000      8.0189      2.5429      0.0425      6.4909     21.2203     84.6025
  2510.8000      8.0308      2.5337     -0.0107      7.0485     21.1482     90.2639
  2510.9000      8.0308      2.5352      0.0290      6.9561     20.9856     95.0079
  2511.0000      8.0117      2.5429      0.0522      6.4930     20.7675     92.3734
  2511.1000      8.0117      2.5423      0.0317      6.5257     20.4091     83.3057
  2511.2000      8.0117      2.5269      0.0393      7.4625     20.0145     76.0417
  2511.3000      7.9690      2.5031      0.0273      8.9023     19.8609     75.0546
  2511.4000      7.9690      2.4897      0.0406      9.7158     19.9950     76.0928
  2511.5000      7.9253      2.4968      0.0032      9.2853     20.0983     77.2299
  2511.6000      7.9253      2.5166      0.0538      8.0864     19.6278     79.8583
  2511.7000      7.9253      2.5404      0.0618      6.6409     18.5574     79.8179
  2511.8000      7.8962      2.5655      0.0861      5.1189     17.9921     73.7352
  2511.9000      7.8962      2.5829      0.1165      4.0663     18.6419     64.5604
  2512.0000      7.8895      2.5844      0.0932      3.9759     19.6957     56.4141
  2512.1000      7.8895      2.5809      0.0518      4.1908     20.3988     54.6113
  2512.2000      7.8895      2.5909      0.0761      3.5819     21.0176     60.2323
  2512.3000      7.8975      2.6156      0.0865      2.0867     21.8744     65.1513
  2512.4000      7.8975      2.6408      0.1243      0.5587     22.8277     64.5506
  2512.5000      7.9078      2.6587      0.1070     -0.5284     23.5410     64.5581
  2512.6000      7.9078      2.6704      0.1208     -1.2340     23.6940     69.1645
  2512.7000      7.9078      2.6698      0.1228     -1.2000     23.3986     76.6441
  2512.8000      7.9111      2.6512      0.0918     -0.0717     23.3834     82.8482
  2512.9000      7.9111      2.6255      0.0669      1.4857     23.9837     81.3610
  2513.0000      7.8961      2.6095      0.0623      2.4519     24.7067     73.1537
  2513.1000      7.8961      2.6055      0.0695      2.6960     25.1029     68.4775
  2513.2000      7.8961      2.6075      0.0684      2.5744     25.3456     72.6729
  2513.3000      7.8689      2.6126      0.0658      2.2650     25.6782     79.9999
  2513.4000      7.8689      2.6135      0.1396      2.2123     25.9844     82.3379
  2513.5000      7.8526      2.6076      0.0654      2.5710     26.0057     77.5785
  2513.6000      7.8526      2.6107      0.0851      2.3830     25.6960     69.5421
  2513.7000      7.8526      2.6297      0.0764      1.2329     25.2293     63.3766
  2513.8000      7.8686      2.6467      0.0703      0.2022     24.7224     61.4038
  2513.9000      7.8686      2.6346      0.1120      0.9353     24.2396     62.2689
  2514.0000      7.9195      2.5974      0.0028      3.1878     24.1535     65.4688
  2514.1000      7.9195      2.5673      0.0490      5.0144     24.4398     71.1567
  2514.2000      7.9195      2.5434      0.0680      6.4612     24.6241     72.7369
  2514.3000      7.9757      2.5100      0.0262      8.4866     24.7141     66.2432
  2514.4000      7.9757      2.4782     -0.0188     10.4121     24.6896     58.8800
  2514.5000      8.0051      2.4596      0.0026     11.5409     24.4044     58.3851
  2514.6000      8.0051      2.4454     -0.0183     12.4024     24.0999     66.5225
  2514.7000      8.0051      2.4339     -0.0019     13.0991     23.9319     72.9530
  2514.8000      8.0066      2.4409     -0.0126     12.6734     24.0747     70.5129
  2514.9000      8.0066      2.4656      0.0447     11.1771     24.6174     66.2373
  2515.0000      7.9997      2.4804      0.0722     10.2802     25.2983     64.4491
  2515.1000      7.9997      2.4756      0.0223     10.5675     25.8065     65.0471
  2515.2000      7.9997      2.4739      0.0548     10.6699     25.8184     68.1290
  2515.3000      7.9873      2.4978      0.0434      9.2235     25.4863     72.3179
  2515.4000      7.9873      2.5466      0.1115      6.2638     25.4276     73.8792
  2515.5000      7.9588      2.5914      0.1582      3.5540     25.7497     71.1605
  2515.6000      7.9588      2.6034      0.1300      2.8243     25.8528     67.4575
  2515.7000      7.9588      2.5827      0.1276      4.0807     25.3060     65.2644
  2515.8000      7.9248      2.5545      0.0608      5.7862     24.5858     64.9249
  2515.9000      7.9248      2.5463      0.0392      6.2854     24.2766     64.6577
  2516.0000      7.9219      2.5547      0.0737      5.7750     24.0400     62.1385
  2516.1000      7.9219      2.5604      0.0584      5.4322     23.4966     60.1675
  2516.2000      7.9219      2.5594      0.0658      5.4910     23.3063     61.2519
  2516.3000      7.9456      2.5552      0.0520      5.7461     23.9255     63.8010
  2516.4000      7.9456      2.5458      0.0586      6.3134     24.5959     67.4628
  2516.5000      7.9567      2.5309      0.0549      7.2205     24.6205     72.2277
  2516.6000      7.9567      2.5230     -0.0009      7.6949     24.3957     76.1342
  2516.7000      7.9567      2.5328      0.0499      7.1060     24.5780     77.2722
  2516.8000      7.9520      2.5479      0.0811      6.1867     24.9763     75.6341
  2516.9000      7.9520      2.5553      0.0839      5.7382     25.2680     71.4730
  2517.0000      7.9468      2.5562      0.0716      5.6867     25.4883     65.4743
  2517.1000      7.9468      2.5498      0.0759      6.0754     25.5264     63.3181
  2517.2000      7.9468      2.5292      0.0637      7.3220     25.3270     69.4621
  2517.3000      7.9425      2.5058      0.0173      8.7407     25.1175     80.0893
  2517.4000      7.9425      2.4995      0.0349      9.1199     25.0287     86.5144
  2517.5000      7.9374      2.5077      0.0380      8.6221     24.8213     85.8066
  2517.6000      7.9374      2.5188      0.0096      7.9535     24.4915     81.7106
  2517.7000      7.9374      2.5269      0.0565      7.4599     24.3637     74.8072
  2517.8000      7.9323      2.5272      0.0859      7.4406     24.4318     66.9667
  2517.9000      7.9323      2.5199      0.0705      7.8853     24.7427     63.0054
  2518.0000      7.9210      2.5075      0.0910      8.6340     25.3382     63.1650
  2518.1000      7.9210      2.4925      0.0767      9.5434     25.7300     63.2010
  2518.2000      7.9210      2.4931      0.0268      9.5106     25.4966     60.3850
  2518.3000      7.9056      2.5223      0.1188      7.7424     24.8193     57.1202
  2518.4000      7.9056      2.5533      0.1884      5.8601     24.1849     56.4672
  2518.5000      7.9094      2.5555      0.1012      5.7280     23.8647     57.2037
  2518.6000      7.9094      2.5298      0.0966      7.2873     23.7859     56.2443
  2518.7000      7.9094      2.4917      0.0316      9.5910     23.9476     54.3365
