~Version Information
VERS.                      2.0: CWLS Log ASCII Standard - VERSION 2.0
WRAP.                       NO: One line per depth step
~Well Information Block
STRT.FT               305.0000: 
STOP.FT              1376.5000: 
STEP.FT                 0.1000: 
NULL.                -999.2500: 
COMP.          Pioneer Natural Resources: COMPANY
WELL.               LPGC 32-32: WELL
FLD.           Purgatoire River: FIELD
LOC.           1937' FNL & 1661' FEL: LOCATION
PROV.                 Colorado: PROVINCE
CNTY.               Las Animas: COUNTRY
SRVC.                Patterson: SERVICE COMPANY
DATE.          Mon Jan 30 07:33:36 2006: LOG DATE
UWI.           05 071 08641 00: UNIQUE WELL ID
~Curve Information Block
DEPT.FT            0 000 00 00: Depth
DCAL.in                       : CDL Caliper
RHOB.g/cc                     : CDL Bulk Density
RHOC.g/cc                     : CDL Density Correction
DPOR.pu                       : CDL Density Porosity
GR.GAPI                       : Gamma Ray
NPOR.pu                       : Neutron Porosity
~Parameter Information Block
~A  Depth       DCAL        RHOB        RHOC        DPOR         GR         NPOR    
# ...
   660.2000      8.0676      2.5623      0.0882      5.3176    127.7463     24.8406
   660.3000      8.0742      2.5403      0.0087      6.6477    140.8334     25.6305
   660.4000      8.0742      2.5274      0.0356      7.4316    145.2654     26.0490
   660.5000      8.0669      2.5233      0.0345      7.6771    145.4870     26.0128
   660.6000      8.0669      2.5222      0.0141      7.7467    145.4541     25.9214
   660.7000      8.0669      2.5285      0.0077      7.3638    148.5892     26.0132
   660.8000      8.0617      2.5471      0.0046      6.2389    153.4858     26.0889
   660.9000      8.0617      2.5704      0.0347      4.8217    155.6451     25.8696
   661.0000      8.0132      2.5774      0.1070      4.3981    156.3509     25.3241
   661.1000      8.0132      2.5609      0.0393      5.3978    156.5325     25.0988
   661.2000      8.0132      2.5359      0.0247      6.9164    154.9185     25.5623
   661.3000      8.0132      2.5113     -0.0091      8.4086    153.9500     26.0614
   661.4000      8.0132      2.4923     -0.0407      9.5547    155.1214     26.0457
   661.5000      8.0239      2.4896     -0.0115      9.7237    156.7750     25.5892
   661.6000      8.0239      2.5002      0.0415      9.0775    159.0161     25.0442
   661.7000      8.0239      2.5096      0.0596      8.5107    162.2113     24.7672
   661.8000      8.0217      2.5152      0.0721      8.1668    165.0280     24.9936
   661.9000      8.0217      2.5250      0.0851      7.5769    166.8783     25.4191
   662.0000      8.0049      2.5430      0.0635      6.4875    165.5796     25.4965
   662.1000      8.0049      2.5647      0.0920      5.1677    161.6334     25.3953
   662.2000      8.0049      2.5810      0.1234      4.1822    163.6023     25.5568
   662.3000      8.0018      2.5895      0.0897      3.6670    173.1750     26.0540
   662.4000      8.0018      2.5908      0.1362      3.5882    180.2804     26.3907
   662.5000      8.0081      2.5852      0.1211      3.9266    178.9468     26.1627
   662.6000      8.0081      2.5799      0.0864      4.2500    172.7863     25.8395
   662.7000      8.0081      2.5768      0.0963      4.4368    166.5147     25.9791
   662.8000      8.0080      2.5693      0.0939      4.8894    165.2175     26.4590
   662.9000      8.0080      2.5577      0.0617      5.5916    169.7454     26.9909
   663.0000      8.0050      2.5548      0.0671      5.7706    173.2186     27.5862
   663.1000      8.0050      2.5688      0.0969      4.9221    172.2660     28.1725
   663.2000      8.0050      2.5880      0.0867      3.7576    168.9505     28.4779
   663.3000      7.9897      2.6003      0.0766      3.0136    163.4540     28.4255
   663.4000      7.9897      2.6129      0.0945      2.2472    158.8650     28.1670
   663.5000      7.9838      2.6318      0.0889      1.1013    158.6340     27.7451
   663.6000      7.9838      2.6478      0.0798      0.1343    157.0536     27.1529
   663.7000      7.9838      2.6515      0.1149     -0.0889    149.0527     26.6340
   663.8000      7.9881      2.6429      0.0473      0.4320    139.5331     26.2678
   663.9000      7.9881      2.6281      0.0556      1.3289    133.6026     25.8093
   664.0000      8.0199      2.6137      0.0328      2.1994    128.4817     25.3399
   664.1000      8.0199      2.6051      0.0472      2.7193    120.6743     25.0484
   664.2000      8.0199      2.6074     -0.0057      2.5837    111.3692     24.6715
   664.3000      7.9946      2.6221      0.0347      1.6926    105.7674     24.1898
   664.4000      7.9946      2.6372      0.0277      0.7759    107.1450     23.8299
   664.5000      7.9922      2.6326      0.0621      1.0531    111.8355     23.5966
   664.6000      7.9922      2.5998      0.0115      3.0415    111.9312     23.4802
   664.7000      7.9922      2.5564     -0.0117      5.6738    105.4641     23.2878
   664.8000      8.0069      2.5249     -0.0347      7.5792     99.9692     22.7368
   664.9000      8.0069      2.5087     -0.0316      8.5609     97.9986     22.0991
   665.0000      8.0263      2.5073     -0.0821      8.6467     96.8652     21.7334
   665.1000      8.0263      2.5208     -0.0421      7.8325     96.4042     21.7448
   665.2000      8.0263      2.5445     -0.0540      6.3951     95.5662     22.0378
   665.3000      8.0114      2.5793     -0.0370      4.2859     93.6440     22.3461
   665.4000      8.0114      2.6148      0.0670      2.1339     93.2469     22.5481
   665.5000      8.0176      2.6360      0.0576      0.8490     95.3953     22.6082
   665.6000      8.0176      2.6429      0.0450      0.4313     96.5163     22.3751
   665.7000      8.0176      2.6362      0.0721      0.8336     96.9411     22.0758
   665.8000      8.0096      2.6156      0.0183      2.0838    102.9023     22.3461
   665.9000      8.0096      2.5884     -0.0203      3.7347    113.3570     23.2100
   666.0000      8.0112      2.5625      0.0235      5.3008    119.9522     24.1009
   666.1000      8.0112      2.5512     -0.0422      5.9860    120.6768     24.6496
   666.2000      8.0112      2.5643      0.0053      5.1916    119.4597     24.7048
   666.3000      7.9893      2.5833      0.0022      4.0404    119.2474     24.4484
   666.4000      7.9893      2.5879      0.0118      3.7661    122.8495     24.0794
   666.5000      8.0016      2.5824      0.0251      4.0988    130.1520     23.6441
   666.6000      8.0016      2.5734      0.0623      4.6435    134.8415     23.4543
   666.7000      8.0016      2.5598      0.0420      5.4690    133.9138     23.6409
   666.8000      8.0267      2.5502     -0.0452      6.0500    132.7636     23.9813
   666.9000      8.0267      2.5548     -0.0133      5.7685    136.1545     24.2034
   667.0000      8.0054      2.5699     -0.0069      4.8569    141.2775     24.1868
   667.1000      8.0054      2.5900      0.0471      3.6365    141.3416     24.2308
   667.2000      8.0054      2.6153      0.0643      2.1044    135.7226     24.4347
   667.3000      8.0057      2.6426      0.0826      0.4481    132.3067     24.5832
   667.4000      8.0057      2.6595      0.0838     -0.5779    135.6807     24.6746
   667.5000      7.9956      2.6516      0.0919     -0.0966    141.3287     24.7156
   667.6000      7.9956      2.6290      0.0273      1.2728    143.7304     24.5335
   667.7000      7.9956      2.6169      0.0467      2.0033    144.0173     24.2877
   667.8000      7.9986      2.6060      0.0778      2.6690    146.4077     24.3696
   667.9000      7.9986      2.5724      0.0261      4.7002    151.7135     24.6603
   668.0000      7.9945      2.5297      0.0054      7.2883    155.3946     24.7720
   668.1000      7.9945      2.5020      0.0022      8.9724    152.3842     24.7518
   668.2000      7.9945      2.4946     -0.0132      9.4193    142.7033     24.5487
   668.3000      8.0003      2.5113     -0.0362      8.4057    133.6049     24.0613
   668.4000      8.0003      2.5416      0.0817      6.5671    133.2309     23.7542
   668.5000      7.9973      2.5509      0.0537      6.0065    137.5848     23.9998
   668.6000      7.9973      2.5363      0.0248      6.8908    136.5168     24.5923
   668.7000      7.9973      2.5360      0.0127      6.9075    134.0145     25.1605
   668.8000      7.9975      2.5628      0.0593      5.2834    140.3625     25.4012
   668.9000      7.9975      2.5867      0.0670      3.8346    152.5926     25.1213
   669.0000      8.0038      2.5899      0.0173      3.6439    164.3581     24.5607
   669.1000      8.0038      2.5844      0.0452      3.9786    175.2575     24.1279
   669.2000      8.0038      2.5816      0.0017      4.1477    180.4764     24.1991
   669.3000      8.0124      2.5805      0.0746      4.2133    174.3657     24.7226
   669.4000      8.0124      2.5714      0.0984      4.7608    164.2285     25.2320
   669.5000      8.0163      2.5570      0.0180      5.6373    160.7556     25.3223
   669.6000      8.0163      2.5458      0.0450      6.3153    163.2678     24.9877
   669.7000      8.0163      2.5336      0.0302      7.0531    166.2923     24.5238
