~Version Information
VERS.                      2.0: CWLS Log ASCII Standard - VERSION 2.0
WRAP.                       NO: One line per depth step
~Well Information Block
STRT.FT               460.0000: 
STOP.FT              2311.7000: 
STEP.FT                 0.1000: 
NULL.                -999.2500: 
COMP.          Pioneer Natural Resources: COMPANY
WELL.          McDonald 33-31 R: WELL
FLD.           Purgatoire River: FIELD
LOC.           1386' FSL & 1926' FEL: LOCATION
STAT.                 Colorado: State
CNTY.               Las Animas: COUNTY
CTRY.                      USA: Country
SECT.                       31: Section
TOWN.                      32S: Township
RANG.                      66W: Range
SRVC.                Patterson: SERVICE COMPANY
DATE.          Sat Sep 24 09:00:13 2005: LOG DATE
API.           05 071 08533 00: API
~Curve Information Block
DEPT.FT            0 000 00 00: Depth
DCAL.in                       : CDL Caliper
RHOB.g/cc                     : CDL Bulk Density
RHOC.g/cc                     : CDL Density Correction
DPOR.pu                       : CDL Density Porosity
NPOR.pu                       : Neutron Porosity
GR.GAPI                       : Gamma Ray
~Parameter Information Block
~A  Depth       DCAL        RHOB        RHOC        DPOR        NPOR         GR     
# ...
   949.6000      7.9367      2.5891     -0.0626      3.6932     33.3986     90.3029
   949.7000      7.9367      2.5884     -0.0298      3.7351     31.8697     98.7885
   949.8000      7.9435      2.5580     -0.0156      5.5762     29.8360    108.1278
   949.9000      7.9435      2.5098      0.0157      8.4963     28.2195    116.9633
   950.0000      7.9518      2.4779     -0.0072     10.4311     27.1097    123.4522
   950.1000      7.9518      2.4741     -0.0116     10.6597     25.8260    127.0176
   950.2000      7.9518      2.4870      0.0320      9.8796     24.5146    126.8091
   950.3000      7.9572      2.5028      0.0375      8.9239     24.0880    124.5907
   950.4000      7.9572      2.5124      0.0539      8.3388     24.6550    124.8650
   950.5000      7.9595      2.5146      0.0300      8.2047     25.2359    129.5239
   950.6000      7.9595      2.5118      0.0507      8.3728     25.0474    135.1266
   950.7000      7.9595      2.5075      0.0213      8.6347     24.2199    134.0572
   950.8000      7.9628      2.5073      0.0211      8.6467     23.1827    127.5126
   950.9000      7.9628      2.5112      0.0123      8.4121     22.5616    124.2848
   951.0000      7.9696      2.5183     -0.0082      7.9826     22.7601    124.9621
   951.1000      7.9696      2.5326      0.0433      7.1123     23.2846    125.0927
   951.2000      7.9696      2.5509      0.0363      6.0031     23.5769    122.3757
   951.3000      7.9742      2.5655      0.0565      5.1200     23.4460    118.2962
   951.4000      7.9742      2.5773      0.0457      4.4040     23.3243    115.4912
   951.5000      7.9687      2.5905      0.0354      3.6033     23.9865    113.8391
   951.6000      7.9687      2.6032      0.0470      2.8357     25.3954    112.0283
   951.7000      7.9687      2.6131      0.0547      2.2372     26.6391    110.5961
   951.8000      7.9593      2.6182      0.0600      1.9295     27.1551    110.2640
   951.9000      7.9593      2.6178      0.0122      1.9532     27.2985    108.5257
   952.0000      7.9451      2.6123      0.0287      2.2879     27.5549    103.6258
   952.1000      7.9451      2.6039      0.0136      2.7953     28.0291     99.2778
   952.2000      7.9451      2.6039     -0.0008      2.7955     28.4988     99.8644
   952.3000      7.9241      2.6058      0.0604      2.6773     28.7063    104.6026
   952.4000      7.9241      2.5843      0.0334      3.9842     28.7813    109.9623
   952.5000      7.9100      2.5435     -0.0046      6.4552     29.1528    113.3016
   952.6000      7.9100      2.5092      0.0158      8.5347     29.6971    114.4152
   952.7000      7.9100      2.4803      0.0144     10.2824     29.9043    115.5449
   952.8000      7.9060      2.4521     -0.0076     11.9938     29.7320    116.8498
   952.9000      7.9060      2.4482     -0.0050     12.2276     29.1352    117.8782
   953.0000      7.9063      2.4860      0.0514      9.9372     28.1161    119.4061
   953.1000      7.9063      2.5464      0.0874      6.2794     27.3926    119.8143
   953.2000      7.9063      2.6006      0.1030      2.9937     27.6444    119.7045
   953.3000      7.9063      2.6358      0.1368      0.8635     28.4577    119.5611
   953.4000      7.9063      2.6495      0.1777      0.0333     29.1688    116.3308
   953.5000      7.9073      2.6448      0.1420      0.3143     29.7363    111.8178
   953.6000      7.9073      2.6278      0.1385      1.3483     29.9907    109.0716
   953.7000      7.9073      2.6009      0.0888      2.9768     29.7745    106.4848
   953.8000      7.9194      2.5585      0.0749      5.5442     29.4090    104.1739
   953.9000      7.9194      2.4793      0.0334     10.3440     29.1758    102.4019
   954.0000      7.9496      2.3524     -0.0702     18.0354     28.9414     97.4586
   954.1000      7.9496      2.2018     -0.1681     27.1623     28.1429     92.0264
   954.2000      7.9496      2.0563     -0.1672     35.9798     26.1968     93.1633
   954.3000      7.9914      1.9183     -0.1276     44.3444     23.3675     98.6197
   954.4000      7.9914      1.7798     -0.1841     52.7394     20.5739    102.1130
   954.5000      8.0406      1.6526     -0.2478     60.4463     17.8753    102.2567
   954.6000      8.0406      1.5538     -0.1631     66.4360     14.5743    100.6602
   954.7000      8.0406      1.4768     -0.1141     71.1003     10.7674     97.6876
   954.8000      8.1021      1.4097     -0.0721     75.1692      7.5837     90.8292
   954.9000      8.1021      1.3513     -0.0264     78.7078      5.6721     82.0550
   955.0000      8.1713      1.2966     -0.0132     82.0269      4.7410     75.6700
   955.1000      8.1713      1.2375     -0.0136     85.6035      4.1835     71.4458
   955.2000      8.1713      1.1832     -0.0151     88.8999      3.6897     68.5440
   955.3000      8.2303      1.1589     -0.0247     90.3714      3.3543     65.7109
   955.4000      8.2303      1.1885     -0.0000     88.5745      3.2859     63.0071
   955.5000      8.2832      1.2847      0.0467     82.7457      3.4963     64.2691
   955.6000      8.2832      1.4487      0.1193     72.8069      3.9937     69.1362
   955.7000      8.2832      1.6565      0.3281     60.2138      4.7056     72.1248
   955.8000      8.3369      1.8508      0.4893     48.4363      5.5454     71.0350
   955.9000      8.3369      1.9796      0.5329     40.6274      6.7694     69.0190
   956.0000      8.3520      2.0343      0.4822     37.3127      8.6198     70.5010
   956.1000      8.3520      2.0393      0.4015     37.0149     10.6614     76.2283
   956.2000      8.3520      2.0178      0.3526     38.3160     12.1690     82.7741
   956.3000      8.2847      1.9754      0.2583     40.8833     12.7364     85.4393
   956.4000      8.2847      1.9086      0.1112     44.9321     12.3168     83.2840
   956.5000      8.1739      1.8135      0.0299     50.6955     11.3238     80.7328
   956.6000      8.1739      1.6990     -0.0951     57.6369     10.2756     81.1398
   956.7000      8.1739      1.5900     -0.1193     64.2412      9.2338     82.6310
   956.8000      8.1268      1.5011     -0.1443     69.6275      8.0068     82.7432
   956.9000      8.1268      1.4312     -0.1272     73.8653      6.7639     81.3884
   957.0000      8.1811      1.3818     -0.0908     76.8622      5.8235     78.8637
   957.1000      8.1811      1.3576     -0.0472     78.3289      5.2004     77.4159
   957.2000      8.1811      1.3518      0.0342     78.6786      4.8444     79.4982
   957.3000      8.3095      1.3472      0.0497     78.9602      4.6639     82.5953
   957.4000      8.3095      1.3349      0.0573     79.7001      4.4913     79.9607
   957.5000      8.4504      1.3150      0.0673     80.9119      4.2388     72.5395
   957.6000      8.4504      1.2835      0.0656     82.8193      3.9195     68.5916
   957.7000      8.4504      1.2346      0.0713     85.7799      3.5704     67.8536
   957.8000      8.5288      1.1673      0.0418     89.8597      3.2518     64.4656
   957.9000      8.5288      1.0847      0.0248     94.8684      3.0127     58.9595
   958.0000      8.4857      0.9983     -0.0494    100.1047      2.8750     55.9526
   958.1000      8.4857      0.9448     -0.1147    103.3438      2.8675     57.0572
   958.2000      8.4857      0.9688     -0.0818    101.8918      2.9969     59.5464
   958.3000      8.3753      1.0806      0.0183     95.1181      3.2338     63.0847
   958.4000      8.3753      1.2542      0.1731     84.5967      3.6067     68.0750
   958.5000      8.3092      1.4596      0.2755     72.1462      4.2549     71.5814
   958.6000      8.3092      1.6727      0.4545     59.2292      5.2472     72.7343
   958.7000      8.3092      1.8664      0.5328     47.4906      6.3526     75.1525
   958.8000      8.2785      2.0247      0.5535     37.8952      7.4750     80.7801
   958.9000      8.2785      2.1494      0.5313     30.3379      8.7898     84.7110
   959.0000      8.2149      2.2525      0.4691     24.0893     10.0096     84.3806
   959.1000      8.2149      2.3485      0.4257     18.2706     10.8985     85.5229
