~Version Information
 VERS.                                  2.0 : CWLS LAS VERSION
 WRAP.                                   NO : WRAPING MODE
 SWARE .                 MController 2.5.0J : SOFTWARE VERSION
~Well Information
 WELL.                         Joplin 44-05 : WELL
 COMP.    Pioneer Natural Resources USA Inc : COMPANY
 FLD.                      Purgatoire River : FIELD
 LOC.                  SE/SE SEC5 T33S R66W : LOCATION
 DATE.                             12/12/05 : DATE(S) LOGGED
 SRVC.       Blanco Geological Services LLC : SERVICE COMPANY
 STAT.                             Colorado : STATE
 CNTY.                           Las Animas : COUNTY
 CTRY.                                  USA : COUNTRY
 API.                       05-071-08623-05 : API NUMBER
 STRT.FT                             686.00 : START DEPTH
 STOP.FT                            2105.00 : STOP DEPTH
 STEP.FT                               1.00 : DEPTH INCREMENT
 NULL.                                -9999 : NULL VALUE
~Curve information
 DEPTH.FT                                   :
 ROP.MIN/FT                                 :
 GAS.UNITS                                  :
~ASCII Log data
# ...
      1886.0         2.02       1803.5 
      1887.0         0.50       1616.3 
      1888.0         0.30       1459.5 
      1889.0         0.30       1380.8 
      1890.0         0.30       1323.6 
      1891.0         0.33       1272.5 
      1892.0         0.33       1239.8 
      1893.0         0.37       1162.7 
      1894.0         0.32       1152.9 
      1895.0         0.30       1125.0 
      1896.0         0.27       1103.4 
      1897.0         0.30       1052.9 
      1898.0         0.30       1078.9 
      1899.0         0.27       1114.8 
      1900.0         0.30       1102.7 
      1901.0         0.30       1088.1 
      1902.0         0.30       1219.9 
      1903.0         0.33       1409.0 
      1904.0         0.30       1120.2 
      1905.0         0.23        852.6 
      1906.0         0.18        787.9 
      1907.0         0.17        666.0 
      1908.0         0.17        666.0 
      1909.0         0.20        645.7 
      1910.0         0.17        626.0 
      1911.0         0.23        621.9 
      1912.0         0.20        588.3 
      1913.0         0.10        578.4 
      1914.0         0.13        558.4 
      1915.0         0.20        550.8 
      1916.0         1.60       1328.1 
      1917.0         0.18       1328.1 
      1918.0         0.30       1351.3 
      1919.0         0.37       1312.8 
      1920.0         0.33       1277.0 
      1921.0         0.10       1301.7 
      1922.0         0.10       1301.7 
      1923.0         0.27       1348.1 
      1924.0         0.33       1252.2 
      1925.0         0.27       1200.8 
      1926.0         0.27       1113.8 
      1927.0         0.23       1092.3 
      1928.0         0.27       1062.4 
      1929.0         0.23       1066.6 
      1930.0         0.25       1081.8 
      1931.0         0.20       1081.8 
      1932.0         0.37       1235.7 
      1933.0         0.13       1120.2 
      1934.0         0.20       1120.2 
      1935.0         0.23       1087.8 
      1936.0         0.23        800.0 
      1937.0         0.17        712.4 
      1938.0         0.20        637.8 
      1939.0         0.20        617.1 
      1940.0         0.23        614.3 
      1941.0         0.23        592.7 
      1942.0         0.33        579.4 
      1943.0         0.27        555.6 
      1944.0         0.28        615.6 
      1945.0         0.17        615.6 
      1946.0         1.53       1188.4 
      1947.0         0.27       1246.8 
      1948.0         0.13       1263.7 
      1949.0         0.43       1303.0 
      1950.0         0.43       1313.5 
      1951.0         0.32       1218.0 
      1952.0         0.30       1243.3 
      1953.0         0.27       1196.4 
      1954.0         0.23       1160.5 
      1955.0         0.23       1156.7 
      1956.0         0.23       1175.1 
      1957.0         0.40       1182.1 
      1958.0         0.23       1175.4 
      1959.0         0.17       1161.5 
      1960.0         0.40       1294.1 
      1961.0         0.23       1370.6 
      1962.0         0.20       1174.5 
      1963.0         0.20       1141.8 
      1964.0         0.20        933.3 
      1965.0         0.25        781.5 
      1966.0         0.20        704.7 
      1967.0         0.20        698.7 
      1968.0         0.20        641.3 
      1969.0         0.20        627.3 
      1970.0         0.23        605.1 
      1971.0         0.23        611.1 
      1972.0         0.27        652.7 
      1973.0         0.33        694.0 
      1974.0         0.27        777.4 
      1975.0         0.17        898.0 
      1976.0         1.42       1252.2 
      1977.0         0.33       1257.0 
      1978.0         0.23       1161.8 
      1979.0         0.27       1102.7 
      1980.0         0.23       1090.0 
      1981.0         0.20       1064.0 
      1982.0         0.27       1027.2 
      1983.0         0.20        994.2 
      1984.0         0.20        979.6 
      1985.0         0.20        932.6 
      1986.0         0.20        919.0 
      1987.0         0.23        897.4 
      1988.0         0.28        899.9 
      1989.0         0.20        921.2 
      1990.0         0.20        885.7 
      1991.0         0.20        836.1 
      1992.0         0.23        824.1 
      1993.0         0.23        871.1 
      1994.0         0.20        929.4 
      1995.0         0.23        833.6 
      1996.0         0.23        785.0 
      1997.0         0.20        606.7 
      1998.0         0.20        584.8 
      1999.0         0.20        552.4 
      2000.0         0.23        552.4 
      2001.0         0.27        543.2 
      2002.0         0.27        523.8 
      2003.0         0.25        518.4 
      2004.0         0.23        488.6 
      2005.0         0.37        485.1 
      2006.0         0.87        518.1 
      2007.0         0.30        557.8 
      2008.0         0.47        571.1 
      2009.0         0.43        604.8 
      2010.0         0.33        627.3 
      2011.0         0.35        636.8 
      2012.0         0.30        644.8 
      2013.0         0.27        646.7 
      2014.0         0.27        644.1 
      2015.0         0.27        641.6 
      2016.0         0.23        637.5 
      2017.0         0.27        630.5 
      2018.0         0.30        621.3 
      2019.0         0.27        617.5 
      2020.0         0.20        605.4 
      2021.0         0.23        594.9 
      2022.0         0.23        591.1 
      2023.0         0.23        563.8 
      2024.0         0.25        556.8 
      2025.0         0.23        506.1 
      2026.0         0.27        472.1 
      2027.0         0.27        454.3 
      2028.0         0.23        583.2 
      2029.0         0.23        614.6 
      2030.0         0.33        505.7 
      2031.0         0.33        400.0 
      2032.0         0.33        144.6 
      2033.0         0.27        131.8 
      2034.0         0.23        132.1 
      2035.0         0.23        132.6 
      2036.0         1.72        267.5 
      2037.0         0.17        332.2 
      2038.0         0.97       1025.0 
      2039.0         0.43       1052.9 
      2040.0         0.33       1055.8 
      2041.0         0.38       1072.0 
      2042.0         0.33       1009.4 
      2043.0         0.33       1009.7 
      2044.0         0.33        964.4 
      2045.0         0.33        948.5 
      2046.0         0.30        952.6 
      2047.0         0.27        956.4 
      2048.0         0.40        966.6 
      2049.0         0.20        958.6 
      2050.0         0.27        968.8 
      2051.0         0.32        996.4 
      2052.0         0.30        892.6 
      2053.0         0.20        888.2 
      2054.0         0.20        865.7 
      2055.0         0.17        850.1 
      2056.0         0.20        826.9 
      2057.0         0.20        959.3 
      2058.0         0.17        995.1 
      2059.0         0.23        956.4 
      2060.0         0.20        857.7 
      2061.0         0.23        765.0 
      2062.0         0.40        679.0 
      2063.0         0.23        588.9 
      2064.0         0.27        584.8 
      2065.0         0.32        564.5 
      2066.0         1.83        656.5 
      2067.0         0.33        863.8 
      2068.0         0.33       1049.7 
      2069.0         0.53       1136.1 
      2070.0         0.32       1150.3 
      2071.0         0.50       1130.7 
      2072.0         0.30       1079.9 
      2073.0         0.27       1025.0 
      2074.0         0.23       1009.1 
      2075.0         0.23        992.0 
      2076.0         0.20        970.7 
      2077.0         0.20        958.3 
      2078.0         0.23        945.6 
      2079.0         0.20        919.6 
      2080.0         0.23        903.1 
      2081.0         0.23        871.4 
      2082.0         0.30        858.0 
      2083.0         0.25        877.4 
      2084.0         0.23        879.3 
      2085.0         0.27        886.0 
