~Version Information
VERS.                      2.0: CWLS Log ASCII Standard - VERSION 2.0
WRAP.                       NO: One line per depth step
~Well Information Block
STRT.FT                -6.5000: 
STOP.FT              1758.0000: 
STEP.FT                 0.2500: 
NULL.                -999.2500: 
COMP.          Pioneer Natural Resources: COMPANY
WELL.           Rolls 14-14 Tr: WELL
FLD.           Purgatorie River: FIELD
LOC.           473' FSL & 817' FWL--: LOCATION
PROV.                       CO: PROVINCE
CNTY.               Las Animas: COUNTRY
SRVC.          Patterson Wireline: SERVICE COMPANY
DATE.          Mon Aug 08 11:51:25 2005: LOG DATE
UWI.           05 071 08454 00: UNIQUE WELL ID
~Curve Information Block
DEPT.FT            0 000 00 00: Depth
CCL.                          : Casing Collar Locator
TT3.usec                      : CBL 3' Travel Time
AMP3.mV                       : CBL 3' Amplitude
GR.GAPI                       : Gamma Ray
~Parameter Information Block
~A  Depth       CCL         TT3         AMP3         GR     
# ...
  1400.5000      0.0000    687.5399      5.0837    145.1702
  1400.7500      0.0000    694.6078      5.0106    144.9616
  1401.0000      0.0000    702.7318      4.9347    146.7823
  1401.2500      0.0000    710.0886      4.8508    150.1593
  1401.5000      0.0000    715.5880      4.7460    153.5984
  1401.7500      0.0000    719.3317      4.6123    155.3042
  1402.0000      0.0000    721.8500      4.4623    153.6752
  1402.2500      0.0000    723.2081      4.3259    147.7550
  1402.5000      0.0000    723.3223      4.2281    137.5568
  1402.7500      0.0000    722.9615      4.1790    124.0817
  1403.0000      0.0000    723.2538      4.1917    109.1872
  1403.2500      0.0000    723.4280      4.2927     95.1899
  1403.5000      0.0000    719.7518      4.4941     84.1583
  1403.7500      0.0000    708.5858      4.7582     77.4179
  1404.0000      2.0000    691.9758      5.0013     75.6663
  1404.2500      2.0000    679.7996      5.1399     79.0784
  1404.5000      0.0000    682.8437      5.1457     86.9401
  1404.7500      0.0000    701.3132      5.0781     97.5712
  1405.0000      0.0000    722.9105      5.0591    109.1682
  1405.2500      0.0000    734.6233      5.1831    120.5282
  1405.5000      0.0000    733.6752      5.4292    130.5827
  1405.7500      0.0000    725.9416      5.6793    137.6990
  1406.0000      0.0000    718.0508      5.8340    140.2847
  1406.2500      0.0000    713.0546      5.8881    138.1120
  1406.5000      0.0000    710.4105      5.8896    132.6196
  1406.7500      0.0000    707.5630      5.8726    125.8851
  1407.0000      0.0000    702.5477      5.8499    119.5713
  1407.2500      0.0000    696.5263      5.8332    114.6639
  1407.5000      0.0000    693.7997      5.8308    111.6578
  1407.7500      0.0000    698.7697      5.8365    110.7810
  1408.0000      0.0000    712.0941      5.8373    112.2682
  1408.2500      0.0000    729.4669      5.8304    116.0909
  1408.5000      0.0000    743.9333      5.8246    121.0350
  1408.7500      0.0000    749.5465      5.8254    124.5865
  1409.0000      0.0000    744.0482      5.8250    124.5492
  1409.2500      0.0000    729.8875      5.8093    120.7097
  1409.5000      0.0000    712.8742      5.7726    114.5867
  1409.7500      0.0000    698.6623      5.7194    107.8910
  1410.0000      0.0000    689.7982      5.6590    101.7513
  1410.2500      0.0000    685.7345      5.6002     97.3677
  1410.5000      0.0000    684.9133      5.5486     96.6689
  1410.7500      0.0000    686.3723      5.5012    101.2894
  1411.0000      0.0000    689.6570      5.4490    110.5945
  1411.2500      0.0000    693.7894      5.3897    121.3997
  1411.5000      0.0000    696.9135      5.3339    130.2927
  1411.7500      0.0000    697.5715      5.2958    136.0576
  1412.0000      0.0000    696.5109      5.2817    139.6841
  1412.2500      0.0000    696.9606      5.2847    142.4623
  1412.5000      0.0000    702.7833      5.2905    144.6593
  1412.7500      0.0000    715.8177      5.2884    145.9352
  1413.0000      0.0000    734.0975      5.2806    146.1601
  1413.2500      0.0000    752.3695      5.2798    145.3789
  1413.5000      0.0000    765.1521      5.2951    143.6966
  1413.7500      0.0000    770.4113      5.3189    141.8529
  1414.0000      0.0000    770.7726      5.3288    141.2635
  1414.2500      0.0000    771.1555      5.3039    142.7578
  1414.5000      0.0000    774.9827      5.2368    145.5081
  1414.7500      0.0000    782.0897      5.1321    147.5068
  1415.0000      0.0000    789.5998      4.9964    146.9949
  1415.2500      0.0000    794.7460      4.8361    143.5098
  1415.5000      0.0000    797.6949      4.6592    137.8317
  1415.7500      0.0000    801.7927      4.4733    131.0265
  1416.0000      0.0000    809.9507      4.2795    123.6157
  1416.2500      0.0000    820.7098      4.0739    115.5457
  1416.5000      0.0000    828.9085      3.8562    106.5507
  1416.7500      0.0000    830.0395      3.6322     96.3832
  1417.0000      0.0000    823.4250      3.4110     85.1509
  1417.2500      0.0000    812.3340      3.2050     73.8822
  1417.5000      0.0000    802.1506      3.0317     64.5712
  1417.7500      0.0000    797.4230      2.9063     59.4521
  1418.0000      0.0000    798.4565      2.8275     60.0922
  1418.2500      0.0000    800.0809      2.7752     66.6100
  1418.5000      0.0000    795.1103      2.7244     77.0920
  1418.7500      0.0000    780.4240      2.6658     87.9774
  1419.0000      0.0000    759.7972      2.6152     95.8653
  1419.2500      0.0000    740.7662      2.6055     99.2897
  1419.5000      0.0000    729.4023      2.6680     98.9008
  1419.7500      0.0000    728.0294      2.8185     96.5337
  1420.0000      0.0000    736.1888      3.0540     94.3533
  1420.2500      0.0000    751.8914      3.3549     94.3064
  1420.5000      0.0000    771.5383      3.6880     97.7248
  1420.7500      0.0000    789.7095      4.0183    105.0437
  1421.0000      0.0000    800.7692      4.3297    115.6447
  1421.2500      0.0000    802.0487      4.6404    127.9107
  1421.5000      0.0000    795.5916      4.9934    139.5293
  1421.7500      0.0000    786.4224      5.4238    148.2124
  1422.0000      0.0000    779.2732      5.9221    152.8851
  1422.2500      0.0000    776.8099      6.4243    154.4457
  1422.5000      0.0000    779.6141      6.8460    154.9171
  1422.7500      0.0000    786.5620      7.1359    155.6746
  1423.0000      0.0000    795.3116      7.2976    156.6109
  1423.2500      0.0000    803.3361      7.3679    156.5661
  1423.5000      0.0000    809.1038      7.3813    154.0579
  1423.7500      0.0000    812.5137      7.3531    147.9842
  1424.0000      0.0000    814.4124      7.2894    138.4674
  1424.2500      0.0000    815.8812      7.2021    127.4215
  1424.5000      0.0000    817.7306      7.1109    118.1422
  1424.7500      0.0000    820.1188      7.0326    113.7754
  1425.0000      0.0000    822.3250      6.9719    115.4323
  1425.2500      0.0000    823.1836      6.9220    121.3738
  1425.5000      0.0000    822.2003      6.8709    128.3044
  1425.7500      0.0000    820.2963      6.8108    133.7806
  1426.0000      0.0000    819.2410      6.7448    137.3330
  1426.2500      0.0000    820.1893      6.6829    139.4284
  1426.5000      0.0000    822.6418      6.6345    140.1095
  1426.7500      0.0000    824.8124      6.6007    139.1255
  1427.0000      0.0000    825.1523      6.5687    136.8439
  1427.2500      0.0000    823.5256      6.5184    134.2612
  1427.5000      0.0000    820.9142      6.4381    132.2393
  1427.7500      0.0000    818.2798      6.3324    131.2249
  1428.0000      0.0000    815.8375      6.2169    131.4155
  1428.2500      0.0000    813.0320      6.1099    132.6741
  1428.5000      0.0000    808.9147      6.0290    134.4402
  1428.7500      0.0000    803.0446      5.9859    136.0368
  1429.0000      0.0000    796.7289      5.9785    136.9789
  1429.2500      0.0000    793.1740      5.9888    136.8870
  1429.5000      0.0000    795.3091      5.9916    135.2361
  1429.7500      0.0000    802.9061      5.9712    131.5904
  1430.0000      0.0000    812.3044      5.9307    126.3988
  1430.2500      0.0000    819.3367      5.8845    121.1710
  1430.5000      0.0000    822.4016      5.8434    117.3151
  1430.7500      0.0000    822.9130      5.8091    115.0156
  1431.0000      0.0000    823.5522      5.7778    113.7005
  1431.2500      0.0000    826.3558      5.7436    113.1926
  1431.5000      0.0000    831.5475      5.7004    113.7635
  1431.7500      0.0000    837.0706      5.6464    115.3550
  1432.0000      0.0000    839.5438      5.5869    117.4408
  1432.2500      0.0000    836.8925      5.5309    119.6530
  1432.5000      0.0000    830.3458      5.4850    122.0971
  1432.7500      0.0000    823.1609      5.4527    124.9777
  1433.0000      0.0000    817.4507      5.4368    128.1919
  1433.2500      0.0000    813.1268      5.4363    131.4151
  1433.5000      0.0000    809.9997      5.4426    134.4062
  1433.7500      0.0000    809.6403      5.4431    137.2129
