~Version Information
VERS.                      2.0: CWLS Log ASCII Standard - VERSION 2.0
WRAP.                       NO: One line per depth step
~Well Information Block
STRT.FT                -8.5000: 
STOP.FT              2823.2500: 
STEP.FT                 0.2500: 
NULL.                -999.2500: 
COMP.          Pioneer Natural Resources: COMPANY
WELL.                AMX 13-13: WELL
FLD.           Purgatorie River: FIELD
LOC.           2316' FSL & 865' FWL--: LOCATION
PROV.                       CO: PROVINCE
CNTY.               Las Animas: COUNTRY
SRVC.          Patterson Wireline: SERVICE COMPANY
DATE.          Tue Dec 27 10:40:58 2005: LOG DATE
UWI.           05 071 08630 00: UNIQUE WELL ID
~Curve Information Block
DEPT.FT            0 000 00 00: Depth
CCL.                          : Casing Collar Locator
TT3.usec                      : CBL 3' Travel Time
AMP3.mV                       : CBL 3' Amplitude
GR.GAPI                       : Gamma Ray
~Parameter Information Block
~A  Depth       CCL         TT3         AMP3         GR     
# ...
   360.0000      0.0000    697.2723      9.2601    114.5488
   360.2500      0.0000    702.9123      9.1441    112.2150
   360.5000      0.0000    712.7588      8.9811    112.4361
   360.7500      0.0000    726.4761      8.8112    116.3623
   361.0000      0.0000    742.4513      8.6749    122.4505
   361.2500      0.0000    759.3317      8.5905    127.5398
   361.5000      0.0000    777.0409      8.5568    129.4050
   361.7500      0.0000    795.9139      8.5695    127.9927
   362.0000      0.0000    815.1543      8.6255    124.3958
   362.2500      0.0000    832.5471      8.7151    119.3186
   362.5000      0.0000    845.7812      8.8204    112.9051
   362.7500      0.0000    854.0050      8.9234    105.7070
   363.0000      0.0000    858.1060      9.0145     99.1641
   363.2500      0.0000    859.7219      9.0905     94.8481
   363.5000      0.0000    860.2025      9.1498     93.3803
   363.7500      0.0000    860.2691      9.1946     94.3953
   364.0000      0.0000    860.2139      9.2333     97.5170
   364.2500      0.0000    860.1284      9.2748    102.8622
   364.5000      0.0000    860.0282      9.3208    110.2221
   364.7500      0.0000    859.8669      9.3663    118.0914
   365.0000      0.0000    859.4677      9.4072    124.2164
   365.2500      0.0000    858.3749      9.4435    127.5024
   365.5000      0.0000    855.7592      9.4732    128.9966
   365.7500      0.0000    850.7226      9.4898    130.3736
   366.0000      0.0000    843.0804      9.4881    131.8170
   366.2500      0.0000    834.0833      9.4695    132.2941
   366.5000      0.0000    826.3270      9.4360    131.4945
   366.7500      0.0000    822.5603      9.3809    130.1856
   367.0000      0.0000    823.8664      9.2896    128.8866
   367.2500      0.0000    828.4218      9.1536    127.3736
   367.5000      0.0000    832.2311      8.9811    125.3211
   367.7500      0.0000    831.4641      8.7917    122.5126
   368.0000      0.0000    824.4628      8.6020    118.6738
   368.2500      0.0000    812.5203      8.4191    113.7819
   368.5000      0.0000    799.5383      8.2458    108.4439
   368.7500      0.0000    790.0076      8.0876    103.5514
   369.0000      0.0000    786.1297      7.9515     99.6417
   369.2500      0.0000    787.2797      7.8392     96.6324
   369.5000      0.0000    792.4343      7.7474     93.9240
   369.7500      0.0000    801.4576      7.6758     90.7997
   370.0000      0.0000    813.2289      7.6315     87.0150
   370.2500      0.0000    824.2819      7.6242     82.8304
   370.5000      0.0000    830.9820      7.6578     78.2414
   370.7500      0.0000    832.7527      7.7290     72.6060
   371.0000      0.0000    832.3783      7.8341     65.5517
   371.2500      0.0000    832.9823      7.9770     58.0796
   371.5000      0.0000    834.7339      8.1623     52.2353
   371.7500      0.0000    834.5543      8.3791     49.4801
   372.0000      0.0000    829.2005      8.5991     49.6188
   372.2500      0.0000    818.1178      8.7976     51.3913
   372.5000      0.0000    802.7340      8.9732     53.8504
   372.7500      0.0000    783.9389      9.1403     56.9711
   373.0000      0.0000    762.0208      9.3071     61.1083
   373.2500      0.0000    738.9592      9.4649     66.0667
   373.5000      0.0000    718.7786      9.5948     70.7263
   373.7500      0.0000    704.7501      9.6780     73.6223
   374.0000      0.0000    697.1473      9.7007     74.0957
   374.2500      0.0000    693.9683      9.6575     72.8747
   374.5000      0.0000    692.9799      9.5562     71.4096
   374.7500      0.0000    692.8124      9.4233     70.7073
   375.0000      0.0000    692.8887      9.3038     70.8223
   375.2500      0.0000    693.0167      9.2444     71.1516
   375.5000      0.0000    693.1231      9.2668     70.9384
   375.7500      0.0000    693.1691      9.3512     69.7465
   376.0000      0.0000    693.1514      9.4489     67.8897
   376.2500      0.0000    693.0907      9.5147     66.2731
   376.5000      0.0000    693.0087      9.5308     65.4821
   376.7500      0.0000    692.9186      9.5093     65.2802
   377.0000      0.0000    692.8329      9.4782     65.3834
   377.2500      0.0000    692.7604      9.4601     66.2943
   377.5000      0.0000    692.6965      9.4564     68.6476
   377.7500      0.0000    692.6336      9.4510     71.8960
   378.0000      0.0000    692.5820      9.4299     74.5263
   378.2500      0.0000    692.5737      9.3905     75.8216
   378.5000      0.0000    692.6407      9.3334     76.6217
   378.7500      0.0000    692.7833      9.2564     77.8741
   379.0000      0.0000    692.9574      9.1625     79.2305
   379.2500      0.0000    693.1008      9.0627     79.6427
   379.5000      0.0000    693.1737      8.9654     78.6516
   379.7500      0.0000    693.1675      8.8645     76.6063
   380.0000      0.0000    693.0901      8.7417     74.2233
   380.2500      0.0000    692.9606      8.5794     72.2421
   380.5000      0.0000    692.8054      8.3754     71.0781
   380.7500      0.0000    692.6403      8.1486     70.6730
   381.0000      0.0000    692.4705      7.9306     70.8025
   381.2500      0.0000    692.3291      7.7510     71.1783
   381.5000      0.0000    692.3576      7.6236     71.0454
   381.7500      0.0000    692.9518      7.5445     69.2311
   382.0000      0.0000    694.9966      7.4978     65.1430
   382.2500      0.0000    699.9724      7.4644     59.7561
   382.5000      0.0000    709.3873      7.4296     55.4099
   382.7500      0.0000    723.5034      7.3851     54.2862
   383.0000      0.0000    740.5045      7.3269     56.7522
   383.2500      0.0000    757.3388      7.2538     61.2421
   383.5000      0.0000    771.6292      7.1699     65.8137
   383.7500      0.0000    782.7828      7.0823     69.4025
   384.0000      0.0000    791.5539      6.9953     71.4374
   384.2500      0.0000    798.8577      6.9058     71.1722
   384.5000      0.0000    805.0095      6.8076     68.3366
   384.7500      0.0000    809.7537      6.6975     64.0791
   385.0000      0.0000    812.6395      6.5777     60.3938
   385.2500      0.0000    813.5245      6.4582     58.5319
   385.5000      0.0000    813.2676      6.3566     58.3162
   385.7500      0.0000    813.6302      6.2935     58.8005
   386.0000      0.0000    815.4952      6.2839     59.1370
   386.2500      0.0000    817.2713      6.3275     58.9543
   386.5000      0.0000    815.9637      6.4006     58.4331
   386.7500      0.0000    809.6333      6.4540     58.2653
   387.0000      0.0000    798.2593      6.4294     59.4405
   387.2500      0.0000    783.1536      6.3045     62.8947
   387.5000      0.0000    767.3173      6.1444     69.1323
   387.7500      0.0000    756.8499      6.0795     77.9837
   388.0000      0.0000    759.6232      6.1831     88.3466
   388.2500      0.0000    778.7797      6.3808     97.9924
   388.5000      0.0000    807.0787      6.5338    103.9863
   388.7500      0.0000    830.9610      6.5909    103.9072
   389.0000      0.0000    841.3925      6.6045     97.2152
   389.2500     -2.0000    838.9202      6.6263     85.9590
   389.5000      0.0000    829.6770      6.6570     74.2191
   389.7500      2.0000    820.2083      6.6942     66.0333
   390.0000      0.0000    814.6765      6.7879     62.8798
   390.2500      0.0000    812.5125      7.0247     63.1317
   390.5000      0.0000    808.4869      7.4408     64.2326
   390.7500      0.0000    797.3000      7.9426     65.0970
   391.0000      0.0000    778.1370      8.3463     66.2370
   391.2500      0.0000    754.6147      8.5347     68.2254
   391.5000      0.0000    731.8532      8.5484     70.7140
   391.7500      0.0000    713.9240      8.5049     72.7940
   392.0000      0.0000    702.4745      8.4750     73.8192
   392.2500      0.0000    696.6813      8.4649     73.9813
   392.5000      0.0000    694.4879      8.4666     74.2781
   392.7500      0.0000    694.0107      8.4848     75.5116
   393.0000      0.0000    694.1134      8.5241     77.0954
   393.2500      0.0000    694.2689      8.5751     77.3287
