~Version Information
VERS.                      2.0: CWLS Log ASCII Standard - VERSION 2.0
WRAP.                       NO: One line per depth step
~Well Information Block
STRT.FT               480.0000: 
STOP.FT              1946.0000: 
STEP.FT                 0.1000: 
NULL.                -999.2500: 
COMP.          XTO Energy Inc.: COMPANY
WELL.          Golden Eagle 19-15: WELL
FLD.           Purgatoire River: FIELD
LOC.           1121' FSL & 2332' FEL--: LOCATION
CNTY.               Las Animas: COUNTY
SRVC.                Patterson: SERVICE COMPANY
DATE.          Mon Mar 13 10:27:20 2006: LOG DATE
UWI.           05 071 08717 00: UNIQUE WELL ID
STAT.                 Colorado: STATE
~Curve Information Block
DEPT.FT            0 000 00 00: Depth
DCAL.in                       : CDL Caliper
RHOB.g/cc                     : CDL Bulk Density
RHOC.g/cc                     : CDL Density Correction
DPOR.pu                       : CDL Density Porosity
NPOR.pu                       : Neutron Porosity
GR.GAPI                       : Gamma Ray
~Parameter Information Block
~A  Depth       DCAL        RHOB        RHOC        DPOR        NPOR         GR     
# ...
  1334.4000      7.8183      2.5390      0.0640      6.7264     22.0809    116.6468
  1334.5000      7.8288      2.5382      0.0639      6.7756     22.1486    113.3747
  1334.6000      7.8288      2.5382      0.0340      6.7777     22.4225    111.8276
  1334.7000      7.8288      2.5475      0.0327      6.2103     22.6819    115.6077
  1334.8000      7.8322      2.5709      0.0823      4.7921     22.9437    123.8828
  1334.9000      7.8322      2.5927      0.0951      3.4734     23.4999    130.8280
  1335.0000      7.8274      2.5952      0.1340      3.3236     23.8924    129.9801
  1335.1000      7.8274      2.5746      0.0778      4.5700     23.4491    122.3452
  1335.2000      7.8274      2.5477      0.0406      6.2028     22.7926    115.8676
  1335.3000      7.8222      2.5414      0.0452      6.5842     22.5985    112.5633
  1335.4000      7.8222      2.5624      0.0725      5.3088     22.7171    108.5563
  1335.5000      7.8193      2.5879      0.0617      3.7659     22.9771    105.2973
  1335.6000      7.8193      2.5990      0.0656      3.0922     23.1794    105.9646
  1335.7000      7.8193      2.5984      0.1000      3.1284     23.2416    110.8372
  1335.8000      7.8192      2.5971      0.0806      3.2087     23.3581    118.8624
  1335.9000      7.8192      2.6052      0.0545      2.7135     23.4614    125.7357
  1336.0000      7.8221      2.6230      0.0904      1.6348     23.3407    125.3060
  1336.1000      7.8221      2.6391      0.1122      0.6578     23.2241    116.4913
  1336.2000      7.8221      2.6423      0.0854      0.4676     23.1980    107.1176
  1336.3000      7.8261      2.6201      0.0690      1.8092     23.0718    106.2822
  1336.4000      7.8261      2.5769      0.0080      4.4322     22.9366    111.4405
  1336.5000      7.8306      2.5509     -0.0209      6.0089     23.1490    115.1830
  1336.6000      7.8306      2.5636      0.0279      5.2358     23.8857    117.2165
  1336.7000      7.8306      2.5883      0.0526      3.7386     24.5879    118.8208
  1336.8000      7.8351      2.6058      0.0221      2.6778     24.6119    118.2215
  1336.9000      7.8351      2.6211      0.0391      1.7486     24.4604    116.8036
  1337.0000      7.8367      2.6263      0.0777      1.4393     24.7922    120.4823
  1337.1000      7.8367      2.6081      0.0688      2.5423     25.2348    127.5971
  1337.2000      7.8367      2.5748      0.0449      4.5567     25.3456    128.9144
  1337.3000      7.8383      2.5509      0.0075      6.0064     25.4356    126.7434
  1337.4000      7.8383      2.5542      0.0327      5.8042     25.6069    130.4571
  1337.5000      7.8454      2.5792      0.0430      4.2899     25.5471    138.8355
  1337.6000      7.8454      2.6029      0.0594      2.8562     25.2385    146.0818
  1337.7000      7.8454      2.6060      0.0551      2.6652     24.8598    148.9209
  1337.8000      7.8547      2.5933      0.0163      3.4348     24.5217    144.2545
  1337.9000      7.8547      2.5863      0.0320      3.8622     24.4522    134.1012
  1338.0000      7.8579      2.6026      0.0563      2.8756     24.5845    126.0628
  1338.1000      7.8579      2.6504      0.0407     -0.0227     24.4142    125.1525
  1338.2000      7.8579      2.7208      0.1196     -4.2886     23.8766    129.1817
  1338.3000      7.8545      2.7955      0.1101     -8.8180     23.6343    129.3120
  1338.4000      7.8545      2.8715      0.1071    -13.4217     24.2037    123.3719
  1338.5000      7.8525      2.9354      0.2170    -17.2951     25.0997    118.4004
  1338.6000      7.8525      2.9611      0.1580    -18.8548     25.3268    117.0852
  1338.7000      7.8525      2.9538      0.1216    -18.4128     24.7018    115.9088
  1338.8000      7.8553      2.9357      0.0813    -17.3127     23.9308    108.6171
  1338.9000      7.8553      2.9176      0.0219    -16.2161     23.5896     96.0969
  1339.0000      7.8525      2.9029     -0.0557    -15.3299     23.7548     88.7657
  1339.1000      7.8525      2.8910     -0.0850    -14.6085     24.2309     87.0695
  1339.2000      7.8525      2.8733     -0.1304    -13.5313     24.7522     87.2698
  1339.3000      7.8423      2.8416     -0.0622    -11.6132     25.1184     93.5837
  1339.4000      7.8423      2.8016     -0.0680     -9.1882     25.3846    103.9901
  1339.5000      7.8411      2.7673     -0.0809     -7.1074     25.5398    107.9603
  1339.6000      7.8411      2.7430     -0.0433     -5.6359     25.4549    104.1616
  1339.7000      7.8411      2.7209     -0.0438     -4.2959     25.2963    101.6409
  1339.8000      7.8565      2.6859      0.0565     -2.1766     25.0927    106.3294
  1339.9000      7.8565      2.6380     -0.0207      0.7244     24.6161    119.6972
  1340.0000      7.8727      2.6067     -0.0080      2.6232     24.1029    134.1414
  1340.1000      7.8727      2.6087      0.0108      2.5025     23.8945    139.8987
  1340.2000      7.8727      2.6297      0.0049      1.2293     23.8975    138.3496
  1340.3000      7.8726      2.6451      0.0431      0.2988     23.9505    133.8375
  1340.4000      7.8726      2.6329      0.0778      1.0367     23.8505    131.5120
  1340.5000      7.8585      2.5955      0.0207      3.3034     23.5054    134.5843
  1340.6000      7.8585      2.5614      0.0032      5.3682     23.3699    136.2960
  1340.7000      7.8585      2.5531     -0.0025      5.8708     23.7346    133.3018
  1340.8000      7.8460      2.5680      0.0215      4.9681     24.2203    131.2566
  1340.9000      7.8460      2.5892      0.0173      3.6874     24.4372    134.1380
  1341.0000      7.8425      2.6051      0.0119      2.7220     24.4895    142.3325
  1341.1000      7.8425      2.6070      0.0923      2.6048     24.6238    152.1003
  1341.2000      7.8425      2.5918      0.0414      3.5300     24.9476    155.8367
  1341.3000      7.8435      2.5728      0.0195      4.6771     25.3451    152.6004
  1341.4000      7.8435      2.5594      0.0051      5.4880     25.4522    148.3438
  1341.5000      7.8444      2.5476      0.0160      6.2072     25.3454    146.1211
  1341.6000      7.8444      2.5354      0.0331      6.9435     25.3193    143.4651
  1341.7000      7.8444      2.5317      0.0281      7.1681     25.2521    137.8423
  1341.8000      7.8460      2.5460      0.0158      6.3015     25.1760    131.8240
  1341.9000      7.8460      2.5662      0.0808      5.0762     25.1457    129.1530
  1342.0000      7.8502      2.5719      0.0350      4.7331     25.0580    128.3855
  1342.1000      7.8502      2.5691      0.0274      4.9017     24.9686    130.9225
  1342.2000      7.8502      2.5684      0.0431      4.9461     24.9884    139.8280
  1342.3000      7.8535      2.5678      0.0421      4.9830     24.8915    148.4244
  1342.4000      7.8535      2.5704      0.0459      4.8242     24.4092    149.7616
  1342.5000      7.8496      2.5753      0.0665      4.5250     24.0107    145.9138
  1342.6000      7.8496      2.5790      0.0259      4.3004     24.1974    142.4989
  1342.7000      7.8496      2.5863      0.0659      3.8598     24.3251    142.8620
  1342.8000      7.8451      2.5909      0.0986      3.5825     23.8933    149.2265
  1342.9000      7.8451      2.5852      0.0613      3.9246     23.2563    161.3198
  1343.0000      7.8498      2.5809      0.0238      4.1886     22.6579    171.7045
  1343.1000      7.8498      2.5859      0.0588      3.8870     22.3842    173.5301
  1343.2000      7.8498      2.5894      0.0788      3.6718     22.5488    168.4649
  1343.3000      7.8577      2.5902      0.0192      3.6218     22.8812    157.4777
  1343.4000      7.8577      2.6013      0.0430      2.9534     23.2375    140.9517
  1343.5000      7.8600      2.6168      0.0422      2.0144     23.7537    124.2646
  1343.6000      7.8600      2.6161      0.0796      2.0537     24.3343    116.8863
  1343.7000      7.8600      2.5988      0.0277      3.1046     24.7351    125.8942
  1343.8000      7.8586      2.5873      0.0106      3.7974     24.9715    143.4205
  1343.9000      7.8586      2.5910      0.0870      3.5767     25.2204    153.6470
