~Version Information
VERS.                      2.0: CWLS Log ASCII Standard - VERSION 2.0
WRAP.                       NO: One line per depth step
~Well Information Block
STRT.FT               410.0000: 
STOP.FT              1253.0000: 
STEP.FT                 0.1000: 
NULL.                -999.2500: 
COMP.          Petrogulf Corporation: COMPANY
WELL.           Parsons 15-23R: WELL
FLD.           Purgatorie River: FIELD
LOC.           2244' FSL & 1932' FWL: LOCATION
PROV.                 Colorado: PROVINCE
CNTY.               Las Animas: COUNTRY
SRVC.                Patterson: SERVICE COMPANY
DATE.          Mon Sep 12 10:28:25 2005: LOG DATE
UWI.                          : UNIQUE WELL ID
~Curve Information Block
DEPT.FT            0 000 00 00: Depth
DCAL.in                       : CDL Caliper
RHOB.g/cc                     : CDL Bulk Density
RHOC.g/cc                     : CDL Density Correction
DPOR.pu                       : CDL Density Porosity
GR.GAPI                       : Gamma Ray
NPOR.pu                       : Neutron Porosity
~Parameter Information Block
~A  Depth       DCAL        RHOB        RHOC        DPOR         GR         NPOR    
# ...
   957.2000      7.8363      2.6685      0.1253     -1.1214    112.3425     21.3261
   957.3000      7.8716      2.6667      0.1110     -1.0109    106.5591     21.3967
   957.4000      7.8716      2.6448      0.0924      0.3143     98.4688     21.3950
   957.5000      7.8646      2.6127      0.0494      2.2577     92.9323     21.1660
   957.6000      7.8646      2.5875     -0.0126      3.7857     89.6654     20.6298
   957.7000      7.8646      2.5734      0.0076      4.6422     88.0636     19.9778
   957.8000      7.8689      2.5690      0.0193      4.9116     89.3944     19.6160
   957.9000      7.8689      2.5752      0.0692      4.5316     94.6090     19.7137
   958.0000      7.8454      2.5829      0.0949      4.0689    102.9058     20.2843
   958.1000      7.8454      2.5769      0.0625      4.4306    111.8411     21.3267
   958.2000      7.8454      2.5574      0.0344      5.6120    118.4594     22.4486
   958.3000      7.8394      2.5291      0.0688      7.3288    123.4016     23.3102
   958.4000      7.8394      2.4981      0.0317      9.2086    129.1259     24.0143
   958.5000      7.8738      2.4839      0.0260     10.0668    133.9632     24.5361
   958.6000      7.8738      2.4959      0.0375      9.3416    136.3528     24.8581
   958.7000      7.8738      2.5132      0.0980      8.2892    138.2377     25.2421
   958.8000      7.8925      2.5135      0.0866      8.2710    139.7789     25.8335
   958.9000      7.8925      2.5069      0.0440      8.6751    140.3908     26.4879
   959.0000      7.8708      2.5110      0.0687      8.4265    143.3844     26.8919
   959.1000      7.8708      2.5245      0.0707      7.6076    150.2047     26.8546
   959.2000      7.8708      2.5484      0.0834      6.1558    154.7983     26.5903
   959.3000      7.8160      2.5821      0.1266      4.1148    152.2504     26.3531
   959.4000      7.8160      2.6085      0.1090      2.5145    145.3535     25.8547
   959.5000      7.8251      2.6190      0.1218      1.8807    138.3882     24.7758
   959.6000      7.8251      2.6192      0.1201      1.8683    133.1809     23.4652
   959.7000      7.8251      2.6147      0.0963      2.1366    130.2448     22.5279
   959.8000      7.8314      2.6082      0.0886      2.5337    128.5553     22.3047
   959.9000      7.8314      2.5960      0.0614      3.2742    126.5044     22.7290
   960.0000      7.8647      2.5738      0.0259      4.6187    125.7095     23.4988
   960.1000      7.8647      2.5506      0.0237      6.0248    128.9828     24.1854
   960.2000      7.8647      2.5412      0.0049      6.5915    134.5430     24.3216
   960.3000      7.8943      2.5501      0.0125      6.0549    138.2783     24.0051
   960.4000      7.8943      2.5685      0.0639      4.9381    139.5394     23.7746
   960.5000      7.9017      2.5848      0.0885      3.9526    139.5448     23.6521
   960.6000      7.9017      2.5991      0.0750      3.0843    138.4877     23.5996
   960.7000      7.9017      2.6173      0.0935      1.9830    137.9207     23.9312
   960.8000      7.8347      2.6350      0.1364      0.9091    138.1315     24.6455
   960.9000      7.8347      2.6413      0.1147      0.5253    137.8402     25.3364
   961.0000      7.8200      2.6338      0.1155      0.9804    137.7525     25.7014
   961.1000      7.8200      2.6228      0.0863      1.6508    136.7898     25.6135
   961.2000      7.8200      2.6153      0.0953      2.1048    131.3127     25.1149
   961.3000      7.8091      2.6048      0.1249      2.7422    123.0562     24.5264
   961.4000      7.8091      2.5908      0.0202      3.5883    118.8038     24.0021
   961.5000      7.8140      2.5843      0.0684      3.9789    120.4649     23.4526
   961.6000      7.8140      2.5867      0.0640      3.8359    124.5471     22.9373
   961.7000      7.8140      2.5960      0.0103      3.2738    128.2995     22.6451
   961.8000      7.8720      2.6052      0.0235      2.7154    130.0598     22.7762
   961.9000      7.8720      2.6015      0.0362      2.9403    131.0715     23.1949
   962.0000      7.9547      2.5882      0.0477      3.7477    133.0420     23.3458
   962.1000      7.9547      2.5763      0.0098      4.4682    136.1984     23.1114
   962.2000      7.9547      2.5681      0.0648      4.9648    142.0594     23.1241
   962.3000      7.9050      2.5625      0.0648      5.3009    148.5434     23.7920
   962.4000      7.9050      2.5644      0.0642      5.1873    152.0802     24.7180
   962.5000      7.9017      2.5751      0.0729      4.5374    150.8136     25.3263
   962.6000      7.9017      2.5846      0.0885      3.9644    142.3681     25.4531
   962.7000      7.9017      2.5819      0.0668      4.1255    131.0073     25.1297
   962.8000      7.8868      2.5676      0.0575      4.9939    124.4566     24.2469
   962.9000      7.8868      2.5546      0.0007      5.7791    123.4622     22.9402
   963.0000      7.8304      2.5533      0.0518      5.8620    123.1673     21.8269
   963.1000      7.8304      2.5583      0.0317      5.5565    119.1232     21.2688
   963.2000      7.8304      2.5726      0.0048      4.6926    112.0787     20.9049
   963.3000      7.8175      2.6015      0.0739      2.9374    107.5646     20.6831
   963.4000      7.8175      2.6317      0.1385      1.1095    105.3602     20.8710
   963.5000      7.7967      2.6498      0.1370      0.0117    101.3381     21.1932
   963.6000      7.7967      2.6582      0.1429     -0.4969     96.3573     21.1433
   963.7000      7.7967      2.6628      0.1510     -0.7777     94.5869     20.5266
   963.8000      7.7895      2.6666      0.1489     -1.0044     98.5259     19.6482
   963.9000      7.7895      2.6672      0.1291     -1.0434    105.6822     19.1221
   964.0000      7.9050      2.6608      0.1413     -0.6544    110.2393     19.2601
   964.1000      7.9050      2.6490      0.0703      0.0593    109.5250     19.6131
   964.2000      7.9050      2.6334      0.0940      1.0055    106.3539     19.6032
   964.3000      7.9308      2.6109      0.0493      2.3697    105.6373     19.3158
   964.4000      7.9308      2.5861      0.0377      3.8704    110.3925     19.1440
   964.5000      7.9292      2.5685     -0.0026      4.9393    117.6947     19.2203
   964.6000      7.9292      2.5580      0.0276      5.5768    121.5612     19.4385
   964.7000      7.9292      2.5488      0.0152      6.1339    119.9047     19.7850
   964.8000      7.9226      2.5462      0.0162      6.2911    116.5032     20.3507
   964.9000      7.9226      2.5608      0.0218      5.4086    117.1365     20.9255
   965.0000      7.9267      2.5849      0.0660      3.9451    123.6770     20.9752
   965.1000      7.9267      2.5986      0.0572      3.1151    129.7068     20.6854
   965.2000      7.9267      2.5977      0.0634      3.1681    127.6268     20.8100
   965.3000      7.9209      2.5957      0.1048      3.2892    120.8433     21.5975
   965.4000      7.9209      2.5995      0.0288      3.0584    116.7583     22.6189
   965.5000      7.9280      2.6028      0.0401      2.8621    114.8494     23.2214
   965.6000      7.9280      2.5974      0.0592      3.1871    111.3417     23.3260
   965.7000      7.9280      2.5929      0.0176      3.4580    107.1799     23.1252
   965.8000      7.8982      2.6068      0.0326      2.6166    103.7240     22.5875
   965.9000      7.8982      2.6303      0.0739      1.1943    100.8402     21.9209
   966.0000      7.8887      2.6479      0.0089      0.1265    100.2122     21.6272
   966.1000      7.8887      2.6643      0.0782     -0.8671     99.9998     21.9061
   966.2000      7.8887      2.6799      0.1264     -1.8142     96.3639     22.4347
   966.3000      7.8672      2.6873      0.0850     -2.2614     92.9961     22.7638
   966.4000      7.8672      2.6787      0.1426     -1.7419     95.5197     22.6311
   966.5000      7.8294      2.6523      0.0684     -0.1395    103.0448     22.0711
   966.6000      7.8294      2.6246      0.1063      1.5394    109.6725     21.4519
   966.7000      7.8294      2.6100      0.0821      2.4262    113.3329     21.0799
