~Version Information
VERS.                      2.0: CWLS Log ASCII Standard - VERSION 2.0
WRAP.                       NO: One line per depth step
~Well Information Block
STRT.FT                -5.5000: 
STOP.FT               791.0000: 
STEP.FT                 0.2500: 
NULL.                -999.2500: 
COMP.          Pioneer Natural Resources: COMPANY
WELL.           Beringer 33-18: WELL
FLD.           Purgatoire River: FIELD
LOC.           2356' FSL & 2338' FEL--: LOCATION
CNTY.               Las Animas: COUNTY
SRVC.                Patterson: SERVICE COMPANY
DATE.          Mon Apr 03 11:39:01 2006: LOG DATE
UWI.           05 071 08725 00: UNIQUE WELL ID
STAT.                 Colorado: STATE
~Curve Information Block
DEPT.FT            0 000 00 00: Depth
CCL.                          : Casing Collar Locator
TT3.usec                      : CBL 3' Travel Time
AMP3.mV                       : CBL 3' Amplitude
GR.GAPI                       : Gamma Ray
~Parameter Information Block
~A  Depth       CCL         TT3         AMP3         GR     
# ...
   296.0000      0.0000    754.1370      8.0635    116.8829
   296.2500      0.0000    757.6031      8.0150    115.4566
   296.5000      0.0000    762.5705      7.9388    111.0965
   296.7500      0.0000    765.5719      7.8910    106.9333
   297.0000      0.0000    769.0654      7.8302    100.4712
   297.2500      0.0000    770.5129      7.8030     97.7588
   297.5000      0.0000    771.5374      7.7912     98.4604
   297.7500      0.0000    771.7395      7.8015    101.8899
   298.0000      0.0000    771.7303      7.8287    108.1772
   298.2500      0.0000    771.6445      7.8431    110.6894
   298.5000      0.0000    771.5031      7.8459    109.6720
   298.7500      0.0000    771.4324      7.8353    106.3893
   299.0000      0.0000    771.3799      7.8113    100.7723
   299.2500      0.0000    771.3635      7.7972     98.1998
   299.5000      0.0000    771.3236      7.7830     96.6338
   299.7500      0.0000    771.2791      7.7757     96.5274
   300.0000      0.0000    771.2153      7.7659     97.1317
   300.2500      0.0000    771.1984      7.7621     98.3441
   300.5000      0.0000    771.2064      7.7602    102.7798
   300.7500      0.0000    771.1879      7.7560    108.4402
   301.0000      0.0000    770.9502      7.7352    121.8293
   301.2500      0.0000    770.4969      7.7104    133.3578
   301.5000      0.0000    769.1077      7.6612    150.9243
   301.7500      0.0000    767.6533      7.6239    159.9129
   302.0000      0.0000    764.8647      7.5671    165.4057
   302.2500      0.0000    762.7516      7.5330    163.2022
   302.5000      0.0000    759.1060      7.4963    153.5422
   302.7500      0.0000    756.0851      7.4888    145.4895
   303.0000      0.0000    750.5150      7.5131    135.1638
   303.2500      0.0000    746.5378      7.5517    130.5869
   303.5000      0.0000    741.4039      7.6242    126.9408
   303.7500      0.0000    739.0040      7.6682    126.2115
   304.0000      0.0000    736.9100      7.7173    127.5469
   304.2500      0.0000    736.2288      7.7435    130.0564
   304.5000      0.0000    735.8013      7.7870    135.6562
   304.7500      0.0000    735.7274      7.8207    140.0828
   305.0000      0.0000    735.7341      7.8696    147.0801
   305.2500      0.0000    735.7499      7.8929    151.7199
   305.5000      0.0000    735.7541      7.9013    157.6991
   305.7500      0.0000    735.7598      7.8852    159.8847
   306.0000      0.0000    735.8262      7.8314    158.2420
   306.2500      0.0000    735.9426      7.7847    153.2997
   306.5000      0.0000    736.2672      7.7222    141.2388
   306.7500      0.0000    736.5952      7.6975    131.9902
   307.0000      0.0000    737.2694      7.6928    121.2571
   307.2500      0.0000    737.8699      7.7061    119.0546
   307.5000      0.0000    739.0573      7.7370    124.7217
   307.7500      0.0000    739.9819      7.7607    132.5795
   308.0000      0.0000    741.1264      7.7971    144.5055
   308.2500      0.0000    741.3626      7.8127    149.3611
   308.5000      0.0000    740.6935      7.7913    149.1207
   308.7500      0.0000    739.8666      7.7341    144.0089
   309.0000      0.0000    738.9926      7.6022    131.8189
   309.2500      0.0000    739.0377      7.5153    123.4982
   309.5000      0.0000    739.9407      7.4348    115.3692
   309.7500      0.0000    740.7047      7.4209    114.0533
   310.0000      0.0000    741.4859      7.4405    117.0978
   310.2500      0.0000    741.6479      7.4673    121.0384
   310.5000      0.0000    741.3406      7.5202    127.9871
   310.7500      0.0000    740.7386      7.5650    132.3824
   311.0000      0.0000    739.3400      7.6369    136.5794
   311.2500      0.0000    738.3180      7.6727    137.1833
   311.5000      0.0000    737.1068      7.6859    136.5976
   311.7500      0.0000    736.6162      7.6708    137.0232
   312.0000      0.0000    736.2485      7.6420    139.5598
   312.2500      0.0000    736.1409      7.6345    140.9295
   312.5000      0.0000    736.0652      7.6439    139.4176
   312.7500      0.0000    736.0432      7.6543    135.8352
   313.0000      0.0000    736.0479      7.6573    129.1554
   313.2500      0.0000    736.0883      7.6437    125.5599
   313.5000      0.0000    736.2892      7.5887    122.6032
   313.7500      0.0000    736.6304      7.5193    122.1122
   314.0000      0.0000    737.7753      7.3476    123.5608
   314.2500      0.0000    739.1364      7.1863    126.0876
   314.5000      0.0000    741.9390      6.9034    131.1048
   314.7500      0.0000    743.9630      6.7226    133.6834
   315.0000      0.0000    747.0715      6.5181    133.9715
   315.2500      0.0000    750.1396      6.4321    131.6263
   315.5000      0.0000    759.8400      6.3433    126.3410
   315.7500      0.0000    771.5410      6.2938    123.3324
   316.0000      0.0000    795.6557      6.2489    121.5623
   316.2500      0.0000    812.2849      6.2615    122.3978
   316.5000      2.0000    830.5703      6.3643    125.8542
   316.7500      0.0000    836.3110      6.4860    129.1307
   317.0000      0.0000    836.7180      6.7445    135.3177
   317.2500      0.0000    833.2938      6.9840    140.4409
   317.5000      0.0000    823.0482      7.5014    149.2577
   317.7500      0.0000    811.3099      7.9653    154.8054
   318.0000      0.0000    785.4557      8.7431    159.8972
   318.2500      0.0000    765.8080      9.2035    160.2192
   318.5000      0.0000    742.1424      9.6714    157.0226
   318.7500      0.0000    734.0002      9.8470    153.9536
   319.0000      0.0000    732.0861     10.0138    150.4253
   319.2500      0.0000    734.1088     10.1046    149.5022
   319.5000      0.0000    736.9026     10.2201    149.6540
   319.7500      0.0000    737.6309     10.2749    149.4702
   320.0000      0.0000    737.6634     10.3202    146.2196
   320.2500      0.0000    737.5239     10.3313    141.3786
   320.5000      0.0000    737.4438     10.3324    131.0708
   320.7500      0.0000    737.4816     10.3306    123.6327
   321.0000      0.0000    737.6122     10.3383    114.1292
   321.2500      0.0000    737.7263     10.3564    109.4656
   321.5000      0.0000    737.8579     10.4063    103.7970
   321.7500      0.0000    737.8506     10.4527     99.6330
   322.0000      0.0000    737.6314     10.5255     92.0277
   322.2500      0.0000    737.3897     10.5602     87.0993
   322.5000      0.0000    737.0679     10.5754     83.1383
   322.7500      0.0000    736.9873     10.5730     84.1720
   323.0000      0.0000    737.1765     10.5956     91.1469
   323.2500      0.0000    737.5485     10.6452     98.1450
   323.5000      0.0000    738.4940     10.7608    109.8727
   323.7500      0.0000    739.2687     10.8462    118.0233
   324.0000      0.0000    740.0832     10.9663    131.1653
   324.2500      0.0000    739.9576     11.0492    140.5441
   324.5000      0.0000    738.1398     11.2238    153.7600
   324.7500      0.0000    735.2048     11.4034    160.0653
   325.0000      0.0000    724.9495     11.7855    162.3931
   325.2500      0.0000    710.3793     12.1008    157.9999
   325.5000      0.0000    669.4546     12.6217    142.7360
   325.7500      0.0000    627.9977     12.9758    128.5942
   326.0000      0.0000    552.0038     13.4661    107.3024
   326.2500      0.0000    500.9478     13.7297     96.9368
   326.5000      0.0000    438.0913     13.9855     91.1120
   326.7500      0.0000    409.6748     14.0614     93.4796
   327.0000      0.0000    387.7665     14.0658    102.7897
   327.2500      0.0000    385.6705     14.0228    109.9406
   327.5000      0.0000    400.5235     13.9264    117.2846
   327.7500      0.0000    422.2047     13.8511    118.3946
   328.0000      0.0000    465.5181     13.7249    116.2695
   328.2500      0.0000    492.4407     13.6347    115.6434
   328.5000      0.0000    516.7136     13.5020    120.8457
   328.7500      0.0000    523.8421     13.4158    128.6059
   329.0000      0.0000    537.9146     13.2697    142.9358
   329.2500      0.0000    558.3475     13.1457    151.9444
