~Version Information
VERS.                      2.0: CWLS Log ASCII Standard - VERSION 2.0
WRAP.                       NO: One line per depth step
~Well Information Block
STRT.FT                 0.0000: 
STOP.FT              2792.7500: 
STEP.FT                 0.2500: 
NULL.                -999.2500: 
COMP.          Pioneer Natural Resources: COMPANY
WELL.          Black Cat 13-32: WELL
FLD.           Purgatorie River: FIELD
LOC.           1865' FSL & 1120' FWL: LOCATION
PROV.                 Colorado: PROVINCE
CNTY.               Las Animas: COUNTRY
SRVC.                Patterson: SERVICE COMPANY
DATE.          Fri Aug 19 09:19:21 2005: LOG DATE
UWI.                          : UNIQUE WELL ID
~Curve Information Block
DEPT.FT            0 000 00 00: Depth
CCL.                          : Casing Collar Locator
TT3.usec                      : CBL 3' Travel Time
AMP3.mV                       : CBL 3' Amplitude
GR.GAPI                       : Gamma Ray
~Parameter Information Block
~A  Depth       CCL         TT3         AMP3         GR     
     0.0000   -999.2500   1374.0000      1.0510     66.5132
     0.2500   -999.2500   1374.0000      1.0173     58.8467
     0.5000   -999.2500   1374.0000      1.0105     50.4467
     0.7500   -999.2500   1374.0000      1.0377     41.7622
     1.0000   -999.2500   1374.0000      1.0709     34.5349
     1.2500   -999.2500   1374.0000      1.0819     30.4958
     1.5000   -999.2500   1374.0000      1.0668     30.1577
     1.7500   -999.2500   1374.0000      1.0389     32.8724
     2.0000   -999.2500   1374.0000      1.0154     37.5572
     2.2500   -999.2500   1374.0000      1.0067     43.1077
     2.5000   -999.2500   1374.0000      1.0045     48.6241
     2.7500      0.0000   1374.0000      0.9939     53.7949
     3.0000      0.0000   1374.0000      0.9785     58.8763
     3.2500      0.0000   1374.0000      0.9712     63.8710
     3.5000      0.0000   1374.0000      0.9753     68.0506
     3.7500      0.0000   1374.0000      0.9909     70.8045
     4.0000      0.0000   1374.0000      1.0140     72.5319
     4.2500      0.0000   1374.0000      1.0303     74.0824
     4.5000      0.0000   1374.0000      1.0247     75.7081
     4.7500      0.0000   1374.0000      0.9974     77.1500
     5.0000      0.0000   1374.0000      0.9673     78.4657
     5.2500      0.0000   1374.0000      0.9549     80.2635
     5.5000      0.0000   1374.0000      0.9653     82.9894
     5.7500      0.0000   1374.0000      0.9895     85.9791
     6.0000      0.0000   1374.0000      1.0111     87.3702
     6.2500      0.0000   1374.0000      1.0152     85.5470
     6.5000      0.0000   1374.0000      1.0015     81.0233
     6.7500      0.0000   1374.0000      0.9841     76.5682
     7.0000      0.0000   1374.0000      0.9790     75.3091
     7.2500      0.0000   1374.0000      0.9907     78.8248
     7.5000      0.0000   1374.0000      1.0110     86.6005
     7.7500      0.0000   1374.0000      1.0322     96.3011
     8.0000      0.0000   1374.0000      1.0506    104.4177
     8.2500      0.0000   1374.0000      1.0565    107.7360
     8.5000      0.0000   1374.0000      1.0414    105.3284
     8.7500      0.0000   1374.0000      1.0119     99.4246
     9.0000      0.0000   1374.0000      0.9847     94.0688
     9.2500      0.0000   1374.0000      0.9717     92.4835
     9.5000      0.0000   1374.0000      0.9750     95.2004
     9.7500      0.0000   1374.0000      0.9891    100.2962
    10.0000      0.0000   1374.0000      1.0073    105.1593
    10.2500      0.0000   1374.0000      1.0225    108.2199
    10.5000      0.0000   1374.0000      1.0287    109.6434
    10.7500      0.0000   1374.0000      1.0271    110.8733
    11.0000      0.0000   1374.0000      1.0239    113.3611
    11.2500      0.0000   1374.0000      1.0224    117.2888
    11.5000      0.0000   1374.0000      1.0220    121.4142
    11.7500      0.0000   1374.0000      1.0219    124.1850
    12.0000      0.0000   1374.0000      1.0214    124.8659
    12.2500      0.0000   1374.0000      1.0194    123.6680
    12.5000      0.0000   1374.0000      1.0141    121.2353
    12.7500      0.0000   1374.0000      1.0068    118.1935
    13.0000      0.0000   1374.0000      1.0030    114.9119
    13.2500      0.0000   1374.0000      1.0068    111.5231
    13.5000      0.0000   1374.0000      1.0142    108.3259
    13.7500      0.0000   1374.0000      1.0194    106.0887
    14.0000      0.0000   1374.0000      1.0219    105.6488
    14.2500      0.0000   1374.0000      1.0244    107.3384
    14.5000      0.0000   1374.0000      1.0298    110.9609
    14.7500      0.0000   1374.0000      1.0375    115.9436
    15.0000      0.0000   1374.0000      1.0424    121.1307
    15.2500      0.0000   1374.0000      1.0398    124.7675
    15.5000      0.0000   1374.0000      1.0298    125.4059
    15.7500      0.0000   1374.0000      1.0156    123.2061
    16.0000      0.0000   1374.0000      1.0068    120.1448
    16.2500      0.0000   1373.9121      1.0111    118.5330
    16.5000      0.0000   1372.8993      1.0178    119.1316
    16.7500      0.0000   1365.4161      1.0301    120.6688
    17.0000      0.0000   1329.9641      1.1430    121.0115
    17.2500      0.0000   1222.2775      1.5667    118.9062
    17.5000      0.0000   1012.5618      2.4257    115.0265
    17.7500      0.0000    750.7412      3.4664    111.3717
    18.0000      0.0000    541.2504      4.2360    109.3422
    18.2500      0.0000    433.8880      4.5858    108.4994
    18.5000      0.0000    398.6636      4.6955    107.4070
    18.7500      0.0000    391.1969      4.7409    105.3667
    19.0000      0.0000    390.0358      4.7767    102.9457
    19.2500      0.0000    389.7372      4.8053    101.1106
    19.5000      0.0000    389.5213      4.8243    100.3599
    19.7500      0.0000    389.3235      4.8320    100.5966
    20.0000      0.0000    389.1727      4.8381    101.2433
    20.2500      0.0000    389.1060      4.8560    101.4039
    20.5000      0.0000    389.1194      4.8808    100.4205
    20.7500      0.0000    389.1385      4.8987     98.5069
    21.0000      0.0000    389.1088      4.9055     96.5981
    21.2500      0.0000    389.0705      4.9053     95.4382
    21.5000      0.0000    389.0915      4.9082     94.9196
    21.7500      0.0000    389.2469      4.9205     94.3961
    22.0000      0.0000    389.8329      4.9368     93.5578
    22.2500      0.0000    391.8218      4.9444     92.8036
    22.5000      0.0000    397.0871      4.9358     92.8151
    22.7500      0.0000    406.9647      4.9213     93.9555
    23.0000      0.0000    420.3983      4.9186     95.9136
    23.2500      0.0000    436.9144      4.9297     97.6457
    23.5000      0.0000    461.0563      4.9486     97.9114
    23.7500      0.0000    495.6896      4.9777     96.3699
    24.0000      0.0000    534.0993      5.0209     94.0689
    24.2500      0.0000    570.3626      5.0717     92.5009
    24.5000      0.0000    603.8220      5.1164     92.2686
    24.7500      0.0000    628.1223      5.1422     92.9559
    25.0000      0.0000    639.1522      5.1451     94.0857
    25.2500      0.0000    644.0540      5.1369     95.6732
    25.5000      0.0000    647.5640      5.1386     97.6585
    25.7500      0.0000    646.0288      5.1542     99.1615
    26.0000      0.0000    638.5656      5.1656     98.7948
    26.2500      0.0000    630.7981      5.1644     95.9355
    26.5000      0.0000    627.5783      5.1677     91.5193
    26.7500      0.0000    629.5743      5.1956     87.1712
    27.0000      0.0000    634.3538      5.2538     83.6458
    27.2500      0.0000    637.1135      5.3368     80.6072
    27.5000      0.0000    634.7972      5.4324     77.7473
    27.7500      0.0000    629.8613      5.5323     75.3070
    28.0000      0.0000    626.2490      5.6336     73.4279
    28.2500      0.0000    624.8099      5.7279     71.7977
    28.5000      0.0000    624.4821      5.7904     70.2931
    28.7500      0.0000    624.4753      5.7875     69.4552
    29.0000      0.0000    624.5239      5.7045     70.0530
    29.2500      0.0000    624.5486      5.5556     72.3504
    29.5000      0.0000    624.5086      5.3707     75.6965
    29.7500      0.0000    624.4092      5.1821     78.6372
    30.0000      0.0000    624.3123      5.0113     79.7545
    30.2500      0.0000    624.2631      4.8612     78.8582
    30.5000      0.0000    624.2611      4.7263     77.2577
    30.7500      0.0000    624.2664      4.6067     76.4463
    31.0000      0.0000    624.0997      4.5153     76.5135
    31.2500      0.0000    623.2298      4.4714     76.1615
    31.5000      0.0000    620.5418      4.4839     74.1623
    31.7500      0.0000    615.0991      4.5294     70.4532
    32.0000      0.0000    608.0478      4.5598     65.9914
    32.2500      0.0000    602.4110      4.5501     62.0409
    32.5000      0.0000    600.3378      4.5182     59.6555
    32.7500      0.0000    602.3048      4.4879     59.3489
    33.0000      0.0000    607.6762      4.4549     60.8239
    33.2500      0.0000    612.8340      4.3990     62.9791
