~Version Information
VERS.                      2.0: CWLS Log ASCII Standard - VERSION 2.0
WRAP.                       NO: One line per depth step
~Well Information Block
STRT.FT                10.0000: 
STOP.FT               907.0000: 
STEP.FT                 0.1000: 
NULL.                -999.2500: 
COMP.          Pioneer Natural Resources: COMPANY
WELL.           Hartford 31-18: WELL
FLD.           Purgatorie River: FIELD
LOC.           375' FNL & 1660' FEL: LOCATION
PROV.                 Colorado: PROVINCE
CNTY.               Las Animas: COUNTRY
SRVC.                Patterson: SERVICE COMPANY
DATE.          Mon Nov 21 07:39:41 2005: LOG DATE
UWI.            05-071-08555              : UNIQUE WELL ID
~Curve Information Block
DEPT.FT            0 000 00 00: Depth
DCAL.in                       : CDL Caliper
RHOB.g/cc                     : CDL Bulk Density
RHOC.g/cc                     : CDL Density Correction
DPOR.pu                       : CDL Density Porosity
GR.GAPI                       : Gamma Ray
NPOR.pu                       : Neutron Porosity
~Parameter Information Block
~A  Depth       DCAL        RHOB        RHOC        DPOR         GR         NPOR    
# ...
    67.6000     -3.1029      2.2596      2.4036     -0.0078    153.2621     28.6369
    67.7000     -3.1029      2.2603      2.4324     -0.0078    151.6101     28.6222
    67.8000     -3.1029      2.2543      2.4128     -0.0079    149.9371     28.2019
    67.9000     -3.1029      2.2463      2.3807     -0.0081    148.9830     27.4471
    68.0000     -3.1029      2.2392      2.4180     -0.0082    145.8703     26.9494
    68.1000     -3.1029      2.2282      2.3868     -0.0084    142.4153     26.8304
    68.2000     -3.1029      2.2248      2.3375     -0.0085    143.4141     27.0619
    68.3000     -3.1029      2.2386      2.4015     -0.0082    148.2846     27.7217
    68.4000     -3.1029      2.2516      2.4349     -0.0080    150.8054     28.3751
    68.5000     -3.1029      2.2470      2.4253     -0.0081    149.4140     28.4520
    68.6000     -3.1029      2.2309      2.4086     -0.0084    147.6454     28.1551
    68.7000     -3.1029      2.2198      2.3897     -0.0086    147.2897     28.0804
    68.8000     -3.1029      2.2231      2.3760     -0.0085    147.3967     28.3621
    68.9000     -3.1029      2.2317      2.4487     -0.0084    148.2419     28.5643
    69.0000     -3.1029      2.2355      2.3818     -0.0083    151.2697     28.3592
    69.1000     -3.1029      2.2430      2.3912     -0.0081    154.6045     27.9520
    69.2000     -3.1029      2.2536      2.4196     -0.0079    155.1436     27.7701
    69.3000     -3.1029      2.2522      2.4330     -0.0080    152.6039     28.0057
    69.4000     -3.1029      2.2397      2.4026     -0.0082    148.9213     28.3779
    69.5000     -3.1029      2.2359      2.3706     -0.0083    144.0121     28.5524
    69.6000     -3.1029      2.2534      2.4096     -0.0079    138.8859     28.6086
    69.7000     -3.1029      2.2813      2.4445     -0.0074    137.5107     28.6241
    69.8000     -3.1029      2.2988      2.4550     -0.0070    139.9710     28.6012
    69.9000     -3.1029      2.2977      2.4263     -0.0070    141.7100     28.5898
    70.0000     -3.1029      2.2851      2.4127     -0.0073    140.6838     28.4734
    70.1000     -3.1029      2.2663      2.4022     -0.0077    138.6695     28.3764
    70.2000     -3.1029      2.2463      2.3799     -0.0081    136.9308     28.4210
    70.3000     -3.1029      2.2328      2.3964     -0.0083    134.8506     28.4194
    70.4000     -3.1029      2.2296      2.3694     -0.0084    133.0180     28.2333
    70.5000     -3.1029      2.2403      2.3675     -0.0082    135.0338     27.8739
    70.6000     -3.1029      2.2600      2.4099     -0.0078    139.4251     27.3314
    70.7000     -3.1029      2.2691      2.4306     -0.0076    137.5441     26.4998
    70.8000     -3.1029      2.2628      2.3873     -0.0077    128.3872     25.7315
    70.9000     -3.1029      2.2548      2.4182     -0.0079    121.5403     25.6186
    71.0000     -3.1029      2.2482      2.4315     -0.0080    122.3470     26.0726
    71.1000     -3.1029      2.2357      2.3895     -0.0083    125.7112     26.5035
    71.2000     -3.1029      2.2145      2.3836     -0.0087    127.1617     26.6603
    71.3000     -3.1029      2.1902      2.3558     -0.0092    129.5969     26.8419
    71.4000     -3.1029      2.1735      2.3772     -0.0095    136.1022     27.0274
    71.5000     -3.1029      2.1729      2.3494     -0.0095    143.2697     26.9819
    71.6000     -3.1029      2.1889      2.3358     -0.0092    147.6188     27.0583
    71.7000     -3.1029      2.2123      2.3852     -0.0088    149.1086     27.4872
    71.8000     -3.1029      2.2350      2.3667     -0.0083    146.7172     27.7823
    71.9000     -3.1029      2.2558      2.3974     -0.0079    138.6864     27.6359
    72.0000     -3.1029      2.2668      2.4510     -0.0077    130.0180     27.3750
    72.1000     -3.1029      2.2610      2.4063     -0.0078    128.5034     27.0785
    72.2000     -3.1029      2.2483      2.3810     -0.0080    134.7251     26.4681
    72.3000     -3.1029      2.2421      2.3648     -0.0082    143.3868     25.8003
    72.4000     -3.1029      2.2462      2.3897     -0.0081    149.1976     25.5449
    72.5000     -3.1029      2.2586      2.3627     -0.0078    148.6694     25.7310
    72.6000     -3.1029      2.2732      2.4127     -0.0075    142.0394     26.2090
    72.7000     -3.1029      2.2786      2.4195     -0.0074    134.1326     26.8029
    72.8000     -3.1029      2.2756      2.3861     -0.0075    129.2412     27.2778
    72.9000     -3.1029      2.2787      2.3732     -0.0074    127.3166     27.2402
    73.0000     -3.1029      2.2935      2.4153     -0.0071    126.3502     26.3964
    73.1000     -3.1029      2.3057      2.4399     -0.0069    124.0922     25.2602
    73.2000     -3.1029      2.2981      2.4383     -0.0070    120.3438     24.6763
    73.3000     -3.1029      2.2679      2.4350     -0.0076    118.1822     25.0084
    73.4000     -3.1029      2.2377      2.3318     -0.0082    118.0829     25.6699
    73.5000     -3.1029      2.2329      2.3608     -0.0083    118.2769     25.6218
    73.6000     -3.1029      2.2414      2.4376     -0.0082    118.7907     25.0389
    73.7000     -3.1029      2.2396      2.3964     -0.0082    120.0514     24.8175
    73.8000     -3.1029      2.2333      2.3715     -0.0083    122.4906     24.8572
    73.9000     -3.1029      2.2352      2.3965     -0.0083    125.5363     24.5815
    74.0000     -3.1029      2.2382      2.3771     -0.0082    128.3951     24.0581
    74.1000     -3.1029      2.2347      2.3792     -0.0083    129.2309     23.7498
    74.2000     -3.1029      2.2355      2.3512     -0.0083    127.1709     24.0769
    74.3000     -3.1029      2.2536      2.3909     -0.0079    124.9388     24.8766
    74.4000     -3.1029      2.2758      2.4141     -0.0075    123.3872     25.4321
    74.5000     -3.1029      2.2759      2.4064     -0.0075    120.4374     25.4328
    74.6000     -3.1029      2.2540      2.3852     -0.0079    116.6924     25.0104
    74.7000     -3.1029      2.2324      2.3790     -0.0084    114.8466     24.4988
    74.8000     -3.1029      2.2271      2.3724     -0.0085    114.7946     24.3333
    74.9000     -3.1029      2.2359      2.3851     -0.0083    116.4974     24.4218
    75.0000     -3.1029      2.2443      2.3804     -0.0081    119.7978     24.2733
    75.1000     -3.1029      2.2474      2.3792     -0.0081    122.5788     23.9552
    75.2000     -3.1029      2.2502      2.3884     -0.0080    124.3276     23.9729
    75.3000     -3.1029      2.2522      2.4248     -0.0080    123.4526     24.3523
    75.4000     -3.1029      2.2526      2.4004     -0.0080    120.3870     24.5843
    75.5000     -3.1029      2.2561      2.4031     -0.0079    118.8123     24.5398
    75.6000     -3.1029      2.2604      2.4332     -0.0078    117.8462     24.4720
    75.7000     -3.1029      2.2613      2.3775     -0.0078    114.5267     24.2971
    75.8000     -3.1029      2.2647      2.3885     -0.0077    109.4616     23.9613
    75.9000     -3.1029      2.2794      2.3884     -0.0074    105.4258     23.6959
    76.0000     -3.1029      2.3061      2.4163     -0.0069    104.2085     23.4871
    76.1000     -3.1029      2.3347      2.4172     -0.0063    105.5401     23.3082
    76.2000     -3.1029      2.3543      2.4320     -0.0059    107.6996     23.4154
    76.3000     -3.1029      2.3537      2.4785     -0.0059    108.5565     23.7483
    76.4000     -3.1029      2.3310      2.4100     -0.0064    107.6292     24.0014
    76.5000     -3.1029      2.3072      2.3637     -0.0069    106.2681     24.1091
    76.6000     -3.1029      2.2999      2.4063     -0.0070    104.3219     23.8451
    76.7000     -3.1029      2.3049      2.3994     -0.0069    101.8471     22.9972
    76.8000     -3.1029      2.3167      2.3854     -0.0067    100.9694     22.1987
    76.9000     -3.1029      2.3332      2.3998     -0.0063    102.4705     22.1628
    77.0000     -3.1029      2.3403      2.4609     -0.0062    104.2633     22.6373
    77.1000     -3.1029      2.3279      2.4292     -0.0064    105.4512     22.7985
