~Version Information
VERS.                      2.0: CWLS Log ASCII Standard - VERSION 2.0
WRAP.                       NO: One line per depth step
~Well Information Block
STRT.FT               230.0000: 
STOP.FT               706.5000: 
STEP.FT                 0.1000: 
NULL.                -999.2500: 
COMP.          Pioneer Natural Resources: COMPANY
WELL.          Razor Clam 23-27: WELL
FLD.           Purgatoire River: FIELD
LOC.           2499' FSL & 2636' FWL: LOCATION
CNTY.               Las Animas: COUNTY
SRVC.                Patterson: SERVICE COMPANY
DATE.          Mon Feb 13 07:31:47 2006: LOG DATE
UWI.           05 071 08667 00: UNIQUE WELL ID
STAT.                 Colorado: STATE
~Curve Information Block
DEPT.FT            0 000 00 00: Depth
DCAL.in                       : CDL Caliper
RHOB.g/cc                     : CDL Bulk Density
RHOC.g/cc                     : CDL Density Correction
DPOR.pu                       : CDL Density Porosity
GR.GAPI                       : Gamma Ray
NPOR.pu                       : Neutron Porosity
~Parameter Information Block
~A  Depth       DCAL        RHOB        RHOC        DPOR         GR         NPOR    
# ...
   258.8000     10.8128      2.5316      0.0625      7.1766     47.3997     16.8525
   258.9000     10.8128      2.5711      0.0883      4.7807     44.6669     16.1804
   259.0000     10.8126      2.5974      0.1399      3.1880     42.3131     16.1887
   259.1000     10.8126      2.5996      0.1092      3.0557     42.2807     16.3638
   259.2000     10.8126      2.5902      0.1224      3.6261     43.3779     16.2874
   259.3000     10.8132      2.5791      0.0864      4.2950     42.0078     16.4798
   259.4000     10.8132      2.5672      0.0636      5.0191     38.2623     17.2143
   259.5000     10.8156      2.5519      0.0913      5.9476     37.8566     17.6849
   259.6000     10.8156      2.5313      0.0362      7.1924     43.7744     17.1432
   259.7000     10.8156      2.5103      0.0430      8.4661     49.9776     16.4932
   259.8000     10.8170      2.4948      0.0289      9.4075     49.2083     16.6069
   259.9000     10.8170      2.4905      0.0008      9.6669     43.9664     16.8388
   260.0000     10.8130      2.4959      0.0299      9.3419     42.4490     16.7361
   260.1000     10.8130      2.5017      0.0063      8.9868     45.8380     16.5795
   260.2000     10.8130      2.5069      0.0410      8.6733     49.9024     16.1902
   260.3000     10.8123      2.5040      0.0103      8.8495     56.1123     15.5549
   260.4000     10.8123      2.4565      0.0068     11.7250     63.4231     15.1189
   260.5000     10.8171      2.3037      0.0251     20.9857     63.8784     14.7913
   260.6000     10.8171      2.0269     -0.0967     37.7623     57.5774     14.3994
   260.7000     10.8171      1.7159     -0.2221     56.6142     52.5226     13.8763
   260.8000     10.7439      1.4831     -0.2846     70.7203     53.2548     13.0474
   260.9000     10.7439      1.3480     -0.2662     78.9072     58.2248     12.2800
   261.0000     10.3150      1.3001     -0.2895     81.8118     61.6993     12.1839
   261.1000     10.3150      1.3976     -0.2843     75.9009     60.3797     12.8387
   261.2000     10.3150      1.6844      0.0735     58.5203     58.4222     13.5663
   261.3000     10.2020      2.0605      0.6229     35.7270     59.7110     13.8177
   261.4000     10.2020      2.3708      0.7213     16.9241     60.8919     14.2253
   261.5000     10.0434      2.5633      0.7777      5.2574     56.2521     15.4887
   261.6000     10.0434      2.6650      0.7992     -0.9097     48.5331     17.4683
   261.7000     10.0434      2.7154      0.6747     -3.9622     45.2274     19.7359
   261.8000      9.5346      2.7534      0.5908     -6.2658     47.5810     21.7820
   261.9000      9.5346      2.7798      0.5787     -7.8676     51.5734     23.1825
   262.0000      9.0681      2.7545      0.4206     -6.3350     52.9587     23.9707
   262.1000      9.0681      2.6737      0.1705     -1.4354     50.5727     24.3829
   262.2000      9.0681      2.5883      0.0428      3.7401     47.8351     24.4675
   262.3000      8.7120      2.5309      0.0487      7.2172     47.6954     24.0534
   262.4000      8.7120      2.4964     -0.0103      9.3108     49.9664     23.4130
   262.5000      8.0209      2.4841     -0.0112     10.0565     52.9044     23.1014
   262.6000      8.0209      2.4993     -0.0048      9.1359     55.1414     22.8871
   262.7000      8.0209      2.5347      0.0480      6.9878     55.6080     22.3568
   262.8000      8.0179      2.5675      0.0806      5.0012     53.1491     21.7215
   262.9000      8.0179      2.5697      0.1005      4.8695     49.1900     21.1000
   263.0000      8.0193      2.5425      0.0502      6.5172     48.4156     20.7284
   263.1000      8.0193      2.5204      0.0250      7.8519     52.9659     20.8385
   263.2000      8.0193      2.5217      0.0678      7.7765     59.7715     21.3073
   263.3000      8.0195      2.5329      0.0306      7.0983     65.8248     21.7310
   263.4000      8.0195      2.5394      0.0344      6.7055     67.1230     21.3596
   263.5000      8.0190      2.5368     -0.0035      6.8599     62.6051     20.5355
   263.6000      8.0190      2.5339     -0.0109      7.0360     59.4854     20.4291
   263.7000      8.0190      2.5417     -0.0011      6.5644     63.8474     21.3633
   263.8000      8.0148      2.5574      0.0028      5.6115     73.5350     22.7111
   263.9000      8.0148      2.5654      0.0427      5.1290     81.0451     23.8116
   264.0000      8.0158      2.5561      0.0077      5.6923     80.8047     24.8738
   264.1000      8.0158      2.5409     -0.0037      6.6110     74.8009     26.4079
   264.2000      8.0158      2.5313      0.0135      7.1930     70.2418     28.1217
   264.3000      8.0216      2.5279     -0.0073      7.4011     71.0953     29.5898
   264.4000      8.0216      2.5388     -0.0152      6.7384     74.0523     31.2611
   264.5000      8.0129      2.5707      0.0382      4.8057     74.9431     33.2850
   264.6000      8.0129      2.6135     -0.0036      2.2095     75.3908     34.8397
   264.7000      8.0129      2.6563      0.0803     -0.3820     76.6834     35.7709
   264.8000      8.0103      2.7027     -0.0229     -3.1964     76.0351     36.6593
   264.9000      8.0103      2.7540      0.0642     -6.3018     75.0881     37.5812
   265.0000      8.0090      2.7844      0.0770     -8.1440     73.7453     38.0712
   265.1000      8.0090      2.7859      0.0136     -8.2359     67.2951     37.8286
   265.2000      8.0090      2.7809      0.0460     -7.9338     60.2344     36.9975
   265.3000      8.0063      2.7677      0.0555     -7.1336     61.0271     35.9385
   265.4000      8.0063      2.7229     -0.0348     -4.4171     65.1581     34.8489
   265.5000      7.9971      2.6541     -0.1245     -0.2499     62.4986     33.8424
   265.6000      7.9971      2.6063     -0.2802      2.6514     58.0890     32.9396
   265.7000      7.9971      2.5990     -0.2045      3.0908     61.2307     31.8158
   265.8000      7.9837      2.5957     -0.1603      3.2890     70.0329     30.2673
   265.9000      7.9837      2.5704     -0.1542      4.8260     75.6375     28.7605
   266.0000      7.9814      2.5429     -0.0906      6.4880     74.3777     27.5260
   266.1000      7.9814      2.5322     -0.0223      7.1384     74.0296     26.0232
   266.2000      7.9814      2.5301      0.0346      7.2645     81.6835     24.4029
   266.3000      7.9868      2.5302      0.0395      7.2587     91.9585     23.5324
   266.4000      7.9868      2.5453      0.0495      6.3435     96.5371     23.0168
   266.5000      7.9952      2.5738      0.1158      4.6176     99.0830     22.2043
   266.6000      7.9952      2.5882      0.1562      3.7448    106.8945     21.8605
   266.7000      7.9952      2.5769      0.1049      4.4326    115.4105     22.5084
   266.8000      8.0047      2.5518      0.1385      5.9514    119.1942     23.4881
   266.9000      8.0047      2.5225      0.0783      7.7275    124.4906     24.2350
   267.0000      8.0082      2.4964      0.0656      9.3084    136.8404     24.7418
   267.1000      8.0082      2.4766      0.0632     10.5078    151.3826     24.9118
   267.2000      8.0082      2.4601      0.0413     11.5070    161.0991     24.8373
   267.3000      8.0134      2.4470      0.0310     12.3007    163.6437     24.9399
   267.4000      8.0134      2.4423      0.0248     12.5878    160.3579     25.1474
   267.5000      8.0167      2.4517      0.0536     12.0212    153.6335     25.1802
   267.6000      8.0167      2.4812      0.0439     10.2316    149.9108     25.1125
   267.7000      8.0167      2.5312      0.1173      7.2027    153.2522     25.1688
   267.8000      8.0064      2.5758      0.1698      4.4986    159.1566     25.1709
   267.9000      8.0064      2.5838      0.1583      4.0132    161.0249     24.8298
   268.0000      8.0231      2.5641      0.0932      5.2087    157.1884     24.4899
   268.1000      8.0231      2.5481      0.1004      6.1736    151.1129     24.5007
   268.2000      8.0231      2.5420      0.0902      6.5476    147.1414     24.7248
   268.3000      8.0226      2.5351      0.0892      6.9663    144.4756     25.1570
