~Version Information
VERS.                      2.0: CWLS Log ASCII Standard - VERSION 2.0
WRAP.                       NO: One line per depth step
~Well Information Block
STRT.FT               480.0000: 
STOP.FT              1817.0000: 
STEP.FT                 0.1000: 
NULL.                -999.2500: 
COMP.          Pioneer Natural Resources: COMPANY
WELL.           Bobsy 34-11 Tr: WELL
FLD.           Purgatoire River: FIELD
LOC.           514' FSL & 1784' FEL: LOCATION
PROV.                 Colorado: PROVINCE
CNTY.               Las Animas: COUNTRY
SRVC.                Patterson: SERVICE COMPANY
DATE.          Tue Jul 19 10:30:09 2005: LOG DATE
UWI.           05 071 08438 00: UNIQUE WELL ID
~Curve Information Block
DEPT.FT            0 000 00 00: Depth
DCAL.in                       : CDL Caliper
DPOR.pu                       : CDL Density Porosity
GR.GAPI                       : Gamma Ray
NPOR.pu                       : Neutron Porosity
RHOB.g/cc                     : CDL Bulk Density
RHOC.g/cc                     : CDL Density Correction
~Parameter Information Block
~A  Depth       DCAL        DPOR         GR         NPOR        RHOB        RHOC    
# ...
  1094.4000      8.1914      9.5583    139.6807     27.1971      2.4923      0.1002
  1094.5000      8.3406     10.0418    146.8898     26.7749      2.4843      0.0683
  1094.6000      8.3406      9.7615    148.9961     26.5427      2.4889      0.0641
  1094.7000      8.3406      9.2261    145.6285     26.4881      2.4978      0.0412
  1094.8000      8.4016      8.6169    144.1329     26.6390      2.5078      0.0811
  1094.9000      8.4016      7.6295    144.2182     26.9598      2.5241      0.0863
  1095.0000      8.1892      5.9613    140.6446     27.4045      2.5516      0.1410
  1095.1000      8.1892      4.0123    136.3853     27.9803      2.5838      0.1804
  1095.2000      8.1892      2.0881    137.0446     28.5721      2.6155      0.1511
  1095.3000      8.1525     -0.3581    141.5775     28.9581      2.6559      0.1434
  1095.4000      8.1525     -3.4494    145.2597     29.1179      2.7069      0.1878
  1095.5000      8.0928     -6.3790    144.7702     29.2852      2.7553      0.1912
  1095.6000      8.0928     -8.6548    140.2479     29.4557      2.7928      0.2342
  1095.7000      8.0928    -10.3461    134.9725     29.3600      2.8207      0.2162
  1095.8000      8.0307    -10.9571    130.4878     28.7968      2.8308      0.2186
  1095.9000      8.0307    -10.0306    126.3973     28.0416      2.8155      0.1729
  1096.0000      8.0256     -8.3951    124.8768     27.6614      2.7885      0.0888
  1096.1000      8.0256     -6.6563    125.8919     27.5972      2.7598      0.1106
  1096.2000      8.0256     -4.4125    126.7982     27.3303      2.7228      0.0632
  1096.3000      7.9847     -1.8758    127.5359     26.9083      2.6810      0.0606
  1096.4000      7.9847      0.4468    127.8159     26.5779      2.6426      0.0369
  1096.5000      8.0269      2.2963    128.6673     26.2830      2.6121      0.0067
  1096.6000      8.0269      3.5223    130.2470     26.0262      2.5919      0.0020
  1096.7000      8.0269      4.5694    129.6320     25.9698      2.5746      0.0380
  1096.8000      8.1269      5.7713    125.4731     26.1466      2.5548      0.0168
  1096.9000      8.1269      6.5818    120.5859     26.3626      2.5414     -0.0280
  1097.0000      8.1447      6.7781    118.7396     26.3153      2.5382      0.0060
  1097.1000      8.1447      7.0380    119.0162     26.1462      2.5339      0.0195
  1097.2000      8.1447      7.7345    120.5967     26.1217      2.5224     -0.0001
  1097.3000      8.1850      8.3387    124.1723     25.9874      2.5124     -0.0163
  1097.4000      8.1850      8.2268    126.6200     25.8015      2.5143     -0.0160
  1097.5000      8.1934      7.0322    126.5975     25.7614      2.5340      0.0025
  1097.6000      8.1934      5.0376    127.4921     25.6878      2.5669      0.0858
  1097.7000      8.1934      3.3035    132.0150     25.5717      2.5955      0.0379
  1097.8000      8.1640      2.5393    139.0237     25.5833      2.6081      0.0596
  1097.9000      8.1640      3.1443    142.8971     25.6618      2.5981      0.0120
  1098.0000      8.1580      4.6717    139.3728     25.7558      2.5729     -0.0153
  1098.1000      8.1580      5.7351    133.7002     25.8321      2.5554      0.0139
  1098.2000      8.1580      6.0476    134.9439     25.7273      2.5502      0.0445
  1098.3000      8.1881      6.1163    140.8067     25.5520      2.5491      0.0018
  1098.4000      8.1881      5.8628    138.8911     25.4303      2.5533      0.0203
  1098.5000      8.1907      5.4855    127.9332     25.2223      2.5595      0.0527
  1098.6000      8.1907      5.4387    122.2956     25.0675      2.5603      0.0397
  1098.7000      8.1907      5.4587    127.7501     25.2914      2.5599      0.0122
  1098.8000      8.1572      5.1826    135.1586     25.7041      2.5645      0.0296
  1098.9000      8.1572      4.7609    139.6344     25.7971      2.5714      0.0210
  1099.0000      8.1378      4.3602    142.5175     25.5223      2.5781      0.0342
  1099.1000      8.1378      4.2535    142.7068     25.3652      2.5798      0.0584
  1099.2000      8.1378      4.8180    139.3391     25.7236      2.5705      0.0384
  1099.3000      8.1317      5.5842    131.5065     26.4118      2.5579      0.0232
  1099.4000      8.1317      5.7096    122.0052     27.1568      2.5558      0.0417
  1099.5000      8.1264      5.3091    119.2454     27.8748      2.5624      0.0408
  1099.6000      8.1264      5.0339    122.4632     28.3832      2.5669      0.0452
  1099.7000      8.1264      5.2310    123.6377     28.6028      2.5637      0.0778
  1099.8000      8.1096      5.5313    119.6185     28.6735      2.5587      0.0551
  1099.9000      8.1096      4.6235    110.8878     28.6814      2.5737      0.0058
  1100.0000      8.0938      1.6995    100.3555     28.6060      2.6220      0.0859
  1100.1000      8.0938     -2.3603     93.0446     28.5053      2.6889      0.0985
  1100.2000      8.0938     -6.7422     92.5539     28.3322      2.7612      0.0706
  1100.3000      8.0854    -11.2606     96.8616     28.0428      2.8358      0.1070
  1100.4000      8.0854    -14.9055    100.8697     27.7585      2.8959      0.2022
  1100.5000      8.0447    -16.9416    102.4957     27.4047      2.9295      0.1771
  1100.6000      8.0447    -17.6506    100.8011     26.7843      2.9412      0.1948
  1100.7000      8.0447    -16.5315     95.6718     25.9159      2.9228      0.2255
  1100.8000      7.9934    -12.6952     91.0403     24.9074      2.8595      0.1880
  1100.9000      7.9934     -6.4528     91.6612     23.9565      2.7565      0.1194
  1101.0000      7.9826      0.5238     98.7835     23.2327      2.6414     -0.0184
  1101.1000      7.9826      6.7519    108.5029     22.8536      2.5386     -0.0203
  1101.2000      7.9826     11.6153    115.5994     22.8168      2.4583     -0.0572
  1101.3000      7.9974     13.6783    118.4336     22.7867      2.4243     -0.0486
  1101.4000      7.9974     12.4817    119.2150     22.5964      2.4441      0.0910
  1101.5000      8.0849     10.3226    120.8551     22.4612      2.4797      0.1140
  1101.6000      8.0849      9.0599    123.6343     22.4231      2.5005      0.2154
  1101.7000      8.0849      8.4634    128.3761     22.4953      2.5104      0.2550
  1101.8000      8.1408      8.1478    137.6410     22.7470      2.5156      0.2915
  1101.9000      8.1408      8.3319    147.6155     22.9775      2.5125      0.2112
  1102.0000      8.1008      9.2364    152.5513     22.9955      2.4976      0.1911
  1102.1000      8.1008     10.8333    151.1950     23.0216      2.4713      0.1457
  1102.2000      8.1008     12.3748    148.1764     23.2115      2.4458      0.1312
  1102.3000      8.1539     13.4316    149.2553     23.5332      2.4284      0.1683
  1102.4000      8.1539     14.4704    152.3603     23.8960      2.4112      0.1651
  1102.5000      8.1696     15.4338    151.4411     23.9458      2.3953      0.1599
  1102.6000      8.1696     15.7317    146.5609     23.5663      2.3904      0.1642
  1102.7000      8.1696     15.2229    142.8864     23.3023      2.3988      0.1513
  1102.8000      8.2185     14.0736    142.1608     23.6755      2.4178      0.1762
  1102.9000      8.2185     12.3566    142.5310     24.5309      2.4461      0.1578
  1103.0000      8.2287      9.8428    142.8163     25.6448      2.4876      0.1917
  1103.1000      8.2287      6.4424    143.0982     26.8749      2.5437      0.2382
  1103.2000      8.2287      3.0211    142.8682     27.6451      2.6002      0.2991
  1103.3000      8.2295      1.1366    142.3421     27.6673      2.6312      0.2704
  1103.4000      8.2295      1.6755    145.3224     27.5384      2.6224      0.2526
  1103.5000      8.1848      4.1738    150.2432     27.6240      2.5811      0.2080
  1103.6000      8.1848      7.0040    149.3577     27.5233      2.5344      0.1675
  1103.7000      8.1848      8.2958    143.4308     27.1463      2.5131      0.1032
  1103.8000      8.1715      7.6822    140.6059     26.8912      2.5232      0.1335
  1103.9000      8.1715      6.3695    143.7525     26.8236      2.5449      0.1115
