~Version Information
VERS.                      2.0: CWLS Log ASCII Standard - VERSION 2.0
WRAP.                       NO: One line per depth step
~Well Information Block
STRT.FT               770.0000: 
STOP.FT              2171.0000: 
STEP.FT                 0.1000: 
NULL.                -999.2500: 
COMP.          Pioneer Natural Resources: COMPANY
WELL.              Kermit 32-7: WELL
FLD.           Purgatoire River: FIELD
LOC.           2002' FNL & 2103' FEL: LOCATION
PROV.                 Colorado: PROVINCE
CNTY.               Las Animas: COUNTRY
SRVC.                Patterson: SERVICE COMPANY
DATE.          Thu Jan 12 03:02:28 2006: LOG DATE
UWI.           05 071 08647 00: UNIQUE WELL ID
~Curve Information Block
DEPT.FT            0 000 00 00: Depth
DCAL.in                       : CDL Caliper
RHOB.g/cc                     : CDL Bulk Density
RHOC.g/cc                     : CDL Density Correction
DPOR.pu                       : CDL Density Porosity
GR.GAPI                       : Gamma Ray
NPOR.pu                       : Neutron Porosity
~Parameter Information Block
~A  Depth       DCAL        RHOB        RHOC        DPOR         GR         NPOR    
# ...
  1970.0000      7.9021      2.5450      0.1144      6.3661     94.6618     29.9695
  1970.1000      7.9021      2.5421      0.0466      6.5409    100.9379     30.1904
  1970.2000      7.9021      2.5196      0.0892      7.9000    104.7414     29.9701
  1970.3000      7.8558      2.4918     -0.0152      9.5885    105.6879     29.5382
  1970.4000      7.8558      2.4792      0.0610     10.3509    101.3723     29.4446
  1970.5000      7.8625      2.4910      0.0231      9.6350     91.6677     29.3363
  1970.6000      7.8625      2.5184      0.1119      7.9784     85.3792     28.6610
  1970.7000      7.8625      2.5428      0.1338      6.4974     90.5878     28.0488
  1970.8000      7.9046      2.5569      0.1371      5.6414    101.0459     28.1416
  1970.9000      7.9046      2.5668      0.1834      5.0425    104.1891     28.6532
  1971.0000      7.9175      2.5789      0.1880      4.3062     98.3346     28.6945
  1971.1000      7.9175      2.5878      0.1719      3.7692     90.9279     27.8782
  1971.2000      7.9175      2.5861      0.1227      3.8709     90.0403     27.0958
  1971.3000      7.8659      2.5851      0.1057      3.9332     94.7883     27.1869
  1971.4000      7.8659      2.5938      0.1728      3.4061     97.6970     27.5796
  1971.5000      7.8640      2.5979      0.1505      3.1565     97.0779     27.5341
  1971.6000      7.8640      2.5849      0.1282      3.9445     97.4922     27.0662
  1971.7000      7.8640      2.5705      0.0787      4.8189     99.7377     26.3686
  1971.8000      7.8718      2.5755      0.0737      4.5148    102.6197     25.9191
  1971.9000      7.8718      2.5924      0.1325      3.4935    104.7731     26.4049
  1972.0000      7.9156      2.5975      0.1223      3.1791    105.0831     27.7116
  1972.1000      7.9156      2.5845      0.1004      3.9704    102.9858     28.8719
  1972.2000      7.9156      2.5705      0.0287      4.8189     96.6449     28.9551
  1972.3000      7.9263      2.5746      0.0768      4.5672     89.7558     28.0938
  1972.4000      7.9263      2.5981      0.0685      3.1460     88.6223     27.1505
  1972.5000      7.9316      2.6212      0.1590      1.7461     93.0299     26.4606
  1972.6000      7.9316      2.6169      0.0962      2.0034     96.3065     25.4910
  1972.7000      7.9316      2.5877      0.0833      3.7750     94.4404     24.3773
  1972.8000      7.9336      2.5584      0.0052      5.5509     89.4961     24.0658
  1972.9000      7.9336      2.5424      0.0262      6.5222     84.4677     24.2208
  1973.0000      7.9108      2.5426     -0.0197      6.5077     80.4188     24.1654
  1973.1000      7.9108      2.5628      0.0002      5.2870     77.9730     23.8824
  1973.2000      7.9108      2.5869      0.1017      3.8264     78.0330     23.5383
  1973.3000      7.9158      2.5879      0.0903      3.7647     79.2191     23.5264
  1973.4000      7.9158      2.5670      0.0824      5.0322     76.7079     23.7526
  1973.5000      7.9062      2.5535      0.0465      5.8514     68.5616     23.9893
  1973.6000      7.9062      2.5697      0.0341      4.8638     62.1815     24.4736
  1973.7000      7.9062      2.6028      0.1001      2.8579     61.3855     24.9818
  1973.8000      7.9039      2.6222      0.0689      1.6855     60.5684     24.8504
  1973.9000      7.9039      2.6190      0.0676      1.8813     59.3284     24.4466
  1974.0000      7.9132      2.6062      0.0839      2.6548     60.8153     24.5971
  1974.1000      7.9132      2.5926      0.0997      3.4769     63.7053     25.3500
  1974.2000      7.9132      2.5764      0.0943      4.4609     64.8310     26.0362
  1974.3000      7.9360      2.5649      0.0614      5.1572     62.4746     25.9604
  1974.4000      7.9360      2.5718      0.0616      4.7376     60.6129     25.4119
  1974.5000      7.9203      2.5844      0.0819      3.9762     62.6930     25.4314
  1974.6000      7.9203      2.5787      0.0688      4.3233     66.0257     25.9512
  1974.7000      7.9203      2.5592      0.0301      5.5030     68.5470     26.0156
  1974.8000      7.9308      2.5462      0.0319      6.2924     70.4195     25.8263
  1974.9000      7.9308      2.5421      0.0626      6.5415     70.7599     26.1642
  1975.0000      7.9344      2.5304      0.0721      7.2485     70.8726     26.9100
  1975.1000      7.9344      2.5056      0.0308      8.7545     72.8466     27.5344
  1975.2000      7.9344      2.4853     -0.0021      9.9798     75.2029     27.6906
  1975.3000      7.9206      2.4857      0.0277      9.9567     76.1770     27.4379
  1975.4000      7.9206      2.4972      0.1220      9.2608     79.7632     27.3809
  1975.5000      7.9047      2.4991      0.0678      9.1441     86.5675     27.8738
  1975.6000      7.9047      2.4935      0.0801      9.4847     87.6742     28.4476
  1975.7000      7.9047      2.4993      0.0539      9.1335     80.7697     28.6279
  1975.8000      7.9184      2.5244      0.0837      7.6133     76.4891     28.4537
  1975.9000      7.9184      2.5561      0.1163      5.6933     83.2923     28.2677
  1976.0000      7.8804      2.5754      0.1367      4.5219     96.6569     28.2686
  1976.1000      7.8804      2.5777      0.0914      4.3808    106.4203     28.4140
  1976.2000      7.8804      2.5795      0.0946      4.2740    109.6714     28.5862
  1976.3000      7.9044      2.5889      0.1780      3.7026    110.5763     28.7547
  1976.4000      7.9044      2.5882      0.1310      3.7455    110.1600     29.0023
  1976.5000      7.9076      2.5745      0.0770      4.5767    108.6358     29.3695
  1976.6000      7.9076      2.5690      0.0727      4.9065    111.3929     29.9922
  1976.7000      7.9076      2.5758      0.1310      4.4942    119.3119     30.6503
  1976.8000      7.9282      2.5770      0.1388      4.4252    123.2470     30.5214
  1976.9000      7.9282      2.5626      0.0961      5.2979    115.3220     29.3869
  1977.0000      7.9380      2.5337      0.1081      7.0471     99.9757     28.1468
  1977.1000      7.9380      2.5057      0.0246      8.7448     92.2079     28.2476
  1977.2000      7.9380      2.5026      0.0904      8.9319     97.8653     29.8639
  1977.3000      7.9355      2.5171      0.0743      8.0529    105.0964     30.9821
  1977.4000      7.9355      2.5236      0.0874      7.6577    102.3336     30.7849
  1977.5000      7.9515      2.5164      0.0741      8.0947     94.0312     30.3810
  1977.6000      7.9515      2.5112      0.0637      8.4125     88.8002     29.8268
  1977.7000      7.9515      2.5233      0.0610      7.6810     88.2134     28.9022
  1977.8000      7.9644      2.5447      0.1081      6.3789     91.8678     28.0088
  1977.9000      7.9644      2.5551      0.1075      5.7515     98.3328     27.5490
  1978.0000      7.9891      2.5486      0.1056      6.1441    102.9675     27.2936
  1978.1000      7.9891      2.5328      0.0935      7.1059    102.6891     27.0083
  1978.2000      7.9891      2.5161      0.0663      8.1154     98.1602     26.8511
  1978.3000      7.9243      2.5030      0.0844      8.9098     92.8604     26.4468
  1978.4000      7.9243      2.4936      0.0775      9.4777     92.8490     25.9002
  1978.5000      7.9153      2.4840      0.1162     10.0585     97.9128     26.0673
  1978.6000      7.9153      2.4686      0.0852     10.9941    101.8527     26.7843
  1978.7000      7.9153      2.4492      0.0802     12.1695    102.1949     27.3075
  1978.8000      7.9261      2.4310      0.0664     13.2698    101.1882     28.0146
  1978.9000      7.9261      2.4104      0.0755     14.5237     99.9996     29.4075
  1979.0000      7.9245      2.3759      0.0339     16.6106     97.9146     30.6291
  1979.1000      7.9245      2.3294      0.0044     19.4293     94.9695     30.9073
  1979.2000      7.9245      2.2837      0.0199     22.2024     91.6214     30.5577
  1979.3000      7.9533      2.2381      0.0068     24.9650     87.4735     30.3632
  1979.4000      7.9533      2.1635      0.0725     29.4855     84.6113     30.9757
  1979.5000      7.9680      2.0273      0.0076     37.7381     89.0751     32.1180
