~Version Information
VERS.                      2.0: CWLS Log ASCII Standard - VERSION 2.0
WRAP.                       NO: One line per depth step
~Well Information Block
STRT.FT                -8.2500: 
STOP.FT              1580.5000: 
STEP.FT                 0.2500: 
NULL.                -999.2500: 
COMP.          Pioneer Natural Resources: COMPANY
WELL.          Daytona 31-14 Tr: WELL
FLD.           Purgatorie River: FIELD
LOC.           683' FNL & 1943' FEL--: LOCATION
CNTY.               Las Animas: COUNTY
SRVC.          Patterson Wireline: SERVICE COMPANY
DATE.          Thu Feb 02 08:47:22 2006: LOG DATE
UWI.           05 071 08681 00: UNIQUE WELL ID
STAT.                       CO: STATE
~Curve Information Block
DEPT.FT            0 000 00 00: Depth
CCL.                          : Casing Collar Locator
TT3.usec                      : CBL 3' Travel Time
AMP3.mV                       : CBL 3' Amplitude
GR.GAPI                       : Gamma Ray
~Parameter Information Block
~A  Depth       CCL         TT3         AMP3         GR     
# ...
   494.2500      0.0000    694.3505      6.3634    116.0063
   494.5000      0.0000    694.0654      6.4463    123.7669
   494.7500      0.0000    693.9034      6.5433    131.1375
   495.0000      0.0000    694.0674      6.6402    136.9518
   495.2500      0.0000    694.6713      6.7223    141.2562
   495.5000      0.0000    695.8200      6.7760    144.2949
   495.7500      0.0000    697.8681      6.7928    146.0424
   496.0000      0.0000    701.6014      6.7724    146.9409
   496.2500      0.0000    707.8700      6.7202    148.2336
   496.5000      0.0000    716.5543      6.6424    150.8872
   496.7500      0.0000    725.7659      6.5446    154.4172
   497.0000      0.0000    732.6146      6.4350    157.0416
   497.2500      0.0000    735.1867      6.3267    157.1348
   497.5000      0.0000    733.6389      6.2346    154.7935
   497.7500      0.0000    729.4124      6.1713    151.9411
   498.0000      0.0000    723.9078      6.1440    150.6356
   498.2500      0.0000    717.9830      6.1521    151.3684
   498.5000      0.0000    712.1917      6.1896    153.0244
   498.7500      0.0000    707.2097      6.2494    153.9808
   499.0000      0.0000    703.9207      6.3231    152.9628
   499.2500      0.0000    702.7871      6.3980    149.4754
   499.5000      0.0000    703.0881      6.4589    144.2191
   499.7500      0.0000    703.2252      6.4976    139.0952
   500.0000      0.0000    702.0875      6.5171    136.0062
   500.2500      0.0000    699.9208      6.5222    135.1475
   500.5000      0.0000    697.7637      6.5103    134.9451
   500.7500      0.0000    696.3464      6.4759    134.1410
   501.0000      0.0000    695.7016      6.4224    133.6108
   501.2500      0.0000    695.4918      6.3657    135.5620
   501.5000      0.0000    695.4041      6.3247    141.0083
   501.7500      0.0000    695.2867      6.3083    148.4827
   502.0000      0.0000    695.1157      6.3066    155.1923
   502.2500      0.0000    694.9194      6.2940    159.0525
   502.5000      0.0000    694.7178      6.2463    159.6335
   502.7500      0.0000    694.5113      6.1585    157.8470
   503.0000      0.0000    694.2971      6.0464    155.1952
   503.2500      0.0000    694.0848      5.9300    152.9216
   503.5000      0.0000    693.8937      5.8165    151.2367
   503.7500      0.0000    693.7439      5.7037    149.2719
   504.0000      0.0000    693.6447      5.5966    145.8696
   504.2500      0.0000    693.5811      5.5163    140.3134
   504.5000      0.0000    693.5219      5.4917    132.2813
   504.7500      0.0000    693.4586      5.5412    121.5388
   505.0000      0.0000    693.4314      5.6617    108.2545
   505.2500      0.0000    693.4984      5.8307     93.7219
   505.5000      0.0000    693.6781      6.0173     80.5075
   505.7500      0.0000    693.9297      6.1908     71.6152
   506.0000      0.0000    694.1915      6.3300     69.2470
   506.2500      0.0000    694.4231      6.4289     74.0025
   506.5000      0.0000    694.6008      6.4947     84.7745
   506.7500      0.0000    694.6901      6.5412     99.1813
   507.0000      0.0000    694.6520      6.5877    114.3522
   507.2500      0.0000    694.4865      6.6590    127.7243
   507.5000      0.0000    694.2623      6.7694    137.5297
   507.7500      0.0000    694.0842      6.9046    143.1778
   508.0000      0.0000    694.0295      7.0283    145.5127
   508.2500      0.0000    694.1295      7.1101    146.3943
   508.5000      0.0000    694.3879      7.1398    147.5349
   508.7500      0.0000    694.7601      7.1204    149.3706
   509.0000      0.0000    695.1061      7.0559    150.9528
   509.2500      0.0000    695.2438      6.9490    151.2175
   509.5000      0.0000    695.1006      6.8051    150.3549
   509.7500      0.0000    694.7822      6.6427    149.4370
   510.0000      0.0000    694.4596      6.4961    148.5761
   510.2500      0.0000    694.2238      6.3970    146.2480
   510.5000      0.0000    694.0710      6.3503    141.0417
   510.7500      0.0000    693.9581      6.3358    133.4672
   511.0000      0.0000    693.8192      6.3359    125.3236
   511.2500      0.0000    693.5723      6.3525    117.7152
   511.5000      0.0000    693.1691      6.3985    110.3929
   511.7500      0.0000    692.6421      6.4779    102.7872
   512.0000      0.0000    692.0968      6.5777     95.0423
   512.2500      0.0000    691.6668      6.6785     88.0798
   512.5000      0.0000    691.4885      6.7670     83.2699
   512.7500      0.0000    691.7227      6.8354     81.9915
   513.0000      0.0000    692.6235      6.8755     84.6556
   513.2500      0.0000    694.4808      6.8814     89.8517
   513.5000      0.0000    697.2258      6.8588     95.1316
   513.7500      0.0000    699.9812      6.8251     98.9991
   514.0000      0.0000    701.3516      6.7979    101.8080
   514.2500      0.0000    700.5663      6.7805    104.8068
   514.5000      0.0000    698.2225      6.7566    108.8706
   514.7500      0.0000    695.6809      6.7018    114.2085
   515.0000      0.0000    693.9222      6.6026    120.6795
   515.2500      0.0000    693.1156      6.4684    127.8312
   515.5000      0.0000    692.9562      6.3212    134.6667
   515.7500      0.0000    693.1080      6.1767    139.9910
   516.0000      0.0000    693.3882      6.0362    143.5529
   516.2500      0.0000    693.7327      5.8975    146.4241
   516.5000      0.0000    694.0988      5.7687    149.5091
   516.7500      0.0000    694.4295      5.6667    151.9812
   517.0000      0.0000    694.7255      5.6042    151.9450
   517.2500      0.0000    695.1605      5.5798    148.4109
   517.5000      0.0000    696.1793      5.5808    142.1222
   517.7500      0.0000    698.4252      5.5904    134.8878
   518.0000      0.0000    702.2949      5.5967    128.7269
   518.2500      0.0000    707.2910      5.6014    125.2900
   518.5000      0.0000    712.0784      5.6258    125.3139
   518.7500      0.0000    715.6802      5.6969    128.1924
   519.0000      0.0000    718.3196      5.8200    132.0873
   519.2500      0.0000    720.3178      5.9687    135.0947
   519.5000      0.0000    720.5930      6.1091    136.8013
   519.7500      0.0000    717.5467      6.2274    138.3294
   520.0000      0.0000    711.3979      6.3293    140.6008
   520.2500      0.0000    704.4839      6.4262    143.0839
   520.5000      0.0000    699.1512      6.5307    144.4470
   520.7500      0.0000    696.1145      6.6551    143.9620
   521.0000      0.0000    694.7510      6.8013    142.1420
   521.2500      0.0000    694.1334      6.9453    140.3949
   521.5000      0.0000    693.5392      7.0379    140.0504
   521.7500      0.0000    692.4980      7.0311    141.3488
   522.0000      0.0000    691.1133      6.9116    143.2046
   522.2500      0.0000    690.9365      6.7153    143.7875
   522.5000      0.0000    695.4198      6.5043    141.2837
   522.7500      0.0000    707.9897      6.3194    134.6830
   523.0000      0.0000    728.1329      6.1597    124.6659
   523.2500      0.0000    750.0280      6.0166    113.8945
   523.5000      0.0000    767.5864      5.9114    105.9246
   523.7500      0.0000    781.3676      5.8692    103.1872
   524.0000      0.0000    798.2710      5.8738    105.4825
   524.2500      2.0000    823.4194      5.8802    110.0510
   524.5000     -2.0000    853.7049      5.8722    113.1257
   524.7500      0.0000    879.0646      5.9006    111.9843
   525.0000      0.0000    888.2339      6.0602    106.0867
   525.2500      0.0000    875.1201      6.4054     96.7233
   525.5000      0.0000    843.7998      6.8683     86.1897
   525.7500      0.0000    807.2872      7.2899     77.3763
   526.0000      0.0000    778.7822      7.5656     73.1393
   526.2500      0.0000    763.5439      7.7298     75.2207
   526.5000      0.0000    758.3672      7.8797     83.6517
   526.7500      0.0000    756.1693      8.0564     96.9045
   527.0000      0.0000    750.6884      8.2227    112.3027
   527.2500      0.0000    739.4180      8.3170    126.9093
   527.5000      0.0000    724.1741      8.3089    139.0219
