~Version Information
VERS.                      2.0: CWLS Log ASCII Standard - VERSION 2.0
WRAP.                       NO: One line per depth step
~Well Information Block
STRT.FT               245.0000: 
STOP.FT              1208.2500: 
STEP.FT                 0.2500: 
NULL.                -999.2500: 
COMP.          Pioneer Natural Resources: COMPANY
WELL.              Davida 34-8: WELL
FLD.           Purgatoire River: FIELD
LOC.           418' FSL & 1923' FEL--: LOCATION
CNTY.               Las Animas: COUNTY
SRVC.                Patterson: SERVICE COMPANY
DATE.          Sat Mar 18 07:00:13 2006: LOG DATE
UWI.           05 071 08722 00: UNIQUE WELL ID
STAT.                 Colorado: STATE
~Curve Information Block
DEPT.FT            0 000 00 00: Depth
GR.GAPI                       : Gamma Ray
DIR.Ohm-m                     : IEL Induction Resistivity
~Parameter Information Block
~A  Depth        GR         DIR     
# ...
   635.2500     71.8157     18.2109
   635.5000     71.4193     18.2085
   635.7500     70.6182     18.1915
   636.0000     68.6100     18.1643
   636.2500     67.0031     18.1347
   636.5000     64.6348     18.1101
   636.7500     63.1845     18.0961
   637.0000     61.2786     18.0942
   637.2500     60.2920     18.0995
   637.5000     59.3673     18.0999
   637.7500     59.0741     18.0796
   638.0000     59.0821     18.0280
   638.2500     59.5396     17.9466
   638.5000     61.1296     17.8469
   638.7500     62.5955     17.7451
   639.0000     64.6999     17.6571
   639.2500     65.8357     17.5978
   639.5000     67.3121     17.5784
   639.7500     68.1890     17.6017
   640.0000     68.9205     17.6567
   640.2500     68.7238     17.7205
   640.5000     67.4686     17.7686
   640.7500     66.4205     17.7876
   641.0000     65.4249     17.7823
   641.2500     65.3737     17.7706
   641.5000     65.8301     17.7717
   641.7500     66.0605     17.7949
   642.0000     65.8688     17.8378
   642.2500     65.3843     17.8899
   642.5000     64.3270     17.9377
   642.7500     63.5912     17.9678
   643.0000     62.9361     17.9683
   643.2500     63.1119     17.9309
   643.5000     64.7001     17.8548
   643.7500     66.8209     17.7489
   644.0000     71.9098     17.6280
   644.2500     76.6432     17.5045
   644.5000     85.1957     17.3805
   644.7500     91.0336     17.2459
   645.0000     98.1822     17.0820
   645.2500    101.1250     16.8679
   645.5000    102.8240     16.5861
   645.7500    102.9185     16.2268
   646.0000    103.3836     15.7935
   646.2500    104.8346     15.3045
   646.5000    109.4143     14.7903
   646.7500    113.8649     14.2810
   647.0000    121.5579     13.7935
   647.2500    126.6261     13.3254
   647.5000    133.0343     12.8606
   647.7500    135.9981     12.3821
   648.0000    138.0349     11.8823
   648.2500    137.9396     11.3661
   648.5000    136.3928     10.8483
   648.7500    134.9534     10.3499
   649.0000    133.1261      9.8944
   649.2500    132.6051      9.5027
   649.5000    132.9725      9.1870
   649.7500    133.5124      8.9478
   650.0000    133.7302      8.7739
   650.2500    133.1652      8.6467
   650.5000    131.4775      8.5469
   650.7500    130.2582      8.4614
   651.0000    129.1080      8.3868
   651.2500    128.9845      8.3284
   651.5000    129.6109      8.2942
   651.7500    130.4639      8.2885
   652.0000    132.4758      8.3081
   652.2500    134.3852      8.3429
   652.5000    137.7685      8.3799
   652.7500    139.7211      8.4088
   653.0000    140.7565      8.4261
   653.2500    139.8047      8.4367
   653.5000    136.8630      8.4523
   653.7500    135.0906      8.4872
   654.0000    134.2713      8.5537
   654.2500    134.8449      8.6598
   654.5000    135.5390      8.8081
   654.7500    134.6107      8.9981
   655.0000    130.1040      9.2280
   655.2500    125.3536      9.4968
   655.5000    117.0644      9.8045
   655.7500    111.6049     10.1497
   656.0000    104.5931     10.5262
   656.2500    101.1933     10.9187
   656.5000     98.5807     11.3008
   656.7500     98.4368     11.6351
   657.0000     99.6565     11.8778
   657.2500    100.7462     11.9896
   657.5000    102.4903     11.9489
   657.7500    104.2125     11.7634
   658.0000    108.7435     11.4703
   658.2500    113.2472     11.1247
   658.5000    121.2602     10.7813
   658.7500    126.3845     10.4807
   659.0000    132.0491     10.2432
   659.2500    133.9445     10.0712
   659.5000    133.7505      9.9566
   659.7500    131.5720      9.8889
   660.0000    125.3172      9.8615
   660.2500    119.6644      9.8737
   660.5000    110.9887      9.9288
   660.7500    106.5041     10.0304
   661.0000    103.3830     10.1794
   661.2500    103.9083     10.3719
   661.5000    107.8355     10.5989
   661.7500    111.6705     10.8471
   662.0000    117.5275     11.1019
   662.2500    120.5981     11.3504
   662.5000    122.8069     11.5850
   662.7500    122.4062     11.8047
   663.0000    119.5828     12.0148
   663.2500    116.9922     12.2244
   663.5000    112.9315     12.4421
   663.7500    110.0309     12.6729
   664.0000    105.0190     12.9175
   664.2500    101.4443     13.1748
   664.5000     96.7140     13.4445
   664.7500     94.4849     13.7283
   665.0000     92.9931     14.0269
   665.2500     93.3979     14.3353
   665.5000     96.0455     14.6343
   665.7500     98.6625     14.8836
   666.0000    102.1960     15.0235
   666.2500    103.3284     14.9907
   666.5000    102.7543     14.7448
   666.7500    101.5529     14.2902
   667.0000    100.5120     13.6781
   667.2500    101.2426     12.9847
   667.5000    105.0752     12.2813
   667.7500    109.3538     11.6134
   668.0000    117.5731     10.9966
   668.2500    123.4344     10.4267
   668.5000    131.1175      9.8932
   668.7500    134.7990      9.3898
   669.0000    138.1996      8.9170
   669.2500    139.7541      8.4788
   669.5000    142.1988      8.0789
   669.7500    143.9666      7.7188
   670.0000    146.1845      7.3994
   670.2500    147.2299      7.1226
   670.5000    148.6454      6.8914
   670.7500    149.7863      6.7087
   671.0000    151.7951      6.5758
   671.2500    153.2433      6.4900
   671.5000    155.6333      6.4444
   671.7500    157.3492      6.4295
   672.0000    159.5480      6.4349
   672.2500    160.2969      6.4528
   672.5000    160.0099      6.4807
   672.7500    159.1097      6.5215
   673.0000    157.5443      6.5821
   673.2500    156.8032      6.6708
   673.5000    156.1478      6.7949
   673.7500    155.4156      6.9602
   674.0000    152.4636      7.1706
   674.2500    148.8456      7.4291
   674.5000    141.5257      7.7368
   674.7500    136.1975      8.0931
   675.0000    128.6035      8.4934
   675.2500    123.8714      8.9281
   675.5000    116.9313      9.3831
   675.7500    112.5150      9.8427
   676.0000    107.0947     10.2945
   676.2500    104.7683     10.7328
   676.5000    103.4645     11.1577
   676.7500    103.9974     11.5705
   677.0000    106.5491     11.9689
   677.2500    108.8696     12.3444
   677.5000    111.8534     12.6835
   677.7500    112.8179     12.9705
   678.0000    112.3474     13.1915
   678.2500    110.9445     13.3406
   678.5000    107.8254     13.4224
   678.7500    105.4468     13.4470
   679.0000    102.1226     13.4207
   679.2500    100.4954     13.3393
   679.5000     99.4609     13.1936
   679.7500     99.7896     12.9803
   680.0000    101.7866     12.7093
   680.2500    104.2307     12.4012
   680.5000    109.8594     12.0787
   680.7500    114.7459     11.7576
   681.0000    122.2576     11.4435
   681.2500    126.0716     11.1357
   681.5000    128.5888     10.8345
   681.7500    128.4084     10.5467
   682.0000    127.2129     10.2868
   682.2500    126.7846     10.0724
   682.5000    126.9571      9.9176
   682.7500    127.0975      9.8271
   683.0000    126.6312      9.7933
   683.2500    125.9205      9.7983
   683.5000    124.5075      9.8207
   683.7500    123.1613      9.8447
   684.0000    119.9098      9.8662
   684.2500    116.7888      9.8920
   684.5000    111.1872      9.9346
   684.7500    107.4127     10.0053
   685.0000    102.7101     10.1108
   685.2500    100.6225     10.2529
   685.5000     99.0718     10.4297
   685.7500     98.6695     10.6375
   686.0000     98.1364     10.8707
   686.2500     97.6292     11.1212
   686.5000     96.7890     11.3781
   686.7500     96.1963     11.6292
   687.0000     95.0046     11.8647
   687.2500     94.0299     12.0803
   687.5000     93.0477     12.2802
   687.7500     93.1654     12.4756
   688.0000     94.0070     12.6823
   688.2500     93.8926     12.9153
   688.5000     90.8586     13.1820
   688.7500     86.7417     13.4782
   689.0000     78.6708     13.7890
   689.2500     73.0626     14.0981
   689.5000     65.6656     14.3985
   689.7500     61.7890     14.6960
   690.0000     57.5298     14.9990
   690.2500     55.4282     15.3047
   690.5000     52.8450     15.5914
   690.7500     51.4126     15.8253
