~Version Information
VERS.                      2.0: CWLS Log ASCII Standard - VERSION 2.0
WRAP.                       NO: One line per depth step
~Well Information Block
STRT.FT               970.0000: 
STOP.FT              1882.0000: 
STEP.FT                 0.2500: 
NULL.                -999.2500: 
COMP.          Petrogulf Corporation: COMPANY
WELL.             Norton 9-14R: WELL
FLD.           Purgatorie River: FIELD
LOC.           725' FSL & 1103' FWL: LOCATION
PROV.                 Colorado: PROVINCE
CNTY.               Las Animas: COUNTRY
SRVC.                Patterson: SERVICE COMPANY
DATE.          Thu Oct 06 16:10:47 2005: LOG DATE
UWI.                          : UNIQUE WELL ID
~Curve Information Block
DEPT.FT            0 000 00 00: Depth
SP.mV                         : DIL Spontaneous Potential
RILD.Ohm-m                    : DIL Deep Resistivity
RILM.Ohm-m                    : DIL Medium Resistivity
RLL3.Ohm-m                    : DIL Shallow Resistivity
GR.GAPI                       : Gamma Ray
~Parameter Information Block
~A  Depth        SP         RILD        RILM        RLL3         GR     
   970.0000    -62.2435      8.8040   -999.2500   -999.2500     56.6791
   970.2500    -61.1860      8.7366   -999.2500      0.0294     58.3256
   970.5000    -61.0168      8.6593   -999.2500     -0.0378     62.1329
   970.7500    -62.1180      8.5886   -999.2500     -0.1067     64.2155
   971.0000    -64.4602      8.5393   -999.2500     -0.1700     65.4619
   971.2500    -67.6366      8.5215   -999.2500     -0.2116     65.4894
   971.5000    -71.0947      8.5380   -999.2500     -0.2167     65.8533
   971.7500    -74.3358      8.5842   -999.2500     -0.2042     66.8763
   972.0000    -76.9865      8.6488   -999.2500     -0.2139     69.8192
   972.2500    -78.8282      8.7179   -999.2500     -0.2615     72.5518
   972.5000    -79.8369      8.7786   -999.2500     -0.3228     76.8791
   972.7500    -80.1851      8.8208   -999.2500     -0.3577     79.1829
   973.0000    -80.1598      8.8375   -999.2500     -0.3436     81.1134
   973.2500    -80.0335      8.8257   -999.2500     -0.2836     81.6475
   973.5000    -79.9560      8.7880   -999.2500     -0.1879     82.1998
   973.7500    -79.9196      8.7344   -999.2500     -0.0574     82.5206
   974.0000    -79.8109      8.6800 100000.0000      0.1072     82.2030
   974.2500    -79.5089      8.6396 100000.0000      0.2706     81.0777
   974.5000    -78.9643      8.6218 100000.0000      0.3444     78.4110
   974.7500    -78.2124      8.6264 100000.0000      0.2448     76.5925
   975.0000    -77.3208      8.6465 100000.0000      0.0087     74.3162
   975.2500    -76.2981      8.6721 100000.0000     -0.1911     72.9300
   975.5000    -74.9928      8.6947 100000.0000     -0.2168     70.8630
   975.7500    -73.0265      8.7089 100000.0000     -0.1181     69.8917
   976.0000    -69.8456      8.7126 100000.0000     -0.0511     70.0773
   976.2500    -64.9570      8.7059 100000.0000     -0.0873     71.4176
   976.5000    -58.2678      8.6908 100000.0000     -0.1750     74.2226
   976.7500    -50.2883      8.6705 100000.0000     -0.2430     75.7031
   977.0000    -41.9890      8.6493 100000.0000     -0.2695     76.2049
   977.2500    -34.3869      8.6319 100000.0000     -0.2640     75.2258
   977.5000    -28.1902      8.6213 100000.0000     -0.2366     72.1681
   977.7500    -23.7448      8.6179 100000.0000     -0.1940     69.3848
   978.0000    -21.2002      8.6195 100000.0000     -0.1439     64.7235
   978.2500    -20.6449      8.6241 100000.0000     -0.0956     62.0893
   978.5000    -22.1170      8.6310 100000.0000     -0.0571     61.0151
   978.7500    -25.5810      8.6407 100000.0000     -0.0333     63.0634
   979.0000    -30.9119      8.6532 100000.0000     -0.0264     69.3703
   979.2500    -37.8243      8.6663 100000.0000     -0.0370     74.1297
   979.5000    -45.7480      8.6773 100000.0000     -0.0634     79.7143
   979.7500    -53.7847      8.6849 100000.0000     -0.1002     81.9219
   980.0000    -60.8139      8.6896 100000.0000     -0.1401     83.1620
   980.2500    -65.7093      8.6923 100000.0000     -0.1760     82.7900
   980.5000    -67.6461      8.6927 100000.0000     -0.1997     80.6354
   980.7500    -66.4279      8.6886 100000.0000     -0.2038     78.3637
   981.0000    -62.5884      8.6783 100000.0000     -0.1891     74.5853
   981.2500    -57.0806      8.6631 100000.0000     -0.1661     72.6438
   981.5000    -50.7320      8.6471 100000.0000     -0.1464     72.0245
   981.7500    -43.8944      8.6349 100000.0000     -0.1333     73.4683
   982.0000    -36.5276      8.6282 100000.0000     -0.1246     77.5891
   982.2500    -28.5716      8.6255 100000.0000     -0.1228     80.6796
   982.5000    -20.2798      8.6235 100000.0000     -0.1431     84.5497
   982.7500    -12.2994      8.6213 100000.0000     -0.2081     86.3703
   983.0000     -5.5011      8.6203 100000.0000     -0.3305     87.9205
   983.2500     -0.7011      8.6226 100000.0000     -0.4911     88.0740
   983.5000      1.5404      8.6280 100000.0000     -0.6328     86.7842
   983.7500      0.9437      8.6321 100000.0000     -0.6878     84.8667
   984.0000     -2.5754      8.6270 100000.0000     -0.6235     80.5054
   984.2500     -8.9373      8.6031 100000.0000     -0.4615     76.9115
   984.5000    -17.8225      8.5509 100000.0000     -0.2541     71.6904
   984.7500    -28.6120      8.4662 100000.0000     -0.0532     69.1769
   985.0000    -40.4479      8.3576 100000.0000      0.0974     67.7345
   985.2500    -52.3677      8.2550 100000.0000      0.1667     68.2834
   985.5000    -63.4289      8.2081 100000.0000      0.1577     70.4460
   985.7500    -72.8308      8.2721 100000.0000      0.1139     71.9451
   986.0000    -80.0603      8.4848 100000.0000      0.0827     72.9693
   986.2500    -85.0205      8.8447 100000.0000      0.0783     72.4618
   986.5000    -88.0532      9.2963 100000.0000      0.0898     70.1586
   986.7500    -89.7864      9.7373 100000.0000      0.1089     68.0574
   987.0000    -90.8516     10.0606 100000.0000      0.1252     64.7353
   987.2500    -91.6454     10.2159 100000.0000      0.1076     62.6273
   987.5000    -92.2943     10.2401 100000.0000      0.0204     60.0933
   987.7500    -92.8008     10.2373 100000.0000     -0.1298     59.1997
   988.0000    -93.1961     10.3380 100000.0000     -0.2678     59.2975
   988.2500    -93.5742     10.6642 100000.0000     -0.2869     60.0630
   988.5000    -94.0309     11.2940 100000.0000     -0.1358     61.6304
   988.7500    -94.6004     12.1924 100000.0000      0.1189     62.7978
   989.0000    -95.2417     13.1015 100000.0000      0.3330     64.7214
   989.2500    -95.8741     13.5291 100000.0000      0.4142     65.9850
   989.5000    -96.4293     13.0995 100000.0000      0.4135     67.3350
   989.7500    -96.8614     11.9852 100000.0000      0.4652     67.7251
   990.0000    -97.0875     10.7098 100000.0000      0.6243     68.0497
   990.2500    -96.9197      9.6619 100000.0000      0.7859     68.6082
   990.5000    -96.0711      8.9804 100000.0000      0.7958     70.3087
   990.7500    -94.2402      8.6864 100000.0000      0.6282     71.7407
   991.0000    -91.1920      8.8150 100000.0000      0.4235     73.5686
   991.2500    -86.7860      9.5023 100000.0000      0.3446     74.2920
   991.5000    -80.9886     11.0582 100000.0000      0.4160     74.6051
   991.7500    -73.9246     13.9796 100000.0000      0.5106     74.4357
   992.0000    -65.9042     18.3203 100000.0000      0.4754     73.8500
   992.2500    -57.2738     20.9580 100000.0000      0.2647     73.3899
   992.5000    -48.1013     17.3991 100000.0000     -0.0219     73.0761
   992.7500    -37.9946     11.7708 100000.0000     -0.2034     73.3748
   993.0000    -26.3613      8.0882 100000.0000     -0.1246     74.3814
   993.2500    -13.0144      6.2017 100000.0000      0.2757     74.9341
   993.5000      1.3567      5.3796 100000.0000      0.9890     74.9888
   993.7500     15.2684      5.2029 100000.0000      2.0057     74.7096
   994.0000     27.0711      5.4568 100000.0000      3.3351     75.0361
   994.2500     35.6966      5.9444 100000.0000      4.9475     76.5664
   994.5000     41.0105      6.2937 100000.0000      6.7020     81.3734
   994.7500     43.6150      6.0040 100000.0000      8.3648     85.6289
   995.0000     44.3966      5.0360 100000.0000      9.7442     91.1509
   995.2500     44.2025      3.9447 100000.0000     10.8132     92.8489
   995.5000     43.7563      3.1532 100000.0000     11.6816     91.6046
   995.7500     43.6730      2.7410 100000.0000     12.4524     88.9181
   996.0000     44.4167      2.6774 100000.0000     13.1299     84.3021
   996.2500     46.1902      2.9768     24.0247     13.6615     82.0284
   996.5000     48.8773      3.7772     12.5248     14.0271     80.8196
   996.7500     52.1381      5.4855      9.6893     14.2659     81.3572
   997.0000     55.6159      9.3398      8.8716     14.4284     83.2728
   997.2500     59.1134     21.1487      8.9806     14.5185     84.7930
   997.5000     62.6427    300.7512      9.7154     14.4873     87.1462
   997.7500     66.3584 100000.0000     10.9916     14.2875     88.9024
