~Version Information
VERS.                      2.0: CWLS Log ASCII Standard - VERSION 2.0
WRAP.                       NO: One line per depth step
~Well Information Block
STRT.FT                -8.5000: 
STOP.FT              2591.0000: 
STEP.FT                 0.2500: 
NULL.                -999.2500: 
COMP.          Pioneer Natural Resources: COMPANY
WELL.             Aviator 12-4: WELL
FLD.           Purgatorie River: FIELD
LOC.           1969' FNL & 732' FWL--: LOCATION
CNTY.               Las Animas: COUNTY
SRVC.          Patterson Wireline: SERVICE COMPANY
DATE.          Wed Apr 19 09:09:26 2006: LOG DATE
UWI.           05 071 08714 00: UNIQUE WELL ID
STAT.                       CO: STATE
~Curve Information Block
DEPT.FT            0 000 00 00: Depth
CCL.                          : Casing Collar Locator
TT3.usec                      : CBL 3' Travel Time
AMP3.mV                       : CBL 3' Amplitude
GR.GAPI                       : Gamma Ray
~Parameter Information Block
~A  Depth       CCL         TT3         AMP3         GR     
# ...
  1867.5000      0.0000    527.2401      3.5243     91.4533
  1867.7500      0.0000    565.6373      3.7434    101.8813
  1868.0000      0.0000    587.6107      3.9723    112.2444
  1868.2500      0.0000    588.1716      4.2160    120.6671
  1868.5000      0.0000    575.3860      4.4809    127.1602
  1868.7500      0.0000    561.8723      4.7654    132.6647
  1869.0000      0.0000    554.1625      5.0619    137.5768
  1869.2500      0.0000    551.4675      5.3703    141.1572
  1869.5000      0.0000    551.4640      5.7011    142.2299
  1869.7500      0.0000    553.6866      6.0552    140.7090
  1870.0000      0.0000    558.3193      6.4072    138.4760
  1870.2500      0.0000    564.7763      6.7287    138.2412
  1870.5000      0.0000    572.2379      7.0369    141.2741
  1870.7500      0.0000    581.1707      7.4016    146.4094
  1871.0000      0.0000    594.2364      7.8879    151.0525
  1871.2500      0.0000    614.5497      8.4860    152.9093
  1871.5000      0.0000    641.0119      9.1003    151.2192
  1871.7500      0.0000    666.2678      9.6036    147.0067
  1872.0000     -2.0000    682.6718      9.8978    142.3351
  1872.2500      0.0000    690.5944      9.9485    139.0070
  1872.5000      0.0000    697.4873      9.8122    137.5135
  1872.7500      0.0000    708.1519      9.6301    137.0405
  1873.0000      0.0000    718.8375      9.5411    136.6705
  1873.2500      0.0000    721.5668      9.5706    136.3433
  1873.5000      0.0000    712.1669      9.6320    136.4222
  1873.7500      0.0000    693.1136      9.6470    136.8313
  1874.0000      0.0000    669.5700      9.6170    137.1431
  1874.2500      0.0000    644.4910      9.5738    137.0868
  1874.5000      0.0000    618.3601      9.5138    136.5482
  1874.7500      0.0000    592.4464      9.4028    135.3898
  1875.0000      0.0000    570.3265      9.2139    133.7279
  1875.2500      0.0000    555.4750      8.9454    132.2814
  1875.5000      0.0000    547.9521      8.6144    132.1939
  1875.7500      0.0000    544.0692      8.2438    134.3463
  1876.0000      0.0000    538.8812      7.8507    138.5463
  1876.2500      0.0000    528.8052      7.4500    143.1527
  1876.5000      0.0000    512.9294      7.0669    145.7457
  1876.7500      0.0000    493.2344      6.7389    144.6836
  1877.0000      0.0000    473.5840      6.4974    140.3231
  1877.2500      0.0000    457.5121      6.3497    134.7293
  1877.5000      0.0000    446.3758      6.2794    130.1234
  1877.7500      0.0000    439.3916      6.2602    127.4075
  1878.0000      0.0000    435.0422      6.2670    125.9102
  1878.2500      0.0000    432.2228      6.2820    124.4008
  1878.5000      0.0000    430.4225      6.2974    122.4550
  1878.7500      0.0000    429.4220      6.3156    120.8314
  1879.0000      0.0000    429.1231      6.3464    120.4703
  1879.2500      0.0000    429.6401      6.3988    121.4906
  1879.5000      0.0000    431.5273      6.4690    123.4842
  1879.7500      0.0000    435.9238      6.5339    126.1789
  1880.0000      0.0000    444.3025      6.5583    129.2269
  1880.2500      0.0000    457.6306      6.5151    131.8005
  1880.5000      0.0000    475.3560      6.4010    133.0540
  1880.7500      0.0000    495.0819      6.2355    132.9325
  1881.0000      0.0000    513.5261      6.0416    132.3676
  1881.2500      0.0000    528.3998      5.8307    132.8118
  1881.5000      0.0000    540.2311      5.6028    135.5581
  1881.7500      0.0000    552.8491      5.3548    140.9794
  1882.0000      0.0000    571.5135      5.0843    147.8869
  1882.2500      0.0000    599.0011      4.7902    153.9327
  1882.5000      0.0000    632.4847      4.4771    157.5306
  1882.7500      0.0000    664.4583      4.1606    159.3642
  1883.0000      0.0000    687.1984      3.8614    161.1190
  1883.2500      0.0000    696.3682      3.5898    162.9765
  1883.5000      0.0000    691.4752      3.3398    163.5387
  1883.7500      0.0000    675.0710      3.1014    161.8758
  1884.0000      0.0000    652.7982      2.8774    158.3339
  1884.2500      0.0000    632.7214      2.6858    153.5361
  1884.5000      0.0000    621.7629      2.5462    147.7831
  1884.7500      0.0000    620.9127      2.4663    141.5599
  1885.0000      0.0000    623.9579      2.4381    135.7729
  1885.2500      0.0000    622.5142      2.4435    131.2165
  1885.5000      0.0000    614.0177      2.4637    128.2946
  1885.7500      0.0000    604.3239      2.4860    127.2075
  1886.0000      0.0000    601.6265      2.5049    127.6416
  1886.2500      0.0000    608.7120      2.5190    128.3620
  1886.5000      0.0000    621.3593      2.5272    128.0275
  1886.7500      0.0000    632.3217      2.5287    126.5968
  1887.0000      0.0000    635.5947      2.5238    125.3047
  1887.2500      0.0000    627.3104      2.5133    125.0537
  1887.5000      0.0000    604.5364      2.4946    125.2618
  1887.7500      0.0000    566.6101      2.4628    124.4680
  1888.0000      0.0000    519.2868      2.4176    121.7012
  1888.2500      0.0000    474.5660      2.3700    117.0079
  1888.5000      0.0000    443.4402      2.3394    110.9753
  1888.7500      0.0000    429.0236      2.3424    104.2765
  1889.0000      0.0000    427.0906      2.3806     97.8534
  1889.2500      0.0000    431.7478      2.4388     93.1694
  1889.5000      0.0000    440.1305      2.4979     91.7260
  1889.7500      0.0000    452.5279      2.5505     93.9370
  1890.0000      0.0000    468.5686      2.6058     98.3181
  1890.2500      0.0000    484.0520      2.6793    102.1246
  1890.5000      0.0000    494.3592      2.7781    103.5087
  1890.7500      0.0000    502.5040      2.8920    103.2230
  1891.0000      0.0000    519.9498      3.0011    103.7150
  1891.2500      0.0000    555.0746      3.0946    106.4813
  1891.5000      0.0000    602.5963      3.1794    110.7697
  1891.7500      0.0000    647.7839      3.2702    114.8615
  1892.0000      0.0000    679.2620      3.3750    117.9663
  1892.2500      0.0000    695.2357      3.4927    120.5801
  1892.5000      0.0000    699.9132      3.6243    123.4272
  1892.7500      0.0000    698.0788      3.7840    126.5599
  1893.0000      0.0000    693.5806      3.9977    129.6164
  1893.2500      0.0000    690.2039      4.2895    132.6055
  1893.5000      0.0000    689.6149      4.6686    135.8294
  1893.7500      0.0000    686.1369      5.1276    139.0213
  1894.0000      0.0000    667.4663      5.6495    141.1872
  1894.2500      0.0000    625.8456      6.2118    141.4572
  1894.5000      0.0000    568.0239      6.7868    139.7980
  1894.7500      0.0000    510.7805      7.3454    137.0325
  1895.0000      0.0000    467.2476      7.8636    134.4352
  1895.2500      0.0000    439.9751      8.3203    133.0216
  1895.5000      0.0000    425.7829      8.6868    132.8269
  1895.7500      0.0000    423.1841      8.9224    133.1843
  1896.0000      0.0000    433.5899      8.9885    133.9616
  1896.2500      0.0000    457.1100      8.8734    136.0332
  1896.5000      0.0000    488.6272      8.6050    140.2132
  1896.7500      0.0000    517.6042      8.2420    146.1829
  1897.0000      0.0000    532.2314      7.8510    152.7391
  1897.2500      0.0000    526.6735      7.4856    158.6590
  1897.5000      0.0000    505.6157      7.1712    162.9597
  1897.7500      0.0000    480.4170      6.9018    164.7745
  1898.0000      0.0000    460.3573      6.6540    163.5552
  1898.2500      0.0000    448.0193      6.4132    159.5587
  1898.5000      0.0000    441.3608      6.1956    153.8745
  1898.7500      0.0000    437.6545      6.0418    147.7805
  1899.0000      0.0000    435.2850      5.9808    142.0503
  1899.2500      0.0000    433.5226      5.9915    136.8954
  1899.5000      0.0000    432.0161      5.9999    132.5007
  1899.7500      0.0000    431.0558      5.9196    129.4854
  1900.0000      0.0000    432.9044      5.7029    128.6147
  1900.2500      0.0000    442.7649      5.3627    130.0777
  1900.5000      0.0000    466.6214      4.9554    133.0685
  1900.7500      0.0000    505.6964      4.5430    135.8902
