~Version Information
 VERS.                                  2.0 : CWLS LAS VERSION
 WRAP.                                   NO : WRAPING MODE
 SWARE .                 MController 2.5.0J : SOFTWARE VERSION
~Well Information
 WELL.                         Joplin 44-05 : WELL
 COMP.    Pioneer Natural Resources USA Inc : COMPANY
 FLD.                      Purgatoire River : FIELD
 LOC.                  SE/SE SEC5 T33S R66W : LOCATION
 DATE.                             12/12/05 : DATE(S) LOGGED
 SRVC.       Blanco Geological Services LLC : SERVICE COMPANY
 STAT.                             Colorado : STATE
 CNTY.                           Las Animas : COUNTY
 CTRY.                                  USA : COUNTRY
 API.                       05-071-08623-05 : API NUMBER
 STRT.FT                             686.00 : START DEPTH
 STOP.FT                            2105.00 : STOP DEPTH
 STEP.FT                               1.00 : DEPTH INCREMENT
 NULL.                                -9999 : NULL VALUE
~Curve information
 DEPTH.FT                                   :
 ROP.MIN/FT                                 :
 GAS.UNITS                                  :
~ASCII Log data
# ...
      1086.0         0.17        713.6 
      1087.0         0.17        708.9 
      1088.0         0.20        705.4 
      1089.0         0.23        636.8 
      1090.0         0.20        560.3 
      1091.0         0.20        560.3 
      1092.0         0.20        472.1 
      1093.0         0.20        441.6 
      1094.0         0.20        424.8 
      1095.0         0.20        429.6 
      1096.0         0.20        475.6 
      1097.0         0.20        584.5 
      1098.0         0.20        611.4 
      1099.0         0.20        831.4 
      1100.0         0.13       1446.1 
      1101.0         0.10       1446.1 
      1102.0         0.22       1828.3 
      1103.0         0.27       1764.2 
      1104.0         0.23       1549.6 
      1105.0         0.53       1285.9 
      1106.0         1.13       1036.4 
      1107.0         0.27        764.4 
      1108.0         0.33        751.7 
      1109.0         0.27        742.8 
      1110.0         0.20        732.0 
      1111.0         0.22        722.5 
      1112.0         0.20        714.6 
      1113.0         0.20        714.6 
      1114.0         0.20        714.6 
      1115.0         0.23        713.6 
      1116.0         0.20        711.1 
      1117.0         0.20        710.8 
      1118.0         0.23        710.8 
      1119.0         0.20        707.9 
      1120.0         0.20        707.9 
      1121.0         0.27        706.6 
      1122.0         0.30        709.2 
      1123.0         0.23        707.9 
      1124.0         0.23        676.5 
      1125.0         0.23        640.0 
      1126.0         0.28        400.0 
      1127.0         0.23        190.0 
      1128.0         0.27        192.8 
      1129.0         0.20        205.2 
      1130.0         0.27        264.9 
      1131.0         0.23        358.3 
      1132.0         0.20        994.5 
      1133.0         0.27       1410.0 
      1134.0         0.23       2270.1 
      1135.0         0.27       2318.3 
      1136.0         2.32       1925.1 
      1137.0         0.33        723.8 
      1138.0         0.27        621.6 
      1139.0         0.23        548.3 
      1140.0         0.23        498.1 
      1141.0         0.23        549.9 
      1142.0         0.20        452.7 
      1143.0         0.27        444.8 
      1144.0         0.25        402.6 
      1145.0         0.20        400.0 
      1146.0         0.23        189.5 
      1147.0         0.23        174.8 
      1148.0         0.23        169.9 
      1149.0         0.20        168.7 
      1150.0         0.23        151.7 
      1151.0         0.20        143.8 
      1152.0         0.27        119.5 
      1153.0         0.20         86.7 
      1154.0         0.20         67.3 
      1155.0         0.23         55.4 
      1156.0         0.20         55.4 
      1157.0         0.13         54.6 
      1158.0         0.23         48.7 
      1159.0         0.20         43.8 
      1160.0         0.22         40.3 
      1161.0         0.23         39.2 
      1162.0         0.20         35.5 
      1163.0         0.20         35.3 
      1164.0         0.23         31.5 
      1165.0         0.27         26.8 
      1166.0         1.33         22.9 
      1167.0         0.53         15.4 
      1168.0         0.38         12.0 
      1169.0         0.33         14.3 
      1170.0         0.27         17.1 
      1171.0         0.30         22.3 
      1172.0         0.23         23.9 
      1173.0         0.20         25.6 
      1174.0         0.23         30.9 
      1175.0         0.20         31.2 
      1176.0         0.23         23.7 
      1177.0         0.17         14.1 
      1178.0         0.20         12.8 
      1179.0         0.17          6.3 
      1180.0         0.30          6.1 
      1181.0         0.17          5.7 
      1182.0         0.17          5.0 
      1183.0         0.28          5.2 
      1184.0         0.23          5.2 
      1185.0         0.20          5.6 
      1186.0         0.23          4.9 
      1187.0         0.20          5.1 
      1188.0         0.23          5.3 
      1189.0         0.23          5.2 
      1190.0         0.23          5.2 
      1191.0         0.23          4.8 
      1192.0         0.20          4.8 
      1193.0         0.23          4.7 
      1194.0         0.33          5.4 
      1195.0         0.27          5.3 
      1196.0         1.68        789.8 
      1197.0         0.33        588.3 
      1198.0         0.33        400.0 
      1199.0         0.23         18.7 
      1200.0         0.23         10.2 
      1201.0         0.30          7.5 
      1202.0         0.20          6.6 
      1203.0         0.27          6.1 
      1204.0         0.25        366.4 
      1205.0         0.20        418.4 
      1206.0         0.20        420.5 
      1207.0         0.07        425.1 
      1208.0         0.17        425.9 
      1209.0         0.27        426.3 
      1210.0         0.27        426.1 
      1211.0         0.27        424.7 
      1212.0         0.20        425.0 
      1213.0         0.20        403.3 
      1214.0         0.27        377.1 
      1215.0         0.23         94.6 
      1216.0         0.23         75.2 
      1217.0         0.20         16.6 
      1218.0         0.20          7.6 
      1219.0         0.22          5.4 
      1220.0         0.20          7.9 
      1221.0         0.20          8.2 
      1222.0         0.20          4.0 
      1223.0         0.23          4.0 
      1224.0         0.27          4.2 
      1225.0         0.10          4.2 
      1226.0         1.20          6.5 
      1227.0         0.73          4.2 
      1228.0         0.17         10.6 
      1229.0         0.25        298.8 
      1230.0         0.30        369.7 
      1231.0         0.27        322.9 
      1232.0         0.27        201.1 
      1233.0         0.27        155.1 
      1234.0         0.23        141.8 
      1235.0         0.23        134.6 
      1236.0         0.23        131.2 
      1237.0         0.23        122.9 
      1238.0         0.20        116.5 
      1239.0         0.23         82.1 
      1240.0         0.20         23.9 
      1241.0         0.20          6.5 
      1242.0         0.23          4.3 
      1243.0         0.25          2.8 
      1244.0         0.27          3.1 
      1245.0         0.20          2.5 
      1246.0         0.20          2.5 
      1247.0         0.20          3.2 
      1248.0         0.20          3.2 
      1249.0         0.13          3.2 
      1250.0         0.20          2.4 
      1251.0         0.20          2.8 
      1252.0         0.23          2.5 
      1253.0         0.20          2.4 
      1254.0         0.20          2.4 
      1255.0         0.20          2.3 
      1256.0         1.85       1038.6 
      1257.0         0.37        739.0 
      1258.0         0.33        583.8 
      1259.0         0.37        602.9 
      1260.0         0.33        594.9 
      1261.0         0.30        543.8 
      1262.0         0.32        440.7 
      1263.0         0.30        137.0 
      1264.0         0.23        106.4 
      1265.0         0.20         78.9 
      1266.0         0.23         64.5 
      1267.0         0.30         63.3 
      1268.0         0.20         50.8 
      1269.0         0.20         48.9 
      1270.0         0.17         41.5 
      1271.0         0.23         36.8 
      1272.0         0.17         33.1 
      1273.0         0.20         28.8 
      1274.0         0.23         22.1 
      1275.0         0.23         22.1 
      1276.0         0.23         18.2 
      1277.0         0.22         17.5 
      1278.0         0.23         16.1 
      1279.0         0.23         14.1 
      1280.0         0.23         12.6 
      1281.0         0.27          8.4 
      1282.0         0.30          8.1 
      1283.0         0.23          7.3 
      1284.0         0.13          6.9 
      1285.0         0.10          6.9 
