~Version Information
VERS.                      2.0: CWLS Log ASCII Standard - VERSION 2.0
WRAP.                       NO: One line per depth step
~Well Information Block
STRT.FT               370.0000: 
STOP.FT              1259.0000: 
STEP.FT                 0.1000: 
NULL.                -999.2500: 
COMP.          Pioneer Natural Resources: COMPANY
WELL.           Tennis 7-12 Tr: WELL
FLD.           Purgatoire River: FIELD
LOC.           1794' FNL & 1563' FEL: LOCATION
PROV.                 Colorado: PROVINCE
CNTY.               Las Animas: COUNTRY
SRVC.                Patterson: SERVICE COMPANY
DATE.          Tue Dec 20 13:35:40 2005: LOG DATE
UWI.           05 071 08635 00: UNIQUE WELL ID
~Curve Information Block
DEPT.FT            0 000 00 00: Depth
DCAL.in                       : CDL Caliper
RHOB.g/cc                     : CDL Bulk Density
RHOC.g/cc                     : CDL Density Correction
DPOR.pu                       : CDL Density Porosity
GR.GAPI                       : Gamma Ray
~Parameter Information Block
~A  Depth       DCAL        RHOB        RHOC        DPOR         GR     
# ...
   717.2000      7.8716      2.6128      0.2199      2.2530     65.1341
   717.3000      7.8666      2.6595      0.2748     -0.5786     66.6397
   717.4000      7.8666      2.6766      0.2715     -1.6096     65.8213
   717.5000      7.8788      2.6734      0.2455     -1.4165     64.4610
   717.6000      7.8788      2.6603      0.2600     -0.6253     64.6077
   717.7000      7.8788      2.6317      0.2294      1.1106     66.7306
   717.8000      7.9060      2.5925      0.1321      3.4830     70.9259
   717.9000      7.9060      2.5619      0.1001      5.3397     74.4620
   718.0000      7.9238      2.5451      0.0508      6.3579     73.1544
   718.1000      7.9238      2.5360      0.0438      6.9090     70.3768
   718.2000      7.9238      2.5344      0.0284      7.0047     72.7534
   718.3000      7.9301      2.5428      0.0473      6.4947     77.1939
   718.4000      7.9301      2.5509      0.0986      6.0037     77.5241
   718.5000      7.9323      2.5407      0.1055      6.6256     74.9484
   718.6000      7.9323      2.5118      0.0784      8.3771     73.3666
   718.7000      7.9323      2.4877      0.0111      9.8371     72.9789
   718.8000      7.9301      2.4874      0.0442      9.8518     72.7640
   718.9000      7.9301      2.5002      0.0824      9.0765     74.7071
   719.0000      7.9273      2.5063      0.0333      8.7090     80.8810
   719.1000      7.9273      2.5068      0.0539      8.6812     89.4001
   719.2000      7.9273      2.5137      0.0642      8.2592     92.2366
   719.3000      7.9268      2.5325      0.0761      7.1208     85.5624
   719.4000      7.9268      2.5604      0.1266      5.4319     76.8972
   719.5000      7.9271      2.5855      0.1850      3.9074     71.5912
   719.6000      7.9271      2.5986      0.1624      3.1126     68.9263
   719.7000      7.9271      2.6054      0.1264      2.7032     69.4953
   719.8000      7.9271      2.6102      0.1482      2.4109     71.2970
   719.9000      7.9271      2.6114      0.0945      2.3379     71.1848
   720.0000      7.9270      2.6143      0.1018      2.1650     71.4249
   720.1000      7.9270      2.6214      0.1452      1.7341     74.5269
   720.2000      7.9270      2.6221      0.1248      1.6908     77.0894
   720.3000      7.9272      2.6090      0.1146      2.4819     74.5103
   720.4000      7.9272      2.5886      0.0844      3.7201     67.6199
   720.5000      7.9276      2.5682      0.0693      4.9548     60.7404
   720.6000      7.9276      2.5486      0.0591      6.1470     57.3210
   720.7000      7.9276      2.5343     -0.0020      7.0129     58.8463
   720.8000      7.9279      2.5348      0.0350      6.9848     62.4368
   720.9000      7.9279      2.5425      0.1014      6.5161     63.5446
   721.0000      7.9274      2.5424      0.0596      6.5220     62.2554
   721.1000      7.9274      2.5367      0.0587      6.8662     60.8125
   721.2000      7.9274      2.5408      0.0341      6.6194     60.6086
   721.3000      7.9263      2.5628      0.0378      5.2874     61.4712
   721.4000      7.9263      2.5917      0.0783      3.5320     61.5069
   721.5000      7.9250      2.6121      0.0982      2.2947     59.8278
   721.6000      7.9250      2.6207      0.0948      1.7738     58.5512
   721.7000      7.9250      2.6230      0.1263      1.6336     58.9775
   721.8000      7.9237      2.6223      0.1167      1.6762     58.5022
   721.9000      7.9237      2.6198      0.1066      1.8301     56.9643
   722.0000      7.9219      2.6087      0.1511      2.5004     57.7147
   722.1000      7.9219      2.5827      0.0727      4.0784     62.7658
   722.2000      7.9219      2.5570      0.0930      5.6358     68.8437
   722.3000      7.9211      2.5505      0.0596      6.0275     71.2989
   722.4000      7.9211      2.5626      0.1147      5.2956     71.2574
   722.5000      7.9235      2.5755      0.0905      4.5179     71.2079
   722.6000      7.9235      2.5750      0.0949      4.5480     72.9225
   722.7000      7.9235      2.5580      0.0914      5.5735     79.8721
   722.8000      7.9258      2.5258      0.0765      7.5245     91.7940
   722.9000      7.9258      2.4807      0.0839     10.2624    101.2104
   723.0000      7.9271      2.4274      0.0610     13.4882    104.6054
   723.1000      7.9271      2.3787      0.0479     16.4410    107.2218
   723.2000      7.9271      2.3534     -0.0052     17.9775    113.7547
   723.3000      7.9298      2.3606      0.0350     17.5376    122.1714
   723.4000      7.9298      2.3858      0.0155     16.0122    126.2396
   723.5000      7.9321      2.4180      0.0236     14.0602    124.2431
   723.6000      7.9321      2.4650      0.0691     11.2116    120.0956
   723.7000      7.9321      2.5153      0.1844      8.1659    120.8441
   723.8000      7.9318      2.5399      0.1840      6.6757    130.1590
   723.9000      7.9318      2.5430      0.0360      6.4837    140.7409
   724.0000      7.9310      2.5470      0.1214      6.2425    143.0831
   724.1000      7.9310      2.5455      0.1498      6.3331    139.6358
   724.2000      7.9310      2.5295      0.0854      7.3023    138.9690
   724.3000      7.9302      2.5122      0.0467      8.3490    143.4696
   724.4000      7.9302      2.5006      0.0608      9.0551    150.1658
   724.5000      7.9293      2.4840      0.0402     10.0587    156.1145
   724.6000      7.9293      2.4589      0.0335     11.5806    157.4819
   724.7000      7.9293      2.4271      0.0219     13.5115    149.2996
   724.8000      7.9292      2.3874     -0.0128     15.9154    136.2878
   724.9000      7.9292      2.3508     -0.0154     18.1332    128.9380
   725.0000      7.9298      2.3322     -0.0142     19.2632    128.4699
   725.1000      7.9298      2.3268      0.0136     19.5870    128.1368
   725.2000      7.9298      2.3116      0.0593     20.5067    123.5859
   725.3000      7.9297      2.2796      0.0049     22.4504    116.2920
   725.4000      7.9297      2.2501      0.0352     24.2383    111.3501
   725.5000      7.9303      2.2271      0.0711     25.6290    111.4268
   725.6000      7.9303      2.1872      0.0629     28.0479    113.6598
   725.7000      7.9303      2.1102      0.0606     32.7166    114.6644
   725.8000      7.9327      2.0006      0.0259     39.3597    113.4645
   725.9000      7.9327      1.8766      0.0216     46.8731    110.9339
   726.0000      7.9352      1.7543     -0.0353     54.2856    108.9018
   726.1000      7.9352      1.6587     -0.0601     60.0761    108.3403
   726.2000      7.9352      1.6162     -0.0743     62.6567    107.6872
   726.3000      7.9360      1.6263     -0.0439     62.0396    105.1677
   726.4000      7.9360      1.6689     -0.0151     59.4616    102.8152
   726.5000      7.9352      1.7309     -0.0083     55.7058    103.6546
   726.6000      7.9352      1.8120      0.0928     50.7885    105.6326
   726.7000      7.9352      1.9138      0.1603     44.6156    105.5154
   726.8000      7.9340      2.0358      0.1862     37.2225    105.4584
   726.9000      7.9340      2.1661      0.2329     29.3251    109.8841
   727.0000      7.9325      2.2801      0.2446     22.4178    116.0395
   727.1000      7.9325      2.3547      0.2655     17.8973    118.9453
   727.2000      7.9325      2.3930      0.0965     15.5775    118.1818
   727.3000      7.9309      2.4235      0.1040     13.7267    115.6266
   727.4000      7.9309      2.4610      0.0891     11.4546    112.4080
   727.5000      7.9301      2.5021      0.0692      8.9628    108.2372
   727.6000      7.9301      2.5357      0.0919      6.9266    103.8352
   727.7000      7.9301      2.5526      0.0090      5.9041    102.4776
   727.8000      7.9296      2.5606      0.0280      5.4211    104.9766
   727.9000      7.9296      2.5696      0.0583      4.8698    107.6476
   728.0000      7.9288      2.5787      0.0756      4.3199    107.2907
   728.1000      7.9288      2.5832      0.0591      4.0475    102.4475
   728.2000      7.9288      2.5845      0.0561      3.9714     93.7333
   728.3000      7.9286      2.5878      0.0610      3.7715     83.8924
