~Version Information
VERS.                      2.0: CWLS Log ASCII Standard - VERSION 2.0
WRAP.                       NO: One line per depth step
~Well Information Block
STRT.FT               260.0000: 
STOP.FT              1229.5000: 
STEP.FT                 0.1000: 
NULL.                -999.2500: 
COMP.          Pioneer Natural Resources: COMPANY
WELL.             Mahalo 12-20: WELL
FLD.           Purgatoire River: FIELD
LOC.           1689' FNL & 479' FWL: LOCATION
CNTY.               Las Animas: COUNTY
SRVC.                Patterson: SERVICE COMPANY
DATE.          Mon Feb 27 07:00:19 2006: LOG DATE
UWI.           05 071 08700 00: UNIQUE WELL ID
STAT.                 Colorado: STATE
~Curve Information Block
DEPT.FT            0 000 00 00: Depth
DCAL.in                       : CDL Caliper
RHOB.g/cc                     : CDL Bulk Density
RHOC.g/cc                     : CDL Density Correction
DPOR.pu                       : CDL Density Porosity
GR.GAPI                       : Gamma Ray
NPOR.pu                       : Neutron Porosity
~Parameter Information Block
~A  Depth       DCAL        RHOB        RHOC        DPOR         GR         NPOR    
# ...
   644.0000      7.8039      2.5577      0.0385      5.5935    140.7153     22.4064
   644.1000      7.8039      2.5628      0.0645      5.2869    140.7067     21.8175
   644.2000      7.8039      2.5490      0.0073      6.1203    141.9976     21.6181
   644.3000      7.8016      2.5313     -0.0179      7.1947    141.5918     21.7998
   644.4000      7.8016      2.5276     -0.0315      7.4185    135.8759     21.9462
   644.5000      7.8023      2.5286      0.0193      7.3605    131.0775     21.8248
   644.6000      7.8023      2.5171     -0.0178      8.0531    133.5406     21.3291
   644.7000      7.8023      2.5006     -0.0280      9.0575    136.0157     20.8587
   644.8000      7.8029      2.4976     -0.0108      9.2384    129.8299     20.6784
   644.9000      7.8029      2.5071      0.0112      8.6615    120.8338     20.6611
   645.0000      7.8041      2.5096      0.0297      8.5070    117.7596     20.7891
   645.1000      7.8041      2.4993     -0.0079      9.1349    117.7532     21.3091
   645.2000      7.8041      2.4960     -0.0275      9.3309    115.9092     22.4840
   645.3000      7.8028      2.5078      0.0392      8.6188    115.2361     23.5162
   645.4000      7.8028      2.5092      0.0319      8.5344    118.0333     23.5044
   645.5000      7.8036      2.4878      0.0144      9.8316    116.4947     22.9908
   645.6000      7.8036      2.4648      0.0249     11.2251    106.5671     22.6203
   645.7000      7.8036      2.4622     -0.0240     11.3814     98.2477     22.0655
   645.8000      7.8043      2.4830      0.0209     10.1236     95.8563     21.2523
   645.9000      7.8043      2.5156      0.0218      8.1476     94.1328     20.8066
   646.0000      7.8033      2.5431      0.0407      6.4816     93.7991     20.8940
   646.1000      7.8033      2.5506      0.0259      6.0236     97.1456     21.0182
   646.2000      7.8033      2.5437      0.0270      6.4441    101.2285     21.1523
   646.3000      7.8006      2.5382      0.0697      6.7780    104.5118     21.5834
   646.4000      7.8006      2.5390      0.0326      6.7303    107.7588     22.1469
   646.5000      7.8022      2.5384      0.0206      6.7614    111.4029     22.6840
   646.6000      7.8022      2.5237      0.0624      7.6539    113.7022     23.1177
   646.7000      7.8022      2.5014     -0.0340      9.0053    112.4848     23.3029
   646.8000      7.8033      2.4967      0.0019      9.2895    110.0536     23.4636
   646.9000      7.8033      2.5100      0.0064      8.4876    107.8005     23.5709
   647.0000      7.8068      2.5203      0.0583      7.8595    104.5378     23.6040
   647.1000      7.8068      2.5178      0.0273      8.0121    100.4433     23.8063
   647.2000      7.8068      2.5050      0.0492      8.7869     97.5655     23.9200
   647.3000      7.8038      2.4854      0.0115      9.9763     96.5010     23.4695
   647.4000      7.8038      2.4685     -0.0197     11.0012     95.2535     22.1169
   647.5000      7.8033      2.4628      0.0035     11.3442     94.2658     20.2262
   647.6000      7.8033      2.4665     -0.0268     11.1210     95.7393     19.0821
   647.7000      7.8033      2.4762     -0.0371     10.5316     97.3394     19.2001
   647.8000      7.8016      2.4849      0.0149     10.0069     94.1410     19.8070
   647.9000      7.8016      2.4829      0.0375     10.1277     88.6718     20.4242
   648.0000      7.8031      2.4746     -0.0015     10.6302     89.3006     21.1864
   648.1000      7.8031      2.4733     -0.0018     10.7073     96.4089     21.6334
   648.2000      7.8031      2.4834     -0.0168     10.0942    101.2945     21.1912
   648.3000      7.8034      2.4980      0.0165      9.2104    100.9311     20.3574
   648.4000      7.8034      2.5028      0.0297      8.9237    101.0422     19.8686
   648.5000      7.8022      2.4905      0.0065      9.6672    103.1424     19.5375
   648.6000      7.8022      2.4743     -0.0325     10.6477    101.9474     19.3682
   648.7000      7.8022      2.4733     -0.0113     10.7120     97.6629     19.7821
   648.8000      7.8028      2.4869     -0.0057      9.8849     95.4979     20.1598
   648.9000      7.8028      2.4991      0.0373      9.1430     94.8275     19.8969
   649.0000      7.8029      2.4986      0.0241      9.1762     92.6164     19.4334
   649.1000      7.8029      2.4869      0.0147      9.8870     91.1302     19.3191
   649.2000      7.8029      2.4727     -0.0198     10.7459     92.1873     19.4055
   649.3000      7.8012      2.4678     -0.0021     11.0418     94.5680     19.3309
   649.4000      7.8012      2.4768     -0.0097     10.4940     96.2097     19.3351
   649.5000      7.8028      2.4908      0.0149      9.6479     95.8939     19.6901
   649.6000      7.8028      2.4970      0.0132      9.2714     94.3343     20.2315
   649.7000      7.8028      2.4960      0.0210      9.3320     92.5529     20.7136
   649.8000      7.8035      2.4951      0.0304      9.3861     93.2413     21.1975
   649.9000      7.8035      2.4880      0.0343      9.8171     96.3538     21.6453
   650.0000      7.7981      2.4631      0.0010     11.3266     98.5501     21.7103
   650.1000      7.7981      2.4342     -0.0616     13.0789     99.4691     21.4693
   650.2000      7.7981      2.4274     -0.0192     13.4906     99.3573     21.1333
   650.3000      7.8021      2.4394     -0.0103     12.7649     97.7936     20.3568
   650.4000      7.8021      2.4468      0.0209     12.3158     95.5718     19.2624
   650.5000      7.8003      2.4410      0.0198     12.6669     92.6788     18.3703
   650.6000      7.8003      2.4314      0.0066     13.2473     89.0066     17.6452
   650.7000      7.8003      2.4291     -0.0175     13.3868     85.0188     16.9623
   650.8000      7.8060      2.4340      0.0256     13.0905     80.2273     16.6528
   650.9000      7.8060      2.4340      0.0107     13.0918     75.3196     16.6011
   651.0000      7.8056      2.4214      0.0165     13.8528     70.9114     16.4658
   651.1000      7.8056      2.4032     -0.0173     14.9546     65.8337     16.6877
   651.2000      7.8056      2.3937     -0.0208     15.5342     61.6521     17.2424
   651.3000      7.8036      2.3976      0.0142     15.2976     62.9273     17.1136
   651.4000      7.8036      2.4109      0.0066     14.4906     67.5805     16.0182
   651.5000      7.8041      2.4295      0.0076     13.3639     69.5126     15.1653
   651.6000      7.8041      2.4411      0.0396     12.6596     69.1233     15.2930
   651.7000      7.8041      2.4371     -0.0006     12.9005     67.8380     15.9195
   651.8000      7.8048      2.4299      0.0237     13.3410     64.7970     16.3453
   651.9000      7.8048      2.4314      0.0126     13.2493     63.3515     16.0754
   652.0000      7.8043      2.4378      0.0397     12.8626     66.0271     15.5231
   652.1000      7.8043      2.4386      0.0368     12.8098     70.0554     15.5269
   652.2000      7.8043      2.4269      0.0255     13.5242     71.5671     16.0276
   652.3000      7.8030      2.4046     -0.0199     14.8711     69.4088     16.7429
   652.4000      7.8030      2.3770      0.0102     16.5425     67.8611     17.5507
   652.5000      7.8029      2.3505      0.0050     18.1530     68.8917     17.5980
   652.6000      7.8029      2.3446     -0.0351     18.5104     68.8283     16.6879
   652.7000      7.8029      2.3670      0.0228     17.1510     67.6764     15.9056
   652.8000      7.8014      2.3999      0.0268     15.1558     67.9735     15.8435
   652.9000      7.8014      2.4315      0.0316     13.2401     69.5261     15.8446
   653.0000      7.8036      2.4531      0.0532     11.9351     72.2236     15.4307
   653.1000      7.8036      2.4568      0.0518     11.7066     75.0251     15.5075
   653.2000      7.8036      2.4573      0.0269     11.6766     76.2540     16.4265
   653.3000      7.8008      2.4671      0.0881     11.0828     74.8665     17.2693
   653.4000      7.8008      2.4740      0.0463     10.6677     72.0988     17.4141
   653.5000      7.8032      2.4702      0.0530     10.8967     70.6223     17.0237
