~Version Information
VERS.                      2.0: CWLS Log ASCII Standard - VERSION 2.0
WRAP.                       NO: One line per depth step
~Well Information Block
STRT.FT                -6.5000: 
STOP.FT              1773.5000: 
STEP.FT                 0.2500: 
NULL.                -999.2500: 
COMP.          Pioneer Natural Resources: COMPANY
WELL.           Lynch 43-30 Tr: WELL
FLD.           Purgatorie River: FIELD
LOC.           1431' FSL & 296' FEL--: LOCATION
PROV.                       CO: PROVINCE
CNTY.               Las Animas: COUNTRY
SRVC.          Patterson Wireline: SERVICE COMPANY
DATE.          Tue Aug 02 09:28:21 2005: LOG DATE
UWI.           05 071 08447 00: UNIQUE WELL ID
~Curve Information Block
DEPT.FT            0 000 00 00: Depth
CCL.                          : Casing Collar Locator
TT3.usec                      : CBL 3' Travel Time
AMP3.mV                       : CBL 3' Amplitude
GR.GAPI                       : Gamma Ray
~Parameter Information Block
MINAMPL.mV              1.0000: Minimum Amplitude
~A  Depth       CCL         TT3         AMP3         GR     
# ...
  1166.0000      0.0000    985.9749     11.6063     81.9731
  1166.2500      0.0000   1000.9094     11.6526     85.6465
  1166.5000      0.0000   1008.6003     11.6770     90.3987
  1166.7500      0.0000    991.6489     11.6900     96.3890
  1167.0000      0.0000    953.0458     11.7016    101.9705
  1167.2500      0.0000    910.8149     11.7147    105.6883
  1167.5000      0.0000    881.9427     11.7272    108.3486
  1167.7500      0.0000    872.7340     11.7343    112.1969
  1168.0000      0.0000    879.4360     11.7287    118.0541
  1168.2500      0.0000    892.9214     11.7018    123.9738
  1168.5000      0.0000    904.6201     11.6467    127.0015
  1168.7500      0.0000    912.5012     11.5579    125.8332
  1169.0000      0.0000    921.1050     11.4298    121.5113
  1169.2500      0.0000    933.7691     11.2620    116.0379
  1169.5000      0.0000    947.0768     11.0670    110.9049
  1169.7500      0.0000    955.1097     10.8694    106.6686
  1170.0000      0.0000    955.5190     10.6912    103.1165
  1170.2500      0.0000    948.9517     10.5411     99.5148
  1170.5000      0.0000    936.4631     10.4196     95.0275
  1170.7500      0.0000    920.1707     10.3309     89.3862
  1171.0000      0.0000    903.2275     10.2864     83.3479
  1171.2500      0.0000    887.3705     10.2981     78.3786
  1171.5000      0.0000    872.6194     10.3743     75.7793
  1171.7500      0.0000    859.2876     10.5188     76.0235
  1172.0000      0.0000    848.3102     10.7271     78.7210
  1172.2500      0.0000    839.9902     10.9799     82.9474
  1172.5000      0.0000    833.9786     11.2432     87.7054
  1172.7500      0.0000    830.2584     11.4802     92.3269
  1173.0000      0.0000    829.6429     11.6704     96.5682
  1173.2500      0.0000    833.6941     11.8225    100.4947
  1173.5000      0.0000    844.6818     11.9705    104.4652
  1173.7500      0.0000    865.3158     12.1475    108.8809
  1174.0000      0.0000    896.4295     12.3534    113.3186
  1174.2500      0.0000    933.0580     12.5496    116.1168
  1174.5000      0.0000    964.7504     12.6898    115.6439
  1174.7500      0.0000    984.1577     12.7540    112.0935
  1175.0000      0.0000    995.1979     12.7518    107.4198
  1175.2500      0.0000   1008.4709     12.7007    103.4790
  1175.5000      0.0000   1027.3652     12.6149    100.7523
  1175.7500      0.0000   1041.7494     12.5101     98.7246
  1176.0000      0.0000   1037.5396     12.3997     96.9166
  1176.2500      0.0000   1012.1241     12.2813     95.4534
  1176.5000      0.0000    978.2368     12.1384     94.8629
  1176.7500      0.0000    950.9514     11.9605     95.5721
  1177.0000      0.0000    932.9613     11.7542     97.8553
  1177.2500      0.0000    916.0515     11.5388    101.8933
  1177.5000      0.0000    894.7457     11.3374    107.2300
  1177.7500      0.0000    872.8035     11.1674    112.5015
  1178.0000      0.0000    856.7414     11.0317    116.3607
  1178.2500      0.0000    848.5053     10.9214    118.4663
  1178.5000      0.0000    845.8149     10.8314    119.1488
  1178.7500      0.0000    846.5464     10.7686    118.5480
  1179.0000      0.0000    851.6154     10.7399    116.6962
  1179.2500      0.0000    865.3636     10.7409    114.1310
  1179.5000      0.0000    893.4830     10.7612    111.6136
  1179.7500      0.0000    938.1209     10.7976    109.1572
  1180.0000      0.0000    992.6053     10.8544    106.0075
  1180.2500      0.0000   1041.3389     10.9328    101.6736
  1180.5000      0.0000   1067.3325     11.0262     96.3379
  1180.7500      0.0000   1063.3588     11.1256     90.2470
  1181.0000      0.0000   1038.6742     11.2224     83.5558
  1181.2500      0.0000   1014.0814     11.3012     77.0702
  1181.5000      0.0000   1005.1168     11.3359     72.6000
  1181.7500      0.0000   1007.1199     11.3053     72.1221
  1182.0000      0.0000    999.8297     11.2148     76.4038
  1182.2500      0.0000    968.6170     11.0933     84.3705
  1182.5000      0.0000    918.4387     10.9674     93.8124
  1182.7500      0.0000    866.2819     10.8412    102.6998
  1183.0000      0.0000    824.7485     10.7049    109.9550
  1183.2500      0.0000    795.6574     10.5577    115.4840
  1183.5000      0.0000    775.5316     10.4200    119.8380
  1183.7500      0.0000    762.5591     10.3203    123.4965
  1184.0000      0.0000    758.0081     10.2736    126.0392
  1184.2500      0.0000    762.8591     10.2724    126.3171
  1184.5000      0.0000    774.7401     10.2969    124.0100
  1184.7500      0.0000    788.8638     10.3299    120.8332
  1185.0000      0.0000    801.2690     10.3641    119.5729
  1185.2500      0.0000    810.3822     10.4016    121.7559
  1185.5000      0.0000    816.0166     10.4473    126.3678
  1185.7500      0.0000    818.2029     10.5023    130.8079
  1186.0000      0.0000    817.2266     10.5624    132.9606
  1186.2500      0.0000    814.0839     10.6255    132.3247
  1186.5000      0.0000    810.3397     10.6960    129.4693
  1186.7500      0.0000    807.3212     10.7816    125.1755
  1187.0000      0.0000    805.4952     10.8846    120.4776
  1187.2500      0.0000    804.6008     10.9974    116.8347
  1187.5000      0.0000    804.2508     11.1061    115.5561
  1187.7500      0.0000    804.3480     11.1989    117.2038
  1188.0000      0.0000    805.1200     11.2727    121.7256
  1188.2500      0.0000    806.8547     11.3315    128.6316
  1188.5000      0.0000    809.4254     11.3776    136.5810
  1188.7500      0.0000    811.9269     11.4083    143.2156
  1189.0000      0.0000    813.0689     11.4211    146.1383
  1189.2500      0.0000    812.2455     11.4215    144.3556
  1189.5000      0.0000    810.0945     11.4229    138.8730
  1189.7500      0.0000    807.8193     11.4403    132.0397
  1190.0000      0.0000    806.1705     11.4792    126.1293
  1190.2500      0.0000    805.2115     11.5275    122.2439
  1190.5000      0.0000    804.7752     11.5600    120.3901
  1190.7500      0.0000    804.9067     11.5557    120.2899
  1191.0000      0.0000    805.9871     11.5118    121.7330
  1191.2500      0.0000    808.5410     11.4429    124.2907
  1191.5000      0.0000    812.6695     11.3672    127.3539
  1191.7500      0.0000    817.3227     11.2918    130.6948
  1192.0000      0.0000    820.3437     11.2101    134.4220
  1192.2500      0.0000    819.8958     11.1112    138.0910
  1192.5000      0.0000    816.1038     10.9921    140.3273
  1192.7500      0.0000    810.9716     10.8616    139.7207
  1193.0000      0.0000    806.6477     10.7336    136.2051
  1193.2500      0.0000    804.0424     10.6214    131.4444
  1193.5000      0.0000    802.9024     10.5327    127.5252
  1193.7500      0.0000    802.5906     10.4679    125.1422
  1194.0000      0.0000    802.5546     10.4225    123.3125
  1194.2500      0.0000    802.3421     10.3950    120.8221
  1194.5000      0.0000    801.4811     10.3908    117.6063
  1194.7500      0.0000    799.5611     10.4157    114.7223
  1195.0000      0.0000    796.6767     10.4666    113.3271
  1195.2500      0.0000    793.8539     10.5321    113.7883
  1195.5000      0.0000    792.6298     10.6013    115.6267
  1195.7500      0.0000    793.7770     10.6711    118.2164
  1196.0000      0.0000    796.5485     10.7437    121.4166
  1196.2500      0.0000    799.4358     10.8214    125.5467
  1196.5000      0.0000    801.3523     10.9007    130.9262
  1196.7500      0.0000    801.8066     10.9697    137.3245
  1197.0000      0.0000    800.1097     11.0021    143.6491
  1197.2500      0.0000    795.1007     10.9546    148.3501
  1197.5000      0.0000    786.7349     10.7824    150.5215
  1197.7500      0.0000    778.4025     10.4741    150.5536
  1198.0000      0.0000    776.1793     10.0763    149.5366
  1198.2500      0.0000    783.7927      9.6798    148.1241
  1198.5000      0.0000    798.8770      9.3770    146.1228
  1198.7500      0.0000    815.1041      9.2158    143.0072
  1199.0000      0.0000    826.2145      9.1788    138.6194
  1199.2500      0.0000    826.4294      9.2077    133.4218
