~Version Information
VERS.                      2.0: CWLS Log ASCII Standard - VERSION 2.0
WRAP.                       NO: One line per depth step
~Well Information Block
STRT.FT                 0.0000: 
STOP.FT              2072.7500: 
STEP.FT                 0.2500: 
NULL.                -999.2500: 
COMP.          Pioneer Natural Resources: COMPANY
WELL.          Greenwood 43-29 Tr: WELL
FLD.           Purgatorie River: FIELD
LOC.           1478' FSL & 744' FEL: LOCATION
STAT.                 Colorado: State
CNTY.               Las Animas: COUNTY
CTRY. USA : Country
SECT. 29 : Section
TOWN. 32S : Township
RANG. 67W : Range
SRVC.                Patterson: SERVICE COMPANY
DATE.          Tue Sep 06 12:54:40 2005: LOG DATE
API. 05-071-08478                          : UNIQUE WELL ID
~Curve Information Block
DEPT.FT            0 000 00 00: Depth
GR.GAPI                       : Gamma Ray
CCL.                          : Casing Collar Locator
TT3.usec                      : CBL 3' Travel Time
AMP3.mV                       : CBL 3' Amplitude
~Parameter Information Block
~A  Depth        GR         CCL         TT3         AMP3    
# ...
   804.0000     40.5937      0.0000    810.0319      8.9019
   804.2500     45.2971      0.0000    795.5370      9.0418
   804.5000     51.1490      0.0000    754.8083      9.1718
   804.7500     57.2614      0.0000    679.9187      9.2912
   805.0000     63.1284      0.0000    597.9139      9.4104
   805.2500     68.5596      0.0000    559.1595      9.5402
   805.5000     73.3820      0.0000    584.4623      9.6689
   805.7500     77.2117      0.0000    635.7088      9.7693
   806.0000     79.6898      0.0000    660.5192      9.8206
   806.2500     81.0362      0.0000    654.3534      9.7931
   806.5000     82.2073      0.0000    648.9437      9.6264
   806.7500     84.1906      0.0000    661.1547      9.3150
   807.0000     87.0801      0.0000    677.7885      9.0456
   807.2500     90.1189      0.0000    684.0734      8.9608
   807.5000     92.6695      0.0000    700.7048      8.7552
   807.7500     94.6863      0.0000    751.5862      8.1212
   808.0000     96.0406      0.0000    811.5732      7.3892
   808.2500     95.9913      0.0000    844.2192      7.0121
   808.5000     93.8045      0.0000    848.4916      6.9716
   808.7500     89.7114     -1.0000    836.3987      7.0484
   809.0000     85.0120      0.0000    813.5730      7.1336
   809.2500     81.2905      0.0000    793.3679      7.2081
   809.5000     79.4070      0.0000    786.1910      7.3278
   809.7500     78.9319      0.0000    774.9741      7.6851
   810.0000     78.4192      0.0000    743.0226      8.3748
   810.2500     76.4157      0.0000    707.9954      9.0098
   810.5000     72.5032      0.0000    688.7112      9.2315
   810.7500     67.5653      0.0000    672.9006      9.3648
   811.0000     63.0753      0.0000    646.7030      9.7179
   811.2500     60.0199      0.0000    613.7843     10.0387
   811.5000     58.3308      0.0000    590.1312     10.0873
   811.7500     57.1647      0.0000    603.4320      9.9457
   812.0000     55.6573      0.0000    664.1942      9.7636
   812.2500     53.7219      0.0000    742.9954      9.6046
   812.5000     52.5176      0.0000    801.8171      9.4743
   812.7500     53.9578      0.0000    830.0153      9.3547
   813.0000     59.2083      0.0000    839.1156      9.2290
   813.2500     67.5516      0.0000    841.3173      9.1005
   813.5000     76.7693      0.0000    841.9566      8.9913
   813.7500     84.6518      0.0000    842.2964      8.9221
   814.0000     90.3232      0.0000    842.3342      8.8894
   814.2500     94.3715      0.0000    842.0068      8.8614
   814.5000     97.7222      0.0000    841.4567      8.8022
   814.7500    100.4070      0.0000    840.8583      8.7106
   815.0000    101.6808      0.0000    840.3351      8.6286
   815.2500    101.3827      0.0000    839.9768      8.5880
   815.5000    100.7230      0.0000    839.7662      8.5699
   815.7500    101.1847      0.0000    839.5779      8.5386
   816.0000    102.8042      0.0000    839.3322      8.4940
   816.2500    104.2147      0.0000    839.1040      8.4673
   816.5000    104.3998      0.0000    839.0354      8.4757
   816.7500    103.6748      0.0000    839.1279      8.4981
   817.0000    102.7179      0.0000    839.1747      8.4964
   817.2500    101.2144      0.0000    838.9901      8.4487
   817.5000     98.0938      0.0000    838.6658      8.3596
   817.7500     93.1880      0.0000    838.4461      8.2607
   818.0000     88.1629      0.0000    838.4046      8.1981
   818.2500     85.3872      0.0000    838.4134      8.1958
   818.5000     85.9215      0.0000    838.3906      8.2358
   818.7500     88.7551      0.0000    838.4242      8.2783
   819.0000     91.7058      0.0000    838.6107      8.2972
   819.2500     92.7454      0.0000    838.8970      8.2966
   819.5000     90.9102      0.0000    839.1531      8.2878
   819.7500     86.6730      0.0000    839.1183      8.2677
   820.0000     81.5089      0.0000    838.0418      8.2229
   820.2500     76.6543      0.0000    834.9362      8.1492
   820.5000     72.2275      0.0000    830.5450      8.0718
   820.7500     67.8030      0.0000    828.4249      8.0337
   821.0000     63.7261      0.0000    830.9151      8.0483
   821.2500     61.4047      0.0000    835.3643      8.0810
   821.5000     62.2304      0.0000    837.4738      8.0858
   821.7500     66.3605      0.0000    835.5328      8.0503
   822.0000     72.3531      0.0000    831.1903      7.9954
   822.2500     77.7328      0.0000    828.6633      7.9431
   822.5000     80.2684      0.0000    830.5693      7.9025
   822.7500     79.3637      0.0000    834.6569      7.8779
   823.0000     76.3530      0.0000    837.5438      7.8760
   823.2500     73.2075      0.0000    838.5541      7.8991
   823.5000     71.0044      0.0000    838.4039      7.9332
   823.7500     69.8284      0.0000    836.9308      7.9474
   824.0000     69.8310      0.0000    832.5422      7.9184
   824.2500     71.6284      0.0000    823.9280      7.8551
   824.5000     75.3898      0.0000    812.9991      7.7868
   824.7500     79.9946      0.0000    804.2547      7.7285
   825.0000     83.5763      0.0000    800.8600      7.6770
   825.2500     84.9535      0.0000    803.7111      7.6432
   825.5000     84.4775      0.0000    812.0867      7.6515
   825.7500     83.4964      0.0000    821.9083      7.6953
   826.0000     83.1295      0.0000    826.4578      7.7351
   826.2500     83.7010      0.0000    822.2100      7.7465
   826.5000     85.1786      0.0000    812.5071      7.7423
   826.7500     87.6479      0.0000    803.7367      7.7501
   827.0000     91.1395      0.0000    799.0377      7.7701
   827.2500     95.2521      0.0000    797.4222      7.7656
   827.5000     99.0697      0.0000    797.0887      7.7193
   827.7500    101.4326      0.0000    797.2061      7.6719
   828.0000    101.5789      0.0000    797.5439      7.6669
   828.2500     99.6836      0.0000    798.1007      7.7033
   828.5000     96.5286      0.0000    799.4861      7.7577
   828.7500     92.8031      0.0000    803.0603      7.8160
   829.0000     89.2339      0.0000    809.2708      7.8787
   829.2500     87.0720      0.0000    816.1513      7.9340
   829.5000     87.4754      0.0000    821.2506      7.9420
   829.7500     90.1892      0.0000    822.7601      7.8739
   830.0000     93.3614      0.0000    819.0018      7.7563
   830.2500     95.0031      0.0000    812.1031      7.6567
   830.5000     94.5972      0.0000    808.8949      7.6325
   830.7500     93.1546      0.0000    813.6693      7.6893
   831.0000     91.7838      0.0000    823.4720      7.7883
   831.2500     90.6748      0.0000    832.1535      7.8950
   831.5000     89.6531      0.0000    836.4595      8.0069
   831.7500     88.9824      0.0000    836.4730      8.1292
   832.0000     89.0190      0.0000    832.2278      8.2419
   832.2500     89.6306      0.0000    823.3755      8.2993
   832.5000     90.5259      0.0000    812.1700      8.2751
   832.7500     91.6239      0.0000    803.2341      8.2033
   833.0000     92.6993      0.0000    799.6270      8.1425
   833.2500     93.3717      0.0000    801.4652      8.1281
   833.5000     93.7804      0.0000    806.5392      8.1662
   833.7500     94.5045      0.0000    811.1782      8.2216
   834.0000     95.5235      0.0000    814.3894      8.2420
   834.2500     95.8923      0.0000    819.3663      8.2376
   834.5000     94.6234      0.0000    827.1718      8.2732
   834.7500     91.5121      0.0000    834.2541      8.3598
   835.0000     87.1031      0.0000    837.9636      8.4173
   835.2500     82.1856      0.0000    839.0419      8.3663
   835.5000     77.3707      0.0000    838.8842      8.2196
   835.7500     73.0759      0.0000    837.5246      8.0623
   836.0000     69.8546      0.0000    834.1850      7.9676
   836.2500     68.4644      0.0000    829.5522      7.9464
   836.5000     69.2577      0.0000    826.9256      7.9610
   836.7500     71.5271      0.0000    828.5734      7.9697
   837.0000     73.9044      0.0000    832.4196      7.9645
   837.2500     75.6056      0.0000    835.1979      7.9803
