~Version Information
VERS.                      2.0: CWLS Log ASCII Standard - VERSION 2.0
WRAP.                       NO: One line per depth step
~Well Information Block
STRT.FT               420.0000: 
STOP.FT              2888.7000: 
STEP.FT                 0.1000: 
NULL.                -999.2500: 
COMP.          Pioneer Natural Resources: COMPANY
WELL.          Touchstone 11-32: WELL
FLD.           Purgatoire River: FIELD
LOC.           853' FNL & 407' FWL--: LOCATION
CNTY.               Las Animas: COUNTY
SRVC.                Patterson: SERVICE COMPANY
DATE.          Fri Feb 24 11:16:52 2006: LOG DATE
UWI.           05 071 08564 00: UNIQUE WELL ID
STAT.                 Colorado: STATE
~Curve Information Block
DEPT.FT            0 000 00 00: Depth
DCAL.in                       : CDL Caliper
RHOB.g/cc                     : CDL Bulk Density
RHOC.g/cc                     : CDL Density Correction
DPOR.pu                       : CDL Density Porosity
NPOR.pu                       : Neutron Porosity
GR.GAPI                       : Gamma Ray
~Parameter Information Block
~A  Depth       DCAL        RHOB        RHOC        DPOR        NPOR         GR     
# ...
  2858.4000      7.7129      2.6004      0.0668      3.0041     17.6377   -999.2500
  2858.5000      7.7140      2.5751      0.0038      4.5405     17.7881   -999.2500
  2858.6000      7.7140      2.5710      0.0159      4.7888     17.8050   -999.2500
  2858.7000      7.7140      2.5817      0.0806      4.1383     17.7423   -999.2500
  2858.8000      7.7133      2.5925      0.0429      3.4840     17.5431   -999.2500
  2858.9000      7.7133      2.5979      0.0519      3.1593     17.3232   -999.2500
  2859.0000      7.7136      2.5926      0.0673      3.4790     17.2351   -999.2500
  2859.1000      7.7136      2.5770      0.0722      4.4245     17.5553   -999.2500
  2859.2000      7.7136      2.5606      0.0235      5.4180     18.3087   -999.2500
  2859.3000      7.7110      2.5501      0.0284      6.0558     19.1097   -999.2500
  2859.4000      7.7110      2.5453     -0.0006      6.3436     19.5957   -999.2500
  2859.5000      7.7061      2.5475      0.0510      6.2126     19.7404   -999.2500
  2859.6000      7.7061      2.5561      0.0470      5.6929     19.8589   -999.2500
  2859.7000      7.7061      2.5622      0.0413      5.3202     19.9103   -999.2500
  2859.8000      7.7047      2.5631      0.0572      5.2692     19.5906   -999.2500
  2859.9000      7.7047      2.5705      0.0209      4.8176     19.1314   -999.2500
  2860.0000      7.7047      2.5882      0.0700      3.7446     18.9311   -999.2500
  2860.1000      7.7047      2.5987      0.1185      3.1079     19.0470   -999.2500
  2860.2000      7.7047      2.5922      0.0829      3.5058     19.4062   -999.2500
  2860.3000      7.7045      2.5801      0.0476      4.2373     19.9506   -999.2500
  2860.4000      7.7045      2.5701      0.0607      4.8441     20.3570   -999.2500
  2860.5000      7.7033      2.5569      0.0584      5.6418     20.3851   -999.2500
  2860.6000      7.7033      2.5445      0.0351      6.3963     20.1040   -999.2500
  2860.7000      7.7033      2.5441      0.0547      6.4168     19.6756   -999.2500
  2860.8000      7.7008      2.5516      0.0955      5.9621     19.3901   -999.2500
  2860.9000      7.7008      2.5546      0.0669      5.7838     19.3171   -999.2500
  2861.0000      7.6995      2.5508      0.0685      6.0120     19.2199   -999.2500
  2861.1000      7.6995      2.5449      0.0475      6.3691     18.9683   -999.2500
  2861.2000      7.6995      2.5456      0.0060      6.3296     18.7456   -999.2500
  2861.3000      7.6981      2.5513      0.0839      5.9802     18.7239   -999.2500
  2861.4000      7.6981      2.5480      0.0342      6.1817     18.6944   -999.2500
  2861.5000      7.6976      2.5403      0.0128      6.6483     18.4617   -999.2500
  2861.6000      7.6976      2.5476      0.0402      6.2045     18.2470   -999.2500
  2861.7000      7.6976      2.5659      0.0859      5.0976     18.1483   -999.2500
  2861.8000      7.6983      2.5740      0.0715      4.6064     18.3683   -999.2500
  2861.9000      7.6983      2.5676      0.0462      4.9962     20.8348   -999.2500
  2862.0000      7.6995      2.5599      0.0339      5.4612     29.2113   -999.2500
  2862.1000      7.6995      2.5579      0.0540      5.5834     42.1570   -999.2500
  2862.2000      7.6995      2.5527      0.0452      5.8966     51.2149   -999.2500
  2862.3000      7.7010      2.5411      0.0370      6.6025     54.3793   -999.2500
  2862.4000      7.7010      2.5319      0.0287      7.1596     54.9902   -999.2500
  2862.5000      7.7017      2.5296      0.0168      7.2998     55.0547   -999.2500
  2862.6000      7.7017      2.5307      0.0380      7.2300     55.0584   -999.2500
  2862.7000      7.7017      2.5351      0.0441      6.9634   -999.2500   -999.2500
  2862.8000      7.6991      2.5458      0.0853      6.3181   -999.2500   -999.2500
  2862.9000      7.6991      2.5598      0.0683      5.4692   -999.2500   -999.2500
  2863.0000      7.6976      2.5750      0.0556      4.5478   -999.2500   -999.2500
  2863.1000      7.6976      2.5868      0.0918      3.8294   -999.2500   -999.2500
  2863.2000      7.6976      2.5854      0.0940      3.9163   -999.2500   -999.2500
  2863.3000      7.7006      2.5701      0.0630      4.8429   -999.2500   -999.2500
  2863.4000      7.7006      2.5508      0.0254      6.0138   -999.2500   -999.2500
  2863.5000      7.7022      2.5331      0.0628      7.0835   -999.2500   -999.2500
  2863.6000      7.7022      2.5232      0.0237      7.6844   -999.2500   -999.2500
  2863.7000      7.7022      2.5305      0.0453      7.2436   -999.2500   -999.2500
  2863.8000      7.7015      2.5534     -0.0009      5.8572   -999.2500   -999.2500
  2863.9000      7.7015      2.5768      0.0986      4.4349   -999.2500   -999.2500
  2864.0000      7.6987      2.5870      0.0699      3.8177   -999.2500   -999.2500
  2864.1000      7.6987      2.5855      0.0876      3.9065   -999.2500   -999.2500
  2864.2000      7.6987      2.5738      0.0804      4.6161   -999.2500   -999.2500
  2864.3000      7.6964      2.5565      0.0470      5.6676   -999.2500   -999.2500
  2864.4000      7.6964      2.5530      0.0326      5.8813   -999.2500   -999.2500
  2864.5000      7.6977      2.5701      0.0610      4.8415   -999.2500   -999.2500
  2864.6000      7.6977      2.5890      0.0704      3.6987   -999.2500   -999.2500
  2864.7000      7.6977      2.5877      0.0967      3.7732   -999.2500   -999.2500
  2864.8000      7.6988      2.5627      0.0678      5.2895   -999.2500   -999.2500
  2864.9000      7.6988      2.5357      0.0052      6.9288   -999.2500   -999.2500
  2865.0000      7.6967      2.5369     -0.0038      6.8547   -999.2500   -999.2500
  2865.1000      7.6967      2.5662      0.0392      5.0802   -999.2500   -999.2500
  2865.2000      7.6967      2.5873      0.0895      3.7998   -999.2500   -999.2500
  2865.3000      7.6919      2.5794      0.0450      4.2797   -999.2500   -999.2500
  2865.4000      7.6919      2.5631      0.0268      5.2643   -999.2500   -999.2500
  2865.5000      7.6870      2.5612      0.0397      5.3819   -999.2500   -999.2500
  2865.6000      7.6870      2.5733      0.0869      4.6461   -999.2500   -999.2500
  2865.7000      7.6870      2.5895      0.0925      3.6685   -999.2500   -999.2500
  2865.8000      7.6848      2.6011      0.0820      2.9619   -999.2500   -999.2500
  2865.9000      7.6848      2.6052      0.0576      2.7158   -999.2500   -999.2500
  2866.0000      7.6850      2.5965      0.0734      3.2408   -999.2500   -999.2500
  2866.1000      7.6850      2.5763      0.0535      4.4659   -999.2500   -999.2500
  2866.2000      7.6850      2.5559      0.0523      5.7015   -999.2500   -999.2500
  2866.3000      7.6847      2.5386      0.0489      6.7505   -999.2500   -999.2500
  2866.4000      7.6847      2.5320      0.0039      7.1502   -999.2500   -999.2500
  2866.5000      7.6848      2.5431      0.0740      6.4759   -999.2500   -999.2500
  2866.6000      7.6848      2.5547      0.0912      5.7740   -999.2500   -999.2500
  2866.7000      7.6848      2.5553      0.0380      5.7376   -999.2500   -999.2500
  2866.8000      7.6847      2.5508      0.0795      6.0108   -999.2500   -999.2500
  2866.9000      7.6847      2.5447      0.0477      6.3802   -999.2500   -999.2500
  2867.0000      7.6844      2.5455      0.0246      6.3311   -999.2500   -999.2500
  2867.1000      7.6844      2.5640      0.0146      5.2093   -999.2500   -999.2500
  2867.2000      7.6844      2.5905      0.0870      3.6042   -999.2500   -999.2500
  2867.3000      7.6851      2.6009      0.0913      2.9747   -999.2500   -999.2500
  2867.4000      7.6851      2.5971      0.0338      3.2083   -999.2500   -999.2500
  2867.5000      7.6847      2.5957      0.0699      3.2908   -999.2500   -999.2500
  2867.6000      7.6847      2.5897      0.0812      3.6517   -999.2500   -999.2500
  2867.7000      7.6847      2.5758      0.0145      4.4980   -999.2500   -999.2500
  2867.8000      7.6828      2.5714      0.0245      4.7630   -999.2500   -999.2500
  2867.9000      7.6828      2.5760      0.0539      4.4872   -999.2500   -999.2500
