~Version Information
VERS.                      2.0: CWLS Log ASCII Standard - VERSION 2.0
WRAP.                       NO: One line per depth step
~Well Information Block
STRT.FT               550.0000: 
STOP.FT              1498.5000: 
STEP.FT                 0.1000: 
NULL.                -999.2500: 
COMP.          Pioneer Natural Resources: COMPANY
WELL.          Surtees 23-34 Tr: WELL
FLD.           Purgatoire River: FIELD
LOC.           1559' FSL & 1997' FWL: LOCATION
PROV.                 Colorado: PROVINCE
CNTY.               Las Animas: COUNTRY
SRVC.                Patterson: SERVICE COMPANY
DATE.          Wed Jul 27 09:35:51 2005: LOG DATE
UWI.           05 071 08449 00: UNIQUE WELL ID
~Curve Information Block
DEPT.FT            0 000 00 00: Depth
DCAL.in                       : CDL Caliper
RHOB.g/cc                     : CDL Bulk Density
RHOC.g/cc                     : CDL Density Correction
DPOR.pu                       : CDL Density Porosity
GR.GAPI                       : Gamma Ray
NPOR.pu                       : Neutron Porosity
~Parameter Information Block
~A  Depth       DCAL        RHOB        RHOC        DPOR         GR         NPOR    
# ...
   857.2000      8.1296      2.4894      0.0751      9.7321    137.2552     22.8489
   857.3000      8.1292      2.5054      0.0749      8.7660    144.2968     23.2548
   857.4000      8.1292      2.5141      0.0829      8.2365    141.7746     23.8724
   857.5000      8.1293      2.5211      0.0949      7.8119    132.2976     24.0180
   857.6000      8.1293      2.5293      0.1288      7.3152    124.7039     23.4966
   857.7000      8.1293      2.5354      0.0908      6.9458    125.6810     22.8163
   857.8000      8.1304      2.5339      0.1464      7.0387    131.4024     22.3803
   857.9000      8.1304      2.5199      0.0943      7.8844    137.0260     22.3943
   858.0000      8.1322      2.5007      0.0738      9.0480    141.7989     22.8865
   858.1000      8.1322      2.4827      0.0876     10.1366    143.2115     23.4580
   858.2000      8.1322      2.4637      0.0285     11.2880    141.6842     23.8854
   858.3000      8.1344      2.4479      0.0474     12.2489    139.9921     24.1258
   858.4000      8.1344      2.4387      0.0633     12.8073    139.2798     23.8300
   858.5000      8.1349      2.4368      0.0543     12.9227    140.5417     23.1108
   858.6000      8.1349      2.4488      0.0607     12.1964    140.5136     22.6425
   858.7000      8.1349      2.4743      0.0839     10.6496    137.4569     22.5310
   858.8000      8.1316      2.4972      0.1371      9.2613    137.4846     22.6008
   858.9000      8.1316      2.5131      0.1105      8.2969    141.8970     22.9251
   859.0000      8.1176      2.5324      0.1280      7.1276    144.0742     23.2183
   859.1000      8.1176      2.5384      0.1896      6.7650    141.7218     23.0247
   859.2000      8.1176      2.5064      0.1452      8.7049    140.9361     22.4289
   859.3000      8.1159      2.4523      0.1093     11.9816    142.9231     21.9463
   859.4000      8.1159      2.4129      0.0919     14.3675    141.5270     21.8980
   859.5000      8.1087      2.3989      0.0817     15.2160    135.4584     22.2413
   859.6000      8.1087      2.3879      0.1189     15.8860    131.0291     22.7618
   859.7000      8.1087      2.3587      0.0736     17.6533    133.6920     22.9577
   859.8000      8.1173      2.3209      0.0049     19.9430    140.1797     22.5769
   859.9000      8.1173      2.2961      0.0156     21.4464    145.5093     22.1145
   860.0000      8.1361      2.2878      0.0199     21.9544    148.2101     22.0337
   860.1000      8.1361      2.2762      0.0551     22.6523    146.2151     22.0033
   860.2000      8.1361      2.2428      0.0424     24.6759    138.3649     21.3038
   860.3000      8.1452      2.1967     -0.0040     27.4738    129.1644     19.9115
   860.4000      8.1452      2.1597     -0.0023     29.7129    122.7171     18.4182
   860.5000      8.1556      2.1323      0.0902     31.3784    120.1094     17.2123
   860.6000      8.1556      2.0985      0.0473     33.4264    121.4913     16.2911
   860.7000      8.1556      2.0440      0.0841     36.7287    123.6643     15.6047
   860.8000      8.2210      1.9609      0.0751     41.7664    124.0260     15.3083
   860.9000      8.2210      1.8753     -0.0322     46.9533    124.9979     15.3439
   861.0000      8.2818      1.8252      0.0010     49.9855    127.6723     15.3651
   861.1000      8.2818      1.7938      0.0607     51.8891    127.4217     15.2684
   861.2000      8.2818      1.7383      0.0748     55.2560    123.7354     15.4475
   861.3000      8.3829      1.6651      0.0407     59.6922    120.6647     16.4562
   861.4000      8.3829      1.6244      0.0244     62.1564    117.2461     18.2293
   861.5000      8.4814      1.6513      0.0770     60.5281    112.2182     20.1176
   861.6000      8.4814      1.7373      0.1626     55.3154    109.2842     21.8240
   861.7000      8.4814      1.8581      0.1935     47.9937    113.6565     23.4181
   861.8000      8.5462      1.9986      0.2213     39.4758    121.9632     24.7332
   861.9000      8.5462      2.1485      0.2118     30.3936    125.2933     25.8741
   862.0000      8.6273      2.2991      0.3062     21.2651    122.9110     26.9599
   862.1000      8.6273      2.4373      0.4071     12.8886    121.0863     27.6760
   862.2000      8.6273      2.5375      0.4089      6.8180    123.2686     27.9567
   862.3000      8.3888      2.5765      0.3963      4.4562    127.7793     27.8355
   862.4000      8.3888      2.5679      0.2094      4.9761    133.2744     27.1793
   862.5000      8.1630      2.5499      0.1710      6.0677    139.1102     26.6084
   862.6000      8.1630      2.5387      0.1659      6.7470    140.0930     26.8374
   862.7000      8.1630      2.5359      0.0947      6.9143    130.8463     27.5367
   862.8000      8.1025      2.5439      0.0919      6.4284    116.1188     28.0870
   862.9000      8.1025      2.5598      0.0933      5.4684    106.5507     28.1098
   863.0000      8.0682      2.5829      0.1106      4.0653    105.0770     27.5384
   863.1000      8.0682      2.6145      0.1254      2.1542    105.9114     26.6057
   863.2000      8.0682      2.6406      0.1694      0.5672    104.6265     25.6210
   863.3000      8.0878      2.6374      0.2083      0.7628    103.2447     24.9922
   863.4000      8.0878      2.6008      0.1056      2.9804    104.7927     24.7756
   863.5000      8.0708      2.5615      0.0099      5.3607    108.8696     24.7143
   863.6000      8.0708      2.5467      0.0708      6.2594    111.2874     24.8240
   863.7000      8.0708      2.5550      0.0243      5.7562    108.9658     24.9589
   863.8000      8.0576      2.5773      0.1024      4.4045    105.3532     24.9559
   863.9000      8.0576      2.5995      0.0955      3.0598    102.5974     25.1995
   864.0000      8.0498      2.6104      0.0690      2.3973     99.8962     25.8529
   864.1000      8.0498      2.6106      0.0768      2.3908     97.4227     26.4829
   864.2000      8.0498      2.6009      0.1134      2.9746     95.0858     26.8736
   864.3000      8.0384      2.5914      0.0679      3.5512     93.8058     26.9293
   864.4000      8.0384      2.5993      0.0479      3.0737     91.1136     26.5467
   864.5000      8.0319      2.6211      0.0616      1.7539     85.5474     26.0329
   864.6000      8.0319      2.6431      0.0914      0.4155     82.0523     25.7241
   864.7000      8.0319      2.6608      0.0893     -0.6559     84.7869     25.5100
   864.8000      8.0367      2.6729      0.1167     -1.3861     91.9366     25.0525
   864.9000      8.0367      2.6813      0.1203     -1.8994     99.1094     24.4500
   865.0000      8.0253      2.6872      0.1551     -2.2535    103.7934     24.2518
   865.1000      8.0253      2.6890      0.1723     -2.3644    103.9840     24.4622
   865.2000      8.0253      2.6931      0.1435     -2.6126    102.4727     24.5887
   865.3000      7.9834      2.7095      0.1394     -3.6058    102.2249     24.7117
   865.4000      7.9834      2.7388      0.1454     -5.3823    102.0746     25.0583
   865.5000      7.9890      2.7668      0.1779     -7.0797    104.2983     25.3060
   865.6000      7.9890      2.7786      0.1639     -7.7916    108.1918     25.2100
   865.7000      7.9890      2.7709      0.1085     -7.3245    107.7147     24.8800
   865.8000      8.0079      2.7459      0.1294     -5.8115    104.9291     24.3753
   865.9000      8.0079      2.7188      0.0287     -4.1671    105.3362     24.0248
   866.0000      8.0152      2.7110      0.0024     -3.6972    107.4139     24.0362
   866.1000      8.0152      2.7156      0.0449     -3.9759    109.7504     24.0294
   866.2000      8.0152      2.7091     -0.0103     -3.5817    112.1817     23.6389
   866.3000      8.0321      2.6892      0.0190     -2.3751    112.5252     23.0765
   866.4000      8.0321      2.6610      0.0324     -0.6647    112.8560     22.7699
   866.5000      8.0495      2.6200      0.0417      1.8211    117.7509     22.6410
   866.6000      8.0495      2.5757     -0.0456      4.5016    126.1072     22.2673
   866.7000      8.0495      2.5486     -0.0005      6.1432    133.9034     21.9548
