~Version Information
VERS.                      2.0: CWLS Log ASCII Standard - VERSION 2.0
WRAP.                       NO: One line per depth step
~Well Information Block
STRT.FT               845.0000: 
STOP.FT              2102.0000: 
STEP.FT                 0.1000: 
NULL.                -999.2500: 
COMP.          Petrogulf Corporation: COMPANY
WELL.               YWAM 7-32R: WELL
FLD.           Purgatorie River: FIELD
LOC.           2355' FNL & 2376' FEL: LOCATION
PROV.                 Colorado: PROVINCE
CNTY.               Las Animas: COUNTRY
SRVC.                Patterson: SERVICE COMPANY
DATE.          Fri Sep 30 11:07:31 2005: LOG DATE
UWI.                          : UNIQUE WELL ID
~Curve Information Block
DEPT.FT            0 000 00 00: Depth
DCAL.in                       : CDL Caliper
RHOB.g/cc                     : CDL Bulk Density
RHOC.g/cc                     : CDL Density Correction
DPOR.pu                       : CDL Density Porosity
GR.GAPI                       : Gamma Ray
NPOR.pu                       : Neutron Porosity
~Parameter Information Block
~A  Depth       DCAL        RHOB        RHOC        DPOR         GR         NPOR    
# ...
  1920.2000      7.8307      2.3863      0.0124     15.9810     61.8105     20.9228
  1920.3000      7.8470      2.3882      0.0260     15.8643     58.3631     20.8494
  1920.4000      7.8470      2.3967      0.0204     15.3520     55.3440     20.6910
  1920.5000      7.8689      2.4096      0.0479     14.5711     52.5947     20.8156
  1920.6000      7.8689      2.4220      0.0215     13.8187     49.1879     21.0631
  1920.7000      7.8689      2.4291      0.0290     13.3855     45.9636     21.1512
  1920.8000      7.8650      2.4283      0.0465     13.4341     45.2270     20.8808
  1920.9000      7.8650      2.4206      0.0198     13.9012     45.7260     20.2141
  1921.0000      7.8832      2.4126      0.0149     14.3893     44.9182     19.6691
  1921.1000      7.8832      2.4127     -0.0002     14.3837     42.8837     19.5984
  1921.2000      7.8832      2.4253      0.0064     13.6206     41.8045     19.6149
  1921.3000      7.8942      2.4451      0.0215     12.4189     43.6315     19.3865
  1921.4000      7.8942      2.4639      0.0592     11.2779     47.5244     19.0106
  1921.5000      7.9070      2.4784      0.0662     10.4009     50.0631     18.5944
  1921.6000      7.9070      2.4830      0.0483     10.1214     50.0655     18.3950
  1921.7000      7.9070      2.4734      0.0421     10.7020     49.9515     18.6503
  1921.8000      7.8852      2.4614      0.0064     11.4322     52.2627     18.8758
  1921.9000      7.8852      2.4655      0.0038     11.1797     56.0028     18.7331
  1922.0000      7.8583      2.4810      0.0717     10.2450     59.1527     18.6622
  1922.1000      7.8583      2.4885      0.0240      9.7888     63.5178     18.9076
  1922.2000      7.8583      2.4908      0.0327      9.6487     72.8500     19.4384
  1922.3000      7.8870      2.5062     -0.0120      8.7145     86.7255     20.1895
  1922.4000      7.8870      2.5365      0.0675      6.8806    100.4184     20.9773
  1922.5000      7.8647      2.5572      0.0569      5.6224    111.1653     21.6226
  1922.6000      7.8647      2.5516      0.0401      5.9647    121.1739     22.1164
  1922.7000      7.8647      2.5337     -0.0053      7.0490    132.2372     22.7661
  1922.8000      7.8321      2.5239     -0.0028      7.6451    141.3400     23.7267
  1922.9000      7.8321      2.5263      0.0147      7.4987    146.0895     24.5003
  1923.0000      7.8653      2.5337      0.1092      7.0459    148.3779     24.7141
  1923.1000      7.8653      2.5380      0.0510      6.7895    151.3329     24.7078
  1923.2000      7.8653      2.5399      0.0560      6.6734    155.4665     24.8305
  1923.3000      7.8836      2.5451      0.0478      6.3581    157.0406     24.9755
  1923.4000      7.8836      2.5550      0.0573      5.7592    153.9509     24.9966
  1923.5000      7.8677      2.5699      0.0965      4.8572    149.1619     25.1337
  1923.6000      7.8677      2.5908      0.0931      3.5902    143.8893     25.3563
  1923.7000      7.8677      2.6109      0.1246      2.3700    135.6246     25.2161
  1923.8000      7.8608      2.6154      0.1120      2.0959    124.9173     24.7670
  1923.9000      7.8608      2.5986      0.0927      3.1133    115.8622     24.2991
  1924.0000      7.8726      2.5687      0.0913      4.9258    109.6462     23.7083
  1924.1000      7.8726      2.5355      0.0609      6.9370    103.9838     22.8763
  1924.2000      7.8726      2.5117      0.0014      8.3830     96.9376     22.0999
  1924.3000      7.8632      2.5096      0.0068      8.5094     89.9548     21.7544
  1924.4000      7.8632      2.5220      0.0500      7.7596     85.0874     21.5917
  1924.5000      7.8787      2.5319      0.0105      7.1595     81.3479     20.9936
  1924.6000      7.8787      2.5342      0.0456      7.0173     77.9012     19.9948
  1924.7000      7.8787      2.5293      0.0233      7.3148     74.5388     19.0107
  1924.8000      7.9096      2.5208      0.0442      7.8316     72.8813     18.2221
  1924.9000      7.9096      2.5159      0.0230      8.1294     73.5772     17.8502
  1925.0000      7.8945      2.5137      0.0704      8.2586     74.5425     17.9078
  1925.1000      7.8945      2.5113      0.0156      8.4072     75.6091     18.0425
  1925.2000      7.8945      2.5173      0.0074      8.0447     77.7045     17.9796
  1925.3000      7.8175      2.5368      0.0712      6.8605     80.2512     17.6794
  1925.4000      7.8175      2.5619      0.0783      5.3390     81.4761     17.2639
  1925.5000      7.7883      2.5773      0.1248      4.4052     81.2247     16.9128
  1925.6000      7.7883      2.5693      0.1167      4.8900     81.3641     16.6210
  1925.7000      7.7883      2.5453      0.0590      6.3470     81.8291     16.2866
  1925.8000      7.7297      2.5259      0.1006      7.5233     82.9138     15.9025
  1925.9000      7.7297      2.5160      0.0815      8.1211     86.1518     15.5062
  1926.0000      7.6932      2.5118      0.0472      8.3745     91.2603     15.2827
  1926.1000      7.6932      2.5153      0.0645      8.1627     95.4658     15.4862
  1926.2000      7.6932      2.5282      0.0791      7.3843     96.4910     15.9636
  1926.3000      7.6184      2.5483      0.0936      6.1616     96.6968     16.2614
  1926.4000      7.6184      2.5715      0.1650      4.7562     98.6317     16.1312
  1926.5000      7.5812      2.5962      0.1478      3.2597    101.2179     15.7485
  1926.6000      7.5812      2.6207      0.1800      1.7762    102.7179     15.4889
  1926.7000      7.5812      2.6280      0.2160      1.3338    102.7450     15.3715
  1926.8000      7.5612      2.6058      0.1774      2.6786    103.0137     15.3453
  1926.9000      7.5612      2.5679      0.1217      4.9775    103.6580     15.7056
  1927.0000      7.5906      2.5335      0.0676      7.0611    101.9169     16.7188
  1927.1000      7.5906      2.5111      0.0765      8.4206     98.8361     18.0023
  1927.2000      7.5906      2.4993      0.0747      9.1344     97.5582     18.8242
  1927.3000      7.6611      2.4913      0.0599      9.6166     97.4569     19.1879
  1927.4000      7.6611      2.4755      0.0607     10.5767     96.9037     19.3410
  1927.5000      7.7270      2.4461      0.0413     12.3561     94.2068     19.3837
  1927.6000      7.7270      2.4221     -0.0109     13.8105     89.0064     19.4608
  1927.7000      7.7270      2.4242      0.0140     13.6863     83.5699     19.3833
  1927.8000      7.8089      2.4380      0.0528     12.8463     80.3460     18.9212
  1927.9000      7.8089      2.4403      0.0158     12.7113     78.7592     18.3894
  1928.0000      7.8385      2.4352     -0.0011     13.0158     75.6258     18.3184
  1928.1000      7.8385      2.4341      0.0301     13.0865     70.2130     18.6930
  1928.2000      7.8385      2.4348      0.0256     13.0395     64.1171     18.9473
  1928.3000      7.9032      2.4317      0.0443     13.2280     57.5243     18.7525
  1928.4000      7.9032      2.4208      0.0441     13.8909     51.0746     18.1489
  1928.5000      7.8933      2.4076      0.0138     14.6913     47.3432     17.3464
  1928.6000      7.8933      2.4033      0.0190     14.9518     47.0051     16.6508
  1928.7000      7.8933      2.4099      0.0021     14.5545     48.0680     16.1776
  1928.8000      7.9075      2.4179      0.0537     14.0660     47.5066     15.7568
  1928.9000      7.9075      2.4168      0.0450     14.1326     44.0725     15.2693
  1929.0000      7.9072      2.4053      0.0316     14.8306     40.7528     14.7254
  1929.1000      7.9072      2.3917     -0.0153     15.6525     41.0054     14.1935
  1929.2000      7.9072      2.3837      0.0033     16.1392     43.3860     13.7116
  1929.3000      7.8974      2.3833     -0.0003     16.1657     44.2089     13.2026
  1929.4000      7.8974      2.3927      0.0177     15.5954     43.7552     12.8255
  1929.5000      7.8921      2.4090      0.0497     14.6048     43.6825     12.9152
  1929.6000      7.8921      2.4220      0.0414     13.8186     42.8726     13.4134
  1929.7000      7.8921      2.4230      0.0499     13.7596     41.7118     14.1476
