~Version Information
VERS.                      2.0: CWLS Log ASCII Standard - VERSION 2.0
WRAP.                       NO: One line per depth step
~Well Information Block
STRT.FT                -7.2500: 
STOP.FT              1221.7500: 
STEP.FT                 0.2500: 
NULL.                -999.2500: 
COMP.          Pioneer Natural Resources: COMPANY
WELL.           Tennis 7-12 Tr: WELL
FLD.           Purgatorie River: FIELD
LOC.           1794' FNL & 1563' FEL--: LOCATION
PROV.                       CO: PROVINCE
CNTY.               Las Animas: COUNTRY
SRVC.          Patterson Wireline: SERVICE COMPANY
DATE.          Tue Dec 27 14:16:59 2005: LOG DATE
UWI.           05 071 008635 00: UNIQUE WELL ID
~Curve Information Block
DEPT.FT            0 000 00 00: Depth
CCL.                          : Casing Collar Locator
TT3.usec                      : CBL 3' Travel Time
AMP3.mV                       : CBL 3' Amplitude
GR.GAPI                       : Gamma Ray
~Parameter Information Block
~A  Depth       CCL         TT3         AMP3         GR     
# ...
  1031.2500      0.0000    753.9301      5.9768    138.3060
  1031.5000      0.0000    762.6435      6.0570    135.1169
  1031.7500      0.0000    771.6223      6.1398    131.5920
  1032.0000      0.0000    780.3215      6.2141    129.1211
  1032.2500      0.0000    787.6425      6.2636    129.3592
  1032.5000      0.0000    792.6886      6.2889    132.4884
  1032.7500      0.0000    795.3032      6.3009    136.9819
  1033.0000      0.0000    795.6111      6.2995    141.0555
  1033.2500      0.0000    792.9759      6.2683    143.7762
  1033.5000      0.0000    785.5496      6.1928    144.8793
  1033.7500      0.0000    771.4253      6.0828    144.2435
  1034.0000      0.0000    751.0285      5.9706    141.7679
  1034.2500      0.0000    728.3452      5.8840    137.5412
  1034.5000      0.0000    708.4600      5.8229    132.1056
  1034.7500      0.0000    692.8618      5.7643    126.6739
  1035.0000      0.0000    677.6949      5.6877    122.8321
  1035.2500      0.0000    658.1386      5.5915    121.6060
  1035.5000      0.0000    635.5061      5.4869    122.6409
  1035.7500      0.0000    619.6313      5.3865    124.2627
  1036.0000      0.0000    622.7596      5.3051    124.1919
  1036.2500      0.0000    649.5557      5.2651    120.2970
  1036.5000      0.0000    691.9901      5.2864    111.5307
  1036.7500      0.0000    733.9395      5.3650     99.1265
  1037.0000      0.0000    762.3151      5.4658     86.7340
  1037.2500      0.0000    775.0674      5.5458     78.5891
  1037.5000      0.0000    778.2879      5.5809     77.1747
  1037.7500      0.0000    776.7917      5.5679     82.3000
  1038.0000      0.0000    770.1550      5.5076     91.6143
  1038.2500      0.0000    757.1578      5.4025    101.7783
  1038.5000      0.0000    740.2971      5.2707    109.8729
  1038.7500      0.0000    724.5535      5.1491    114.4987
  1039.0000      0.0000    713.4611      5.0735    116.0182
  1039.2500      0.0000    707.4279      5.0551    116.0249
  1039.5000      0.0000    704.9098      5.0778    116.2973
  1039.7500      0.0000    704.0174      5.1144    117.7792
  1040.0000      0.0000    702.8508      5.1432    120.4671
  1040.2500      0.0000    698.7410      5.1558    124.0209
  1040.5000      0.0000    687.8104      5.1539    128.0158
  1040.7500      0.0000    666.4958      5.1439    131.8201
  1041.0000      0.0000    634.9191      5.1325    134.8740
  1041.2500      0.0000    599.0007      5.1255    137.0289
  1041.5000      0.0000    568.0536      5.1255    138.3362
  1041.7500      0.0000    549.7493      5.1278    138.7365
  1042.0000      0.0000    547.4949      5.1153    138.0799
  1042.2500      0.0000    561.1397      5.0630    136.2360
  1042.5000      0.0000    587.6273      4.9512    133.1874
  1042.7500      0.0000    620.8405      4.7794    129.1848
  1043.0000      0.0000    653.4060      4.5680    124.8042
  1043.2500      0.0000    680.7568      4.3497    120.6153
  1043.5000      0.0000    703.6602      4.1575    116.4382
  1043.7500      0.0000    726.4295      4.0157    111.0543
  1044.0000      0.0000    752.6108      3.9370    103.3152
  1044.2500      0.0000    782.1810      3.9217     93.7228
  1044.5000      0.0000    811.6874      3.9581     84.5673
  1044.7500      0.0000    835.0005      4.0258     78.4640
  1045.0000      0.0000    844.0692      4.1066     76.9268
  1045.2500      0.0000    832.7915      4.1951     79.9890
  1045.5000      0.0000    803.0201      4.3012     86.6762
  1045.7500      0.0000    765.4366      4.4459     95.6382
  1046.0000      0.0000    732.6460      4.6491    105.5732
  1046.2500      0.0000    711.6110      4.9127    115.4024
  1046.5000      0.0000    702.1762      5.2112    124.2624
  1046.7500      0.0000    700.4493      5.4985    131.4823
  1047.0000      0.0000    702.4761      5.7277    136.6532
  1047.2500      0.0000    706.0875      5.8682    139.4676
  1047.5000      0.0000    710.7318      5.9148    139.3558
  1047.7500      0.0000    715.7785      5.8849    135.7582
  1048.0000      0.0000    718.6950      5.8070    129.1094
  1048.2500      0.0000    714.9758      5.7080    121.2633
  1048.5000      0.0000    700.6223      5.6089    114.6362
  1048.7500      0.0000    675.6987      5.5234    110.9670
  1049.0000      0.0000    645.5869      5.4554    110.8417
  1049.2500      0.0000    617.7932      5.3993    114.0874
  1049.5000      0.0000    596.9910      5.3462    120.2366
  1049.7500      0.0000    583.5828      5.2945    128.2631
  1050.0000      0.0000    576.9612      5.2583    136.1233
  1050.2500      0.0000    578.8141      5.2615    141.2896
  1050.5000      0.0000    591.8736      5.3173    142.1863
  1050.7500      0.0000    615.2546      5.4098    139.0507
  1051.0000      0.0000    642.1825      5.5001    133.4834
  1051.2500      0.0000    663.5500      5.5555    127.5081
  1051.5000      0.0000    673.9872      5.5699    123.1558
  1051.7500      0.0000    674.3768      5.5551    122.3043
  1052.0000      0.0000    668.8771      5.5186    125.7889
  1052.2500      0.0000    659.9949      5.4585    132.2454
  1052.5000      0.0000    646.6979      5.3783    138.5633
  1052.7500      0.0000    627.4783      5.3022    142.3795
  1053.0000      0.0000    604.9919      5.2676    143.9909
  1053.2500      0.0000    586.7667      5.3007    145.3830
  1053.5000      0.0000    580.6824      5.3988    147.8094
  1053.7500      0.0000    589.1252      5.5318    150.8234
  1054.0000      0.0000    606.5043      5.6570    152.8801
  1054.2500      0.0000    622.3054      5.7347    152.1194
  1054.5000      0.0000    628.3573      5.7441    147.4373
  1054.7500      0.0000    624.6245      5.6937    139.7926
  1055.0000      0.0000    617.7916      5.6156    132.1465
  1055.2500      0.0000    614.4970      5.5444    127.5225
  1055.5000      0.0000    617.2101      5.4988    127.0048
  1055.7500      0.0000    625.7249      5.4790    129.2639
  1056.0000      0.0000    638.6575      5.4744    131.5828
  1056.2500      0.0000    651.5173      5.4706    131.5877
  1056.5000      0.0000    656.5963      5.4540    128.6918
  1056.7500      0.0000    648.4093      5.4170    124.2908
  1057.0000      0.0000    628.6998      5.3634    120.5959
  1057.2500      0.0000    604.5496      5.3084    119.2167
  1057.5000      0.0000    582.5364      5.2692    120.5678
  1057.7500      0.0000    565.6360      5.2539    124.0914
  1058.0000      0.0000    554.0460      5.2593    128.6773
  1058.2500      0.0000    546.7786      5.2783    133.1749
  1058.5000      0.0000    542.4442      5.3093    136.9367
  1058.7500      0.0000    539.7912      5.3605    139.8743
  1059.0000      0.0000    538.4262      5.4466    141.8419
  1059.2500      0.0000    539.4363      5.5733    142.1320
  1059.5000      0.0000    545.0971      5.7211    139.6951
  1059.7500      0.0000    556.6379      5.8486    133.8156
  1060.0000      0.0000    570.7801      5.9197    124.8513
  1060.2500      0.0000    579.0912      5.9264    114.6041
  1060.5000      0.0000    573.7241      5.8851    105.7104
  1060.7500      0.0000    555.1481      5.8157    100.2224
  1061.0000      0.0000    532.0887      5.7307     98.5971
  1061.2500      0.0000    512.4271      5.6423     99.8282
  1061.5000      0.0000    496.6669      5.5719    102.2252
  1061.7500      0.0000    482.1476      5.5458    104.2708
  1062.0000      0.0000    470.5665      5.5744    105.3655
  1062.2500      0.0000    468.0536      5.6318    106.1049
  1062.5000      0.0000    479.4803      5.6660    107.7356
  1062.7500      0.0000    505.0366      5.6394    111.2443
  1063.0000      0.0000    541.1451      5.5589    116.8142
  1063.2500      0.0000    582.6702      5.4471    123.6259
  1063.5000      0.0000    624.9487      5.2904    129.8200
  1063.7500      0.0000    665.9583      5.0489    133.0645
  1064.0000      0.0000    707.2761      4.7326    131.8609
  1064.2500      0.0000    751.7830      4.4307    126.5898
  1064.5000      0.0000    799.9837      4.2348    119.0455
