~Version Information
VERS.                      2.0: CWLS Log ASCII Standard - VERSION 2.0
WRAP.                       NO: One line per depth step
~Well Information Block
STRT.FT               615.0000: 
STOP.FT              2807.0000: 
STEP.FT                 0.1000: 
NULL.                -999.2500: 
COMP.          Pioneer Natural Resources: COMPANY
WELL.              Loews 41-32: WELL
FLD.           Purgatoire River: FIELD
LOC.           751' FNL & 128' FEL: LOCATION
CNTY.               Las Animas: COUNTY
SRVC.                Patterson: SERVICE COMPANY
DATE.          Mon Feb 13 07:19:27 2006: LOG DATE
UWI.           05 071 08693 00: UNIQUE WELL ID
STAT.                 Colorado: STATE
~Curve Information Block
DEPT.FT            0 000 00 00: Depth
DCAL.in                       : CDL Caliper
RHOB.g/cc                     : CDL Bulk Density
RHOC.g/cc                     : CDL Density Correction
DPOR.pu                       : CDL Density Porosity
GR.GAPI                       : Gamma Ray
NPOR.pu                       : Neutron Porosity
~Parameter Information Block
~A  Depth       DCAL        RHOB        RHOC        DPOR         GR         NPOR    
# ...
  2506.2000      8.0896      2.5820      0.1158      4.1187     84.3531     26.7167
  2506.3000      8.0874      2.5619      0.0583      5.3376     79.7448     26.5000
  2506.4000      8.0874      2.5430      0.0526      6.4862     81.2893     26.6526
  2506.5000      8.0863      2.5371      0.0543      6.8397     84.8131     26.7111
  2506.6000      8.0863      2.5443     -0.0045      6.4035     83.4520     26.4989
  2506.7000      8.0863      2.5607     -0.0004      5.4141     80.7195     26.0235
  2506.8000      8.0864      2.5769      0.0203      4.4311     80.4894     25.5911
  2506.9000      8.0864      2.5846      0.0490      3.9632     82.0446     25.3280
  2507.0000      8.0873      2.5851      0.0372      3.9327     85.2507     25.1759
  2507.1000      8.0873      2.5832      0.0484      4.0459     89.5105     25.5505
  2507.2000      8.0873      2.5770      0.0486      4.4260     91.0840     26.5933
  2507.3000      8.0876      2.5651      0.0537      5.1448     88.1455     27.6374
  2507.4000      8.0876      2.5528      0.0323      5.8906     84.0311     27.9203
  2507.5000      8.0975      2.5468      0.0319      6.2563     85.5920     27.3924
  2507.6000      8.0975      2.5544      0.0477      5.7963     95.8260     26.7489
  2507.7000      8.0975      2.5755      0.0184      4.5148    104.6634     26.6043
  2507.8000      8.0886      2.5944      0.0415      3.3690    103.9581     27.0259
  2507.9000      8.0886      2.5952      0.0524      3.3188     98.3484     27.6595
  2508.0000      8.0901      2.5850      0.0170      3.9400     93.7474     27.9146
  2508.1000      8.0901      2.5825      0.0260      4.0934     91.8423     27.4834
  2508.2000      8.0901      2.5893      0.0552      3.6807     92.8078     26.6106
  2508.3000      8.0849      2.5851      0.0729      3.9337     96.1092     26.1658
  2508.4000      8.0849      2.5646      0.0056      5.1783     98.7383     26.6015
  2508.5000      8.0859      2.5459      0.0183      6.3077     96.8307     27.1503
  2508.6000      8.0859      2.5350      0.0121      6.9714     91.3932     27.2948
  2508.7000      8.0859      2.5274     -0.0087      7.4308     89.1617     27.2278
  2508.8000      8.0840      2.5241      0.0251      7.6328     92.0354     26.9040
  2508.9000      8.0840      2.5211      0.0317      7.8143     95.1518     26.3671
  2509.0000      8.0855      2.5175      0.0023      8.0285     97.3408     25.8760
  2509.1000      8.0855      2.5188      0.0154      7.9506    100.6094     25.7547
  2509.2000      8.0855      2.5248     -0.0064      7.5861    103.3771     26.0896
  2509.3000      8.0810      2.5353      0.0309      6.9516    102.7940     26.6006
  2509.4000      8.0810      2.5476      0.0277      6.2091     98.7580     27.0863
  2509.5000      8.0696      2.5629      0.0169      5.2799     95.2547     27.3097
  2509.6000      8.0696      2.5866      0.0398      3.8423     95.7274     26.8264
  2509.7000      8.0696      2.6068      0.0980      2.6163     98.1598     25.8847
  2509.8000      8.0684      2.6089      0.0431      2.4920    101.2068     25.5292
  2509.9000      8.0684      2.5981      0.0684      3.1470    106.1290     26.0752
  2510.0000      8.0649      2.5811      0.0486      4.1773    109.9610     26.8994
  2510.1000      8.0649      2.5597      0.0376      5.4755    109.8959     27.3205
  2510.2000      8.0649      2.5399      0.0253      6.6714    106.6888     27.1340
  2510.3000      8.0660      2.5331      0.0155      7.0852    101.4306     26.7333
  2510.4000      8.0660      2.5472     -0.0046      6.2287     98.2528     26.3911
  2510.5000      8.0641      2.5637      0.0911      5.2328     99.5649     25.9661
  2510.6000      8.0641      2.5601      0.0183      5.4484    102.0790     25.7711
  2510.7000      8.0641      2.5626     -0.0243      5.2957    103.0245     26.1765
  2510.8000      8.0666      2.5886      0.0625      3.7232    104.2876     26.6540
  2510.9000      8.0666      2.5993      0.0527      3.0701    107.1935     26.6754
  2511.0000      8.0684      2.5718      0.0332      4.7394    107.9882     26.4835
  2511.1000      8.0684      2.5270      0.0364      7.4567    105.0352     26.4513
  2511.2000      8.0684      2.4907     -0.0500      9.6525    104.2841     26.7332
  2511.3000      8.0793      2.4761     -0.0258     10.5418    106.5220     27.1944
  2511.4000      8.0793      2.4768      0.0055     10.4969    106.6538     27.6171
  2511.5000      8.0840      2.4763     -0.0130     10.5285    103.7667     27.7614
  2511.6000      8.0840      2.4694     -0.0340     10.9441     99.2471     27.5672
  2511.7000      8.0840      2.4645     -0.0186     11.2420     98.0942     27.3250
  2511.8000      8.0817      2.4678     -0.0115     11.0416    103.0923     27.2532
  2511.9000      8.0817      2.4779      0.0192     10.4284    106.1550     27.2115
  2512.0000      8.0820      2.4855      0.0413      9.9698     99.3237     27.2542
  2512.1000      8.0820      2.4786      0.0610     10.3879     90.0870     27.7525
  2512.2000      8.0820      2.4577     -0.0206     11.6517     88.2745     28.3694
  2512.3000      8.0859      2.4384     -0.0042     12.8215     95.7333     28.3181
  2512.4000      8.0859      2.4328     -0.0036     13.1658    105.4727     27.8694
  2512.5000      8.0938      2.4405      0.0150     12.6964    105.8508     28.0052
  2512.6000      8.0938      2.4486      0.0286     12.2069    101.8933     28.7305
  2512.7000      8.0938      2.4416      0.0508     12.6316    106.5821     29.3220
  2512.8000      8.0919      2.4237      0.0033     13.7181    116.3723     29.5781
  2512.9000      8.0919      2.4069     -0.0007     14.7333    124.3196     29.5056
  2513.0000      8.1121      2.3833      0.0347     16.1634    129.5873     29.0771
  2513.1000      8.1121      2.3457     -0.0044     18.4418    128.9228     28.6101
  2513.2000      8.1121      2.3117     -0.0174     20.5005    123.1460     28.5046
  2513.3000      8.1228      2.2918      0.0250     21.7110    120.6965     28.8998
  2513.4000      8.1228      2.2722     -0.0292     22.8954    122.3675     29.6918
  2513.5000      8.1509      2.2317     -0.0085     25.3490    122.5869     30.5736
  2513.6000      8.1509      2.1389     -0.0001     30.9754    122.1147     31.2243
  2513.7000      8.1509      1.9770     -0.0596     40.7885    120.5617     31.4070
  2513.8000      8.1654      1.7803     -0.1277     52.7089    114.1843     31.3222
  2513.9000      8.1654      1.6127     -0.1722     62.8672    103.8530     31.3759
  2514.0000      8.1764      1.5126     -0.1640     68.9334     92.6879     31.7474
  2514.1000      8.1764      1.4823     -0.1837     70.7709     84.9616     32.6901
  2514.2000      8.1764      1.5212     -0.1471     68.4135     84.9747     33.8004
  2514.3000      8.1968      1.6309     -0.0659     61.7623     89.7167     33.8637
  2514.4000      8.1968      1.7843      0.1319     52.4659     89.5800     32.8398
  2514.5000      8.3161      1.9230      0.2509     44.0578     82.8890     32.0120
  2514.6000      8.3161      2.0159      0.2450     38.4329     75.6650     31.8567
  2514.7000      8.3161      2.0893      0.2615     33.9814     71.8306     31.8766
  2514.8000      8.2929      2.1771      0.2755     28.6610     75.1558     31.9021
  2514.9000      8.2929      2.2742      0.2281     22.7737     85.0064     32.0407
  2515.0000      8.3066      2.3511      0.1594     18.1158     94.7075     31.9577
  2515.1000      8.3066      2.3977      0.0516     15.2932    100.0661     31.3181
  2515.2000      8.3066      2.4308      0.0514     13.2861    100.0180     30.5491
  2515.3000      8.1787      2.4533      0.1168     11.9183     96.5195     29.9849
  2515.4000      8.1787      2.4569      0.0781     11.7028     95.9174     29.1656
  2515.5000      8.1605      2.4528      0.0432     11.9521     97.9756     28.2645
  2515.6000      8.1605      2.4528      0.0431     11.9526     98.6485     28.0948
  2515.7000      8.1605      2.4509      0.0604     12.0675    100.1696     28.4521
