~Version Information
 VERS.                                  2.0 : CWLS LAS VERSION
 WRAP.                                   NO : WRAPING MODE
 SWARE .                 MController 2.5.0N : SOFTWARE VERSION
~Well Information
 WELL.                          Julie 11-30 : WELL
 COMP.       Pioneer Natural Resources, USA : COMPANY
 FLD.                       Purgatory River : FIELD
 LOC.                 NW/NW Sec30 T33S R65W : LOCATION
 DATE.                              4/13/06 : DATE(S) LOGGED
 SRVC.      Blanco Geological Services, LLC : SERVICE COMPANY
 STAT.                             Colorado : STATE
 CNTY.                           Las Animas : COUNTY
 CTRY.                                  USA : COUNTRY
 API.                       05-071-08724-00 : API NUMBER
 STRT.FT                             178.00 : START DEPTH
 STOP.FT                            1270.00 : STOP DEPTH
 STEP.FT                               1.00 : DEPTH INCREMENT
 NULL.                                -9999 : NULL VALUE
~Curve information
 DEPTH.FT                                   :
 ROP.MIN/FT                                 :
 GAS.UNITS                                  :
~ASCII Log data
# ...
       578.0         0.27          3.3 
       579.0         0.43          3.1 
       580.0         0.30          3.3 
       581.0         0.23          3.3 
       582.0         0.23          3.1 
       583.0         0.33          3.1 
       584.0         0.32          3.0 
       585.0         0.37          3.1 
       586.0         0.33          3.2 
       587.0         0.23          3.2 
       588.0         0.27          2.9 
       589.0         0.27          3.5 
       590.0         0.33          3.0 
       591.0         0.30          3.2 
       592.0         5.03          6.8 
       593.0         0.40          3.5 
       594.0         0.40          3.0 
       595.0         0.40          3.8 
       596.0         0.23          3.8 
       597.0         0.30          3.8 
       598.0         0.20          3.5 
       599.0         0.23          3.3 
       600.0         0.23          3.3 
       601.0         0.23          3.1 
       602.0         0.25          3.5 
       603.0         0.20          3.1 
       604.0         0.17          3.1 
       605.0         0.13          3.4 
       606.0         0.20          3.8 
       607.0         0.33          3.6 
       608.0         0.27          9.0 
       609.0         0.27         16.1 
       610.0         0.20         18.2 
       611.0         0.30         18.6 
       612.0         0.27         14.7 
       613.0         0.23         11.8 
       614.0         0.33          9.8 
       615.0         0.20          7.5 
       616.0         0.22          6.7 
       617.0         0.33          5.7 
       618.0         0.20          5.1 
       619.0         0.23          4.7 
       620.0         0.20          4.3 
       621.0         0.20          4.4 
       622.0         4.22          8.9 
       623.0         0.33          9.8 
       624.0         0.50          7.5 
       625.0         0.38          5.2 
       626.0         0.30          6.2 
       627.0         0.33          5.6 
       628.0         0.30          5.0 
       629.0         0.23          4.6 
       630.0         0.27          4.4 
       631.0         0.33          4.0 
       632.0         0.70          4.2 
       633.0         0.33          3.7 
       634.0         0.27          3.3 
       635.0         0.32          3.6 
       636.0         0.30          4.0 
       637.0         0.43          4.0 
       638.0         0.47          4.0 
       639.0         0.20          3.8 
       640.0         0.40          3.7 
       641.0         0.30          3.9 
       642.0         0.30          4.5 
       643.0         0.33          4.5 
       644.0         0.30          4.4 
       645.0         0.28          4.2 
       646.0         0.27          4.0 
       647.0         0.23          3.9 
       648.0         0.27          3.9 
       649.0         0.27          6.4 
       650.0         0.23          7.8 
       651.0         0.23          8.5 
       652.0         4.28         14.0 
       653.0         0.43          7.3 
       654.0         0.43          6.9 
       655.0         0.42          6.7 
       656.0         0.37          5.5 
       657.0         0.50          5.3 
       658.0         0.43          5.3 
       659.0         0.43          5.0 
       660.0         0.43          4.5 
       661.0         0.43          4.2 
       662.0         0.52          4.4 
       663.0         0.60          4.6 
       664.0         0.37          4.6 
       665.0         0.23          4.4 
       666.0         0.23          4.2 
       667.0         0.23          4.5 
       668.0         0.20          4.2 
       669.0         0.23          4.1 
       670.0         0.30          4.3 
       671.0         0.33          4.5 
       672.0         0.27          4.3 
       673.0         0.32          5.3 
       674.0         0.23          5.3 
       675.0         0.23          5.5 
       676.0         0.27          5.3 
       677.0         0.23          6.1 
       678.0         0.23          6.9 
       679.0         0.23          7.9 
       680.0         0.27          8.4 
       681.0         0.27          8.4 
       682.0         3.92         12.5 
       683.0         0.53         11.3 
       684.0         0.42          6.5 
       685.0         0.33          8.4 
       686.0         0.27         10.6 
       687.0         0.27         11.4 
       688.0         0.27         10.7 
       689.0         0.27         10.2 
       690.0         0.27          9.1 
       691.0         0.23          8.4 
       692.0         0.40          8.0 
       693.0         0.30          7.8 
       694.0         0.33          7.1 
       695.0         0.28          6.0 
       696.0         0.27          5.9 
       697.0         0.23          6.1 
       698.0         0.27          5.8 
       699.0         0.23          5.5 
       700.0         0.23          6.0 
       701.0         0.27          7.1 
       702.0         0.23          7.7 
       703.0         0.23          8.2 
       704.0         0.27          9.5 
       705.0         0.23          9.9 
       706.0         0.27         10.4 
       707.0         0.23         10.4 
       708.0         0.28         10.6 
       709.0         0.23          9.2 
       710.0         0.30          9.3 
       711.0         0.23          9.3 
       712.0         3.95         15.6 
       713.0         0.47         10.6 
       714.0         0.40          7.4 
       715.0         0.27          6.7 
       716.0         0.27          6.4 
       717.0         0.27          5.8 
       718.0         0.27          5.6 
       719.0         0.25          5.3 
       720.0         0.30          5.6 
       721.0         0.20          5.3 
       722.0         0.23          5.0 
       723.0         0.23          5.1 
       724.0         0.20          4.9 
       725.0         0.23          4.7 
       726.0         0.20          4.8 
       727.0         0.23          5.0 
       728.0         0.27          5.1 
       729.0         0.27          5.0 
       730.0         0.23          4.9 
       731.0         0.40          4.8 
       732.0         0.52          5.0 
       733.0         0.23          4.6 
       734.0         0.23          4.7 
       735.0         0.27          4.5 
       736.0         0.23          4.5 
       737.0         0.23          4.7 
       738.0         0.23          4.9 
       739.0         0.23          4.9 
       740.0         0.23          4.7 
       741.0         0.23          4.8 
       742.0         3.85         13.9 
       743.0         0.38         15.3 
       744.0         0.27         11.6 
       745.0         0.40          8.5 
       746.0         0.53          7.2 
       747.0         0.50          6.9 
       748.0         0.40          7.2 
       749.0         0.27          7.3 
       750.0         0.23          7.6 
       751.0         0.23         14.5 
       752.0         0.27         29.2 
       753.0         0.28         40.7 
       754.0         0.27         48.9 
       755.0         0.23         52.6 
       756.0         0.27         56.1 
       757.0         0.27         57.8 
       758.0         0.30         58.8 
       759.0         0.27         59.0 
       760.0         0.30         59.3 
       761.0         0.33         59.2 
       762.0         0.30         59.2 
       763.0         0.30         59.4 
       764.0         0.30         59.7 
       765.0         0.32         59.7 
       766.0         0.33         59.1 
       767.0         0.33         59.0 
       768.0         0.33         59.2 
       769.0         0.30         59.1 
       770.0         0.33         59.2 
       771.0         0.27         59.2 
       772.0         4.08        221.8 
       773.0         0.27        159.9 
       774.0         0.38        116.1 
       775.0         0.30         84.0 
       776.0         0.47         95.8 
       777.0         0.57         98.6 
