~Version Information
VERS.                      2.0: CWLS Log ASCII Standard - VERSION 2.0
WRAP.                       NO: One line per depth step
~Well Information Block
STRT.FT                -5.5000: 
STOP.FT              2262.7500: 
STEP.FT                 0.2500: 
NULL.                -999.2500: 
COMP.          Pioneer Natural Resources: COMPANY
WELL.             Baa Baa 34-1: WELL
FLD.           Purgatorie River: FIELD
LOC.           617' FSL & 2289' FEL------: LOCATION
STAT.                       CO: State
CNTY.               Las Animas: COUNTY
CTRY. USA : Country
SECT. 1 : Section
TOWN. 33S : Township
RANG. 67W : Range
SRVC.          Patterson Wireline: SERVICE COMPANY
DATE.          Mon Sep 12 14:08:52 2005: LOG DATE
API.           05 071 08502 00: UNIQUE WELL ID
~Curve Information Block
DEPT.FT            0 000 00 00: Depth
LTEN.lb                       : Surface Line Tension
CCL.                          : Casing Collar Locator
TT3.usec                      : CBL 3' Travel Time
AMP3.mV                       : CBL 3' Amplitude
GR.GAPI                       : Gamma Ray
~Parameter Information Block
~A  Depth       LTEN        CCL         TT3         AMP3         GR     
# ...
  1198.5000  -4537.1924      0.0000    606.8464      5.8632    160.6363
  1198.7500  -4535.8604      0.0000    616.7747      5.8303    155.8194
  1199.0000  -4538.5244      0.0000    620.5239      5.8026    152.9154
  1199.2500  -4535.8604      0.0000    615.7504      5.7842    150.7834
  1199.5000  -4530.5317      0.0000    608.0577      5.7780    148.0213
  1199.7500  -4534.5283      0.0000    607.1005      5.7840    144.2125
  1200.0000  -4531.8638      0.0000    618.5784      5.8033    139.5553
  1200.2500  -4531.8638      0.0000    640.4232      5.8431    133.8142
  1200.5000  -4530.5317      0.0000    666.2059      5.9120    126.3085
  1200.7500  -4538.5244      0.0000    690.7790      6.0111    116.7634
  1201.0000  -4533.1958      0.0000    712.1949      6.1254    105.8250
  1201.2500  -4537.1924      0.0000    729.7030      6.2262     95.0852
  1201.5000  -4534.5283      0.0000    741.9952      6.2853     87.0071
  1201.7500  -4538.5244      0.0000    748.4590      6.2920     84.3303
  1202.0000  -4534.5283      0.0000    751.0034      6.2559     88.5954
  1202.2500  -4538.5244      0.0000    752.6292      6.1932     98.7234
  1202.5000  -4535.8604      0.0000    753.9955      6.1183    111.1492
  1202.7500  -4529.1997      0.0000    752.7247      6.0514    121.7128
  1203.0000  -4537.1924      0.0000    746.2176      6.0207    127.7873
  1203.2500  -4531.8638      0.0000    734.5608      6.0428    129.0973
  1203.5000  -4534.5283      0.0000    721.7031      6.1086    127.2684
  1203.7500  -4537.1924      0.0000    714.6849      6.1977    124.9177
  1204.0000  -4533.1958      0.0000    719.9965      6.2988    124.5151
  1204.2500  -4535.8604      0.0000    738.0204      6.4030    127.0720
  1204.5000  -4534.5283      0.0000    760.5139      6.4876    131.5075
  1204.7500  -4537.1924      0.0000    774.7092      6.5241    135.5013
  1205.0000  -4533.1958      0.0000    771.0060      6.5080    137.3426
  1205.2500  -4530.5317      0.0000    747.8205      6.4684    137.2831
  1205.5000  -4534.5283      0.0000    711.3206      6.4472    137.1047
  1205.7500  -4533.1958      0.0000    671.9756      6.4738    138.2104
  1206.0000  -4539.8569      0.0000    639.3302      6.5520    140.2397
  1206.2500  -4538.5244      0.0000    616.8546      6.6558    141.7919
  1206.5000  -4530.5317      0.0000    601.2391      6.7411    142.3333
  1206.7500  -4534.5283      0.0000    587.4308      6.7751    142.9585
  1207.0000  -4538.5244      0.0000    573.7445      6.7587    145.1821
  1207.2500  -4529.1997      0.0000    561.8818      6.7125    149.2490
  1207.5000  -4534.5283      0.0000    553.9520      6.6510    153.6815
  1207.7500  -4534.5283      0.0000    550.7538      6.5814    156.1652
  1208.0000  -4533.1958      0.0000    551.9151      6.5182    154.9139
  1208.2500  -4533.1958      0.0000    556.6695      6.4830    149.7529
  1208.5000  -4534.5283      0.0000    564.8661      6.4852    142.3775
  1208.7500  -4537.1924      0.0000    577.7930      6.5117    135.3967
  1209.0000  -4531.8638      0.0000    598.0571      6.5395    130.8223
  1209.2500  -4530.5317      0.0000    627.6608      6.5516    129.2985
  1209.5000  -4538.5244      0.0000    664.4807      6.5349    130.2899
  1209.7500  -4535.8604      0.0000    700.0369      6.4648    132.5067
  1210.0000  -4534.5283      0.0000    722.7538      6.3129    134.5261
  1210.2500  -4538.5244      0.0000    725.9828      6.0856    136.0040
  1210.5000  -4533.1958      0.0000    713.5931      5.8422    138.4578
  1210.7500  -4535.8604      0.0000    697.2375      5.6460    144.0454
  1211.0000  -4533.1958      0.0000    687.8381      5.5082    152.8595
  1211.2500  -4533.1958      0.0000    689.4826      5.4041    161.6033
  1211.5000  -4538.5244      0.0000    700.1161      5.3253    165.5533
  1211.7500  -4537.1924      0.0000    715.4072      5.2800    162.2948
  1212.0000  -4534.5283      0.0000    730.8414      5.2621    153.8905
  1212.2500  -4537.1924      0.0000    742.0842      5.2517    145.7185
  1212.5000  -4534.5283     -2.0000    745.8989      5.2423    142.9192
  1212.7500  -4533.1958      0.0000    741.5148      5.2572    147.0186
  1213.0000  -4530.5317      0.0000    730.8599      5.3424    155.1773
  1213.2500  -4533.1958      0.0000    717.6415      5.5280    162.4870
  1213.5000  -4538.5244      0.0000    706.0297      5.7758    165.2955
  1213.7500  -4533.1958      0.0000    699.1398      5.9828    162.9995
  1214.0000  -4537.1924      0.0000    697.9907      6.0706    157.2825
  1214.2500  -4534.5283      0.0000    701.7148      6.0547    150.0520
  1214.5000  -4537.1924      0.0000    708.5419      6.0051    142.4362
  1214.7500  -4533.1958      0.0000    716.5428      5.9632    135.4527
  1215.0000  -4537.1924      0.0000    723.7332      5.9212    130.5465
  1215.2500  -4530.5317      0.0000    727.9336      5.8581    128.9807
  1215.5000  -4534.5283      0.0000    726.7853      5.7680    131.1271
  1215.7500  -4527.8677      0.0000    718.3396      5.6596    136.2702
  1216.0000  -4533.1958      0.0000    702.6796      5.5450    142.5488
  1216.2500  -4539.8569      0.0000    683.5470      5.4384    147.3940
  1216.5000  -4533.1958      0.0000    667.1449      5.3561    148.9235
  1216.7500  -4538.5244      0.0000    657.5760      5.3107    147.2858
  1217.0000  -4531.8638      0.0000    653.3053      5.2993    144.4390
  1217.2500  -4539.8569      0.0000    648.8934      5.3047    142.5406
  1217.5000  -4533.1958      0.0000    640.5222      5.3090    142.6000
  1217.7500  -4534.5283      0.0000    630.1751      5.3085    144.3720
  1218.0000  -4534.5283      0.0000    624.5234      5.3150    146.8305
  1218.2500  -4533.1958      0.0000    628.9008      5.3418    148.3532
  1218.5000  -4531.8638      0.0000    642.0952      5.3871    146.9217
  1218.7500  -4533.1958      0.0000    657.5778      5.4316    141.0878
  1219.0000  -4530.5317      0.0000    669.2563      5.4517    131.1937
  1219.2500  -4530.5317      0.0000    675.3194      5.4367    119.5039
  1219.5000  -4534.5283      0.0000    677.9504      5.3965    109.1182
  1219.7500  -4529.1997      0.0000    680.9536      5.3561    102.6738
  1220.0000  -4531.8638      0.0000    686.7322      5.3374    101.3645
  1220.2500  -4535.8604      0.0000    693.8707      5.3470    104.3128
  1220.5000  -4531.8638      0.0000    697.8944      5.3790    108.8293
  1220.7500  -4531.8638      0.0000    695.7514      5.4258    111.8537
  1221.0000  -4537.1924      0.0000    689.5427      5.4804    111.6349
  1221.2500  -4531.8638      0.0000    684.8676      5.5297    108.2395
  1221.5000  -4535.8604      0.0000    685.5477      5.5508    102.7514
  1221.7500  -4533.1958      0.0000    690.6481      5.5215     96.4542
  1222.0000  -4535.8604      0.0000    696.1795      5.4387     90.8684
  1222.2500  -4535.8604      0.0000    698.5393      5.3285     88.0461
  1222.5000  -4531.8638      0.0000    696.3545      5.2317     90.1614
  1222.7500  -4531.8638      0.0000    690.4185      5.1784     98.2907
  1223.0000  -4531.8638      0.0000    682.8453      5.1749    111.0793
  1223.2500  -4539.8569      0.0000    675.9519      5.2091    124.5849
  1223.5000  -4533.1958      0.0000    671.2393      5.2632    134.1870
  1223.7500  -4530.5317      0.0000    669.0981      5.3225    137.3215
  1224.0000  -4537.1924      0.0000    669.2169      5.3768    134.6324
  1224.2500  -4531.8638      0.0000    670.9045      5.4206    128.8529
  1224.5000  -4538.5244      0.0000    673.0826      5.4522    122.8140
  1224.7500  -4537.1924      0.0000    674.6373      5.4709    118.0700
  1225.0000  -4539.8569      0.0000    675.2234      5.4731    114.6783
  1225.2500  -4533.1958      0.0000    675.3714      5.4530    111.8875
  1225.5000  -4530.5317      0.0000    675.4319      5.4088    109.0525
  1225.7500  -4538.5244      0.0000    674.8740      5.3479    106.0310
  1226.0000  -4530.5317      0.0000    673.0793      5.2841    103.0112
  1226.2500  -4531.8638      0.0000    670.3845      5.2275    100.4068
