~Version Information
VERS.                      2.0: CWLS Log ASCII Standard - VERSION 2.0
WRAP.                       NO: One line per depth step
~Well Information Block
STRT.FT               550.0000: 
STOP.FT              1500.5000: 
STEP.FT                 0.2500: 
NULL.                -999.2500: 
COMP.          Pioneer Natural Resources: COMPANY
WELL.          Surtees 23-34 Tr: WELL
FLD.           Purgatoire River: FIELD
LOC.           1559' FSL & 1997' FWL: LOCATION
PROV.                 Colorado: PROVINCE
CNTY.               Las Animas: COUNTRY
SRVC.                Patterson: SERVICE COMPANY
DATE.          Tue Jul 26 23:47:42 2005: LOG DATE
UWI.           05 071 08449 00: UNIQUE WELL ID
~Curve Information Block
DEPT.FT            0 000 00 00: Depth
SN.Ohm-m                      : IEL Short Normal
SP.mV                         : IEL Spontaneous Potential
DIR.Ohm-m                     : IEL Induction Resistivity
GR.GAPI                       : Gamma Ray
~Parameter Information Block
~A  Depth        SN          SP         DIR          GR     
# ...
  1320.5000      9.6267    -23.1954      9.6309    138.1956
  1320.7500      9.7921    -23.7098      9.4995    139.7117
  1321.0000      9.9664    -24.2159      9.3691    140.8402
  1321.2500     10.0016    -24.7267      9.2505    141.2419
  1321.5000      9.8898    -25.2624      9.1560    141.9814
  1321.7500      9.7118    -25.8418      9.0924    142.5028
  1322.0000      9.5334    -26.4783      9.0576    142.6881
  1322.2500      9.3675    -27.1776      9.0422    142.1445
  1322.5000      9.2170    -27.9333      9.0340    140.6288
  1322.7500      9.1009    -28.7208      9.0228    139.8078
  1323.0000      9.0587    -29.5000      9.0033    140.0165
  1323.2500      9.1095    -30.2273      8.9750    141.2025
  1323.5000      9.2524    -30.8712      8.9393    143.6158
  1323.7500      9.5023    -31.4210      8.8983    145.0811
  1324.0000      9.7979    -31.8843      8.8542    146.7876
  1324.2500      9.9553    -32.2753      8.8103    147.6227
  1324.5000      9.8623    -32.6053      8.7715    148.2522
  1324.7500      9.6131    -32.8810      8.7434    148.0311
  1325.0000      9.3724    -33.1043      8.7311    146.3821
  1325.2500      9.2627    -33.2706      8.7365    144.3489
  1325.5000      9.3555    -33.3675      8.7575    140.3610
  1325.7500      9.5803    -33.3831      8.7872    137.7737
  1326.0000      9.7497    -33.3199      8.8172    135.5038
  1326.2500      9.7815    -33.2045      8.8414    135.5378
  1326.5000      9.7538    -33.0800      8.8594    137.2622
  1326.7500      9.7424    -32.9812      8.8747    138.5836
  1327.0000      9.7575    -32.9101      8.8914    139.4780
  1327.2500      9.8059    -32.8308      8.9103    139.0618
  1327.5000      9.8862    -32.6864      8.9300    137.2078
  1327.7500      9.9343    -32.4230      8.9495    135.7180
  1328.0000      9.8741    -32.0039      8.9701    134.4431
  1328.2500      9.7214    -31.4124      8.9939    134.7329
  1328.5000      9.5434    -30.6486      9.0190    136.2662
  1328.7500      9.3741    -29.7337      9.0380    136.8177
  1329.0000      9.2108    -28.7220      9.0427    134.7567
  1329.2500      8.9996    -27.7081      9.0328    131.0700
  1329.5000      8.6578    -26.8089      9.0215    123.5170
  1329.7500      8.1669    -26.1220      9.0311    118.5795
  1330.0000      7.6698    -25.6838      9.0834    113.2261
  1330.2500      7.4547    -25.4594      9.1914    111.4979
  1330.5000      7.7728    -25.3706      9.3554    111.7203
  1330.7500      8.6861    -25.3387      9.5634    113.3924
  1331.0000     10.0345    -25.3118      9.7934    116.5683
  1331.2500     11.4765    -25.2661     10.0146    117.7298
  1331.5000     12.6862    -25.1952     10.1880    116.1971
  1331.7500     13.5149    -25.1040     10.2736    112.9139
  1332.0000     13.9079    -25.0112     10.2468    105.9859
  1332.2500     13.8387    -24.9512     10.1145    101.1665
  1332.5000     13.3940    -24.9694      9.9141     95.6603
  1332.7500     12.8129    -25.1076      9.6916     94.3531
  1333.0000     12.3850    -25.3923      9.4788     97.4842
  1333.2500     12.2482    -25.8314      9.2873    102.9495
  1333.5000     12.2831    -26.4195      9.1153    114.2794
  1333.7500     12.2245    -27.1417      8.9572    122.2080
  1334.0000     11.8460    -27.9762      8.8061    132.1838
  1334.2500     11.1548    -28.8936      8.6533    136.8833
  1334.5000     10.4361    -29.8524      8.4894    141.2989
  1334.7500      9.9697    -30.7855      8.3089    143.1474
  1335.0000      9.7866    -31.5891      8.1149    145.1121
  1335.2500      9.7319    -32.1394      7.9183    145.7715
  1335.5000      9.6194    -32.3555      7.7327    144.9776
  1335.7500      9.3816    -32.2788      7.5688    143.0830
  1336.0000      9.1179    -32.0963      7.4309    139.0435
  1336.2500      8.9413    -32.0619      7.3172    136.3763
  1336.5000      8.8124    -32.3647      7.2225    133.1570
  1336.7500      8.5696    -33.0481      7.1436    131.3120
  1337.0000      8.1307    -34.0357      7.0811    128.3270
  1337.2500      7.6378    -35.2189      7.0378    126.1593
  1337.5000      7.3702    -36.5252      7.0148    122.9385
  1337.7500      7.4988    -37.9300      7.0085    120.7990
  1338.0000      7.9482    -39.4364      7.0123    117.7213
  1338.2500      8.4915    -41.0571      7.0203    116.4152
  1338.5000      8.8676    -42.8087      7.0311    117.0487
  1338.7500      8.9160    -44.7106      7.0470    119.3148
  1339.0000      8.7550    -46.7783      7.0710    124.1243
  1339.2500      8.6649    -48.9935      7.1033    127.4725
  1339.5000      8.7600    -51.2438      7.1426    132.5638
  1339.7500      8.9796    -53.2712      7.1887    136.3010
  1340.0000      9.2636    -54.6973      7.2453    142.3593
  1340.2500      9.5070    -55.1490      7.3198    146.2045
  1340.5000      9.5251    -54.4152      7.4209    150.6139
  1340.7500      9.2682    -52.5176      7.5545    152.0107
  1341.0000      8.9358    -49.6535      7.7231    150.5161
  1341.2500      8.7995    -46.1046      7.9260    146.4248
  1341.5000      9.0043    -42.2255      8.1625    135.5319
  1341.7500      9.5178    -38.4883      8.4351    126.2047
  1342.0000     10.1897    -35.4297      8.7516    112.8539
  1342.2500     10.8499    -33.4197      9.1240    106.7732
  1342.5000     11.4138    -32.3710      9.5661    104.2748
  1342.7500     11.9584    -31.6201     10.0890    106.7417
  1343.0000     12.7012    -30.1246     10.6994    113.3600
  1343.2500     13.8344    -26.9586     11.3992    116.9566
  1343.5000     15.3385    -21.8932     12.1863    117.5669
  1343.7500     17.0614    -15.6698     13.0524    114.6203
  1344.0000     18.9596     -9.6499     13.9803    107.9431
  1344.2500     21.0644     -5.0228     14.9456    103.9253
  1344.5000     23.2556     -2.2062     15.9256    100.0561
  1344.7500     25.3074     -0.8743     16.9065     98.7528
  1345.0000     27.0926     -0.4105     17.8764     98.0665
  1345.2500     28.5751     -0.3066     18.8094     98.3271
  1345.5000     29.7162     -0.2901     19.6590     99.8336
  1345.7500     30.4587     -0.2707     20.3716    101.4568
  1346.0000     30.7483     -0.2492     20.9081    104.0268
  1346.2500     30.5781     -0.2490     21.2545    105.1545
  1346.5000     30.0463     -0.2829     21.4197    105.1659
  1346.7500     29.3514     -0.3538     21.4313    104.0800
  1347.0000     28.6709     -0.4705     21.3304    101.5346
  1347.2500     28.0565     -0.6529     21.1632     99.7059
  1347.5000     27.4822     -0.9230     20.9685     97.1905
  1347.7500     26.9172     -1.2911     20.7742     95.7131
  1348.0000     26.3343     -1.7507     20.5997     93.8990
  1348.2500     25.7463     -2.2812     20.4600     93.0433
  1348.5000     25.2278     -2.8551     20.3636     92.0968
  1348.7500     24.8341     -3.4449     20.3091     91.3914
  1349.0000     24.5392     -4.0295     20.2817     90.0539
  1349.2500     24.2776     -4.5982     20.2539     89.2658
  1349.5000     24.0026     -5.1483     20.1910     88.8542
  1349.7500     23.7022     -5.6818     20.0662     89.1260
  1350.0000     23.3844     -6.2035     19.8807     89.8178
  1350.2500     23.0644     -6.7188     19.6697     90.1534
  1350.5000     22.7454     -7.2291     19.4840     90.5559
  1350.7500     22.4446     -7.7285     19.3617     91.2670
  1351.0000     22.2531     -8.2085     19.3152     94.0799
  1351.2500     22.2598     -8.6614     19.3404     97.2438
  1351.5000     22.4245     -9.0774     19.4366    102.5932
  1351.7500     22.5986     -9.4431     19.6164    105.3218
  1352.0000     22.6384     -9.7521     19.8932    106.9232
  1352.2500     22.5000    -10.0161     20.2532    106.5296
  1352.5000     22.2826    -10.2630     20.6331    104.6408
  1352.7500     22.1597    -10.5141     20.9338    102.6109
  1353.0000     22.2352    -10.7608     21.0756     97.9967
  1353.2500     22.5006    -10.9657     21.0531     94.0776
  1353.5000     22.8694    -11.0927     20.9343     88.5669
  1353.7500     23.1852    -11.1361     20.8099     86.1554
