~Version Information
VERS.                      2.0: CWLS Log ASCII Standard - VERSION 2.0
WRAP.                       NO: One line per depth step
~Well Information Block
STRT.FT                 0.0000: 
STOP.FT              2086.0000: 
STEP.FT                 0.2500: 
NULL.                -999.2500: 
COMP.          Petrogulf Corporation: COMPANY
WELL.               YWAM 7-32R: WELL
FLD.           Purgatorie River: FIELD
LOC.           2355' FNL & 2376' FEL: LOCATION
STAT.                 Colorado: State
CNTY.               Las Animas: COUNTY
CTRY. USA : Country
SECT. 7 : Section
TOWN. 33S : Township
RANG. 67W : Range
SRVC.                Patterson: SERVICE COMPANY
DATE.          Wed Nov 09 16:33:59 2005: LOG DATE
API. 05-071-08518                         : UNIQUE WELL ID
~Curve Information Block
DEPT.FT            0 000 00 00: Depth
CCL.                          : Casing Collar Locator
TT3.usec                      : CBL 3' Travel Time
AMP3.mV                       : CBL 3' Amplitude
GR.GAPI                       : Gamma Ray
~Parameter Information Block
~A  Depth       CCL         TT3         AMP3         GR     
# ...
   268.0000      0.0000    541.7809     11.7671     63.1683
   268.2500      0.0000    546.7040     11.5810     65.5835
   268.5000      0.0000    582.4805     11.3698     68.1386
   268.7500      0.0000    619.9325     11.1933     72.0309
   269.0000      0.0000    644.3224     11.0588     76.6712
   269.2500      0.0000    649.7676     10.9990     80.3449
   269.5000      0.0000    627.9360     11.0679     81.7133
   269.7500      0.0000    587.8920     11.2415     80.7216
   270.0000      0.0000    564.4957     11.4083     78.3704
   270.2500      0.0000    579.5941     11.4593     75.8833
   270.5000      0.0000    607.9289     11.3729     74.1486
   270.7500      0.0000    610.6213     11.2259     73.7275
   271.0000      0.0000    595.2787     11.0968     75.0531
   271.2500      0.0000    604.5893     10.9939     78.4215
   271.5000      0.0000    650.0593     10.8869     83.7664
   271.7500      0.0000    698.4344     10.7518     90.3461
   272.0000      0.0000    716.4746     10.5832     96.4955
   272.2500      0.0000    696.8972     10.3838     99.9546
   272.5000      0.0000    650.7769     10.1523     99.1192
   272.7500      0.0000    597.1214      9.8921     94.4555
   273.0000      0.0000    558.4604      9.6195     88.5003
   273.2500      0.0000    549.3722      9.3775     83.9846
   273.5000      0.0000    558.4328      9.2301     81.7341
   273.7500      0.0000    557.9034      9.2159     80.4988
   274.0000      0.0000    538.9058      9.3123     78.7873
   274.2500      0.0000    517.6198      9.4476     76.5618
   274.5000      0.0000    507.3209      9.5701     75.0504
   274.7500      0.0000    504.7442      9.7010     75.3085
   275.0000      0.0000    503.6103      9.8500     77.2468
   275.2500      0.0000    507.0141      9.9339     79.8737
   275.5000      0.0000    523.6979      9.8939     82.2480
   275.7500      0.0000    557.0956      9.8287     84.1658
   276.0000      0.0000    597.2311      9.9054     85.9864
   276.2500      0.0000    621.2468     10.1814     87.9407
   276.5000      0.0000    606.3936     10.5826     89.6910
   276.7500      0.0000    549.2003     11.0214     90.4619
   277.0000      0.0000    474.0106     11.4478     89.4595
   277.2500      0.0000    415.2880     11.7883     86.2624
   277.5000      0.0000    393.5605     11.9298     81.1255
   277.7500      0.0000    417.9069     11.7218     75.1028
   278.0000      0.0000    490.3641     10.9954     69.8010
   278.2500      0.0000    588.1026      9.8958     66.6569
   278.5000      0.0000    665.9180      8.9759     66.0063
   278.7500      0.0000    695.8893      8.5556     66.9247
   279.0000     -2.0000    691.9504      8.4893     68.4478
   279.2500      2.0000    689.6516      8.5835     70.8855
   279.5000      2.0000    704.8938      8.7294     75.4701
   279.7500      0.0000    712.3517      8.7993     82.6532
   280.0000      0.0000    674.6674      8.7393     91.0837
   280.2500      0.0000    595.9729      8.7364     98.4521
   280.5000      0.0000    516.9952      9.0337    103.2909
   280.7500      0.0000    459.4022      9.4977    105.9290
   281.0000      0.0000    417.8396      9.8812    107.9447
   281.2500      0.0000    387.3056     10.3438    111.0153
   281.5000      0.0000    366.0276     10.9996    116.1542
   281.7500      0.0000    351.1936     11.5592    123.2159
   282.0000      0.0000    341.7861     11.7988    130.4644
   282.2500      0.0000    337.5721     11.7938    135.0026
   282.5000      0.0000    337.5569     11.6805    134.5974
   282.7500      0.0000    341.5143     11.5012    129.5759
   283.0000      0.0000    349.6426     11.2561    122.6989
   283.2500      0.0000    359.7643     10.9793    116.8987
   283.5000      0.0000    367.8134     10.7283    113.3125
   283.7500      0.0000    371.8421     10.5252    111.3402
   284.0000      0.0000    373.0038     10.3551    109.9059
   284.2500      0.0000    373.0583     10.2220    108.3964
   284.5000      0.0000    372.8820     10.1491    106.8692
   284.7500      0.0000    372.7133     10.1344    105.6818
   285.0000      0.0000    372.6199     10.1534    104.9178
   285.2500      0.0000    372.6245     10.1737    104.2185
   285.5000      0.0000    372.6862     10.1558    103.2959
   285.7500      0.0000    372.7511     10.0892    102.5697
   286.0000      0.0000    372.8185     10.0122    103.0520
   286.2500      0.0000    372.9153      9.9632    105.3242
   286.5000      0.0000    373.0081      9.9429    108.7228
   286.7500      0.0000    372.8481      9.9491    111.8887
   287.0000      0.0000    371.5685     10.0057    114.0402
   287.2500      0.0000    367.4487     10.1237    115.1059
   287.5000      0.0000    359.3448     10.2728    114.6503
   287.7500      0.0000    349.1971     10.4100    111.7271
   288.0000      0.0000    341.2525     10.5188    106.3768
   288.2500      0.0000    338.1787     10.6166    100.4974
   288.5000      0.0000    339.7573     10.7286     96.4315
   288.7500      0.0000    343.6038     10.8563     94.8770
   289.0000      0.0000    345.6969     10.9750     94.6268
   289.2500      0.0000    343.7196     11.0669     94.2405
   289.5000      0.0000    339.7831     11.1356     93.5717
   289.7500      0.0000    336.9987     11.1815     93.4283
   290.0000      0.0000    335.9834     11.1912     94.0020
   290.2500      0.0000    335.9317     11.1591     94.2998
   290.5000      0.0000    336.4472     11.0944     93.2661
   290.7500      0.0000    338.0080     11.0189     90.7511
   291.0000      0.0000    341.4092     10.9577     87.1078
   291.2500      0.0000    345.8842     10.9141     82.5570
   291.5000      0.0000    348.1651     10.8823     77.3631
   291.7500      0.0000    346.1390     10.8747     72.0671
   292.0000      0.0000    342.0835     10.8975     67.1001
   292.2500      0.0000    339.2768     10.9327     62.5113
   292.5000      0.0000    338.3352     10.9618     58.4311
   292.7500      0.0000    338.2931     10.9832     55.5326
   293.0000      0.0000    338.4384     11.0039     54.5151
   293.2500      0.0000    338.5404     11.0268     55.0411
   293.5000      0.0000    338.5644     11.0495     55.6094
   293.7500      0.0000    338.5709     11.0677     54.8017
   294.0000      0.0000    338.6568     11.0767     52.5178
   294.2500      0.0000    338.9850     11.0671     49.8217
   294.5000      0.0000    340.2122     11.0253     47.7692
   294.7500      0.0000    343.8188     10.9529     46.5509
   295.0000      0.0000    350.8537     10.8736     45.6496
   295.2500      0.0000    359.6713     10.8100     44.5798
   295.5000      0.0000    366.7603     10.7696     43.4522
   295.7500      0.0000    370.4576     10.7504     42.9445
   296.0000      0.0000    371.6772     10.7436     43.5945
   296.2500      0.0000    371.2586     10.7360     44.8785
   296.5000      0.0000    368.3756     10.7112     45.1965
   296.7500      0.0000    361.9939     10.6640     43.2219
   297.0000      0.0000    353.6369     10.6149     39.2632
   297.2500      0.0000    346.8777     10.5795     35.0561
   297.5000      0.0000    343.5988     10.5405     32.4128
   297.7500      0.0000    342.8784     10.4745     32.2897
   298.0000      0.0000    343.0905     10.3862     34.7388
   298.2500      0.0000    343.3277     10.3050     39.1990
   298.5000      0.0000    343.5003     10.2512     45.0105
   298.7500      0.0000    344.4946     10.2098     51.9328
   299.0000      0.0000    348.2527     10.1466     59.8545
   299.2500      0.0000    356.2178     10.0462     67.8832
   299.5000      0.0000    367.8265      9.9224     74.3431
   299.7500      0.0000    384.5667      9.8007     77.9489
   300.0000      0.0000    415.8087      9.7035     78.6625
   300.2500      0.0000    470.1291      9.6426     77.5607
   300.5000      0.0000    536.3167      9.6100     76.3634
   300.7500      0.0000    587.9274      9.5915     76.9313
   301.0000      0.0000    609.5997      9.5942     80.6374
   301.2500      0.0000    603.5760      9.6415     87.7605
