~Version Information
VERS.                      2.0: CWLS Log ASCII Standard - VERSION 2.0
WRAP.                       NO: One line per depth step
~Well Information Block
STRT.FT                 0.0000: 
STOP.FT               878.7500: 
STEP.FT                 0.2500: 
NULL.                -999.2500: 
COMP.          Pioneer Natural Resources: COMPANY
WELL.          Screamin 12-29 Tr: WELL
FLD.           Purgatoire River: FIELD
LOC.           1979' FNL & 532' FWL--: LOCATION
CNTY.               Las Animas: COUNTY
SRVC.                Patterson: SERVICE COMPANY
DATE.          Thu Apr 13 22:21:38 2006: LOG DATE
UWI.           05 071 08660 00: UNIQUE WELL ID
STAT.                 Colorado: STATE
~Curve Information Block
DEPT.FT            0 000 00 00: Depth
GR.GAPI                       : Gamma Ray
CCL.                          : Casing Collar Locator
TT3.usec                      : CBL 3' Travel Time
AMP3.mV                       : CBL 3' Amplitude
~Parameter Information Block
~A  Depth        GR         CCL         TT3         AMP3    
# ...
   335.0000    103.6391      0.0000    694.6837      7.5775
   335.2500    101.5243      0.0000    694.6569      7.5489
   335.5000     94.7536      0.0000    694.4465      7.5367
   335.7500     89.1146      0.0000    694.2259      7.5418
   336.0000     82.1016      0.0000    693.8576      7.5521
   336.2500     79.6783      0.0000    693.5956      7.5565
   336.5000     79.2397      0.0000    693.1443      7.5659
   336.7500     80.0121      0.0000    692.7996      7.5797
   337.0000     81.1289      0.0000    692.2336      7.6146
   337.2500     81.4537      0.0000    691.8348      7.6441
   337.5000     81.4232      0.0000    691.2545      7.6892
   337.7500     81.4699      0.0000    690.9171      7.7156
   338.0000     82.4382      0.0000    690.4639      7.7407
   338.2500     83.7624      0.0000    690.1368      7.7375
   338.5000     86.1898      0.0000    689.5743      7.6756
   338.7500     87.8310      0.0000    689.2175      7.5776
   339.0000     90.4467      0.0000    688.8369      7.3210
   339.2500     92.4157      0.0000    688.7928      7.0749
   339.5000     95.6206      0.0000    689.7503      6.6238
   339.7500     97.8629      0.0000    692.0870      6.3040
   340.0000    101.3406      0.0000    700.6466      5.8660
   340.2500    103.3560      0.0000    710.8448      5.6348
   340.5000    104.3915      0.0000    732.2554      5.4043
   340.7500    103.0550      1.4673    748.3843      5.3209
   341.0000     98.7498      1.7529    769.6187      5.2664
   341.2500     95.7153     -1.1121    778.3710      5.2581
   341.5000     92.7510      0.0000    778.9742      5.2750
   341.7500     91.8827      0.0000    770.1418      5.3144
   342.0000     91.2311      0.0000    745.5676      5.4563
   342.2500     90.5716      0.0000    725.1739      5.6325
   342.5000     88.3534      0.0000    695.7987      6.0183
   342.7500     85.9264      0.0000    680.2564      6.3099
   343.0000     81.9006      0.0000    664.9003      6.6757
   343.2500     80.0872      0.0000    659.1895      6.8207
   343.5000     80.1305      0.0000    655.0805      6.8910
   343.7500     82.1447      0.0000    654.3779      6.8804
   344.0000     87.5541      0.0000    655.9954      6.8581
   344.2500     92.2320      0.0000    658.9457      6.8692
   344.5000     99.5821      0.0000    665.5142      6.9384
   344.7500    103.6131      0.0000    669.9421      7.0103
   345.0000    106.6812      0.0000    673.5267      7.1223
   345.2500    106.7251      0.0000    672.9822      7.1767
   345.5000    105.3924      0.0000    669.2034      7.2077
   345.7500    104.2229      0.0000    666.4062      7.1998
   346.0000    101.3222      0.0000    663.4016      7.1648
   346.2500     98.1830      0.0000    662.0319      7.1289
   346.5000     93.1977      0.0000    660.5089      7.0451
   346.7500     91.3483      0.0000    660.2484      6.9664
   347.0000     92.1890      0.0000    662.2265      6.8358
   347.2500     94.6685      0.0000    665.5646      6.7627
   347.5000     99.1053      0.0000    673.4467      6.6977
   347.7500    101.1444      0.0000    679.9181      6.6797
   348.0000    101.6490      0.0000    689.1662      6.6658
   348.2500    100.8545      0.0000    693.5617      6.6564
   348.5000     99.7454      0.0000    696.8101      6.6465
   348.7500     99.1700      0.0000    698.1234      6.6487
   349.0000     96.9559      0.0000    702.5709      6.6636
   349.2500     93.8455      0.0000    707.9576      6.6721
   349.5000     87.3297      0.0000    716.1916      6.6627
   349.7500     82.7766      0.0000    718.5560      6.6313
   350.0000     77.2291      0.0000    715.8429      6.5385
   350.2500     75.0081      0.0000    712.4664      6.4522
   350.5000     74.7177      0.0000    710.4948      6.3145
   350.7500     76.9646      0.0000    711.2801      6.2366
   351.0000     84.1793      0.0000    710.3237      6.1602
   351.2500     90.8823      0.0000    705.9200      6.1359
   351.5000    101.1110      0.0000    696.3904      6.1272
   351.7500    106.3448      0.0000    692.5023      6.1331
   352.0000    110.4799      0.0000    695.7100      6.1515
   352.2500    110.9869      0.0000    702.6556      6.1664
   352.5000    109.0696      0.0000    711.8228      6.1875
   352.7500    106.2351      0.0000    712.4138      6.2035
   353.0000    100.6550      0.0000    703.8693      6.2421
   353.2500     97.3239      0.0000    694.9970      6.2778
   353.5000     95.0281      0.0000    683.7019      6.3213
   353.7500     95.5366      0.0000    680.1514      6.3254
   354.0000     97.7931      0.0000    681.6489      6.2903
   354.2500     99.0568      0.0000    685.5923      6.2555
   354.5000     99.4503      0.0000    691.1688      6.2134
   354.7500     98.7902      0.0000    692.5084      6.1912
   355.0000     97.3020      0.0000    691.6422      6.1394
   355.2500     96.7237      0.0000    692.3229      6.0781
   355.5000     97.6641      0.0000    701.0078      5.9530
   355.7500     99.5922      0.0000    711.8543      5.8701
   356.0000    103.0614      0.0000    727.7909      5.7867
   356.2500    104.4980      0.0000    732.2964      5.7625
   356.5000    103.7942      0.0000    725.8171      5.7404
   356.7500    101.2781      0.0000    715.1406      5.7099
   357.0000     95.2740      0.0000    698.2250      5.6231
   357.2500     90.5569      0.0000    690.9822      5.5489
   357.5000     83.8782      0.0000    689.2652      5.4489
   357.7500     80.6531      0.0000    692.3163      5.4069
   358.0000     79.3172      0.0000    696.1269      5.3855
   358.2500     81.2171      0.0000    695.0093      5.3860
   358.5000     87.3752      0.0000    688.7308      5.3779
   358.7500     92.4228      0.0000    685.2084      5.3574
   359.0000     99.2644      0.0000    687.0640      5.3136
   359.2500    102.5886      0.0000    693.2380      5.2899
   359.5000    105.1411      0.0000    703.3848      5.2792
   359.7500    105.0060      0.0000    705.8416      5.2859
   360.0000    101.8440      0.0000    700.0189      5.2979
   360.2500     97.9965      0.0000    692.7524      5.2983
   360.5000     90.9601      0.0000    686.0629      5.2899
   360.7500     86.6054      0.0000    688.2629      5.2875
   361.0000     82.4384      0.0000    700.3237      5.3053
   361.2500     81.7821      0.0000    709.4442      5.3352
   361.5000     83.8338      0.0000    716.2827      5.3988
   361.7500     86.7338      0.0000    715.1990      5.4419
   362.0000     92.1108      0.0000    711.4559      5.4892
   362.2500     95.4863      0.0000    712.5880      5.5064
   362.5000     99.1350      0.0000    721.5612      5.5205
   362.7500    100.7075      0.0000    727.8195      5.5309
   363.0000    102.8633      0.0000    726.8755      5.5544
   363.2500    104.5322      0.0000    717.0052      5.5699
   363.5000    106.5780      0.0000    694.3339      5.5743
   363.7500    106.8355      0.0000    679.9389      5.5577
   364.0000    105.4036      0.0000    665.9197      5.5102
   364.2500    103.9872      0.0000    662.0137      5.4761
   364.5000    102.2248      0.0000    661.7831      5.4425
   364.7500    101.2250      0.0000    663.4953      5.4361
   365.0000     99.8747      0.0000    666.0304      5.4383
   365.2500     99.5914      0.0000    666.7797      5.4346
   365.5000    100.9019      0.0000    667.3333      5.4093
   365.7500    102.5805      0.0000    669.0126      5.3850
   366.0000    104.8428      0.0000    675.7723      5.3612
   366.2500    105.7654      0.0000    682.4036      5.3652
   366.5000    106.7604      0.0000    690.5542      5.4047
   366.7500    107.5891      0.0000    691.6100      5.4444
   367.0000    108.9543      0.0000    685.3538      5.4969
   367.2500    109.3470      0.0000    678.2808      5.5121
   367.5000    108.1648      0.0000    669.1099      5.4988
   367.7500    106.1716      0.0000    665.9979      5.4781
   368.0000    102.0883      0.0000    665.4968      5.4644
   368.2500     98.9120      0.0000    666.2747      5.4799
