~Version Information
VERS.                      2.0: CWLS Log ASCII Standard - VERSION 2.0
WRAP.                       NO: One line per depth step
~Well Information Block
STRT.FT               680.0000: 
STOP.FT              1585.5000: 
STEP.FT                 0.1000: 
NULL.                -999.2500: 
COMP.          Pioneer Natural Resources: COMPANY
WELL.          Screamin' 12-29: WELL
FLD.           Purgatoire River: FIELD
LOC.           2038' FNL & 612' FWL: LOCATION
CNTY.               Las Animas: COUNTY
SRVC.                Patterson: SERVICE COMPANY
DATE.          Wed Mar 29 10:01:18 2006: LOG DATE
UWI.           05 071 08661 00: UNIQUE WELL ID
STAT.                 Colorado: STATE
~Curve Information Block
DEPT.FT            0 000 00 00: Depth
DCAL.in                       : CDL Caliper
RHOB.g/cc                     : CDL Bulk Density
RHOC.g/cc                     : CDL Density Correction
DPOR.pu                       : CDL Density Porosity
GR.GAPI                       : Gamma Ray
NPOR.pu                       : Neutron Porosity
~Parameter Information Block
~A  Depth       DCAL        RHOB        RHOC        DPOR         GR         NPOR    
# ...
  1457.6000      7.8681      2.4866      0.0704      9.9029     86.6439     23.9522
  1457.7000      7.8681      2.5112      0.0914      8.4125     87.0565     26.3089
  1457.8000      7.8660      2.5358      0.0850      6.9225     90.5778     27.3691
  1457.9000      7.8660      2.5597      0.1392      5.4717     94.0220     26.3364
  1458.0000      7.8752      2.5728      0.1355      4.6797     94.3681     24.7447
  1458.1000      7.8752      2.5728      0.1162      4.6808     91.1789     23.7947
  1458.2000      7.8752      2.5618      0.1033      5.3437     86.1517     23.6985
  1458.3000      7.8833      2.5388      0.0992      6.7379     81.7829     24.3038
  1458.4000      7.8833      2.5112      0.0306      8.4102     79.0326     24.8787
  1458.5000      7.8787      2.4914      0.0255      9.6134     76.5226     24.9587
  1458.6000      7.8787      2.4769      0.0383     10.4907     71.9693     25.0562
  1458.7000      7.8787      2.4568      0.0383     11.7087     67.5164     25.3478
  1458.8000      7.8813      2.4318      0.0155     13.2232     71.2288     25.5762
  1458.9000      7.8813      2.4167     -0.0072     14.1398     86.4411     25.7050
  1459.0000      7.8911      2.4167      0.0496     14.1400    106.7225     25.6623
  1459.1000      7.8911      2.4204      0.0406     13.9171    120.0515     25.3837
  1459.2000      7.8911      2.4212      0.0345     13.8691    119.0396     25.3538
  1459.3000      7.8963      2.4188      0.0248     14.0106    111.1872     26.3897
  1459.4000      7.8963      2.4167      0.0271     14.1389    106.8775     28.1086
  1459.5000      7.8942      2.4250     -0.0009     13.6364    107.2745     28.7544
  1459.6000      7.8942      2.4454      0.0512     12.4024    111.1051     27.5552
  1459.7000      7.8942      2.4656      0.0462     11.1770    115.9174     25.6834
  1459.8000      7.8852      2.4793      0.0767     10.3450    115.6224     24.7173
  1459.9000      7.8852      2.4910      0.0565      9.6336    110.5086     25.0828
  1460.0000      7.8776      2.5036      0.0774      8.8734    108.6637     26.0551
  1460.1000      7.8776      2.5101      0.0753      8.4801    111.9961     26.5908
  1460.2000      7.8776      2.5020      0.0862      8.9693    114.7928     26.3340
  1460.3000      7.8706      2.4845      0.0080     10.0300    114.4799     25.9301
  1460.4000      7.8706      2.4767      0.0009     10.5032    111.4987     25.5849
  1460.5000      7.8575      2.4839      0.0369     10.0637    107.3879     25.4897
  1460.6000      7.8575      2.4904      0.0588      9.6720    105.5512     26.0018
  1460.7000      7.8575      2.4905      0.0136      9.6643    105.5507     26.3302
  1460.8000      7.8426      2.4960      0.0519      9.3359    103.6543     26.0932
  1460.9000      7.8426      2.5043      0.0861      8.8301    102.0545     26.0607
  1461.0000      7.8326      2.4983      0.1001      9.1930    103.6193     26.6129
  1461.1000      7.8326      2.4757      0.0905     10.5657    106.2789     27.4864
  1461.2000      7.8326      2.4538      0.0720     11.8937    109.3687     28.0388
  1461.3000      7.8328      2.4430      0.0726     12.5468    111.5738     27.9607
  1461.4000      7.8328      2.4348      0.0692     13.0436    111.7061     27.8914
  1461.5000      7.8451      2.4214      0.0725     13.8571    111.3239     28.6248
  1461.6000      7.8451      2.4089      0.0583     14.6111    110.5991     29.9143
  1461.7000      7.8451      2.4036      0.0827     14.9357    110.9441     30.7928
  1461.8000      7.8601      2.3975      0.0798     15.3046    111.1281     30.9037
  1461.9000      7.8601      2.3875      0.0194     15.9086    108.0576     30.3324
  1462.0000      7.8641      2.3812      0.0556     16.2929    103.5143     29.2405
  1462.1000      7.8641      2.3779      0.0802     16.4902    101.3335     28.4770
  1462.2000      7.8641      2.3777      0.0371     16.5015    101.7165     28.5535
  1462.3000      7.8540      2.3839      0.0769     16.1262    100.9466     28.5798
  1462.4000      7.8540      2.3885      0.0965     15.8467     97.4532     27.9766
  1462.5000      7.8366      2.3799      0.0973     16.3705     95.4692     27.7976
  1462.6000      7.8366      2.3576      0.0505     17.7227     98.5190     28.6594
  1462.7000      7.8366      2.3309      0.0733     19.3393    102.3686     29.9909
  1462.8000      7.8271      2.3057      0.0577     20.8676    101.7306     30.9436
  1462.9000      7.8271      2.2849      0.0411     22.1277     97.4947     31.0906
  1463.0000      7.8289      2.2745      0.0508     22.7594     94.8974     31.0535
  1463.1000      7.8289      2.2812      0.0329     22.3540     93.8163     31.3476
  1463.2000      7.8289      2.3039      0.0882     20.9762     88.6155     31.4982
  1463.3000      7.8377      2.3259      0.1140     19.6437     80.5831     31.1170
  1463.4000      7.8377      2.3261      0.1312     19.6325     76.1177     30.8603
  1463.5000      7.8510      2.2981      0.1183     21.3300     75.9581     31.3371
  1463.6000      7.8510      2.2553      0.0735     23.9203     77.6788     31.8124
  1463.7000      7.8510      2.2180      0.0538     26.1813     80.2629     31.5576
  1463.8000      7.8726      2.1968      0.0432     27.4673     84.7962     30.7821
  1463.9000      7.8726      2.1917      0.0317     27.7772     89.9921     30.1035
  1464.0000      7.9017      2.1923      0.0798     27.7394     89.7651     30.0054
  1464.1000      7.9017      2.1868      0.0745     28.0723     81.9180     30.4024
  1464.2000      7.9017      2.1786      0.0600     28.5715     73.4469     30.7173
  1464.3000      7.9278      2.1730      0.0809     28.9112     72.4542     30.8839
  1464.4000      7.9278      2.1631      0.0771     29.5095     76.9932     31.2503
  1464.5000      7.9354      2.1475      0.0507     30.4544     80.0483     31.6617
  1464.6000      7.9354      2.1389      0.0212     30.9781     78.4140     31.9180
  1464.7000      7.9354      2.1473      0.0503     30.4637     74.3845     32.1329
  1464.8000      7.9159      2.1695      0.0667     29.1228     73.5850     31.9283
  1464.9000      7.9159      2.1994      0.0498     27.3104     76.0326     31.5008
  1465.0000      7.8986      2.2334      0.0918     25.2481     77.1269     31.5937
  1465.1000      7.8986      2.2683      0.0717     23.1326     74.9116     31.7761
  1465.2000      7.8986      2.3068      0.0772     20.8002     73.0579     31.0678
  1465.3000      7.8970      2.3445      0.1175     18.5145     79.2345     29.5584
  1465.4000      7.8970      2.3768      0.0727     16.5579     93.8683     28.4774
  1465.5000      7.9010      2.4166      0.0707     14.1426    105.4602     28.3492
  1465.6000      7.9010      2.4682      0.1264     11.0198    103.5792     28.7389
  1465.7000      7.9010      2.5078      0.1289      8.6183     94.3640     29.2636
  1465.8000      7.9069      2.5111      0.1227      8.4201     90.0856     29.5652
  1465.9000      7.9069      2.4830      0.0404     10.1237     91.0591     29.5885
  1466.0000      7.9060      2.4529      0.0304     11.9484     90.7006     29.6346
  1466.1000      7.9060      2.4389      0.0218     12.7958     87.4407     29.5549
  1466.2000      7.9060      2.4366      0.0347     12.9362     87.6354     29.1464
  1466.3000      7.8908      2.4384      0.0322     12.8263     95.1966     28.9313
  1466.4000      7.8908      2.4425      0.0253     12.5742    103.4182     29.0950
  1466.5000      7.8742      2.4466      0.0369     12.3280    107.9611     29.1850
  1466.6000      7.8742      2.4502      0.0423     12.1074    112.6833     29.2865
  1466.7000      7.8742      2.4607      0.0377     11.4744    116.7248     29.3584
  1466.8000      7.8719      2.4777      0.0752     10.4416    115.6324     28.8410
  1466.9000      7.8719      2.4870      0.0964      9.8781    112.0168     27.9887
  1467.0000      7.8790      2.4776      0.0726     10.4479    109.2970     27.4356
  1467.1000      7.8790      2.4419      0.0943     12.6146    105.0311     27.4607
