~Version Information
 VERS.                                  2.0 : CWLS LAS VERSION
 WRAP.                                   NO : WRAPING MODE
 SWARE .                 MController 2.5.0N : SOFTWARE VERSION
~Well Information
 WELL.                        Hamburg 43-35 : WELL
 COMP.    Pioneer Natural Resouces USA Inc. : COMPANY
 FLD.                      Purgatoire River : FIELD
 LOC.            NE/SE Sec 35 , T34S, R65W  : LOCATION
 DATE.                             12/02/05 : DATE(S) LOGGED
 SRVC.       BLANCO Geological Services LLC : SERVICE COMPANY
 STAT.                                   CO : STATE
 CNTY.                           Las Animas : COUNTY
 CTRY.                                  USA : COUNTRY
 API.                       05-071-08607-00 : API NUMBER
 STRT.FT                             188.00 : START DEPTH
 STOP.FT                            1330.00 : STOP DEPTH
 STEP.FT                               1.00 : DEPTH INCREMENT
 NULL.                                -9999 : NULL VALUE
~Curve information
 DEPTH.FT                                   :
 ROP.MIN/FT                                 :
 GAS.UNITS                                  :
~ASCII Log data
# ...
       988.0         0.37        179.2 
       989.0         0.37        185.0 
       990.0         0.37        176.2 
       991.0         0.37        179.5 
       992.0         0.37        170.7 
       993.0         0.43        164.8 
       994.0         0.33        162.5 
       995.0         0.38        161.1 
       996.0         0.33        154.3 
       997.0         0.30        161.4 
       998.0         0.33        179.7 
       999.0         0.33        179.3 
      1000.0         0.27        209.1 
      1001.0         0.17        210.6 
      1002.0         0.30        195.7 
      1003.0         0.23        170.3 
      1004.0         0.30        169.8 
      1005.0         0.33        155.4 
      1006.0         0.37        149.5 
      1007.0         0.35        100.1 
      1008.0         0.30        131.3 
      1009.0         0.30        179.3 
      1010.0         0.37        190.9 
      1011.0        35.10        951.2 
      1012.0         5.27       1297.6 
      1013.0         0.43        185.9 
      1014.0         0.47        173.7 
      1015.0         0.43        163.4 
      1016.0         0.43        163.1 
      1017.0         0.42        156.8 
      1018.0         0.40        155.9 
      1019.0         0.43        159.0 
      1020.0         0.40        165.2 
      1021.0         0.40        164.1 
      1022.0         0.37        155.3 
      1023.0         0.37        152.1 
      1024.0         0.37        155.6 
      1025.0         0.38        156.6 
      1026.0         0.40        156.8 
      1027.0         0.37        152.7 
      1028.0         0.40        156.3 
      1029.0         0.40        157.4 
      1030.0         0.37        157.6 
      1031.0         0.37        153.8 
      1032.0         0.37        145.3 
      1033.0         0.33        139.3 
      1034.0         0.35        124.5 
      1035.0         0.33         69.8 
      1036.0         0.33         62.8 
      1037.0         0.37        128.7 
      1038.0         0.37        212.3 
      1039.0         0.40        210.2 
      1040.0         0.13        196.5 
      1041.0         3.12       1039.5 
      1042.0         0.97        556.4 
      1043.0         0.78        212.8 
      1044.0         0.60        214.2 
      1045.0         0.37        185.1 
      1046.0         0.40        129.5 
      1047.0         0.37        232.2 
      1048.0         0.33        241.0 
      1049.0         0.30        240.3 
      1050.0         0.23        227.6 
      1051.0         0.17        216.5 
      1052.0         0.20        215.6 
      1053.0         0.35        192.6 
      1054.0         0.37        196.8 
      1055.0         0.40        202.0 
      1056.0         0.40        203.7 
      1057.0         0.37        183.8 
      1058.0         0.30        163.4 
      1059.0         0.27        161.3 
      1060.0         0.33        162.0 
      1061.0         0.27        158.9 
      1062.0         0.33        145.7 
      1063.0         0.28        161.2 
      1064.0         0.30        172.2 
      1065.0         0.30        138.9 
      1066.0         0.23        118.1 
      1067.0         0.23        166.0 
      1068.0         0.20        201.1 
      1069.0         0.23        201.1 
      1070.0         0.20        196.8 
      1071.0         3.62       1175.8 
      1072.0         1.00        535.8 
      1073.0         0.45        192.2 
      1074.0         0.47        257.8 
      1075.0         0.43        259.2 
      1076.0         0.33        230.5 
      1077.0         0.20        219.1 
      1078.0         0.20        207.8 
      1079.0         0.33        259.5 
      1080.0         0.37        297.3 
      1081.0         0.37        291.7 
      1082.0         0.37        265.3 
      1083.0         0.22        237.6 
      1084.0         0.37        236.3 
      1085.0         0.37        217.8 
      1086.0         0.37        201.0 
      1087.0         0.40        191.7 
      1088.0         0.40        176.7 
      1089.0         0.40        171.8 
      1090.0         0.40        175.1 
      1091.0         0.40        178.8 
      1092.0         0.45        180.5 
      1093.0         0.43        180.3 
      1094.0         0.40        177.9 
      1095.0         0.40        182.9 
      1096.0         0.43        152.1 
      1097.0         0.40        134.4 
      1098.0         0.40        100.5 
      1099.0         0.47        221.1 
      1100.0         0.42        245.4 
      1101.0         4.08       1229.9 
      1102.0         0.77        475.5 
      1103.0         0.63        186.8 
      1104.0         0.98        176.3 
      1105.0         0.43        145.6 
      1106.0         0.37        150.1 
      1107.0         0.47        149.6 
      1108.0         0.47        142.8 
      1109.0         0.40        144.0 
      1110.0         0.47        150.8 
      1111.0         0.40        146.5 
      1112.0         0.48        164.6 
      1113.0         0.47        170.0 
      1114.0         0.40        169.6 
      1115.0         0.43        177.2 
      1116.0         0.43        198.3 
      1117.0         0.33        198.8 
      1118.0         0.33        190.3 
      1119.0         0.33        186.5 
      1120.0         0.37        191.0 
      1121.0         0.38        189.5 
      1122.0         0.40        185.6 
      1123.0         0.37        186.2 
      1124.0         0.47        167.9 
      1125.0         0.33         70.1 
      1126.0         0.23         56.7 
      1127.0         0.37        128.5 
      1128.0         0.33        227.6 
      1129.0         0.27        243.3 
      1130.0         0.82       1223.5 
      1131.0         3.05       1044.3 
      1132.0         0.53        464.9 
      1133.0         0.23        440.0 
      1134.0         0.50        188.3 
      1135.0         0.47        160.1 
      1136.0         0.40        181.3 
      1137.0         0.37        180.6 
      1138.0         0.33        185.5 
      1139.0         0.20        180.3 
      1140.0         0.25        171.3 
      1141.0         0.40        164.0 
      1142.0         0.40        163.8 
      1143.0         0.43        180.0 
      1144.0         0.53        177.0 
      1145.0         0.47        161.8 
      1146.0         0.43        171.5 
      1147.0         0.33        176.1 
      1148.0         0.38        247.3 
      1149.0         0.27        261.0 
      1150.0         0.27        244.6 
      1151.0         0.27        277.0 
      1152.0         0.13        277.0 
      1153.0         0.17        296.1 
      1154.0         0.30        240.1 
      1155.0         0.33        123.3 
      1156.0         0.23        170.8 
      1157.0         0.13        170.8 
      1158.0         0.30        221.9 
      1159.0         0.27        247.1 
      1160.0         0.30        260.7 
      1161.0         2.58       1350.4 
      1162.0         0.43        641.5 
      1163.0         0.65        551.6 
      1164.0         0.47        584.4 
      1165.0         0.73        570.6 
      1166.0         0.57        488.1 
      1167.0         0.50        473.2 
      1168.0         0.40        479.4 
      1169.0         0.40        479.7 
      1170.0         0.42        473.6 
      1171.0         0.43        457.1 
      1172.0         0.40        448.4 
      1173.0         0.40        446.2 
      1174.0         0.40        446.8 
      1175.0         0.40        441.7 
      1176.0         0.37        440.0 
      1177.0         0.40        184.5 
      1178.0         0.42        161.0 
      1179.0         0.40        163.1 
      1180.0         0.37        162.3 
      1181.0         0.40        165.3 
      1182.0         0.37        167.3 
      1183.0         0.40        166.6 
      1184.0         0.43        164.1 
      1185.0         0.43        162.3 
      1186.0         0.42        166.1 
      1187.0         0.40        134.2 
