~Version Information
VERS.                      2.0: CWLS Log ASCII Standard - VERSION 2.0
WRAP.                       NO: One line per depth step
~Well Information Block
STRT.FT               350.0000: 
STOP.FT              2808.2500: 
STEP.FT                 0.2500: 
NULL.                -999.2500: 
COMP.          Pioneer Natural Resources: COMPANY
WELL.          Grey Goose 33-30: WELL
FLD.           Purgatoire River: FIELD
LOC.           2136' FSL & 2065' FEL--: LOCATION
STAT.                 Colorado: State
CNTY.               Las Animas: COUNTY
CTRY. USA : Country
SECT. 30 : Section
TOWN. 32S : Township
RANG. 67W : Range
SRVC.                Patterson: SERVICE COMPANY
DATE.          Fri Nov 04 09:00:45 2005: LOG DATE
API.           05 071 08546 00: UNIQUE WELL ID
~Curve Information Block
DEPT.FT            0 000 00 00: Depth
DIR.Ohm-m                     : IEL Induction Resistivity
SN.Ohm-m                      : IEL Short Normal
SP.mV                         : IEL Spontaneous Potential
GR.GAPI                       : Gamma Ray
~Parameter Information Block
~A  Depth       DIR          SN          SP          GR     
# ...
  1489.0000     16.4449     19.3718    -69.9426    112.1961
  1489.2500     16.5224     19.4150    -70.2979    113.3625
  1489.5000     16.5937     19.4534    -70.5962    116.7019
  1489.7500     16.6327     19.4468    -70.8292    119.1050
  1490.0000     16.6053     19.3588    -70.9992    121.2022
  1490.2500     16.4889     19.1802    -71.1178    121.3535
  1490.5000     16.2873     18.9404    -71.2029    120.9791
  1490.7500     16.0328     18.6950    -71.2749    121.3756
  1491.0000     15.7742     18.4918    -71.3535    123.8990
  1491.2500     15.5574     18.3420    -71.4540    126.6933
  1491.5000     15.4105     18.2209    -71.5852    131.3258
  1491.7500     15.3394     18.0920    -71.7483    133.8244
  1492.0000     15.3352     17.9272    -71.9366    135.6736
  1492.2500     15.3833     17.7117    -72.1367    135.4774
  1492.5000     15.4684     17.4378    -72.3300    133.0989
  1492.7500     15.5745     17.1034    -72.4946    130.1942
  1493.0000     15.6829     16.7246    -72.6080    124.2643
  1493.2500     15.7737     16.3545    -72.6497    119.6514
  1493.5000     15.8301     16.0844    -72.6034    112.2007
  1493.7500     15.8443     16.0087    -72.4602    107.1783
  1494.0000     15.8211     16.1703    -72.2203    101.1379
  1494.2500     15.7738     16.5246    -71.8945     99.6056
  1494.5000     15.7133     16.9533    -71.5033    102.5844
  1494.7500     15.6359     17.3200    -71.0749    107.3307
  1495.0000     15.5197     17.5287    -70.6415    114.9339
  1495.2500     15.3347     17.5544    -70.2347    118.1465
  1495.5000     15.0607     17.4330    -69.8814    118.5702
  1495.7500     14.7029     17.2264    -69.6003    116.4326
  1496.0000     14.2932     16.9897    -69.4001    111.8516
  1496.2500     13.8798     16.7616    -69.2792    109.2300
  1496.5000     13.5105     16.5687    -69.2271    107.4747
  1496.7500     13.2177     16.4249    -69.2267    108.0951
  1497.0000     13.0108     16.3214    -69.2565    111.2884
  1497.2500     12.8768     16.2242    -69.2946    114.0926
  1497.5000     12.7886     16.0862    -69.3212    117.4521
  1497.7500     12.7175     15.8686    -69.3210    118.4176
  1498.0000     12.6428     15.5597    -69.2851    118.1703
  1498.2500     12.5557     15.1825    -69.2120    117.6001
  1498.5000     12.4571     14.7870    -69.1070    117.2307
  1498.7500     12.3554     14.4301    -68.9815    117.4638
  1499.0000     12.2628     14.1516    -68.8507    118.1244
  1499.2500     12.1912     13.9632    -68.7316    118.4429
  1499.5000     12.1476     13.8592    -68.6395    118.3724
  1499.7500     12.1315     13.8376    -68.5863    117.8866
  1500.0000     12.1375     13.9094    -68.5779    116.5162
  1500.2500     12.1587     14.0901    -68.6143    115.3484
  1500.5000     12.1907     14.3800    -68.6900    113.9326
  1500.7500     12.2341     14.7516    -68.7961    113.6673
  1501.0000     12.2920     15.1485    -68.9226    114.3666
  1501.2500     12.3667     15.4988    -69.0610    115.1520
  1501.5000     12.4566     15.7397    -69.2058    116.2117
  1501.7500     12.5564     15.8443    -69.3557    116.9403
  1502.0000     12.6619     15.8331    -69.5135    118.6978
  1502.2500     12.7753     15.7648    -69.6866    120.5312
  1502.5000     12.9057     15.7103    -69.8857    124.0108
  1502.7500     13.0665     15.7280    -70.1251    126.4064
  1503.0000     13.2704     15.8550    -70.4213    129.4791
  1503.2500     13.5264     16.1164    -70.7924    131.0327
  1503.5000     13.8398     16.5436    -71.2566    132.6605
  1503.7500     14.2136     17.1864    -71.8316    133.3832
  1504.0000     14.6529     18.1117    -72.5339    134.0963
  1504.2500     15.1689     19.3827    -73.3785    134.2099
  1504.5000     15.7825     21.0291    -74.3782    132.9912
  1504.7500     16.5254     23.0330    -75.5421    130.5771
  1505.0000     17.4380     25.3584    -76.8725    123.8252
  1505.2500     18.5647     28.0090    -78.3611    117.3502
  1505.5000     19.9494     31.0743    -79.9852    105.9093
  1505.7500     21.6342     34.7300    -81.7053     98.2575
  1506.0000     23.6601     39.1875    -83.4658     88.4928
  1506.2500     26.0707     44.6050    -85.2000     83.5583
  1506.5000     28.9113     50.9963    -86.8397     78.0573
  1506.7500     32.2164     58.1744    -88.3268     75.0369
  1507.0000     35.9725     65.7624    -89.6244     70.7639
  1507.2500     40.0664     73.2968    -90.7238     68.1033
  1507.5000     44.2666     80.3797    -91.6457     64.7714
  1507.7500     48.2935     86.7620    -92.4325     63.0405
  1508.0000     51.9569     92.3182    -93.1369     60.7958
  1508.2500     55.2306     96.9938    -93.8079     59.2830
  1508.5000     58.1888    100.7901    -94.4802     57.0535
  1508.7500     60.8902    103.7724    -95.1691     55.8608
  1509.0000     63.3382    106.0750    -95.8722     54.8283
  1509.2500     65.5242    107.8858    -96.5756     54.6957
  1509.5000     67.4717    109.3969    -97.2621     55.5612
  1509.7500     69.2220    110.7363    -97.9186     57.0507
  1510.0000     70.7949    111.9228    -98.5402     60.5442
  1510.2500     72.1822    112.8782    -99.1316     63.1799
  1510.5000     73.3725    113.4900    -99.7046     66.2419
  1510.7500     74.3562    113.6850   -100.2736     67.0915
  1511.0000     75.0996    113.4685   -100.8491     66.4140
  1511.2500     75.5461    112.9137   -101.4309     64.9316
  1511.5000     75.6856    112.1194   -102.0023     61.6296
  1511.7500     75.6243    111.1576   -102.5272     58.8933
  1512.0000     75.5421    110.0298   -102.9512     54.4411
  1512.2500     75.5343    108.6481   -103.2070     51.6323
  1512.5000     75.4651    106.8536   -103.2241     48.2647
  1512.7500     74.9701    104.4750   -102.9403     46.7942
  1513.0000     73.6379    101.4199   -102.3126     45.9713
  1513.2500     71.2612     97.7602   -101.3258     46.4833
  1513.5000     67.9606     93.7472    -99.9964     49.2362
  1513.7500     64.1058     89.7268    -98.3721     52.6737
  1514.0000     60.1299     86.0082    -96.5274     60.4350
  1514.2500     56.3824     82.7697    -94.5560     67.1648
  1514.5000     53.0711     80.0484    -92.5615     78.9888
  1514.7500     50.2727     77.7984    -90.6474     87.6543
  1515.0000     47.9824     75.9593    -88.9071    100.9793
  1515.2500     46.1746     74.4941    -87.4155    109.2103
  1515.5000     44.8487     73.4035    -86.2220    118.3289
  1515.7500     44.0406     72.7296    -85.3482    120.8850
  1516.0000     43.8003     72.5402    -84.7879    118.2909
  1516.2500     44.1596     72.8984    -84.5122    112.7862
  1516.5000     45.1172     73.8447    -84.4754    101.3393
  1516.7500     46.6484     75.4088    -84.6242     93.2188
  1517.0000     48.7212     77.6281    -84.9045     82.2595
  1517.2500     51.2924     80.5270    -85.2686     76.2587
  1517.5000     54.2752     84.0497    -85.6800     69.2816
  1517.7500     57.5111     87.9993    -86.1146     65.7702
  1518.0000     60.7878     92.0598    -86.5603     61.5981
  1518.2500     63.9081     95.9049    -87.0131     59.1461
  1518.5000     66.7552     99.3075    -87.4702     55.6260
  1518.7500     69.2993    102.1750    -87.9229     53.6150
  1519.0000     71.5400    104.5079    -88.3481     52.0889
  1519.2500     73.4458    106.3266    -88.7043     52.5284
  1519.5000     74.9566    107.6168    -88.9327     54.9756
  1519.7500     76.0538    108.3223    -88.9646     56.6991
  1520.0000     76.8149    108.3725    -88.7344     56.8821
  1520.2500     77.3460    107.7107    -88.1953     54.4442
  1520.5000     77.6219    106.3142    -87.3342     47.3962
  1520.7500     77.3854    104.2201    -86.1798     41.7276
  1521.0000     76.2688    101.5676    -84.8027     34.3072
  1521.2500     74.1198     98.6245    -83.3063     31.1466
  1521.5000     71.2283     95.7384    -81.8113     30.0493
  1521.7500     68.1804     93.2009    -80.4376     31.8494
  1522.0000     65.4736     91.1064    -79.2872     37.2884
  1522.2500     63.2710     89.3212    -78.4311     41.1866
