~Version Information
VERS.                      2.0: CWLS Log ASCII Standard - VERSION 2.0
WRAP.                       NO: One line per depth step
~Well Information Block
STRT.FT                 6.0000: 
STOP.FT              1577.7500: 
STEP.FT                 0.2500: 
NULL.                -999.2500: 
COMP.          Pioneer Natural Resources: COMPANY
WELL.           Kermit 32-7 Tr: WELL
FLD.           Purgatoire River: FIELD
LOC.           2009' FNL & 2196' FEL: LOCATION
PROV.                 Colorado: PROVINCE
CNTY.               Las Animas: COUNTRY
SRVC.                Patterson: SERVICE COMPANY
DATE.          Wed Jan 18 14:19:39 2006: LOG DATE
UWI.           05 071 08664 00: UNIQUE WELL ID
~Curve Information Block
DEPT.FT            0 000 00 00: Depth
GR.GAPI                       : Gamma Ray
CCL.                          : Casing Collar Locator
TT3.usec                      : CBL 3' Travel Time
AMP3.mV                       : CBL 3' Amplitude
~Parameter Information Block
~A  Depth        GR         CCL         TT3         AMP3    
# ...
  1547.0000     85.3137      0.0000    581.3854     10.2104
  1547.2500     86.7477      0.0000    595.8129     10.0519
  1547.5000     87.7893      0.0000    606.7049      9.8885
  1547.7500     89.2321      0.0000    609.1015      9.7405
  1548.0000     91.3689      0.0000    603.9535      9.6277
  1548.2500     93.5800      0.0000    596.9743      9.5731
  1548.5000     94.9637      0.0000    594.0418      9.5966
  1548.7500     95.3090      0.0000    596.6190      9.7038
  1549.0000     95.2429      0.0000    601.6265      9.8828
  1549.2500     95.4278      0.0000    605.8978     10.1084
  1549.5000     95.8743      0.0000    610.0939     10.3470
  1549.7500     96.2122      0.0000    617.4182     10.5622
  1550.0000     96.4232      0.0000    628.6091     10.7249
  1550.2500     97.0205      0.0000    638.9996     10.8224
  1550.5000     98.7386      0.0000    641.1158     10.8599
  1550.7500    102.2764      0.0000    630.7814     10.8539
  1551.0000    107.9483      0.0000    611.9187     10.8236
  1551.2500    115.1061      0.0000    595.5870     10.7870
  1551.5000    122.1031      0.0000    592.5111     10.7606
  1551.7500    127.3176      0.0000    605.0896     10.7594
  1552.0000    130.2384      0.0000    626.6638     10.7890
  1552.2500    131.4202      0.0000    647.9161     10.8338
  1552.5000    131.5819      0.0000    663.0799     10.8586
  1552.7500    131.0519      0.0000    671.1992     10.8287
  1553.0000    130.0930      0.0000    673.8619     10.7350
  1553.2500    129.2075      0.0000    672.8688     10.6000
  1553.5000    128.6358      0.0000    669.7169     10.4611
  1553.7500    127.9659      0.0000    666.5262     10.3491
  1554.0000    126.8623      0.0000    666.3661     10.2770
  1554.2500    125.8467      0.0000    671.3774     10.2393
  1554.5000    125.8561      0.0000    680.2650     10.2164
  1554.7500    127.2855      0.0000    688.5322     10.1825
  1555.0000    129.7852      0.0000    691.8141     10.1160
  1555.2500    132.7248      0.0000    688.8411     10.0094
  1555.5000    135.6914      0.0000    681.5009      9.8740
  1555.7500    138.7979      0.0000    672.8204      9.7357
  1556.0000    142.7091      0.0000    664.8193      9.6239
  1556.2500    148.2445      0.0000    657.4327      9.5589
  1556.5000    155.4926      0.0000    649.0554      9.5433
  1556.7500    162.8840      0.0000    638.5228      9.5624
  1557.0000    167.3682      0.0000    626.9910      9.5904
  1557.2500    166.2383      0.0000    617.5734      9.6007
  1557.5000    159.1992      0.0000    612.9230      9.5779
  1557.7500    148.6495      0.0000    614.1921      9.5282
  1558.0000    138.1469      0.0000    621.7946      9.4788
  1558.2500    130.7652      0.0000    634.4103      9.4605
  1558.5000    128.2838      0.0000    646.8917      9.4844
  1558.7500    130.6997      0.0000    652.3322      9.5367
  1559.0000    136.1334      0.0000    648.1919      9.6005
  1559.2500    141.8782      0.0000    639.7599      9.6770
  1559.5000    146.0689      0.0000    636.3863      9.7784
  1559.7500    148.3605      0.0000    643.5588      9.9010
  1560.0000    149.3643      0.0000    658.6340     10.0148
  1560.2500    149.8961      0.0000    673.9835     10.0831
  1560.5000    150.5700      0.0000    683.4062     10.0932
  1560.7500    151.4981      0.0000    685.7497     10.0652
  1561.0000    152.0582      0.0000    684.1550     10.0277
  1561.2500    151.1441      0.0000    683.1019      9.9884
  1561.5000    148.0047      0.0000    685.8282      9.9378
  1561.7500    142.7920      0.0000    693.1503      9.8799
  1562.0000    136.1308      0.0000    703.1563      9.8449
  1562.2500    128.5399      0.0000    711.8239      9.8639
  1562.5000    120.7273      0.0000    714.9346      9.9223
  1562.7500    114.0200      0.0000    709.6677      9.9265
  1563.0000    109.8495      0.0000    691.9457      9.6881
  1563.2500    108.7625      0.0000    651.0090      8.9447
  1563.5000    110.1051      0.0000    571.6544      7.4767
  1563.7500    112.4179      0.0000    449.5612      5.3198
  1564.0000    113.9679      0.0000    304.7227      2.8775
  1564.2500    113.4110      0.0000    172.7969      0.7277
  1564.5000    110.5935      0.0000     80.2599     -0.7461
  1564.7500    106.7965      0.0000     30.0930     -1.5333
  1565.0000    103.9360      0.0000      9.0166     -1.8609
  1565.2500    103.3127      0.0000      2.1412     -1.9671
  1565.5000    104.9119      0.0000      0.3978     -1.9939
  1565.7500    107.7129      0.0000      0.0529     -1.9992
  1566.0000    110.5169      0.0000   -999.2500   -999.2500
  1566.2500    112.4434      0.0000   -999.2500   -999.2500
  1566.5000    112.9069      0.0000   -999.2500   -999.2500
  1566.7500    111.6237      0.0000   -999.2500   -999.2500
  1567.0000    108.9342      0.0000   -999.2500   -999.2500
  1567.2500    105.8772      0.0000   -999.2500   -999.2500
  1567.5000    103.5628      0.0000   -999.2500   -999.2500
  1567.7500    102.4085      0.0000   -999.2500   -999.2500
  1568.0000    101.9816      0.0000   -999.2500   -999.2500
  1568.2500    101.3534      0.0000   -999.2500   -999.2500
  1568.5000     99.5654      0.0000   -999.2500   -999.2500
  1568.7500     96.1461      0.0000   -999.2500   -999.2500
  1569.0000     91.3793      0.0000   -999.2500   -999.2500
  1569.2500     86.0126      0.0000   -999.2500   -999.2500
  1569.5000     80.8402      0.0000   -999.2500   -999.2500
  1569.7500     76.6413      0.0000   -999.2500   -999.2500
  1570.0000     73.9829      0.0000   -999.2500   -999.2500
  1570.2500     72.6681      0.0000   -999.2500   -999.2500
  1570.5000     71.7044      0.0000   -999.2500   -999.2500
  1570.7500     70.3177      0.0000   -999.2500   -999.2500
  1571.0000     68.8928      0.0000   -999.2500   -999.2500
  1571.2500     68.5709      0.0000   -999.2500   -999.2500
  1571.5000     69.8810   -999.2500   -999.2500   -999.2500
  1571.7500     71.9816   -999.2500   -999.2500   -999.2500
  1572.0000     73.3235   -999.2500   -999.2500   -999.2500
  1572.2500     73.0013   -999.2500   -999.2500   -999.2500
  1572.5000     71.4122   -999.2500   -999.2500   -999.2500
  1572.7500     69.6482   -999.2500   -999.2500   -999.2500
  1573.0000     68.4514   -999.2500   -999.2500   -999.2500
  1573.2500     67.6080   -999.2500   -999.2500   -999.2500
  1573.5000     65.6958   -999.2500   -999.2500   -999.2500
  1573.7500     60.3472   -999.2500   -999.2500   -999.2500
  1574.0000     49.8884   -999.2500   -999.2500   -999.2500
  1574.2500     35.4873   -999.2500   -999.2500   -999.2500
  1574.5000     21.0043   -999.2500   -999.2500   -999.2500
  1574.7500     10.1153   -999.2500   -999.2500   -999.2500
  1575.0000      3.9068   -999.2500   -999.2500   -999.2500
  1575.2500      1.1988   -999.2500   -999.2500   -999.2500
  1575.5000      0.2903   -999.2500   -999.2500   -999.2500
  1575.7500      0.0550   -999.2500   -999.2500   -999.2500
  1576.0000      0.0077   -999.2500   -999.2500   -999.2500
  1576.2500      0.0000   -999.2500   -999.2500   -999.2500
  1576.5000   -999.2500   -999.2500   -999.2500   -999.2500
  1576.7500   -999.2500   -999.2500   -999.2500   -999.2500
  1577.0000   -999.2500   -999.2500   -999.2500   -999.2500
  1577.2500   -999.2500   -999.2500   -999.2500   -999.2500
  1577.5000   -999.2500   -999.2500   -999.2500   -999.2500
  1577.7500   -999.2500   -999.2500   -999.2500   -999.2500
