~Version Information
VERS.                      2.0: CWLS Log ASCII Standard - VERSION 2.0
WRAP.                       NO: One line per depth step
~Well Information Block
STRT.FT               230.0000: 
STOP.FT              1028.0000: 
STEP.FT                 0.2500: 
NULL.                -999.2500: 
COMP.          Pioneer Natural Resources: COMPANY
WELL.              Gough 14-29: WELL
FLD.           Purgatoire River: FIELD
LOC.           1199' FSL & 676' FWL: LOCATION
PROV.                 Colorado: PROVINCE
CNTY.               Las Animas: COUNTRY
SRVC.                Patterson: SERVICE COMPANY
DATE.          Thu Dec 22 16:27:18 2005: LOG DATE
UWI.           05 071 08612 00: UNIQUE WELL ID
~Curve Information Block
DEPT.FT            0 000 00 00: Depth
SN.Ohm-m                      : IEL Short Normal
SP.mV                         : IEL Spontaneous Potential
DIR.Ohm-m                     : IEL Induction Resistivity
GR.GAPI                       : Gamma Ray
~Parameter Information Block
SNDERRM.mmho-m         10.0000: Medium Sonde Error Correction
~A  Depth        SN          SP         DIR          GR     
# ...
   699.0000     21.7751     17.2972     17.6616     98.1155
   699.2500     22.5696     17.1839     17.8824    100.1449
   699.5000     23.1617     17.0183     18.2577    102.4511
   699.7500     23.6327     16.8352     18.8167    103.6328
   700.0000     24.0744     16.6672     19.5546    105.3008
   700.2500     24.4734     16.5334     20.4183    106.1418
   700.5000     24.8642     16.4387     21.3221    105.5073
   700.7500     25.3726     16.3840     22.1940    102.7557
   701.0000     26.0784     16.3724     23.0177     94.5679
   701.2500     26.9574     16.4014     23.8327     87.2055
   701.5000     27.9457     16.4531     24.6938     75.6681
   701.7500     29.0476     16.5002     25.6284     68.8230
   702.0000     30.3808     16.5235     26.6255     61.0324
   702.2500     32.0406     16.5235     27.6544     57.8013
   702.5000     33.8765     16.5165     28.6905     55.6416
   702.7500     35.5166     16.5225     29.7220     55.3639
   703.0000     36.6530     16.5531     30.7317     55.3964
   703.2500     37.1904     16.6059     31.6781     55.2921
   703.5000     37.1914     16.6675     32.4959     55.2633
   703.7500     36.8148     16.7223     33.1136     56.0398
   704.0000     36.2336     16.7592     33.4721     59.4956
   704.2500     35.6016     16.7753     33.5344     63.1688
   704.5000     35.0760     16.7745     33.2957     68.9073
   704.7500     34.7270     16.7655     32.7966     71.7222
   705.0000     34.4520     16.7547     32.1251     73.8191
   705.2500     34.0865     16.7366     31.3919     74.2226
   705.5000     33.5585     16.6905     30.6892     74.2952
   705.7500     32.8843     16.5850     30.0610     74.3146
   706.0000     32.1581     16.3909     29.5083     74.4444
   706.2500     31.5794     16.0947     29.0239     74.4679
   706.5000     31.2560     15.7060     28.6204     74.0868
   706.7500     31.0504     15.2558     28.3263     73.6193
   707.0000     30.8125     14.7877     28.1580     73.1505
   707.2500     30.5816     14.3463     28.1015     73.0599
   707.5000     30.4681     13.9656     28.1238     72.3708
   707.7500     30.5281     13.6584     28.2048     70.9539
   708.0000     30.7608     13.4125     28.3589     67.6683
   708.2500     31.1050     13.1974     28.6265     65.5993
   708.5000     31.5214     12.9802     29.0389     63.9266
   708.7500     32.0905     12.7415     29.5823     63.6327
   709.0000     32.9226     12.4821     30.1862     63.0167
   709.2500     34.0155     12.2151     30.7450     61.7146
   709.5000     35.2338     11.9517     31.1627     58.0917
   709.7500     36.4237     11.6922     31.3908     54.8788
   710.0000     37.5819     11.4298     31.4419     49.7094
   710.2500     38.8460     11.1582     31.3785     46.5166
   710.5000     40.2597     10.8719     31.2910     42.7562
   710.7500     41.6306     10.5615     31.2669     41.1861
   711.0000     42.6438     10.2142     31.3600     40.6494
   711.2500     43.0533      9.8211     31.5657     41.7487
   711.5000     42.7991      9.3823     31.8231     45.4917
   711.7500     41.9964      8.9046     32.0465     48.7970
   712.0000     40.8599      8.3965     32.1680     53.5903
   712.2500     39.6447      7.8692     32.1600     56.2082
   712.5000     38.5248      7.3389     32.0222     59.2404
   712.7500     37.4682      6.8253     31.7567     60.7161
   713.0000     36.4002      6.3454     31.3572     61.9735
   713.2500     35.4022      5.9091     30.8183     62.2441
   713.5000     34.5642      5.5219     30.1578     62.5804
   713.7500     33.9099      5.1883     29.4296     63.3051
   714.0000     33.5161      4.9130     28.7209     65.2429
   714.2500     33.3703      4.6989     28.1230     66.5443
   714.5000     33.2172      4.5448     27.6917     67.4146
   714.7500     32.8421      4.4481     27.4240     67.1489
   715.0000     32.3416      4.4093     27.2738     66.1397
   715.2500     31.9231      4.4351     27.1919     65.4348
   715.5000     31.6389      4.5342     27.1515     64.4747
   715.7500     31.4110      4.7119     27.1360     64.0686
   716.0000     31.1588      4.9659     27.1087     64.9400
   716.2500     30.8720      5.2857     27.0057     67.2771
   716.5000     30.5685      5.6559     26.7596     73.3788
   716.7500     30.2113      6.0616     26.3294     78.0872
   717.0000     29.7578      6.4954     25.7159     83.4163
   717.2500     29.2480      6.9603     24.9605     84.4595
   717.5000     28.7772      7.4692     24.1345     81.0789
   717.7500     28.4005      8.0419     23.3222     75.8561
   718.0000     28.0417      8.6991     22.6005     66.3083
   718.2500     27.5616      9.4529     22.0256     61.2761
   718.5000     26.9359     10.3004     21.6267     59.5526
   718.7500     26.2989     11.2224     21.4073     63.2268
   719.0000     25.8401     12.1885     21.3492     74.5526
   719.2500     25.6357     13.1641     21.4153     83.6404
   719.5000     25.5780     14.1190     21.5509     94.7648
   719.7500     25.5005     15.0349     21.6864     98.5566
   720.0000     25.3095     15.9127     21.7506     98.3845
   720.2500     25.0168     16.7749     21.6949     95.4710
   720.5000     24.7296     17.6608     21.5173     89.3056
   720.7500     24.5583     18.6111     21.2668     85.0752
   721.0000     24.5176     19.6488     21.0201     80.0202
   721.2500     24.5386     20.7672     20.8467     78.4215
   721.5000     24.5018     21.9314     20.7809     79.9669
   721.7500     24.2945     23.0859     20.8127     83.6521
   722.0000     23.9272     24.1668     20.8955     91.6787
   722.2500     23.5299     25.1177     20.9674     97.4820
   722.5000     23.2180     25.9074     20.9755    105.3512
   722.7500     22.9889     26.5373     20.8926    109.6168
   723.0000     22.7204     27.0320     20.7138    114.1573
   723.2500     22.3276     27.4197     20.4368    115.7967
   723.5000     21.9028     27.7184     20.0470    116.2870
   723.7500     21.5741     27.9369     19.5274    115.7033
   724.0000     21.3057     28.0839     18.8848    114.4274
   724.2500     20.9933     28.1742     18.1605    113.6269
   724.5000     20.6224     28.2276     17.4145    112.1643
   724.7500     20.2176     28.2666     16.6985    110.5996
   725.0000     19.7739     28.3154     16.0404    107.4798
   725.2500     19.2619     28.3950     15.4420    105.7382
   725.5000     18.6254     28.5134     14.8853    105.5332
   725.7500     17.8323     28.6598     14.3459    107.4337
   726.0000     16.9508     28.8086     13.8100    111.9700
   726.2500     16.1004     28.9338     13.2826    114.5407
   726.5000     15.3634     29.0228     12.7820    115.7282
   726.7500     14.7783     29.0821     12.3276    114.7617
   727.0000     14.3428     29.1328     11.9311    112.1803
   727.2500     14.0297     29.1993     11.5968    110.5365
   727.5000     13.8344     29.2993     11.3244    108.6622
   727.7500     13.7539     29.4379     11.1117    107.6751
   728.0000     13.7421     29.6060     10.9548    105.9474
   728.2500     13.7377     29.7825     10.8472    104.0509
   728.5000     13.7051     29.9403     10.7797     99.2712
   728.7500     13.6685     30.0561     10.7416     94.8766
   729.0000     13.6985     30.1192     10.7250     87.7495
   729.2500     13.7820     30.1325     10.7278     83.6817
   729.5000     13.8189     30.1076     10.7534     80.1453
   729.7500     13.7999     30.0570     10.8082     80.0573
   730.0000     13.8209     29.9897     10.8989     83.4362
   730.2500     13.9562     29.9089     11.0318     87.3666
   730.5000     14.2215     29.8138     11.2129     93.4986
   730.7500     14.5651     29.7030     11.4457     96.3865
   731.0000     14.8830     29.5785     11.7288     98.0326
   731.2500     15.1244     29.4451     12.0529     97.8486
   731.5000     15.3286     29.3074     12.3995     97.3297
   731.7500     15.5412     29.1640     12.7449     97.6345
   732.0000     15.7853     29.0036     13.0692     99.4521
   732.2500     16.0746     28.8055     13.3675    101.1195
