~Version Information
VERS.                      2.0: CWLS Log ASCII Standard - VERSION 2.0
WRAP.                       NO: One line per depth step
~Well Information Block
STRT.FT                -6.7500: 
STOP.FT              1661.0000: 
STEP.FT                 0.2500: 
NULL.                -999.2500: 
COMP.          Pioneer Natural Resources: COMPANY
WELL.           Pedri 42-33 Tr: WELL
FLD.           Purgatorie River: FIELD
LOC.           1933'' FNL & 662' FEL--: LOCATION
PROV.                       CO: PROVINCE
CNTY.               Las Animas: COUNTRY
SRVC.          Patterson Wireline: SERVICE COMPANY
DATE.          Tue Dec 27 08:53:52 2005: LOG DATE
UWI.           05 071 08640 00: UNIQUE WELL ID
~Curve Information Block
DEPT.FT            0 000 00 00: Depth
CCL.                          : Casing Collar Locator
TT3.usec                      : CBL 3' Travel Time
AMP3.mV                       : CBL 3' Amplitude
GR.GAPI                       : Gamma Ray
~Parameter Information Block
~A  Depth       CCL         TT3         AMP3         GR     
# ...
   529.2500      0.0000    566.7869      6.6176     79.0130
   529.5000      0.0000    560.0826      6.6220     79.2353
   529.7500      0.0000    552.7949      6.6297     82.6697
   530.0000      0.0000    548.8591      6.6410     88.4721
   530.2500      0.0000    551.2390      6.6561     94.9028
   530.5000      0.0000    560.8010      6.6792    100.2675
   530.7500      0.0000    576.4416      6.7152    103.8988
   531.0000      0.0000    595.3529      6.7640    106.3829
   531.2500      0.0000    613.6403      6.8184    108.7367
   531.5000      0.0000    627.9115      6.8683    111.4010
   531.7500      0.0000    636.8091      6.9054    113.9067
   532.0000      0.0000    640.9893      6.9257    115.2507
   532.2500      0.0000    641.8224      6.9295    114.5344
   532.5000      0.0000    640.3962      6.9219    111.3793
   532.7500      0.0000    637.6454      6.9131    105.9561
   533.0000      0.0000    634.8880      6.9150     99.0042
   533.2500      0.0000    633.5555      6.9323     92.0411
   533.5000      0.0000    634.0900      6.9558     87.0370
   533.7500      0.0000    635.5754      6.9670     85.1191
   534.0000      0.0000    637.0922      6.9539     85.5785
   534.2500      0.0000    639.1929      6.9195     86.6971
   534.5000      0.0000    643.1718      6.8759     87.6321
   534.7500      0.0000    648.7073      6.8338     89.0931
   535.0000      0.0000    653.2253      6.8011     92.0206
   535.2500      0.0000    654.3286      6.7856     95.9948
   535.5000      0.0000    652.2505      6.7929     99.3083
   535.7500      0.0000    649.3242      6.8217    100.4350
   536.0000      0.0000    647.7683      6.8647     99.1798
   536.2500      0.0000    648.4091      6.9117     96.5167
   536.5000      0.0000    650.6666      6.9518     93.5794
   536.7500      0.0000    653.1746      6.9769     90.8717
   537.0000      0.0000    654.9452      6.9882     88.3446
   537.2500      0.0000    655.9031      6.9971     85.8705
   537.5000      0.0000    654.6160      7.0169     83.3895
   537.7500      0.0000    645.0026      7.0527     81.0886
   538.0000      0.0000    618.1583      7.1010     79.9680
   538.2500      0.0000    570.7651      7.1562     81.5947
   538.5000      0.0000    511.4482      7.2139     86.3254
   538.7500      0.0000    456.2270      7.2693     92.0843
   539.0000      0.0000    417.0455      7.3162     95.7650
   539.2500      0.0000    395.5099      7.3481     95.8125
   539.5000      0.0000    386.1533      7.3623     92.9567
   539.7500      0.0000    382.8003      7.3627     88.8108
   540.0000      0.0000    381.7805      7.3588     84.6138
   540.2500      0.0000    381.7457      7.3594     81.3760
   540.5000      0.0000    382.7547      7.3680     80.2891
   540.7500      0.0000    386.2388      7.3822     82.1258
   541.0000      0.0000    395.8986      7.3939     86.2295
   541.2500      0.0000    418.0030      7.3919     90.7167
   541.5000      0.0000    458.4124      7.3674     94.0462
   541.7500      0.0000    516.4830      7.3220     96.1823
   542.0000      0.0000    581.8451      7.2679     98.0923
   542.2500      0.0000    640.0501      7.2190    100.4057
   542.5000      0.0000    682.7798      7.1847    102.8250
   542.7500      0.0000    711.5643      7.1695    104.6130
   543.0000      0.0000    732.1097      7.1744    105.3804
   543.2500      0.0000    747.4747      7.1961    105.3903
   543.5000      0.0000    757.1111      7.2287    105.1826
   543.7500      0.0000    760.0073      7.2674    105.1168
   544.0000      0.0000    756.6895      7.3103    105.4371
   544.2500      0.0000    748.3956      7.3558    106.6193
   544.5000      0.0000    734.8940      7.3980    109.3742
   544.7500      0.0000    713.2510      7.4270    114.1306
   545.0000      0.0000    681.0973      7.4347    120.4400
   545.2500      0.0000    644.3768      7.4203    126.9940
   545.5000      0.0000    620.1660      7.3916    132.1302
   545.7500      0.0000    625.4084      7.3606    134.1070
   546.0000      0.0000    660.4570      7.3378    131.5366
   546.2500      0.0000    706.8128      7.3270    124.6000
   546.5000      0.0000    741.6015      7.3226    115.6330
   546.7500      0.0000    752.4785      7.3138    107.5833
   547.0000      0.0000    741.2900      7.2918    101.9712
   547.2500      0.0000    718.5787      7.2566     98.6741
   547.5000      0.0000    695.2938      7.2161     97.0589
   547.7500      0.0000    677.0698      7.1794     96.6857
   548.0000      0.0000    664.2286      7.1518     97.4271
   548.2500      0.0000    655.4286      7.1331     99.5125
   548.5000      0.0000    650.0714      7.1190    103.1167
   548.7500      0.0000    648.2678      7.1042    107.5133
   549.0000      0.0000    650.4341      7.0854    110.9728
   549.2500      0.0000    657.1376      7.0615    111.8178
   549.5000      0.0000    668.3209      7.0320    109.5918
   549.7500      0.0000    682.1796      6.9969    105.4043
   550.0000      0.0000    695.2483      6.9605    101.3727
   550.2500      0.0000    704.1127      6.9325     99.3617
   550.5000      0.0000    707.3105      6.9219     99.7309
   550.7500      0.0000    705.9778      6.9285    101.1728
   551.0000      0.0000    703.0559      6.9422    101.9194
   551.2500      0.0000    701.6292      6.9519    101.0960
   551.5000      0.0000    703.2210      6.9554     98.8704
   551.7500      0.0000    707.1607      6.9586     95.6883
   552.0000      0.0000    711.5251      6.9676     91.9222
   552.2500      0.0000    714.7299      6.9823     88.2105
   552.5000      0.0000    716.3453      6.9992     85.5658
   552.7500      0.0000    716.7974      7.0184     84.7186
   553.0000      0.0000    716.6954      7.0463     85.3589
   553.2500      0.0000    716.4588      7.0895     86.1254
   553.5000      0.0000    716.2946      7.1445     85.3682
   553.7500      0.0000    716.3636      7.1986     82.1136
   554.0000      0.0000    716.9903      7.2414     76.6390
   554.2500      0.0000    718.8140      7.2748     70.3698
   554.5000      0.0000    722.5369      7.3067     65.1432
   554.7500      0.0000    727.9915      7.3380     62.2468
   555.0000      0.0000    733.2460      7.3605     62.0392
   555.2500      0.0000    735.3749      7.3679     64.3152
   555.5000      0.0000    732.9239      7.3643     68.3981
   555.7500      0.0000    727.2916      7.3586     72.7121
   556.0000      0.0000    721.1306      7.3546     75.2789
   556.2500      0.0000    715.8364      7.3487     75.4674
   556.5000      0.0000    711.1014      7.3357     74.8181
   556.7500      0.0000    706.3234      7.3157     75.5065
   557.0000      0.0000    701.5236      7.2955     78.3042
   557.2500      0.0000    696.7106      7.2841     82.4212
   557.5000      0.0000    691.0613      7.2837     86.7886
   557.7500      0.0000    683.5854      7.2871     90.7435
   558.0000      0.0000    674.7611      7.2850     93.6689
   558.2500      0.0000    667.0804      7.2760     94.8892
   558.5000      0.0000    663.5176      7.2674     94.3285
   558.7500      0.0000    665.2433      7.2659     92.7436
   559.0000      0.0000    670.7369      7.2698     90.8001
   559.2500      0.0000    677.0696      7.2715     88.5101
   559.5000      0.0000    681.9717      7.2661     86.1617
   559.7500      0.0000    684.7964      7.2554     85.0842
   560.0000      0.0000    686.0375      7.2446     86.4500
   560.2500      0.0000    686.4411      7.2353     89.5118
   560.5000      0.0000    686.5441      7.2223     91.8666
   560.7500      0.0000    686.6143      7.1982     91.5743
   561.0000      0.0000    686.7136      7.1599     88.6740
   561.2500      0.0000    686.7748      7.1124     84.9361
   561.5000      0.0000    686.7113      7.0694     82.7257
   561.7500      0.0000    686.5035      7.0468     83.8753
   562.0000      0.0000    686.2079      7.0530     88.8223
   562.2500      0.0000    685.9039      7.0827     96.3479
   562.5000      0.0000    685.6561      7.1215    104.2352
