~Version Information
VERS.                      2.0: CWLS Log ASCII Standard - VERSION 2.0
WRAP.                       NO: One line per depth step
~Well Information Block
STRT.FT               322.3000: 
STOP.FT              1375.0000: 
STEP.FT                 0.1000: 
NULL.                -999.2500: 
COMP.          Pioneer Natural Resources: COMPANY
WELL.          Buffet 41-36 Tr: WELL
FLD.           Purgatoire River: FIELD
LOC.           119' FNL & 271' FEL: LOCATION
PROV.                 Colorado: PROVINCE
CNTY.               Las Animas: COUNTRY
SRVC.                Patterson: SERVICE COMPANY
DATE.          Thu Dec 29 07:13:13 2005: LOG DATE
UWI.           05 071 08627 00: UNIQUE WELL ID
~Curve Information Block
DEPT.FT            0 000 00 00: Depth
DCAL.in                       : CDL Caliper
RHOB.g/cc                     : CDL Bulk Density
RHOC.g/cc                     : CDL Density Correction
DPOR.pu                       : CDL Density Porosity
GR.GAPI                       : Gamma Ray
~Parameter Information Block
~A  Depth       DCAL        RHOB        RHOC        DPOR         GR     
# ...
  1296.7000      7.8573      2.5096     -0.0715      8.5106    130.5339
  1296.8000      7.8574      2.5047     -0.0013      8.8074    133.5925
  1296.9000      7.8574      2.5015     -0.0002      9.0028    132.1209
  1297.0000      7.8579      2.5020      0.0139      8.9698    130.1069
  1297.1000      7.8579      2.5032      0.0257      8.8972    132.1045
  1297.2000      7.8579      2.4996      0.0151      9.1150    139.1459
  1297.3000      7.8582      2.4949     -0.0089      9.3970    146.8046
  1297.4000      7.8582      2.4934     -0.0033      9.4932    149.3907
  1297.5000      7.8583      2.4909      0.0249      9.6414    146.1157
  1297.6000      7.8583      2.4845      0.0454     10.0294    141.9945
  1297.7000      7.8583      2.4849      0.0438     10.0060    138.1796
  1297.8000      7.8586      2.5001      0.0522      9.0873    130.8638
  1297.9000      7.8586      2.5234      0.0710      7.6728    124.7946
  1298.0000      7.8600      2.5478      0.0766      6.1910    125.4148
  1298.1000      7.8600      2.5643      0.0830      5.1930    128.3986
  1298.2000      7.8600      2.5646      0.0746      5.1748    130.5284
  1298.3000      7.8606      2.5606      0.0381      5.4177    128.0197
  1298.4000      7.8606      2.5694      0.1017      4.8846    119.0136
  1298.5000      7.8588      2.5826      0.0990      4.0834    109.6710
  1298.6000      7.8588      2.5824      0.1210      4.0991    103.2908
  1298.7000      7.8588      2.5698      0.0773      4.8609     98.4709
  1298.8000      7.8573      2.5563      0.1318      5.6807     95.7247
  1298.9000      7.8573      2.5383      0.1162      6.7706     95.0452
  1299.0000      7.8566      2.5135      0.0767      8.2729     94.3486
  1299.1000      7.8566      2.4966      0.0415      9.3000     94.9354
  1299.2000      7.8566      2.4979      0.0451      9.2198     98.5131
  1299.3000      7.8564      2.5101      0.0646      8.4802    102.9094
  1299.4000      7.8564      2.5199      0.0568      7.8876    106.4736
  1299.5000      7.8573      2.5226      0.0534      7.7189    108.2000
  1299.6000      7.8573      2.5273      0.0254      7.4380    106.7597
  1299.7000      7.8573      2.5414      0.0565      6.5794    105.4356
  1299.8000      7.8567      2.5554      0.0756      5.7356    106.0552
  1299.9000      7.8567      2.5521      0.0948      5.9309    106.8354
  1300.0000      7.8543      2.5284      0.0718      7.3680    107.1568
  1300.1000      7.8543      2.4986      0.0404      9.1763    106.5443
  1300.2000      7.8543      2.4799      0.0170     10.3103    103.5520
  1300.3000      7.8520      2.4759      0.0490     10.5544     99.7318
  1300.4000      7.8520      2.4842      0.0192     10.0464    100.3017
  1300.5000      7.8524      2.5029      0.0511      8.9143    106.0979
  1300.6000      7.8524      2.5180      0.0555      7.9986    111.3788
  1300.7000      7.8524      2.5229      0.0139      7.7042    110.3784
  1300.8000      7.8552      2.5254      0.0407      7.5507    106.6197
  1300.9000      7.8552      2.5227      0.0536      7.7164    109.4718
  1301.0000      7.8569      2.5089      0.0456      8.5518    116.5909
  1301.1000      7.8569      2.4929      0.0303      9.5238    118.8699
  1301.2000      7.8569      2.4834      0.0461     10.0970    116.5597
  1301.3000      7.8568      2.4787      0.0349     10.3804    113.9639
  1301.4000      7.8568      2.4798      0.0461     10.3132    110.7504
  1301.5000      7.8543      2.4932      0.0364      9.5057    107.5263
  1301.6000      7.8543      2.5174      0.0688      8.0389    108.0162
  1301.7000      7.8543      2.5401      0.1266      6.6620    112.6349
  1301.8000      7.8521      2.5508      0.1173      6.0093    116.9266
  1301.9000      7.8521      2.5521      0.1059      5.9335    116.7295
  1302.0000      7.8541      2.5518      0.0961      5.9496    112.6906
  1302.1000      7.8541      2.5540      0.0687      5.8167    108.5648
  1302.2000      7.8541      2.5653      0.0724      5.1318    105.5936
  1302.3000      7.8567      2.5965      0.0626      3.2401     99.7403
  1302.4000      7.8567      2.6371      0.1238      0.7830     92.2273
  1302.5000      7.8561      2.6607      0.1049     -0.6496     89.0340
  1302.6000      7.8561      2.6608      0.0950     -0.6559     87.7646
  1302.7000      7.8561      2.6399      0.0753      0.6109     85.6643
  1302.8000      7.8577      2.5962      0.0294      3.2618     84.7301
  1302.9000      7.8577      2.5366     -0.0217      6.8753     84.5139
  1303.0000      7.8599      2.4830     -0.0593     10.1235     85.3203
  1303.1000      7.8599      2.4600     -0.0772     11.5122     89.4380
  1303.2000      7.8599      2.4663     -0.0185     11.1311     95.9972
  1303.3000      7.8576      2.4742      0.0078     10.6528    103.3347
  1303.4000      7.8576      2.4752     -0.0123     10.5966    109.0391
  1303.5000      7.8556      2.4862      0.0205      9.9291    110.9230
  1303.6000      7.8556      2.5106      0.0581      8.4481    111.3899
  1303.7000      7.8556      2.5364      0.0988      6.8849    111.8383
  1303.8000      7.8568      2.5580      0.0764      5.5779    108.2193
  1303.9000      7.8568      2.5771      0.0970      4.4183    100.9223
  1304.0000      7.8582      2.5968      0.0753      3.2265     96.7788
  1304.1000      7.8582      2.6186      0.1035      1.9033     97.8382
  1304.2000      7.8582      2.6351      0.1057      0.9006     98.9073
  1304.3000      7.8578      2.6410      0.0707      0.5449     96.4503
  1304.4000      7.8578      2.6360      0.0831      0.8479     93.8453
  1304.5000      7.8570      2.6124      0.0906      2.2774     96.0022
  1304.6000      7.8570      2.5779      0.0131      4.3703     99.0463
  1304.7000      7.8570      2.5587     -0.0213      5.5320     96.3175
  1304.8000      7.8554      2.5595      0.0074      5.4872     92.4939
  1304.9000      7.8554      2.5634     -0.0051      5.2459     93.8631
  1305.0000      7.8545      2.5593      0.0069      5.4965     98.2355
  1305.1000      7.8545      2.5455      0.0049      6.3314    102.4831
  1305.2000      7.8545      2.5293      0.0239      7.3142    105.4342
  1305.3000      7.8554      2.5204      0.0011      7.8555    105.5380
  1305.4000      7.8554      2.5251     -0.0257      7.5676    102.5469
  1305.5000      7.8550      2.5425     -0.0063      6.5128     97.9928
  1305.6000      7.8550      2.5631      0.0157      5.2640     93.6794
  1305.7000      7.8550      2.5785     -0.0119      4.3311     90.8802
  1305.8000      7.8527      2.5820      0.0295      4.1231     91.7036
  1305.9000      7.8527      2.5671      0.0364      5.0234     98.7733
  1306.0000      7.8507      2.5439      0.0112      6.4331    107.6518
  1306.1000      7.8507      2.5361     -0.0050      6.9013    111.4003
  1306.2000      7.8507      2.5501      0.0580      6.0530    110.0897
  1306.3000      7.8485      2.5675      0.0809      4.9991    109.6854
  1306.4000      7.8485      2.5713      0.0882      4.7696    112.9400
  1306.5000      7.8469      2.5603      0.0824      5.4347    114.3725
  1306.6000      7.8469      2.5450      0.0482      6.3639    110.2848
  1306.7000      7.8469      2.5382      0.0512      6.7737    105.1286
  1306.8000      7.8496      2.5444      0.0623      6.3993    103.7898
  1306.9000      7.8496      2.5534      0.0799      5.8527    106.0852
  1307.0000      7.8535      2.5529      0.0892      5.8862    110.1829
  1307.1000      7.8535      2.5493      0.0160      6.1034    114.2760
  1307.2000      7.8535      2.5530      0.0514      5.8793    117.8838
  1307.3000      7.8522      2.5545      0.0696      5.7850    120.8781
  1307.4000      7.8522      2.5437      0.0639      6.4419    120.6366
  1307.5000      7.8505      2.5244      0.0328      7.6120    116.4264
  1307.6000      7.8505      2.5092     -0.0046      8.5341    111.7261
  1307.7000      7.8505      2.5085     -0.0183      8.5731    107.7885
  1307.8000      7.8522      2.5178      0.0266      8.0149    104.3427
