~Version Information
VERS.                      2.0: CWLS Log ASCII Standard - VERSION 2.0
WRAP.                       NO: One line per depth step
~Well Information Block
STRT.FT               240.0000: 
STOP.FT              1338.7000: 
STEP.FT                 0.1000: 
NULL.                -999.2500: 
COMP.          Pioneer Natural Resources: COMPANY
WELL.            Hamburg 43-35: WELL
FLD.           Purgatoire River: FIELD
LOC.           2444' FSL & 950' FEL--: LOCATION
PROV.                 Colorado: PROVINCE
CNTY.               Las Animas: COUNTRY
SRVC.                Patterson: SERVICE COMPANY
DATE.          Sun Dec 04 11:50:58 2005: LOG DATE
UWI.           05 071 08607 00: UNIQUE WELL ID
~Curve Information Block
DEPT.FT            0 000 00 00: Depth
DCAL.in                       : CDL Caliper
RHOB.g/cc                     : CDL Bulk Density
RHOC.g/cc                     : CDL Density Correction
DPOR.pu                       : CDL Density Porosity
NPOR.pu                       : Neutron Porosity
GR.GAPI                       : Gamma Ray
~Parameter Information Block
~A  Depth       DCAL        RHOB        RHOC        DPOR        NPOR         GR     
# ...
   451.2000      8.0791      2.4876      0.0055      9.8400     22.0322    105.5442
   451.3000      8.0768      2.5037      0.0104      8.8695     23.1099    100.5224
   451.4000      8.0768      2.5273      0.0204      7.4391     24.2603     95.2991
   451.5000      8.0629      2.5457      0.0923      6.3234     26.0022     92.1610
   451.6000      8.0629      2.5367      0.0647      6.8643     28.2414     90.2794
   451.7000      8.0629      2.5050      0.0210      8.7871     30.0739     86.9690
   451.8000      8.0275      2.4737      0.0470     10.6850     31.2299     84.7283
   451.9000      8.0275      2.4638      0.0367     11.2867     31.9996     86.4878
   452.0000      7.9854      2.4829      0.0519     10.1261     32.0985     89.3315
   452.1000      7.9854      2.5107      0.0875      8.4414     31.0945     89.7414
   452.2000      7.9854      2.5224      0.1027      7.7309     29.3497     88.9739
   452.3000      7.9651      2.5242      0.1060      7.6221     27.6263     90.5341
   452.4000      7.9651      2.5369      0.1326      6.8515     26.3308     93.2413
   452.5000      7.9681      2.5613      0.1603      5.3752     25.1543     95.3552
   452.6000      7.9681      2.5810      0.1493      4.1818     23.8197     99.8230
   452.7000      7.9681      2.5911      0.1633      3.5714     22.7391    107.2607
   452.8000      7.9863      2.6007      0.1442      2.9900     22.2031    113.4127
   452.9000      7.9863      2.6092      0.1615      2.4724     21.8748    116.9157
   453.0000      8.0135      2.5994      0.1479      3.0694     21.3690    118.3336
   453.1000      8.0135      2.5654      0.1108      5.1268     20.8214    118.7850
   453.2000      8.0135      2.5300      0.0339      7.2746     20.6337    118.4326
   453.3000      8.0433      2.5120      0.0731      8.3663     20.7050    116.6332
   453.4000      8.0433      2.5036      0.0677      8.8750     20.6124    117.6196
   453.5000      8.0654      2.4944      0.0244      9.4325     20.4142    124.0331
   453.6000      8.0654      2.4905      0.0327      9.6649     20.4585    129.2120
   453.7000      8.0654      2.5013      0.0256      9.0105     20.7581    126.0046
   453.8000      8.0783      2.5198      0.0681      7.8932     21.0411    118.8795
   453.9000      8.0783      2.5348      0.0549      6.9834     21.2086    116.4737
   454.0000      8.0891      2.5509      0.0588      6.0031     21.4870    119.3944
   454.1000      8.0891      2.5681      0.0793      4.9633     21.8120    122.4168
   454.2000      8.0891      2.5691      0.0960      4.9009     21.7539    124.3100
   454.3000      8.0977      2.5442      0.0610      6.4107     21.5663    126.2379
   454.4000      8.0977      2.5108      0.0164      8.4375     21.9344    126.1406
   454.5000      8.1018      2.4933      0.0289      9.4965     22.7008    124.1156
   454.6000      8.1018      2.4942      0.0227      9.4434     23.0606    124.2451
   454.7000      8.1018      2.5033      0.0174      8.8892     22.7888    123.1774
   454.8000      8.1043      2.5128      0.0338      8.3163     22.2329    116.7813
   454.9000      8.1043      2.5172      0.0466      8.0514     21.6353    112.3621
   455.0000      8.1111      2.5190      0.0368      7.9400     21.3079    114.5570
   455.1000      8.1111      2.5251      0.0507      7.5686     21.5737    115.5155
   455.2000      8.1111      2.5325      0.0445      7.1236     22.0003    112.7253
   455.3000      8.1208      2.5284      0.0455      7.3667     21.8543    112.7269
   455.4000      8.1208      2.5153     -0.0088      8.1661     21.1669    116.9346
   455.5000      8.1242      2.5159      0.0193      8.1250     20.4928    120.3318
   455.6000      8.1242      2.5380      0.0562      6.7850     20.2411    120.6315
   455.7000      8.1242      2.5581      0.0734      5.5695     20.3825    119.6464
   455.8000      8.1235      2.5525      0.0702      5.9084     20.6599    116.3353
   455.9000      8.1235      2.5265      0.0177      7.4872     20.9878    110.8587
   456.0000      8.1252      2.4993      0.0105      9.1358     21.4197    109.7520
   456.1000      8.1252      2.4832     -0.0133     10.1095     21.8481    111.4769
   456.2000      8.1252      2.4863      0.0032      9.9228     21.9076    107.2939
   456.3000      8.1294      2.5028      0.0604      8.9184     21.6188    101.0386
   456.4000      8.1294      2.5147      0.0413      8.2018     21.4396    100.4863
   456.5000      8.1308      2.5145      0.0134      8.2144     21.6064    101.7544
   456.6000      8.1308      2.5074      0.0352      8.6399     22.0825    101.3607
   456.7000      8.1308      2.5021     -0.0008      8.9641     22.4181    104.1241
   456.8000      8.1285      2.5023      0.0245      8.9520     22.3307    111.5861
   456.9000      8.1285      2.5041      0.0304      8.8408     22.1654    117.3853
   457.0000      8.1284      2.5196     -0.0106      7.9043     22.2096    117.8948
   457.1000      8.1284      2.5568      0.1029      5.6462     22.3730    117.7355
   457.2000      8.1284      2.5851      0.1145      3.9327     22.3349    121.3092
   457.3000      8.1310      2.5857      0.0648      3.8991     22.1311    125.0461
   457.4000      8.1310      2.5796      0.0478      4.2693     22.1655    123.2565
   457.5000      8.1334      2.5774      0.0913      4.3982     22.5794    117.8597
   457.6000      8.1334      2.5632      0.0973      5.2634     23.1417    115.4748
   457.7000      8.1334      2.5326      0.0257      7.1145     23.4007    116.6790
   457.8000      8.1371      2.5084     -0.0097      8.5833     23.2898    117.0757
   457.9000      8.1371      2.5094      0.0265      8.5200     23.1017    116.3799
   458.0000      8.1414      2.5217      0.0776      7.7738     22.7066    116.4529
   458.1000      8.1414      2.5232      0.0443      7.6831     22.0293    116.1799
   458.2000      8.1414      2.5207      0.0180      7.8360     21.4357    117.0823
   458.3000      8.1469      2.5277      0.0520      7.4105     21.3394    120.1911
   458.4000      8.1469      2.5354      0.0873      6.9471     21.7161    121.3551
   458.5000      8.1533      2.5297      0.0575      7.2922     21.8761    118.5096
   458.6000      8.1533      2.5174      0.0232      8.0374     21.5931    114.5931
   458.7000      8.1533      2.5196      0.0242      7.9039     21.5875    112.8895
   458.8000      8.1572      2.5419      0.0613      6.5504     22.2638    113.5341
   458.9000      8.1572      2.5631      0.0713      5.2637     22.9643    114.5317
   459.0000      8.1589      2.5630      0.0701      5.2747     22.8953    114.1355
   459.1000      8.1589      2.5468      0.0684      6.2524     22.4051    114.2974
   459.2000      8.1589      2.5329      0.0262      7.0941     22.1483    118.2330
   459.3000      8.1594      2.5215      0.0577      7.7879     22.0402    122.9902
   459.4000      8.1594      2.5029      0.0158      8.9159     21.8520    124.0068
   459.5000      8.1600      2.4842      0.0348     10.0504     21.7365    123.4220
   459.6000      8.1600      2.4642      0.0453     11.2595     21.6627    122.8542
   459.7000      8.1600      2.4231      0.0311     13.7504     21.1281    121.6565
   459.8000      8.1623      2.3588     -0.0221     17.6473     20.0268    122.5057
   459.9000      8.1623      2.2949     -0.0511     21.5182     19.2457    124.5904
   460.0000      8.1663      2.2378     -0.0129     24.9803     19.0964    123.7175
   460.1000      8.1663      2.1657     -0.0521     29.3501     18.5305    121.0924
   460.2000      8.1663      2.0663     -0.0900     35.3770     17.0368    118.8107
   460.3000      8.1744      1.9512     -0.1303     42.3521     15.2730    115.0126
   460.4000      8.1744      1.8387     -0.1489     49.1686     13.7232    109.2598
   460.5000      8.1918      1.7337     -0.1148     55.5349     12.4185    102.6315
   460.6000      8.1918      1.6340     -0.1280     61.5781     11.3829     96.0612
   460.7000      8.1918      1.5510     -0.1360     66.6038     10.3841     91.1194
