~Version Information
VERS.                      2.0: CWLS Log ASCII Standard - VERSION 2.0
WRAP.                       NO: One line per depth step
~Well Information Block
STRT.FT                -7.2500: 
STOP.FT              1196.2500: 
STEP.FT                 0.2500: 
NULL.                -999.2500: 
COMP.          Pioneer Natural Resources: COMPANY
WELL.             Mahalo 12-20: WELL
FLD.           Purgatorie River: FIELD
LOC.           1689' FNL & 479' FWL--: LOCATION
CNTY.               Las Animas: COUNTY
SRVC.          Patterson Wireline: SERVICE COMPANY
DATE.          Tue Mar 14 15:40:32 2006: LOG DATE
UWI.           05 071 08700 00: UNIQUE WELL ID
STAT.                       CO: STATE
~Curve Information Block
DEPT.FT            0 000 00 00: Depth
CCL.                          : Casing Collar Locator
TT3.usec                      : CBL 3' Travel Time
AMP3.mV                       : CBL 3' Amplitude
GR.GAPI                       : Gamma Ray
~Parameter Information Block
~A  Depth       CCL         TT3         AMP3         GR     
# ...
   528.7500      0.0000    674.6879     10.8377    113.2646
   529.0000      0.0000    706.6143     10.8762    113.0142
   529.2500      0.0000    718.1253     11.0046    115.3652
   529.5000      0.0000    709.0103     11.1860    118.9256
   529.7500      0.0000    691.6317     11.3646    122.2021
   530.0000      0.0000    683.3327     11.4699    124.2219
   530.2500      0.0000    691.8335     11.4619    125.1774
   530.5000      0.0000    709.0098     11.3768    125.7678
   530.7500      0.0000    721.2209     11.3078    125.9112
   531.0000      0.0000    724.3094     11.3261    124.9466
   531.2500      0.0000    725.4282     11.4306    122.8737
   531.5000      0.0000    731.1641     11.5754    120.5073
   531.7500      0.0000    737.5413     11.7244    118.7357
   532.0000      0.0000    733.6996     11.8689    118.6687
   532.2500      0.0000    714.3920     12.0051    122.1161
   532.5000      0.0000    686.7291     12.1184    130.5875
   532.7500      0.0000    662.7507     12.1987    143.3542
   533.0000      0.0000    644.8014     12.2641    157.0123
   533.2500      0.0000    621.1739     12.3633    167.3607
   533.5000      0.0000    578.7806     12.5477    171.7184
   533.7500      0.0000    518.5422     12.8298    169.9039
   534.0000      0.0000    456.4911     13.1582    164.0498
   534.2500      0.0000    412.0403     13.4349    157.7215
   534.5000      0.0000    396.7271     13.5715    154.2416
   534.7500      0.0000    410.6157     13.5347    155.1401
   535.0000      0.0000    445.0519     13.3435    159.8556
   535.2500      0.0000    489.3543     13.0343    166.1991
   535.5000      0.0000    537.3534     12.6330    170.8429
   535.7500      0.0000    586.8105     12.1548    170.3053
   536.0000      0.0000    633.4413     11.6153    162.7792
   536.2500      0.0000    670.4684     11.0400    149.6199
   536.5000      0.0000    695.1701     10.4604    134.7723
   536.7500      0.0000    711.1464      9.9012    122.1373
   537.0000      0.0000    722.6929      9.3710    113.2395
   537.2500      0.0000    730.4512      8.8694    107.3532
   537.5000      0.0000    733.5056      8.4003    103.3869
   537.7500      0.0000    732.7634      7.9726    101.1183
   538.0000      0.0000    730.6118      7.5877    100.8367
   538.2500      0.0000    728.6266      7.2377    102.4383
   538.5000      0.0000    726.5242      6.9141    105.0552
   538.7500      0.0000    722.9981      6.6106    107.2644
   539.0000      0.0000    717.3630      6.3184    107.4998
   539.2500      0.0000    710.6635      6.0328    104.6624
   539.5000      0.0000    705.1299      5.7657     98.9490
   539.7500      0.0000    702.3859      5.5422     92.0797
   540.0000      0.0000    702.3218      5.3788     86.3297
   540.2500      0.0000    703.7402      5.2700     83.2477
   540.5000      0.0000    705.6832      5.1981     83.1402
   540.7500      0.0000    707.8232      5.1465     85.2103
   541.0000      0.0000    710.0897      5.1038     87.8996
   541.2500      0.0000    712.6602      5.0568     89.6428
   541.5000      0.0000    716.3619      4.9891     89.9596
   541.7500      0.0000    722.5186      4.8890     89.9651
   542.0000      0.0000    731.9659      4.7591     91.5524
   542.2500      0.0000    744.0956      4.6195     95.8032
   542.5000      0.0000    756.7703      4.4985    102.0894
   542.7500      0.0000    767.1432      4.4187    108.6273
   543.0000      0.0000    773.0001      4.3851    113.6200
   543.2500      0.0000    774.0323      4.3844    115.7895
   543.5000      0.0000    772.0295      4.3932    114.4198
   543.7500      0.0000    769.7054      4.3944    109.7822
   544.0000      0.0000    769.1125      4.3870    103.8189
   544.2500      0.0000    770.4553      4.3823     99.7345
   544.5000      0.0000    771.8778      4.3891    100.0181
   544.7500      0.0000    771.0073      4.4045    104.5235
   545.0000      0.0000    767.4008      4.4197    110.7121
   545.2500      0.0000    763.4371      4.4292    116.0250
   545.5000      0.0000    762.8164      4.4318    120.0262
   545.7500      0.0000    768.0101      4.4250    124.2745
   546.0000      0.0000    778.2267      4.4047    130.4055
   546.2500      0.0000    789.1348      4.3696    138.5234
   546.5000      0.0000    794.9575      4.3245    146.9746
   546.7500      0.0000    791.5021      4.2753    153.2328
   547.0000      0.0000    777.9262      4.2261    155.3316
   547.2500      0.0000    756.8911      4.1829    152.9524
   547.5000      0.0000    733.5970      4.1591    147.2502
   547.7500      0.0000    713.6664      4.1709    139.7950
   548.0000      0.0000    700.6305      4.2246    131.8107
   548.2500      0.0000    694.7941      4.3064    123.9984
   548.5000      0.0000    694.0592      4.3875    116.5862
   548.7500      0.0000    695.6908      4.4412    109.5836
   549.0000      0.0000    697.7870      4.4590    103.3316
   549.2500      0.0000    699.8922      4.4527     98.8156
   549.5000      0.0000    702.6920      4.4415     97.1722
   549.7500      0.0000    707.2241      4.4382     98.7020
   550.0000      0.0000    714.1677      4.4455    102.4213
   550.2500      0.0000    723.5157      4.4620    106.7835
   550.5000      0.0000    734.3486      4.4867    110.8976
   550.7500      0.0000    744.3135      4.5166    114.7898
   551.0000      0.0000    749.6748      4.5399    118.2306
   551.2500      0.0000    747.4623      4.5362    119.7787
   551.5000      0.0000    738.9413      4.4883    117.6602
   551.7500      0.0000    730.4883      4.3979    111.6146
   552.0000      0.0000    729.2419      4.2877    103.4945
   552.2500      0.0000    736.8821      4.1874     95.9431
   552.5000      0.0000    748.0161      4.1154     90.6828
   552.7500      0.0000    754.9924      4.0726     88.1224
   553.0000      0.0000    753.8246      4.0467     88.1247
   553.2500      0.0000    745.7335      4.0219     90.4049
   553.5000      0.0000    734.7056      3.9871     94.1208
   553.7500      0.0000    724.6345      3.9379     97.5948
   554.0000      0.0000    717.6956      3.8764     98.8218
   554.2500      0.0000    714.0295      3.8120     96.4982
   554.5000      0.0000    712.5187      3.7601     90.9623
   554.7500      0.0000    711.9464      3.7329     84.2157
   555.0000      0.0000    711.6357      3.7314     78.5367
   555.2500      0.0000    711.3778      3.7473     74.7574
   555.5000      0.0000    711.1364      3.7706     72.0368
   555.7500      0.0000    710.8916      3.7944     69.1834
   556.0000      0.0000    710.6343      3.8165     65.8568
   556.2500      0.0000    710.3917      3.8372     62.7152
   556.5000      0.0000    710.2067      3.8551     60.8322
   556.7500      0.0000    710.1111      3.8635     60.7822
   557.0000      0.0000    710.1104      3.8530     61.8960
   557.2500      0.0000    710.1780      3.8182     62.4939
   557.5000      0.0000    710.2679      3.7641     61.2362
   557.7500      0.0000    710.3494      3.7054     58.2962
   558.0000      0.0000    710.4257      3.6599     55.0942
   558.2500      0.0000    710.5038      3.6381     53.0445
   558.5000      0.0000    710.5569      3.6369     52.6966
   558.7500      0.0000    710.5346      3.6454     53.7693
   559.0000      0.0000    710.4156      3.6553     55.5363
   559.2500      0.0000    710.2335      3.6685     57.1278
   559.5000      0.0000    710.0386      3.6942     57.8325
   559.7500      0.0000    709.8604      3.7404     57.4450
   560.0000      0.0000    709.7349      3.8064     56.4135
   560.2500      0.0000    709.7920      3.8800     55.5844
   560.5000      0.0000    710.3112      3.9448     55.6727
   560.7500      0.0000    711.7336      3.9910     56.7515
   561.0000      0.0000    714.4646      4.0208     58.1982
   561.2500      0.0000    718.1620      4.0439     59.3338
   561.5000      0.0000    720.8765      4.0693     60.1929
   561.7500      0.0000    719.4771      4.1023     61.3944
   562.0000      0.0000    712.0228      4.1448     63.2005
