~Version Information
VERS.                      2.0: CWLS Log ASCII Standard - VERSION 2.0
WRAP.                       NO: One line per depth step
~Well Information Block
STRT.FT               619.7000: 
STOP.FT               951.7000: 
STEP.FT                 0.1000: 
NULL.                -999.2500: 
COMP.          Pioneer Natural Resources: COMPANY
WELL.          Screamin 12-29 Tr: WELL
FLD.           Purgatoire River: FIELD
LOC.           1979' FNL & 532' FWL--: LOCATION
CNTY.               Las Animas: COUNTY
SRVC.                Patterson: SERVICE COMPANY
DATE.          Fri Mar 31 15:43:57 2006: LOG DATE
UWI.           05 071 08660 00: UNIQUE WELL ID
STAT.                 Colorado: STATE
~Curve Information Block
DEPT.FT            0 000 00 00: Depth
DCAL.in                       : CDL Caliper
RHOB.g/cc                     : CDL Bulk Density
RHOC.g/cc                     : CDL Density Correction
DPOR.pu                       : CDL Density Porosity
GR.GAPI                       : Gamma Ray
~Parameter Information Block
~A  Depth       DCAL        RHOB        RHOC        DPOR         GR     
# ...
   765.3000      7.9173      2.6122      0.0323      2.2894    122.2968
   765.4000      7.9173      2.6012      0.0384      2.9552    120.5737
   765.5000      7.9151      2.5827      0.0155      4.0810    118.8563
   765.6000      7.9151      2.5663     -0.0315      5.0744    120.5347
   765.7000      7.9151      2.5646     -0.0102      5.1776    120.1655
   765.8000      7.9108      2.5717      0.0110      4.7461    114.0150
   765.9000      7.9108      2.5737      0.0078      4.6237    106.6092
   766.0000      7.9119      2.5644     -0.0006      5.1883    104.3182
   766.1000      7.9119      2.5539     -0.0057      5.8252    106.1285
   766.2000      7.9119      2.5538      0.0364      5.8312    107.3385
   766.3000      7.9106      2.5604      0.0574      5.4316    106.8124
   766.4000      7.9106      2.5612      0.0769      5.3799    106.1530
   766.5000      7.9072      2.5556      0.0519      5.7187    107.9772
   766.6000      7.9072      2.5565      0.0381      5.6669    112.7819
   766.7000      7.9072      2.5640      0.0882      5.2147    115.0597
   766.8000      7.9093      2.5721      0.0467      4.7212    110.3956
   766.9000      7.9093      2.5819      0.1041      4.1287    103.6140
   767.0000      7.9134      2.5844      0.1042      3.9758    102.9177
   767.1000      7.9134      2.5769      0.0425      4.4313    107.9277
   767.2000      7.9134      2.5731      0.0672      4.6611    110.6296
   767.3000      7.9150      2.5797      0.0650      4.2583    108.3250
   767.4000      7.9150      2.5869      0.0976      3.8250    107.2340
   767.5000      7.9136      2.5842      0.0515      3.9884    111.1698
   767.6000      7.9136      2.5814      0.0394      4.1598    115.2634
   767.7000      7.9136      2.5926      0.0673      3.4806    114.1922
   767.8000      7.9127      2.6139      0.0832      2.1876    110.5138
   767.9000      7.9127      2.6289      0.0655      1.2782    108.9539
   768.0000      7.9148      2.6276      0.0989      1.3553    106.7616
   768.1000      7.9148      2.6209      0.0629      1.7619    101.1693
   768.2000      7.9148      2.6266      0.0642      1.4207     97.7285
   768.3000      7.9127      2.6404      0.0795      0.5806     99.4856
   768.4000      7.9127      2.6473      0.0442      0.1656    103.1240
   768.5000      7.9060      2.6448      0.0930      0.3157    107.8335
   768.6000      7.9060      2.6386      0.0862      0.6898    111.3111
   768.7000      7.9060      2.6396      0.0568      0.6280    110.5036
   768.8000      7.9071      2.6543      0.0931     -0.2581    109.7469
   768.9000      7.9071      2.6717      0.0845     -1.3164    110.4621
   769.0000      7.9157      2.6756      0.1183     -1.5524    109.9800
   769.1000      7.9157      2.6646      0.0728     -0.8833    110.1542
   769.2000      7.9157      2.6528      0.0844     -0.1704    112.6387
   769.3000      7.9205      2.6444      0.0942      0.3406    115.6315
   769.4000      7.9205      2.6341      0.0552      0.9659    116.3924
   769.5000      7.9214      2.6252      0.0659      1.5060    115.0087
   769.6000      7.9214      2.6250      0.0689      1.5152    115.9767
   769.7000      7.9214      2.6385      0.0828      0.6992    119.8879
   769.8000      7.9214      2.6558      0.1405     -0.3522    122.3107
   769.9000      7.9214      2.6565      0.0927     -0.3945    123.3160
   770.0000      7.9198      2.6409      0.0831      0.5530    124.6936
   770.1000      7.9198      2.6242      0.0681      1.5649    124.3830
   770.2000      7.9198      2.6142      0.0516      2.1691    122.0607
   770.3000      7.9184      2.6074      0.0442      2.5823    121.1450
   770.4000      7.9184      2.5953      0.0554      3.3146    122.2616
   770.5000      7.9186      2.5770      0.0525      4.4223    123.5538
   770.6000      7.9186      2.5639      0.0166      5.2161    124.4777
   770.7000      7.9186      2.5714     -0.0159      4.7607    124.7629
   770.8000      7.9179      2.5951      0.0527      3.3261    125.7380
   770.9000      7.9179      2.6071      0.0567      2.5993    129.1497
   771.0000      7.9170      2.5984     -0.0044      3.1246    129.9969
   771.1000      7.9170      2.5878      0.0288      3.7691    127.0164
   771.2000      7.9170      2.5867      0.0294      3.8390    125.8017
   771.3000      7.9183      2.5909      0.0318      3.5801    125.9703
   771.4000      7.9183      2.5866      0.0506      3.8400    126.2263
   771.5000      7.9185      2.5671      0.0272      5.0250    127.5728
   771.6000      7.9185      2.5483     -0.0280      6.1628    127.7632
   771.7000      7.9185      2.5484      0.0232      6.1559    124.6380
   771.8000      7.9122      2.5692      0.0347      4.8951    119.1279
   771.9000      7.9122      2.5964      0.0481      3.2458    114.1250
   772.0000      7.9017      2.6102      0.0870      2.4131    110.8886
   772.1000      7.9017      2.6092      0.0419      2.4739    109.9497
   772.2000      7.9017      2.6035      0.0773      2.8155    109.2016
   772.3000      7.8947      2.5947      0.0272      3.3528    106.2362
   772.4000      7.8947      2.5851      0.0602      3.9345    103.1742
   772.5000      7.8919      2.5758      0.0567      4.4950    103.4305
   772.6000      7.8919      2.5660      0.0654      5.0913    106.7304
   772.7000      7.8919      2.5650      0.0346      5.1509    107.4965
   772.8000      7.8939      2.5833      0.0531      4.0396    103.4118
   772.9000      7.8939      2.6115      0.0890      2.3346     99.3344
   773.0000      7.9020      2.6293      0.0798      1.2554     96.7627
   773.1000      7.9020      2.6353      0.0286      0.8901     91.2586
   773.2000      7.9020      2.6392      0.0776      0.6527     82.5621
   773.3000      7.9137      2.6367      0.0433      0.8040     75.4586
   773.4000      7.9137      2.6238      0.0355      1.5882     72.0568
   773.5000      7.9251      2.6115      0.0333      2.3303     69.4177
   773.6000      7.9251      2.6140      0.0131      2.1811     65.5832
   773.7000      7.9251      2.6327      0.0441      1.0481     62.9755
   773.8000      7.9333      2.6520      0.0529     -0.1229     63.0207
   773.9000      7.9333      2.6561      0.0466     -0.3692     63.9201
   774.0000      7.9317      2.6480      0.0466      0.1227     64.3361
   774.1000      7.9317      2.6443      0.0163      0.3478     65.1283
   774.2000      7.9317      2.6457      0.0878      0.2610     66.6981
   774.3000      7.9244      2.6377      0.0777      0.7440     68.1057
   774.4000      7.9244      2.6219      0.0171      1.7008     68.1464
   774.5000      7.9210      2.6054      0.0646      2.7009     66.7582
   774.6000      7.9210      2.5888      0.0127      3.7120     66.4892
   774.7000      7.9210      2.5766      0.0356      4.4471     68.3111
   774.8000      7.9232      2.5685      0.0315      4.9371     70.2375
   774.9000      7.9232      2.5640      0.0058      5.2114     70.7952
   775.0000      7.9308      2.5645      0.0230      5.1796     69.5222
   775.1000      7.9308      2.5626      0.0412      5.2965     67.9036
   775.2000      7.9308      2.5517      0.0410      5.9553     69.5142
   775.3000      7.9384      2.5346      0.0403      6.9916     75.1969
   775.4000      7.9384      2.5183      0.0030      7.9824     80.5418
   775.5000      7.9404      2.5063     -0.0115      8.7097     82.2369
   775.6000      7.9404      2.4978      0.0191      9.2243     80.5136
   775.7000      7.9404      2.4933      0.0243      9.4993     76.7702
   775.8000      7.9403      2.4921      0.0314      9.5690     75.0449
   775.9000      7.9403      2.4866      0.0491      9.9056     78.8677
   776.0000      7.9414      2.4746      0.0208     10.6274     83.5353
   776.1000      7.9414      2.4646     -0.0023     11.2381     82.8887
   776.2000      7.9414      2.4573      0.0176     11.6779     77.9185
   776.3000      7.9411      2.4447      0.0159     12.4419     70.9175
   776.4000      7.9411      2.4211      0.0077     13.8721     65.0834
