~Version Information
 VERS.                                  2.0 : CWLS LAS VERSION
 WRAP.                                   NO : WRAPING MODE
 SWARE .                 MController 2.5.0N : SOFTWARE VERSION
~Well Information
 WELL.                          AMX 13-13TR : WELL
 COMP.       Pioneer Natural Resources, USA : COMPANY
 FLD.                       Purgatory River : FIELD
 LOC.                NW/SW Sec 13 T32S R67W : LOCATION
 DATE.                             12/21/05 : DATE(S) LOGGED
 SRVC.      Blanco Geological Services, LLC : SERVICE COMPANY
 STAT.                             Colorado : STATE
 CNTY.                           Las Animas : COUNTY
 CTRY.                                  USA : COUNTRY
 API.                       05-071-08631-00 : API NUMBER
 STRT.FT                             395.00 : START DEPTH
 STOP.FT                            2187.00 : STOP DEPTH
 STEP.FT                               1.00 : DEPTH INCREMENT
 NULL.                                -9999 : NULL VALUE
~Curve information
 DEPTH.FT                                   :
 ROP.MIN/FT                                 :
 GAS.UNITS                                  :
~ASCII Log data
# ...
       795.0         0.20          4.5 
       796.0         0.17          4.6 
       797.0         0.20          4.7 
       798.0         0.20          4.6 
       799.0         0.17          4.6 
       800.0         0.17          4.8 
       801.0         0.18          4.9 
       802.0         0.20          5.2 
       803.0         0.17          5.7 
       804.0         0.10          5.9 
       805.0         0.33          6.2 
       806.0         1.27          6.2 
       807.0         0.30          5.1 
       808.0         0.23          5.2 
       809.0         0.30          5.2 
       810.0         0.28          5.2 
       811.0         0.23          4.9 
       812.0         0.23          4.8 
       813.0         0.20          4.9 
       814.0         0.27          4.8 
       815.0         0.20          4.7 
       816.0         0.20          4.5 
       817.0         0.20          4.5 
       818.0         0.20          4.5 
       819.0         0.20          4.7 
       820.0         0.17          4.6 
       821.0         0.20          4.8 
       822.0         0.30          4.8 
       823.0         0.20          4.6 
       824.0         0.23          4.7 
       825.0         0.28          4.8 
       826.0         0.23          4.8 
       827.0         0.23          4.8 
       828.0         0.20          4.9 
       829.0         0.17          4.9 
       830.0         0.27          5.1 
       831.0         0.23          5.2 
       832.0         0.17          5.2 
       833.0         0.20          5.3 
       834.0         0.17          5.5 
       835.0         0.10          5.6 
       836.0         1.82          5.9 
       837.0         0.43          5.0 
       838.0         0.27          5.1 
       839.0         0.20          5.0 
       840.0         0.20          4.8 
       841.0         0.23          4.8 
       842.0         0.20          4.8 
       843.0         0.23          4.9 
       844.0         0.27          4.9 
       845.0         0.20          4.7 
       846.0         0.17          4.7 
       847.0         0.20          4.6 
       848.0         0.20          4.6 
       849.0         0.22          4.5 
       850.0         0.17          4.5 
       851.0         0.17          4.4 
       852.0         0.17          4.3 
       853.0         0.17          4.3 
       854.0         0.20          4.3 
       855.0         0.20          4.5 
       856.0         0.17          4.6 
       857.0         0.20          4.6 
       858.0         0.20          4.6 
       859.0         0.20          4.6 
       860.0         0.17          4.7 
       861.0         0.20          4.8 
       862.0         0.17          4.9 
       863.0         0.17          4.9 
       864.0         0.20          5.2 
       865.0         0.20          5.2 
       866.0         1.55          5.3 
       867.0         0.37          4.5 
       868.0         0.27          4.4 
       869.0         0.30          4.6 
       870.0         0.27          4.5 
       871.0         0.17          4.2 
       872.0         0.23          4.1 
       873.0         0.23          4.3 
       874.0         0.25          4.9 
       875.0         0.20          5.4 
       876.0         0.20          5.4 
       877.0         0.20          5.2 
       878.0         0.17          4.3 
       879.0         0.17          3.8 
       880.0         0.20          3.6 
       881.0         0.17          3.3 
       882.0         0.17          3.7 
       883.0         0.17          3.9 
       884.0         0.20          3.8 
       885.0         0.20          3.7 
       886.0         0.17          3.5 
       887.0         0.20          3.5 
       888.0         0.20          3.6 
       889.0         0.17          3.5 
       890.0         0.17          3.4 
       891.0         0.17          3.7 
       892.0         0.25          3.7 
       893.0         0.20          3.9 
       894.0         0.20          3.8 
       895.0         0.30          4.2 
       896.0         1.53          4.9 
       897.0         0.27          4.8 
       898.0         0.27          4.7 
       899.0         0.23          4.3 
       900.0         0.20          4.5 
       901.0         0.25          4.3 
       902.0         0.20          4.2 
       903.0         0.20          4.3 
       904.0         0.23          4.3 
       905.0         0.20          4.5 
       906.0         0.23          4.4 
       907.0         0.17          4.5 
       908.0         0.13          4.4 
       909.0         0.17          4.6 
       910.0         0.13          4.8 
       911.0         0.20          4.7 
       912.0         0.17          5.0 
       913.0         0.23          4.9 
       914.0         0.30          4.9 
       915.0         0.30          4.9 
       916.0         0.27          4.8 
       917.0         0.22          5.0 
       918.0         0.17          4.8 
       919.0         0.20          4.9 
       920.0         0.20          4.9 
       921.0         0.23          4.9 
       922.0         0.30          5.1 
       923.0         0.27          5.1 
       924.0         0.30          5.4 
       925.0         0.33          5.3 
       926.0         1.82          5.3 
       927.0         0.33          5.2 
       928.0         0.17          5.1 
       929.0         0.20          5.1 
       930.0         0.20          5.2 
       931.0         0.23          5.3 
       932.0         0.27          5.2 
       933.0         0.23          5.0 
       934.0         0.23          5.2 
       935.0         0.27          5.2 
       936.0         0.23          5.2 
       937.0         0.27          5.5 
       938.0         0.22          5.4 
       939.0         0.20          5.3 
       940.0         0.23          5.0 
       941.0         0.50          5.2 
       942.0         0.23          5.3 
       943.0         0.23          5.0 
       944.0         0.23          5.2 
       945.0         0.20          5.0 
       946.0         0.23          4.8 
       947.0         0.20          4.9 
       948.0         0.17          4.9 
       949.0         0.20          5.1 
       950.0         0.17          5.3 
       951.0         0.20          5.4 
       952.0         0.17          5.4 
       953.0         0.25          5.6 
       954.0         0.23          5.7 
       955.0         0.20          5.7 
       956.0         1.83          6.0 
       957.0         0.43          4.8 
       958.0         0.30          4.5 
       959.0         0.42          4.4 
       960.0         0.40          4.2 
       961.0         0.27          4.3 
       962.0         0.37          4.2 
       963.0         0.70          4.2 
       964.0         0.30          4.2 
       965.0         0.23          4.3 
       966.0         0.20          4.2 
       967.0         0.23          4.3 
       968.0         0.27          4.6 
       969.0         0.28          5.1 
       970.0         0.27          5.5 
       971.0         0.23          5.1 
       972.0         0.20          5.0 
       973.0         0.23          4.8 
       974.0         0.10          4.8 
       975.0         0.10          5.0 
       976.0         0.27          5.0 
       977.0         0.17          5.0 
       978.0         0.13          5.2 
       979.0         0.20          5.3 
       980.0         0.17          5.6 
       981.0         0.22          5.4 
       982.0         0.20          5.4 
       983.0         0.20          5.7 
       984.0         0.23          5.6 
       985.0         0.20          5.5 
       986.0         1.20          5.6 
       987.0         0.40          4.9 
       988.0         0.33          4.6 
       989.0         0.27          4.5 
       990.0         0.18          4.5 
       991.0         0.17          4.6 
       992.0         0.20          4.6 
       993.0         0.20          4.8 
       994.0         0.17          5.1 
