~Version Information
VERS.                      2.0: CWLS Log ASCII Standard - VERSION 2.0
WRAP.                       NO: One line per depth step
~Well Information Block
STRT.FT                 0.0000: 
STOP.FT               683.5000: 
STEP.FT                 0.2500: 
NULL.                -999.2500: 
COMP.          Pioneer Natural Resources: COMPANY
WELL.           Belvedere 14-7: WELL
FLD.           Purgatorie River: FIELD
LOC.           786' FSL & 1283' FWL: LOCATION
PROV.                 Colorado: PROVINCE
CNTY.               Las Animas: COUNTRY
SRVC.                Patterson: SERVICE COMPANY
DATE.          Fri Dec 02 12:52:31 2005: LOG DATE
UWI.           05-071-08557               : UNIQUE WELL ID
~Curve Information Block
DEPT.FT            0 000 00 00: Depth
CCL.                          : Casing Collar Locator
TT3.usec                      : CBL 3' Travel Time
AMP3.mV                       : CBL 3' Amplitude
GR.GAPI                       : Gamma Ray
~Parameter Information Block
~A  Depth       CCL         TT3         AMP3         GR     
# ...
   435.5000      0.0000    723.3301      9.3938     77.3871
   435.7500      0.0000    730.6691     10.3231     76.7204
   436.0000      0.0000    739.0747     11.1878     76.9110
   436.2500      0.0000    743.3179     11.7945     77.3550
   436.5000      0.0000    739.4242     12.0900     77.5140
   436.7500      0.0000    731.4756     12.1139     77.1003
   437.0000      0.0000    725.0474     11.8502     75.8524
   437.2500      0.0000    721.1574     11.1593     73.3323
   437.5000      0.0000    720.4549      9.8819     69.2137
   437.7500      0.0000    724.6999      8.0955     63.7192
   438.0000      0.0000    730.9229      6.1875     57.5467
   438.2500      0.0000    733.4981      4.5672     51.5241
   438.5000      0.0000    732.3491      3.3959     46.4870
   438.7500      0.0000    730.1321      2.6103     43.1060
   439.0000      0.0000    726.8914      2.0680     41.4102
   439.2500      0.0000    719.0970      1.6438     40.6475
   439.5000      0.0000    700.8299      1.2840     39.9138
   439.7500      0.0000    673.6670      1.0121     38.8274
   440.0000      0.0000    650.0271      0.8722     37.5942
   440.2500      0.0000    640.8063      0.8690     36.7016
   440.5000      0.0000    650.7617      0.9813     36.6473
   440.7500      0.0000    681.9005      1.2117     37.8214
   441.0000      0.0000    724.8162      1.5693     40.5205
   441.2500      0.0000    754.9849      2.0137     44.8218
   441.5000      0.0000    756.8793      2.5001     50.2534
   441.7500      0.0000    739.5285      3.0642     55.8891
   442.0000      0.0000    719.1340      3.7756     61.1296
   442.2500      0.0000    706.3729      4.6467     66.1247
   442.5000      0.0000    704.7363      5.6459     71.1672
   442.7500      0.0000    706.3018      6.7406     76.0410
   443.0000      0.0000    703.4114      7.7826     80.2873
   443.2500      0.0000    706.7818      8.3766     83.7961
   443.5000      0.0000    733.4866      8.1981     86.5824
   443.7500      0.0000    779.3068      7.5079     87.9397
   444.0000      0.0000    820.7875      6.9329     86.5160
   444.2500      2.0000    849.2066      6.7185     81.9505
   444.5000      0.0000    878.2245      6.6632     76.2095
   444.7500     -2.0000    902.5609      6.6313     72.4882
   445.0000      0.0000    893.7471      6.6325     72.5450
   445.2500      0.0000    850.3251      6.6236     75.4679
   445.5000      0.0000    801.3767      6.6090     79.0486
   445.7500      0.0000    764.4471      6.7485     81.8724
   446.0000      0.0000    739.4703      7.1397     83.9373
   446.2500      0.0000    725.7176      7.6883     85.7232
   446.5000      0.0000    720.3541      8.2583     87.2400
   446.7500      0.0000    715.8987      8.7300     88.1338
   447.0000      0.0000    707.5676      9.0096     88.4937
   447.2500      0.0000    697.8638      9.0865     89.2590
   447.5000      0.0000    693.5121      9.0122     91.5386
   447.7500      0.0000    698.0768      8.8909     95.3346
   448.0000      0.0000    708.0703      8.8405     99.0346
   448.2500      0.0000    717.0247      8.8810    100.4110
   448.5000      0.0000    721.8254      8.9273     98.2579
   448.7500      0.0000    723.4892      8.9082     93.2126
   449.0000      0.0000    723.9100      8.8465     87.2413
   449.2500      0.0000    724.0515      8.8391     82.3595
   449.5000      0.0000    724.1106      8.9545     79.5278
   449.7500      0.0000    724.0297      9.1373     78.4855
   450.0000      0.0000    723.7911      9.2485     78.4135
   450.2500      0.0000    723.4086      9.1927     78.6074
   450.5000      0.0000    722.5743      8.9793     78.7155
   450.7500      0.0000    719.8905      8.7007     78.6694
   451.0000      0.0000    712.6923      8.4739     78.3638
   451.2500      0.0000    700.4280      8.3536     77.4060
   451.5000      0.0000    689.6469      8.3017     75.5243
   451.7500      0.0000    689.6409      8.2662     73.2956
   452.0000      0.0000    700.3623      8.2407     72.0220
   452.2500      0.0000    712.5325      8.2418     72.6175
   452.5000      0.0000    719.7833      8.2764     74.7306
   452.7500      0.0000    722.7997      8.3404     77.0147
   453.0000      0.0000    724.1187      8.4190     78.2569
   453.2500      0.0000    724.8452      8.4732     78.3018
   453.5000      0.0000    725.0969      8.4560     77.8140
   453.7500      0.0000    724.6756      8.3643     77.1590
   454.0000      0.0000    722.0612      8.2388     75.9180
   454.2500      0.0000    711.5925      8.0960     73.7866
   454.5000      0.0000    684.4052      7.8990     71.5555
   454.7500      0.0000    643.4214      7.5882     70.5081
   455.0000      0.0000    614.8551      7.1129     70.6897
   455.2500      0.0000    619.8241      6.4770     70.3533
   455.5000      0.0000    644.3777      5.7731     67.6001
   455.7500      0.0000    664.5894      5.1143     62.2175
   456.0000      0.0000    677.1625      4.5575     55.5341
   456.2500      0.0000    690.3249      4.1288     48.9722
   456.5000      0.0000    706.9598      3.8323     43.3110
   456.7500      0.0000    724.8919      3.6162     38.9671
   457.0000      0.0000    742.1736      3.4000     36.2736
   457.2500      0.0000    752.5808      3.1460     35.3849
   457.5000      0.0000    746.5251      2.9008     36.2077
   457.7500      0.0000    726.4017      2.7368     38.4779
   458.0000      0.0000    706.6589      2.6581     41.7183
   458.2500      0.0000    694.0429      2.6178     45.0979
   458.5000      0.0000    681.6379      2.5960     47.6689
   458.7500      0.0000    664.0302      2.6179     49.0966
   459.0000      0.0000    648.0335      2.7099     50.0263
   459.2500      0.0000    643.3181      2.8543     51.3453
   459.5000      0.0000    649.1202      2.9801     53.1343
   459.7500      0.0000    658.4558      3.0091     54.7165
   460.0000      0.0000    671.5457      2.9195     55.7968
   460.2500      0.0000    697.9916      2.7571     57.0738
   460.5000      0.0000    746.5146      2.6194     59.3441
   460.7500      0.0000    806.0238      2.5860     62.2573
   461.0000      0.0000    839.9206      2.6113     64.5327
   461.2500      0.0000    827.3371      2.5901     65.5949
   461.5000      0.0000    794.0719      2.5454     66.7688
   461.7500      0.0000    771.3369      2.6383     70.4170
   462.0000      0.0000    757.9768      2.9831     77.4421
   462.2500      0.0000    739.3287      3.5133     85.5860
   462.5000      0.0000    713.2717      4.0837     90.7239
   462.7500      0.0000    690.9356      4.6463     90.3817
   463.0000      0.0000    683.3835      5.2404     85.9933
   463.2500      0.0000    689.7419      5.9182     81.5484
   463.5000      0.0000    700.4733      6.7069     80.0583
   463.7500      0.0000    709.5531      7.5361     81.2449
   464.0000      0.0000    715.6593      8.2724     82.3197
   464.2500      0.0000    717.5771      8.9062     80.8624
   464.5000      0.0000    713.9122      9.5803     76.9768
   464.7500      0.0000    704.6220     10.3577     72.8075
   465.0000      0.0000    689.6342     11.0388     70.4319
   465.2500      0.0000    662.5366     11.3125     70.4948
   465.5000      0.0000    614.9473     11.1238     72.3458
   465.7500      0.0000    554.9879     10.7485     74.9112
   466.0000      0.0000    505.7885     10.4485     77.5830
   466.2500      0.0000    482.0262     10.2656     80.5671
   466.5000      0.0000    482.8675     10.1550     84.3338
   466.7500      0.0000    504.3970     10.1007     88.7443
   467.0000      0.0000    544.4691     10.1062     92.8536
   467.2500      0.0000    593.9538     10.1709     95.5610
   467.5000      0.0000    636.8013     10.2737     96.3673
   467.7500      0.0000    660.4276     10.3796     95.5081
   468.0000      0.0000    653.7207     10.4735     93.5719
   468.2500      0.0000    608.7917     10.5680     91.2399
   468.5000      0.0000    541.3010     10.6743     89.1441
   468.7500      0.0000    487.5661     10.7559     87.3744
