~Version Information
VERS.                      2.0: CWLS Log ASCII Standard - VERSION 2.0
WRAP.                       NO: One line per depth step
~Well Information Block
STRT.FT               -12.0000: 
STOP.FT              1266.5000: 
STEP.FT                 0.2500: 
NULL.                -999.2500: 
COMP.          Pioneer Natural Resources: COMPANY
WELL.          Hot Tomatoes 22-20: WELL
FLD.           Purgatorie River: FIELD
LOC.           2120' FNL & 2585' FWL: LOCATION
CNTY.               Las Animas: COUNTY
SRVC.                Patterson: SERVICE COMPANY
DATE.          Thu Mar 02 13:59:39 2006: LOG DATE
UWI.           05 071 08701 00: UNIQUE WELL ID
STAT.                       CO: STATE
~Curve Information Block
DEPT.FT            0 000 00 00: Depth
GR.GAPI                       : Gamma Ray
CCL.                          : Casing Collar Locator
TT3.usec                      : CBL 3' Travel Time
AMP3.mV                       : CBL 3' Amplitude
~Parameter Information Block
~A  Depth        GR         CCL         TT3         AMP3    
# ...
   725.0000    153.8834      0.0000    609.2820      6.7701
   725.2500    149.3176      0.0000    629.4296      6.6896
   725.5000    145.1494      0.0000    652.6309      6.7527
   725.7500    141.7370      0.0000    672.0002      6.8532
   726.0000    139.6042      0.0000    683.7418      6.9145
   726.2500    138.8951      0.0000    688.8107      6.9057
   726.5000    138.9106      0.0000    691.7266      6.8603
   726.7500    138.2382      0.0000    695.9814      6.9064
   727.0000    135.7224      0.0000    699.3177      7.2180
   727.2500    131.5149      0.0000    694.9725      7.8462
   727.5000    126.9155      0.0000    680.0919      8.5969
   727.7500    123.2472      0.0000    662.1167      9.1444
   728.0000    121.4046      0.0000    653.5916      9.2935
   728.2500    122.3689      0.0000    659.5886      9.1076
   728.5000    127.0742      0.0000    671.7596      8.7922
   728.7500    135.0025      0.0000    675.1770      8.5115
   729.0000    143.4293      0.0000    659.7675      8.3276
   729.2500    148.9308      0.0000    626.3539      8.2461
   729.5000    149.7092      0.0000    584.9913      8.2560
   729.7500    146.3303      0.0000    548.2584      8.3253
   730.0000    140.7859      0.0000    524.5155      8.3952
   730.2500    135.4601      0.0000    516.2428      8.3978
   730.5000    132.4995      0.0000    523.2130      8.2751
   730.7500    133.1042      0.0000    544.8621      7.9865
   731.0000    136.8931      0.0000    578.4291      7.5180
   731.2500    142.1796      0.0000    616.6238      6.9040
   731.5000    147.1543      0.0000    649.9824      6.2392
   731.7500    150.7883      0.0000    672.7360      5.6463
   732.0000    152.6994      0.0000    685.8489      5.2098
   732.2500    152.7688      0.0000    694.1797      4.9298
   732.5000    151.1881      0.0000    701.2979      4.7429
   732.7500    148.4499      0.0000    707.2357      4.5868
   733.0000    145.1546      0.0000    710.4631      4.4422
   733.2500    142.2175      0.0000    710.7252      4.3185
   733.5000    141.0793      0.0000    709.3311      4.2083
   733.7500    142.9736      0.0000    707.4893      4.0753
   734.0000    147.8363      0.0000    705.3840      3.9084
   734.2500    154.1912      0.0000    702.7031      3.7762
   734.5000    160.0241      0.0000    699.4473      3.7866
   734.7500    163.6314      0.0000    696.2596      3.9771
   735.0000    163.7837      0.0000    694.0636      4.2695
   735.2500    159.5863      0.0000    693.2727      4.5431
   735.5000    150.8743      0.0000    693.4947      4.7357
   735.7500    139.0891      0.0000    694.0527      4.8680
   736.0000    127.2758      0.0000    694.5270      4.9965
   736.2500    118.5263      0.0000    694.7422      5.1650
   736.5000    114.2247      0.0000    694.2947      5.4079
   736.7500    113.7567      0.0000    691.7520      5.7869
   737.0000    115.5057      0.0000    683.7128      6.3948
   737.2500    117.9071      0.0000    664.9370      7.2852
   737.5000    119.9945      0.0000    632.0063      8.3835
   737.7500    121.4441      0.0000    589.5369      9.4825
   738.0000    122.1933      0.0000    551.9816     10.3526
   738.2500    122.0245      0.0000    535.7894     10.8721
   738.5000    120.6319      0.0000    548.3846     11.0664
   738.7500    117.9490      0.0000    584.5548     11.0497
   739.0000    114.1287      0.0000    630.8864     10.9467
   739.2500    109.3135      0.0000    672.3599     10.8536
   739.5000    103.7101      0.0000    698.3988     10.8303
   739.7500     97.8162      0.0000    706.8544     10.8983
   740.0000     92.2915      0.0000    703.5604     11.0442
   740.2500     87.5841      0.0000    697.5851     11.2341
   740.5000     83.9094      0.0000    695.2910     11.4281
   740.7500     81.6081      0.0000    697.2542     11.5798
   741.0000     81.1503      0.0000    700.1118     11.6304
   741.2500     82.4667      0.0000    700.9081     11.5230
   741.5000     84.4679      0.0000    699.4692     11.2344
   741.7500     85.6561      0.0000    697.3255     10.7953
   742.0000     85.3051      0.0000    695.7330     10.2786
   742.2500     83.8524      0.0000    694.9615      9.7639
   742.5000     82.1699      0.0000    694.7170      9.3028
   742.7500     80.7292      0.0000    694.6388      8.9055
   743.0000     79.6363      0.0000    694.4926      8.5511
   743.2500     79.1603      0.0000    694.1854      8.2150
   743.5000     79.6845      0.0000    693.7513      7.8896
   743.7500     81.0894      0.0000    693.2925      7.5857
   744.0000     82.6409      0.0000    692.9205      7.3172
   744.2500     83.6103      0.0000    692.7341      7.0898
   744.5000     83.7738      0.0000    692.8192      6.9045
   744.7500     83.3294      0.0000    693.2425      6.7605
   745.0000     82.5300      0.0000    694.0812      6.6474
   745.2500     81.4143      0.0000    695.5233      6.5406
   745.5000     79.9379      0.0000    697.9005      6.4155
   745.7500     78.4153      0.0000    701.3859      6.2721
   746.0000     77.5503      0.0000    705.4294      6.1403
   746.2500     77.7871      0.0000    708.6863      6.0587
   746.5000     78.7692      0.0000    709.9576      6.0508
   746.7500     79.5301      0.0000    709.2078      6.1175
   747.0000     79.1530      0.0000    707.3049      6.2459
   747.2500     77.4492      0.0000    704.9584      6.4243
   747.5000     75.2320      0.0000    702.4159      6.6513
   747.7500     73.7215      0.0000    699.9536      6.9293
   748.0000     73.5087      0.0000    698.0022      7.2518
   748.2500     74.3322      0.0000    696.7662      7.6021
   748.5000     75.8384      0.0000    696.0759      7.9630
   748.7500     78.1058      0.0000    695.6343      8.3232
   749.0000     81.2395      0.0000    695.2526      8.6705
   749.2500     84.8557      0.0000    694.8856      8.9836
   749.5000     88.3516      0.0000    694.5640      9.2319
   749.7500     91.5869      0.0000    694.3310      9.3886
   750.0000     94.8418      0.0000    694.2118      9.4482
   750.2500     97.9855      0.0000    694.2197      9.4317
   750.5000    100.0753      0.0000    694.3607      9.3740
   750.7500    100.0804      0.0000    694.6212      9.3031
   751.0000     97.8563      0.0000    694.9498      9.2310
   751.2500     94.2591      0.0000    695.2688      9.1574
   751.5000     90.5092      0.0000    695.5167      9.0792
   751.7500     87.6491      0.0000    695.6824      8.9974
   752.0000     86.4133      0.0000    695.8001      8.9157
   752.2500     87.1935      0.0000    695.9172      8.8310
   752.5000     89.8907      0.0000    696.0672      8.7283
   752.7500     93.8344      0.0000    696.2625      8.5944
   753.0000     97.9987      0.0000    696.5008      8.4360
   753.2500    101.4454      0.0000    696.7761      8.2774
   753.5000    103.5808      0.0000    697.0825      8.1413
   753.7500    104.0597      0.0000    697.3969      8.0344
   754.0000    102.7125      0.0000    697.6548      7.9512
   754.2500     99.7330      0.0000    697.7689      7.8840
   754.5000     95.7430      0.0000    697.7043      7.8280
   754.7500     91.5100      0.0000    697.5302      7.7764
   755.0000     87.7114      0.0000    697.3668      7.7148
   755.2500     84.9673      0.0000    697.2837      7.6221
   755.5000     83.7491      0.0000    697.2632      7.4851
   755.7500     83.9927      0.0000    697.2582      7.3180
   756.0000     84.9063      0.0000    697.2673      7.1629
   756.2500     85.2862      0.0000    697.3712      7.0594
   756.5000     84.0931      0.0000    697.7711      7.0111
   756.7500     80.9278      0.0000    698.8674      6.9856
   757.0000     76.1721      0.0000    701.2214      6.9513
   757.2500     70.7778      0.0000    705.0846      6.9072
   757.5000     65.9265      0.0000    709.6284      6.8713
   757.7500     62.7513      0.0000    712.8567      6.8361
   758.0000     62.0943      0.0000    712.8975      6.7425
   758.2500     64.2185      0.0000    709.5701      6.5079
