~Version Information
VERS.                      2.0: CWLS Log ASCII Standard - VERSION 2.0
WRAP.                       NO: One line per depth step
~Well Information Block
STRT.FT                 8.2500: 
STOP.FT              1156.2500: 
STEP.FT                 0.2500: 
NULL.                -999.2500: 
COMP.          Pioneer Natural Resources: COMPANY
WELL.              Davida 34-8: WELL
FLD.           Purgatoire River: FIELD
LOC.           418' FSL & 1923' FEL: LOCATION
CNTY.               Las Animas: COUNTY
SRVC.                Patterson: SERVICE COMPANY
DATE.          Thu Mar 30 09:09:42 2006: LOG DATE
UWI.           05 071 08722 00: UNIQUE WELL ID
STAT.                 Colorado: STATE
~Curve Information Block
DEPT.FT            0 000 00 00: Depth
GR.GAPI                       : Gamma Ray
CCL.                          : Casing Collar Locator
TT3.usec                      : CBL 3' Travel Time
AMP3.mV                       : CBL 3' Amplitude
~Parameter Information Block
~A  Depth        GR         CCL         TT3         AMP3    
# ...
   376.7500    112.4329      0.0000    696.5721      7.4541
   377.0000    114.2197      0.0000    684.4532      7.6695
   377.2500    113.5833      0.0000    682.4079      8.0857
   377.5000    111.2550      0.0000    689.2576      8.6323
   377.7500    108.3669      0.0000    699.7407      9.1002
   378.0000    105.9735      0.0000    708.1276      9.3105
   378.2500    104.7581      0.0000    711.7362      9.2745
   378.5000    104.6056      0.0000    711.8452      9.1390
   378.7500    104.6575      0.0000    711.7171      9.0197
   379.0000    104.2566      0.0000    713.8967      8.9358
   379.2500    103.6489      0.0000    718.6107      8.8594
   379.5000    103.3187      0.0000    723.6194      8.7694
   379.7500    102.8263      0.0000    725.7239      8.6654
   380.0000    100.9972      0.0000    723.4103      8.5611
   380.2500     97.5066      0.0000    718.1686      8.4738
   380.5000     93.8364      0.0000    712.9064      8.4109
   380.7500     92.3423      0.0000    709.4655      8.3691
   381.0000     94.4854      0.0000    707.8801      8.3401
   381.2500     99.9348      0.0000    707.2493      8.3162
   381.5000    106.9705      0.0000    706.6428      8.2950
   381.7500    113.2942      0.0000    705.4721      8.2842
   382.0000    116.5997      0.0000    703.6760      8.2958
   382.2500    115.2738      0.0000    701.8106      8.3303
   382.5000    109.3328      0.0000    700.7292      8.3739
   382.7500    100.5765      0.0000    701.0640      8.4121
   383.0000     91.5209      0.0000    703.3099      8.4421
   383.2500     84.2263      0.0000    708.3890      8.4708
   383.5000     79.8753      0.0000    716.9092      8.5043
   383.7500     78.6022      0.0000    726.7606      8.5411
   384.0000     79.2331      0.0000    732.4442      8.5724
   384.2500     79.6644      0.0000    728.9368      8.5891
   384.5000     78.2428      0.0000    716.6243      8.5902
   384.7500     74.9390      0.0000    701.2339      8.5840
   385.0000     71.0246      0.0000    688.9528      8.5817
   385.2500     67.8258      0.0000    682.7280      8.5906
   385.5000     66.0183      0.0000    682.9872      8.6128
   385.7500     65.6315      0.0000    690.1392      8.6454
   386.0000     66.1261      0.0000    705.0311      8.6805
   386.2500     66.5936      0.0000    726.8616      8.7082
   386.5000     66.4055      0.0000    751.5052      8.7242
   386.7500     65.7841      0.0000    772.9897      8.7324
   387.0000     65.6759      0.0000    786.8499      8.7390
   387.2500     67.0588      0.0000    791.5331      8.7449
   387.5000     70.2576      0.0000    786.9648      8.7470
   387.7500     74.6562      0.0000    773.4546      8.7418
   388.0000     79.0604      0.0000    753.0694      8.7252
   388.2500     82.6115      0.0000    731.2794      8.6893
   388.5000     85.5558      0.0000    715.3030      8.6243
   388.7500     89.1229      0.0000    709.5464      8.5254
   389.0000     94.6676      0.0000    712.6637      8.3972
   389.2500    102.6819      0.0000    719.6671      8.2521
   389.5000    112.2813      0.0000    727.1404      8.1007
   389.7500    121.6004      0.0000    735.7620      7.9410
   390.0000    128.8812      0.0000    747.3959      7.7567
   390.2500    133.1677      0.0000    760.8217      7.5313
   390.5000    134.0741      0.0000    771.7736      7.2668
   390.7500    131.5149      0.0000    777.1260      6.9879
   391.0000    125.9733      0.0000    778.0858      6.7230
   391.2500    118.4193      0.0000    778.8193      6.4824
   391.5000    109.5923      0.0000    782.2985      6.2569
   391.7500     99.7373      0.0000    787.9952      6.0408
   392.0000     89.3092      0.0000    793.3694      5.8517
   392.2500     79.7199      0.0000    796.5502      5.7244
   392.5000     73.1280      0.0000    797.0946      5.6890
   392.7500     71.3681      0.0000    794.8522      5.7563
   393.0000     75.0001      0.0000    788.8718      5.9216
   393.2500     83.1485      0.0000    777.8297      6.1756
   393.5000     93.9922      0.0000    761.9125      6.5102
   393.7500    105.3335      0.0000    744.3143      6.9111
   394.0000    114.9670      0.0000    730.3994      7.3476
   394.2500    121.1014      0.0000    724.9321      7.7790
   394.5000    123.0229      0.0000    729.6896      8.1711
   394.7500    121.4910      0.0000    742.6704      8.5013
   395.0000    118.3375      0.0000    758.7742      8.7517
   395.2500    115.5245      0.0000    771.6206      8.9098
   395.5000    114.2454      0.0000    775.8795      8.9751
   395.7500    114.3798      0.0000    769.3174      8.9610
   396.0000    114.7952      0.0000    754.3474      8.8886
   396.2500    114.6007      0.0000    737.9463      8.7796
   396.5000    114.0559      0.0000    728.2743      8.6515
   396.7500    113.9001      0.0000    729.4615      8.5155
   397.0000    114.1019      0.0000    739.2155      8.3779
   397.2500    114.0091      0.0000    750.8845      8.2465
   397.5000    113.6891      0.0000    757.0259      8.1377
   397.7500    114.2134      0.0000    752.3649      8.0726
   398.0000    116.2208      0.0000    736.4296      8.0612
   398.2500    118.8018      0.0000    714.2213      8.0886
   398.5000    120.3009      0.0000    692.7624      8.1218
   398.7500    119.9416      0.0000    676.3849      8.1293
   399.0000    118.3144      0.0000    665.8010      8.0961
   399.2500    116.6344      0.0000    660.4833      8.0226
   399.5000    116.0265      0.0000    659.8860      7.9158
   399.7500    117.3235      0.0000    662.3218      7.7828
   400.0000    120.9364      0.0000    664.4382      7.6316
   400.2500    126.5315      0.0000    662.7974      7.4758
   400.5000    132.6917      0.0000    656.0128      7.3344
   400.7500    136.9955      0.0000    645.5043      7.2241
   401.0000    137.0593      0.0000    634.6304      7.1528
   401.2500    132.2443      0.0000    627.0721      7.1232
   401.5000    124.4348      0.0000    625.4619      7.1396
   401.7500    116.6985      0.0000    630.5611      7.2030
   402.0000    111.0477      0.0000    640.8749      7.3001
   402.2500    107.6376      0.0000    653.0922      7.3979
   402.5000    105.8656      0.0000    663.7762      7.4574
   402.7500    105.4702      0.0000    671.3386      7.4572
   403.0000    106.3544      0.0000    676.5870      7.4046
   403.2500    108.0969      0.0000    681.4890      7.3254
   403.5000    110.1303      0.0000    687.3684      7.2432
   403.7500    112.0037      0.0000    693.9611      7.1696
   404.0000    113.3954      0.0000    699.9498      7.1085
   404.2500    114.5027      0.0000    704.2552      7.0649
   404.5000    116.4446      0.0000    706.8337      7.0483
   404.7500    120.5546      0.0000    708.5115      7.0677
   405.0000    126.8905      0.0000    710.4973      7.1244
   405.2500    133.6108      0.0000    713.9521      7.2069
   405.5000    138.0638      0.0000    719.3465      7.2955
   405.7500    138.7436      0.0000    725.8279      7.3718
   406.0000    136.5482      0.0000    731.4617      7.4280
   406.2500    134.1683      0.0000    734.1736      7.4684
   406.5000    133.9165      0.0000    732.2548      7.5053
   406.7500    135.8346      0.0000    724.6292      7.5505
   407.0000    137.8880      0.0000    711.7019      7.6062
   407.2500    137.9507      0.0000    695.7008      7.6614
   407.5000    135.4706      0.0000    679.6223      7.6987
   407.7500    131.4659      0.0000    666.1074      7.7089
   408.0000    127.4543      0.0000    657.0013      7.6968
   408.2500    124.3784      0.0000    652.8140      7.6738
   408.5000    122.0423      0.0000    652.4400      7.6476
   408.7500    119.5652      0.0000    654.1046      7.6196
   409.0000    116.6639      0.0000    656.7735      7.5874
   409.2500    114.1946      0.0000    660.4475      7.5490
   409.5000    113.0368      0.0000    665.2303      7.5059
   409.7500    112.8512      0.0000    670.3165      7.4617
   410.0000    112.5178      0.0000    673.7781      7.4179
