~Version Information
VERS.                      2.0: CWLS Log ASCII Standard - VERSION 2.0
WRAP.                       NO: One line per depth step
~Well Information Block
STRT.FT                -7.7500: 
STOP.FT              1420.5000: 
STEP.FT                 0.2500: 
NULL.                -999.2500: 
COMP.          Pioneer Natural Resources: COMPANY
WELL.          Parklane 43-34 Tr: WELL
FLD.           Purgatorie River: FIELD
LOC.           1643' FSL & 966' FEL--: LOCATION
PROV.                       CO: PROVINCE
CNTY.               Las Animas: COUNTRY
SRVC.          Patterson Wireline: SERVICE COMPANY
DATE.          Tue Aug 02 11:35:27 2005: LOG DATE
UWI.           05 071 08452 00: UNIQUE WELL ID
~Curve Information Block
DEPT.FT            0 000 00 00: Depth
CCL.                          : Casing Collar Locator
TT3.usec                      : CBL 3' Travel Time
AMP3.mV                       : CBL 3' Amplitude
GR.GAPI                       : Gamma Ray
~Parameter Information Block
~A  Depth       CCL         TT3         AMP3         GR     
# ...
   662.2500      0.0000   1053.5345     11.7555     77.3898
   662.5000      0.0000   1028.9280     11.7336     73.2373
   662.7500      0.0000   1008.4651     11.7623     67.7925
   663.0000      0.0000   1007.8872     11.8450     62.4635
   663.2500      0.0000   1029.9650     11.9715     58.1268
   663.5000      0.0000   1062.6935     12.1212     54.6794
   663.7500      0.0000   1090.9595     12.2678     51.6108
   664.0000      0.0000   1107.4421     12.3873     48.6845
   664.2500      0.0000   1113.8385     12.4673     45.9098
   664.5000      0.0000   1115.9205     12.5098     43.3698
   664.7500      0.0000   1118.7603     12.5255     41.5493
   665.0000      0.0000   1124.3682     12.5262     41.4481
   665.2500      0.0000   1131.4584     12.5227     43.6879
   665.5000      0.0000   1136.7012     12.5252     47.4999
   665.7500      0.0000   1136.3267     12.5416     51.1395
   666.0000      0.0000   1127.7731     12.5736     53.4773
   666.2500      0.0000   1112.1027     12.6146     54.8605
   666.5000      0.0000   1095.8950     12.6562     56.3163
   666.7500      0.0000   1088.1818     12.6946     58.3220
   667.0000      0.0000   1092.0476     12.7321     60.4560
   667.2500      0.0000   1099.2582     12.7714     61.9418
   667.5000      0.0000   1095.3325     12.8115     62.4283
   667.7500      0.0000   1071.7977     12.8492     62.3169
   668.0000      0.0000   1035.4858     12.8827     62.3010
   668.2500      0.0000   1005.9161     12.9147     62.6682
   668.5000      0.0000    999.4102     12.9493     63.2226
   668.7500      0.0000   1013.8540     12.9869     63.7153
   669.0000      0.0000   1032.2157     13.0226     63.9434
   669.2500      0.0000   1040.9371     13.0512     63.5246
   669.5000      0.0000   1039.0000     13.0724     62.0878
   669.7500      0.0000   1028.5951     13.0884     59.7048
   670.0000      0.0000   1006.4871     13.0981     56.7402
   670.2500      0.0000    971.5672     13.0957     53.4100
   670.5000      0.0000    936.2504     13.0747     49.8823
   670.7500      0.0000    921.7797     13.0308     46.6297
   671.0000      0.0000    940.0583     12.9681     44.3304
   671.2500      0.0000    982.6077     12.9048     43.6757
   671.5000      0.0000   1027.9968     12.8648     45.5970
   671.7500      0.0000   1057.5977     12.8563     51.1617
   672.0000      0.0000   1064.2460     12.8603     60.5750
   672.2500      0.0000   1051.4187     12.8475     72.4417
   672.5000      0.0000   1029.2205     12.8015     84.4293
   672.7500      0.0000   1009.2502     12.7291     94.5521
   673.0000      0.0000    997.1805     12.6546    101.7658
   673.2500      0.0000    987.8993     12.6113    105.8423
   673.5000      0.0000    969.6035     12.6278    107.2007
   673.7500      0.0000    934.7814     12.7121    106.9011
   674.0000      0.0000    887.9327     12.8450    106.4526
   674.2500      0.0000    842.5610     12.9909    107.1097
   674.5000      0.0000    811.0221     13.1164    108.9826
   674.7500      0.0000    798.1133     13.2008    110.7961
   675.0000      0.0000    802.1957     13.2385    110.8715
   675.2500      0.0000    817.5771     13.2363    108.6844
   675.5000      0.0000    834.5275     13.2106    105.4718
   675.7500      0.0000    841.7773     13.1844    103.1080
   676.0000      0.0000    833.9703     13.1801    102.4471
   676.2500      0.0000    815.9910     13.2077    102.9774
   676.5000      0.0000    797.7581     13.2571    103.8432
   676.7500      0.0000    785.9420     13.3061    104.5699
   677.0000      0.0000    781.8322     13.3380    104.9137
   677.2500      0.0000    784.9713     13.3532    104.9098
   677.5000      0.0000    795.9811     13.3640    105.1947
   677.7500      0.0000    814.8147     13.3795    106.3210
   678.0000      0.0000    836.5918     13.3966    107.4294
   678.2500      0.0000    851.3346     13.4049    106.4024
   678.5000      0.0000    850.9127     13.4022    101.8572
   678.7500      0.0000    836.9681     13.4000     94.7289
   679.0000      0.0000    820.1406     13.4066     87.6231
   679.2500      0.0000    811.1567     13.4055     82.6896
   679.5000      0.0000    813.4462     13.3584     80.1638
   679.7500      0.0000    823.1801     13.2348     78.6833
   680.0000      0.0000    834.1548     13.0383     76.7292
   680.2500      0.0000    842.2505     12.8096     73.7597
   680.5000      0.0000    846.6909     12.6092     70.2142
   680.7500      0.0000    848.8364     12.4923     66.8659
   681.0000      0.0000    850.7155     12.4853     64.3869
   681.2500      0.0000    854.7136     12.5808     63.1552
   681.5000      0.0000    863.8484     12.7537     62.9488
   681.7500      0.0000    881.3500     12.9787     62.9461
   682.0000      0.0000    909.2285     13.2296     62.4387
   682.2500      0.0000    946.7397     13.4686     61.4276
   682.5000      0.0000    989.4744     13.6504     60.2994
   682.7500      0.0000   1028.8861     13.7448     59.2647
   683.0000      0.0000   1053.2283     13.7491     58.2961
   683.2500      0.0000   1051.7266     13.6721     57.1787
   683.5000      0.0000   1020.9230     13.5059     55.5148
   683.7500      0.0000    968.1266     13.2266     53.2366
   684.0000      0.0000    908.4280     12.8351     51.1702
   684.2500      0.0000    858.0690     12.3836     50.3760
   684.5000      0.0000    829.5955     11.9316     50.7678
   684.7500      0.0000    828.9800     11.4863     50.9678
   685.0000      0.0000    851.9850     11.0298     49.6062
   685.2500      0.0000    883.4830     10.5941     46.4179
   685.5000      0.0000    905.9666     10.2533     42.2581
   685.7500      0.0000    912.0103     10.0411     38.4761
   686.0000      0.0000    906.6130      9.9226     36.1569
   686.2500     -2.0000    897.9209      9.8439     35.6611
   686.5000      0.0000    889.9518      9.7860     36.7499
   686.7500      0.0000    884.1733      9.7791     39.0482
   687.0000      0.0000    882.4080      9.8779     42.2918
   687.2500      0.0000    885.2502     10.1121     46.0969
   687.5000      0.0000    890.3538     10.4601     49.4991
   687.7500      0.0000    894.5075     10.8891     51.0078
   688.0000      0.0000    896.4504     11.3923     49.6876
   688.2500      0.0000    896.8951     11.9470     46.2561
   688.5000      0.0000    896.9186     12.4693     42.7150
   688.7500      0.0000    897.0230     12.8626     40.8080
   689.0000      0.0000    897.2305     13.0943     40.9548
   689.2500      0.0000    897.4221     13.2002     42.3387
   689.5000      0.0000    897.3755     13.2350     43.7072
   689.7500      0.0000    896.4917     13.2408     44.3555
   690.0000      0.0000    893.3232     13.2454     44.6367
   690.2500      0.0000    885.4968     13.2644     45.4534
   690.5000      0.0000    870.8357     13.2983     47.2525
   690.7500      0.0000    849.6962     13.3362     49.7469
   691.0000      0.0000    826.4971     13.3656     52.4903
   691.2500      0.0000    808.2777     13.3782     55.2814
   691.5000      0.0000    801.1226     13.3693     57.8655
   691.7500      0.0000    807.3130     13.3359     59.5793
   692.0000      0.0000    824.4731     13.2796     59.6446
   692.2500      0.0000    846.5154     13.2082     57.9376
   692.5000      0.0000    866.3736     13.1317     55.5311
   692.7500      0.0000    879.2907     13.0557     54.3437
   693.0000      0.0000    884.1125     12.9793     55.8315
   693.2500      0.0000    882.1266     12.8974     59.7059
   693.5000      0.0000    875.5252     12.8070     63.9996
   693.7500      0.0000    866.6603     12.7105     66.4848
   694.0000      0.0000    857.2468     12.6131     66.1589
   694.2500      0.0000    847.3854     12.5159     63.7329
   694.5000      0.0000    835.8104     12.4143     60.9731
   694.7500      0.0000    821.8985     12.3069     59.4079
   695.0000      0.0000    807.5340     12.2004     59.1851
   695.2500      0.0000    796.7669     12.1061     59.0451
   695.5000      0.0000    793.7100     12.0330     57.5955
