~Version Information
VERS.                      2.0: CWLS Log ASCII Standard - VERSION 2.0
WRAP.                       NO: One line per depth step
~Well Information Block
STRT.FT               380.0000: 
STOP.FT              1887.5000: 
STEP.FT                 0.1000: 
NULL.                -999.2500: 
COMP.          Pioneer Natural Resources: COMPANY
WELL.          Cortina 23-25 Tr: WELL
FLD.           Purgatoire River: FIELD
LOC.           2521' FSL & 2345' FWL: LOCATION
STAT.                 Colorado: State
CNTY.               Las Animas: COUNTY
CTRY. USA : Country
SECT. 25 : Section
TOWN. 32S : Township
RANG. 67W : Range
SRVC.                Patterson: SERVICE COMPANY
DATE.          Mon Sep 26 06:09:01 2005: LOG DATE
API.           05 071 08534 00: UNIQUE WELL ID
~Curve Information Block
DEPT.FT            0 000 00 00: Depth
DCAL.in                       : CDL Caliper
RHOB.g/cc                     : CDL Bulk Density
RHOC.g/cc                     : CDL Density Correction
DPOR.pu                       : CDL Density Porosity
GR.GAPI                       : Gamma Ray
NPOR.pu                       : Neutron Porosity
~Parameter Information Block
~A  Depth       DCAL        RHOB        RHOC        DPOR         GR         NPOR    
   380.0000      4.0944      2.1551     -0.4414     29.9913     71.9780     17.0510
   380.1000      4.0923      2.1789     -0.4027     28.5506     71.1554     16.0392
   380.2000      4.0895      2.1735     -0.3664     28.8798     78.3420     15.5868
   380.3000      4.0864      2.1458     -0.4548     30.5550     90.5093     15.9484
   380.4000      4.0836      2.1243     -0.4549     31.8577    101.8721     16.4006
   380.5000      4.0813      2.1213     -0.4798     32.0420    110.2769     16.5608
   380.6000      4.0799      2.1234     -0.4005     31.9158    112.1656     16.7386
   380.7000      4.0797      2.1105     -0.4676     32.6982    107.6719     17.1541
   380.8000      4.0807      2.0972     -0.5565     33.5027    105.2890     17.3429
   380.9000      4.0828      2.1156     -0.4576     32.3906    107.4644     17.0137
   381.0000      4.0859      2.1528     -0.3757     30.1320    107.2086     16.8308
   381.1000      4.0896      2.1727     -0.3854     28.9269    102.0073     17.2601
   381.2000      4.0936      2.1674     -0.4152     29.2507     94.8630     17.8406
   381.3000      4.0975      2.1634     -0.5062     29.4931     89.6117     18.0056
   381.4000      4.1010      2.1775     -0.4102     28.6341     88.9207     17.8765
   381.5000      4.1038      2.1868     -0.3994     28.0712     92.4118     18.0507
   381.6000      4.1056      2.1772     -0.3753     28.6563     94.2138     18.7509
   381.7000      4.1064      2.1634     -0.3735     29.4914     90.4491     19.3126
   381.8000      4.1062      2.1531     -0.3982     30.1160     85.0609     19.2069
   381.9000      4.1049      2.1443     -0.4848     30.6471     83.2721     18.5660
   382.0000      4.1027      2.1440     -0.4161     30.6650     87.8008     17.7139
   382.1000      4.0997      2.1623     -0.4279     29.5593     93.9748     17.4569
   382.2000      4.0961      2.1990     -0.4752     27.3353     95.5508     18.3912
   382.3000      4.0922      2.2267     -0.3211     25.6575     97.0292     19.5642
   382.4000      4.0884      2.2142     -0.3786     26.4126    104.2885     19.5636
   382.5000      4.0851      2.1791     -0.4534     28.5396    112.4121     18.6523
   382.6000      4.0826      2.1518     -0.4661     30.1942    115.1583     17.9406
   382.7000      4.0813      2.1362     -0.5294     31.1408    112.0404     17.5576
   382.8000      4.0815      2.1334     -0.4657     31.3071    105.8230     17.0619
   382.9000      4.0831      2.1457     -0.4705     30.5645     99.8361     16.5486
   383.0000      4.0860      2.1803     -0.5059     28.4696     95.9348     16.6076
   383.1000      4.0901      2.2347     -0.3935     25.1691     95.1401     17.3935
   383.2000      4.0950      2.2690     -0.3430     23.0914     95.5476     17.8802
   383.3000      4.1002      2.2534     -0.4076     24.0388     93.5807     17.5468
   383.4000      4.1054      2.2081     -0.3738     26.7803     92.3764     17.2041
   383.5000      4.1102      2.1823     -0.5554     28.3483     95.2679     17.3251
   383.6000      4.1143      2.2043     -0.4324     27.0091     99.8997     17.5829
   383.7000      4.1175      2.2421     -0.3677     24.7226    105.8484     17.6432
   383.8000      4.1199      2.2513     -0.3377     24.1621    111.3348     17.9631
   383.9000      4.1213      2.2316     -0.3651     25.3592    110.5415     18.5725
   384.0000      4.1219      2.2102     -0.4055     26.6545    102.7216     18.3446
   384.1000      4.1220      2.2064     -0.4413     26.8856     98.8356     17.3768
   384.2000      4.1216      2.2182     -0.4335     26.1700    104.5274     17.1681
   384.3000      4.1211      2.2309     -0.4061     25.3990    111.6763     17.8455
   384.4000      4.1205      2.2363     -0.4416     25.0699    113.3286     18.2248
   384.5000      4.1199      2.2296     -0.3562     25.4773    110.8753     18.4355
   384.6000      4.1191      2.2098     -0.4461     26.6801    107.9834     18.9732
   384.7000      4.1181      2.1993     -0.4868     27.3169    106.3384     19.1385
   384.8000      4.1167      2.2189     -0.4132     26.1243    106.6640     19.0265
   384.9000      4.1146      2.2580     -0.3515     23.7576    106.0772     19.2592
   385.0000      4.1119      2.2872     -0.3718     21.9903    104.6858     19.6047
   385.1000      4.1087      2.2830     -0.3300     22.2447    106.4130     19.9226
   385.2000      4.1050      2.2487     -0.4101     24.3215    108.2724     20.4807
   385.3000      4.1014      2.2121     -0.4495     26.5412    106.9530     21.1067
   385.4000      4.0982      2.1995     -0.5064     27.3058    105.0442     21.5908
   385.5000      4.0960      2.2205     -0.5055     26.0287    104.6799     22.0419
   385.6000      4.0950      2.2473     -0.3615     24.4078    109.1892     22.2058
   385.7000      4.0956      2.2536     -0.4833     24.0261    120.2612     21.7876
   385.8000      4.0977      2.2538     -0.4503     24.0141    130.0822     20.8687
   385.9000      4.1012      2.2489     -0.4351     24.3070    133.9037     19.6553
   386.0000      4.1054      2.2340     -0.4381     25.2104    138.6570     18.9219
   386.1000      4.1100      2.2357     -0.4842     25.1061    144.2252     19.4042
   386.2000      4.1142      2.2663     -0.3680     23.2546    137.0160     20.2850
   386.3000      4.1174      2.2935     -0.3521     21.6044    117.0299     20.3310
   386.4000      4.1191      2.2904     -0.3541     21.7958    103.4768     19.6269
   386.5000      4.1190      2.2658     -0.3732     23.2850    106.5733     18.6394
   386.6000      4.1170      2.2440     -0.3999     24.6069    115.9896     17.6094
   386.7000      4.1131      2.2322     -0.3616     25.3207    117.9004     17.2972
   386.8000      4.1077      2.2221     -0.4705     25.9345    111.6298     18.0912
   386.9000      4.1010      2.2127     -0.4542     26.5013    105.5571     18.7046
   387.0000      4.0936      2.2042     -0.4070     27.0197    102.4923     18.2907
   387.1000      4.0861      2.1904     -0.3532     27.8516     99.3868     17.5016
   387.2000      4.0790      2.1747     -0.4900     28.8071     98.0113     16.9196
   387.3000      4.0726      2.1632     -0.4641     29.5056    104.7047     16.6070
   387.4000      4.0673      2.1464     -0.4758     30.5240    116.8574     16.7340
   387.5000      4.0632      2.1196     -0.5019     32.1464    125.8409     17.5191
   387.6000      4.0601      2.0973     -0.4756     33.4983    129.5596     18.6411
   387.7000      4.0579      2.1022     -0.5162     33.1970    129.5247     19.4071
   387.8000      4.0563      2.1433     -0.4362     30.7106    126.3261     19.3075
   387.9000      4.0548      2.1920     -0.3926     27.7595    122.3910     18.5595
   388.0000      4.0534      2.2087     -0.3600     26.7458    117.9874     17.8797
   388.1000      4.0518      2.1922     -0.4557     27.7426    115.4918     17.6390
   388.2000      4.0502      2.1733     -0.4523     28.8880    121.8240     17.8128
   388.3000      4.0489      2.1663     -0.4689     29.3147    135.3088     18.4115
   388.4000      4.0480      2.1559     -0.4631     29.9433    142.3036     19.1514
   388.5000      4.0480      2.1308     -0.5042     31.4637    136.6910     19.3392
   388.6000      4.0491      2.1097     -0.5073     32.7447    131.8860     18.9882
   388.7000      4.0513      2.1180     -0.5387     32.2432    134.7027     18.6535
   388.8000      4.0546      2.1501     -0.4462     30.2959    136.9774     18.7322
   388.9000      4.0586      2.1790     -0.4349     28.5441    136.9769     19.4343
   389.0000      4.0629      2.1991     -0.4462     27.3299    138.5474     20.6001
   389.1000      4.0671      2.2170     -0.4371     26.2453    136.5808     21.1852
   389.2000      4.0709      2.2198     -0.3421     26.0729    126.8409     20.6125
   389.3000      4.0740      2.2036     -0.4748     27.0529    115.4944     19.8899
   389.4000      4.0764      2.1893     -0.4175     27.9206    112.8053     19.5028
   389.5000      4.0780      2.1810     -0.3829     28.4217    125.1961     19.2742
