~Version Information
VERS.                      2.0: CWLS Log ASCII Standard - VERSION 2.0
WRAP.                       NO: One line per depth step
~Well Information Block
STRT.FT               491.0000: 
STOP.FT              1911.5000: 
STEP.FT                 0.2500: 
NULL.                -999.2500: 
COMP.          Pioneer Natural Resources: COMPANY
WELL.            Corazon 13-10: WELL
FLD.           Purgatoire River: FIELD
LOC.           2510' FSL & 439' FWL: LOCATION
PROV.                 Colorado: PROVINCE
CNTY.               Las Animas: COUNTRY
SRVC.                Patterson: SERVICE COMPANY
DATE.          Wed Nov 30 22:14:48 2005: LOG DATE
UWI.           05 071 08613 00: UNIQUE WELL ID
~Curve Information Block
DEPT.FT            0 000 00 00: Depth
SN.Ohm-m                      : IEL Short Normal
SP.mV                         : IEL Spontaneous Potential
DIR.Ohm-m                     : IEL Induction Resistivity
GR.GAPI                       : Gamma Ray
~Parameter Information Block
~A  Depth        SN          SP         DIR          GR     
# ...
  1864.5000     18.6450     67.9542     17.3373     73.1604
  1864.7500     18.5905     67.9628     17.3596     75.0148
  1865.0000     18.5352     67.9478     17.4019     79.5129
  1865.2500     18.4055     67.9089     17.4781     83.3202
  1865.5000     18.1755     67.8488     17.6018     89.3015
  1865.7500     17.9700     67.7676     17.7705     92.8495
  1866.0000     17.9155     67.6592     17.9569     96.8300
  1866.2500     17.9780     67.5148     18.1153     98.5326
  1866.5000     18.0519     67.3291     18.2030     99.8694
  1866.7500     18.1115     67.1041     18.2013    100.0192
  1867.0000     18.1931     66.8491     18.1237     98.9901
  1867.2500     18.3173     66.5790     18.0053     97.3766
  1867.5000     18.4775     66.3104     17.8845     93.9008
  1867.7500     18.6409     66.0559     17.7877     91.4301
  1868.0000     18.7789     65.8205     17.7230     88.4691
  1868.2500     18.9028     65.6032     17.6869     87.1853
  1868.5000     19.0222     65.3978     17.6798     86.0399
  1868.7500     19.1287     65.1954     17.7157     85.6857
  1869.0000     19.2372     64.9888     17.8147     85.9720
  1869.2500     19.3502     64.7788     17.9803     86.8358
  1869.5000     19.3920     64.5747     18.1812     88.9651
  1869.7500     19.2865     64.3879     18.3583     90.6061
  1870.0000     19.0639     64.2253     18.4565     92.4613
  1870.2500     18.8292     64.0876     18.4566     92.5292
  1870.5000     18.6630     63.9711     18.3771     89.7912
  1870.7500     18.5731     63.8680     18.2498     86.1627
  1871.0000     18.5426     63.7659     18.0989     79.7923
  1871.2500     18.5731     63.6518     17.9425     76.3881
  1871.5000     18.6440     63.5205     17.8025     74.2271
  1871.7500     18.7335     63.3792     17.7054     74.7727
  1872.0000     18.8979     63.2447     17.6700     77.2648
  1872.2500     19.2031     63.1335     17.6926     79.0889
  1872.5000     19.5962     63.0497     17.7446     81.2013
  1872.7500     19.9378     62.9823     17.7861     82.4383
  1873.0000     20.1066     62.9142     17.7892     85.5538
  1873.2500     20.0572     62.8357     17.7529     89.4750
  1873.5000     19.8156     62.7493     17.6974     98.7472
  1873.7500     19.4768     62.6634     17.6438    106.5667
  1874.0000     19.1993     62.5876     17.5952    118.6100
  1874.2500     19.0763     62.5287     17.5351    125.6318
  1874.5000     19.0516     62.4882     17.4393    133.2123
  1874.7500     19.0448     62.4591     17.2917    135.7769
  1875.0000     19.0592     62.4264     17.0922    135.6716
  1875.2500     19.1051     62.3755     16.8551    133.5095
  1875.5000     19.1173     62.3017     16.6028    129.1827
  1875.7500     19.0437     62.2112     16.3640    126.8552
  1876.0000     18.9201     62.1121     16.1742    125.2771
  1876.2500     18.7744     62.0029     16.0737    125.4072
  1876.5000     18.5703     61.8667     16.1005    127.2401
  1876.7500     18.2704     61.6712     16.2787    130.2261
  1877.0000     17.9332     61.3726     16.6130    139.3806
  1877.2500     17.7722     60.9239     17.0887    149.2422
  1877.5000     18.0139     60.2928     17.6785    168.4432
  1877.7500     18.7073     59.4907     18.3482    182.2585
  1878.0000     19.7626     58.6043     19.0564    200.3877
  1878.2500     21.1231     57.7998     19.7527    208.6442
  1878.5000     22.8239     57.2718     20.3829    213.7709
  1878.7500     24.9523     57.1502     20.9042    213.1976
  1879.0000     27.5534     57.4316     21.3002    209.8754
  1879.2500     30.4552     57.9935     21.5821    207.8896
  1879.5000     33.2378     58.6773     21.7709    205.7953
  1879.7500     35.4499     59.3665     21.8735    203.6414
  1880.0000     36.8117     60.0124     21.8743    196.0854
  1880.2500     37.2225     60.6155     21.7532    187.0792
  1880.5000     36.6624     61.1981     21.5169    168.2392
  1880.7500     35.1711     61.7834     21.2123    153.7961
  1881.0000     32.8820     62.3832     20.9066    133.2301
  1881.2500     30.0180     62.9913     20.6503    122.2608
  1881.5000     26.9242     63.5848     20.4497    111.4342
  1881.7500     24.0488     64.1314     20.2668    107.3639
  1882.0000     21.7583     64.6011     20.0413    102.8800
  1882.2500     20.1715     64.9773     19.7246     98.9373
  1882.5000     19.1782     65.2616     19.3038     89.9466
  1882.7500     18.5651     65.4668     18.8046     82.4966
  1883.0000     18.1866     65.6080     18.2737     71.6149
  1883.2500     18.1426     65.6995     17.7610     65.7955
  1883.5000     18.6450     65.7558     17.3108     59.9924
  1883.7500     19.5981     65.7905     16.9617     57.9033
  1884.0000     20.5756     65.8138     16.7475     56.9114
  1884.2500     21.2347     65.8316     16.6938     57.5184
  1884.5000     21.5228     65.8456     16.8110     60.2447
  1884.7500     21.5598     65.8544     17.0861     63.1070
  1885.0000     21.4674     65.8552     17.4800     68.1644
  1885.2500     21.2388     65.8479     17.9353     71.3357
  1885.5000     20.7854     65.8352     18.3874     74.6053
  1885.7500     20.1692     65.8196     18.7728     75.3237
  1886.0000     19.6145     65.8007     19.0273     74.0149
  1886.2500     19.2618     65.7762     19.0888     71.9270
  1886.5000     19.1177     65.7461     18.9172     68.3557
  1886.7500     19.1944     65.7125     18.5233     66.4778
  1887.0000     19.4719     65.6782     17.9717     64.9344
  1887.2500     19.7924     65.6438     17.3493     64.6048
  1887.5000     19.9812     65.6079     16.7294     64.8078
  1887.7500     19.9870     65.5685     16.1593     65.3801
  1888.0000     19.7948     65.5246     15.6706     67.1709
  1888.2500     19.3606     65.4763     15.2923     69.2901
  1888.5000     18.6836     65.4265     15.0502     74.3957
  1888.7500     17.8197     65.3810     14.9566     79.2181
  1889.0000     16.8511     65.3471     14.9955     88.1647
  1889.2500     15.8936     65.3296     15.1179     94.4717
  1889.5000     15.1056     65.3264     15.2532    102.0686
  1889.7500     14.6283     65.3275     15.3375    104.3734
  1890.0000     14.4724     65.3166     15.3414    102.5306
  1890.2500     14.5540     65.2771     15.2750     98.5113
  1890.5000     14.8833     65.1998     15.1671     91.2097
  1890.7500     15.5949     65.0883     15.0404     87.0124
  1891.0000     16.7560     64.9584     14.9006     82.3600
  1891.2500     18.2494     64.8323     14.7410     79.4952
  1891.5000     19.8166     64.7312     14.5527     72.9255
  1891.7500     21.1368     64.6714     14.3304     65.5945
  1892.0000     21.9380     64.6634     14.0736     49.5836
  1892.2500     22.0955     64.7126     13.7871     36.9553
  1892.5000     21.6163     64.8164     13.4835     19.4714
  1892.7500     20.5958     64.9626     13.1857     10.9265
  1893.0000     19.2348     65.1299     12.9245      3.5855
  1893.2500     17.7695     65.2937     12.7292      1.4333
  1893.5000     16.3260     65.4341     12.6184      0.2751
  1893.7500     14.9525     65.5405     12.5923      0.0752
  1894.0000     13.7438     65.6117     12.6321      0.0068
  1894.2500     12.8145     65.6518     12.7055      0.0000
  1894.5000     12.2613     65.6640     12.7782   -999.2500
  1894.7500     12.1529     65.6454     12.8275   -999.2500
  1895.0000     12.4384     65.5830     12.8519   -999.2500
  1895.2500     12.9530     65.4562     12.8708   -999.2500
  1895.5000     13.6137     65.2478     12.9176   -999.2500
  1895.7500     14.6254     64.9593     13.0314   -999.2500
  1896.0000     16.3642     64.6201     13.2537   -999.2500
  1896.2500     18.8841     64.2831     13.6248   -999.2500
  1896.5000     21.6674     64.0062     14.1796   -999.2500
  1896.7500     24.0191     63.8285     14.9391   -999.2500
  1897.0000     25.5492     63.7535     15.9007   -999.2500
  1897.2500     26.2640     63.7517     17.0304   -999.2500
  1897.5000     26.3980     63.7784     18.2607   -999.2500
  1897.7500     26.2139     63.7938     19.4962   -999.2500
