~Version Information
VERS.                      2.0: CWLS Log ASCII Standard - VERSION 2.0
WRAP.                       NO: One line per depth step
~Well Information Block
STRT.FT               800.0000: 
STOP.FT              3500.0000: 
STEP.FT                 0.2500: 
NULL.                -999.2500: 
COMP.          Pioneer Natural Resources: COMPANY
WELL.          Cordillera 34-7: WELL
FLD.           Purgatoire River: FIELD
LOC.           598' FSL & 1770' FEL--: LOCATION
PROV.                 Colorado: PROVINCE
CNTY.               Las Animas: COUNTRY
SRVC.                Patterson: SERVICE COMPANY
DATE.          Thu Oct 27 20:08:30 2005: LOG DATE
UWI.           05 071 08552 00: UNIQUE WELL ID
~Curve Information Block
DEPT.FT            0 000 00 00: Depth
SN.Ohm-m                      : IEL Short Normal
SP.mV                         : IEL Spontaneous Potential
DIR.Ohm-m                     : IEL Induction Resistivity
GR.GAPI                       : Gamma Ray
~Parameter Information Block
~A  Depth        SN          SP         DIR          GR     
# ...
  1168.5000   2000.0000   2000.0000     16.2173    122.9855
  1168.7500   2000.0000   2000.0000     16.0429    122.8529
  1169.0000   2000.0000   2000.0000     15.8929    122.2403
  1169.2500   2000.0000   2000.0000     15.7733    121.9198
  1169.5000   2000.0000   2000.0000     15.6963    121.8870
  1169.7500   2000.0000   2000.0000     15.6792    121.9197
  1170.0000   2000.0000   2000.0000     15.7349    121.3809
  1170.2500   2000.0000   2000.0000     15.8610    120.5326
  1170.5000   2000.0000   2000.0000     16.0361    119.0636
  1170.7500   2000.0000   2000.0000     16.2260    118.3229
  1171.0000   2000.0000   2000.0000     16.3987    117.5679
  1171.2500   2000.0000   2000.0000     16.5364    116.9983
  1171.5000   2000.0000   2000.0000     16.6364    115.7133
  1171.7500   2000.0000   2000.0000     16.7028    114.6947
  1172.0000   2000.0000   2000.0000     16.7378    113.4953
  1172.2500   2000.0000   2000.0000     16.7421    113.2236
  1172.5000   2000.0000   2000.0000     16.7202    113.6860
  1172.7500   2000.0000   2000.0000     16.6821    114.3520
  1173.0000   2000.0000   2000.0000     16.6396    115.5704
  1173.2500   2000.0000   2000.0000     16.6007    116.5981
  1173.5000   2000.0000   2000.0000     16.5688    118.6129
  1173.7500   2000.0000   2000.0000     16.5464    120.0117
  1174.0000   2000.0000   2000.0000     16.5381    121.2157
  1174.2500   2000.0000   2000.0000     16.5489    121.0151
  1174.5000   2000.0000   2000.0000     16.5799    119.5053
  1174.7500   2000.0000   2000.0000     16.6230    118.3455
  1175.0000   2000.0000   2000.0000     16.6635    117.5874
  1175.2500   2000.0000   2000.0000     16.6875    118.1430
  1175.5000   2000.0000   2000.0000     16.6912    120.4333
  1175.7500   2000.0000   2000.0000     16.6825    122.3963
  1176.0000   2000.0000   2000.0000     16.6738    124.7152
  1176.2500   2000.0000   2000.0000     16.6741    125.2333
  1176.5000   2000.0000   2000.0000     16.6878    124.2525
  1176.7500   2000.0000   2000.0000     16.7223    122.8838
  1177.0000   2000.0000   2000.0000     16.7953    121.0115
  1177.2500   2000.0000   2000.0000     16.9323    120.4324
  1177.5000   2000.0000   2000.0000     17.1533    120.6501
  1177.7500   2000.0000   2000.0000     17.4569    121.0225
  1178.0000   2000.0000   2000.0000     17.8145    120.6095
  1178.2500   2000.0000   2000.0000     18.1810    119.2014
  1178.5000   2000.0000   2000.0000     18.5167    115.7701
  1178.7500   2000.0000   2000.0000     18.8061    113.3270
  1179.0000   2000.0000   2000.0000     19.0606    110.4930
  1179.2500   2000.0000   2000.0000     19.3079    109.3391
  1179.5000   2000.0000   2000.0000     19.5763    108.2990
  1179.7500   2000.0000   2000.0000     19.8843    107.5689
  1180.0000   2000.0000   2000.0000     20.2364    105.5683
  1180.2500   2000.0000   2000.0000     20.6299    103.4477
  1180.5000   2000.0000   2000.0000     21.0675     99.5933
  1180.7500   2000.0000   2000.0000     21.5645     97.1683
  1181.0000   2000.0000   2000.0000     22.1446     94.7325
  1181.2500   2000.0000   2000.0000     22.8255     94.3157
  1181.5000   2000.0000   2000.0000     23.6053     95.8008
  1181.7500   2000.0000   2000.0000     24.4559     97.9809
  1182.0000   2000.0000   2000.0000     25.3280    101.6796
  1182.2500   2000.0000   2000.0000     26.1651    103.2165
  1182.5000   2000.0000   2000.0000     26.9246    102.3568
  1182.7500   2000.0000   2000.0000     27.5924     99.4149
  1183.0000   2000.0000   2000.0000     28.1814     92.6006
  1183.2500   2000.0000   2000.0000     28.7161     87.6709
  1183.5000   2000.0000   2000.0000     29.2156     81.4717
  1183.7500   2000.0000   2000.0000     29.6890     78.4423
  1184.0000   2000.0000   2000.0000     30.1440     74.8517
  1184.2500   2000.0000   2000.0000     30.6004     72.4954
  1184.5000   2000.0000   2000.0000     31.0956     68.5008
  1184.7500   2000.0000   2000.0000     31.6733     65.5272
  1185.0000   2000.0000   2000.0000     32.3618     60.8106
  1185.2500   2000.0000   2000.0000     33.1525     57.7490
  1185.5000   2000.0000   2000.0000     33.9968     53.9578
  1185.7500   2000.0000   2000.0000     34.8261     52.2747
  1186.0000   2000.0000   2000.0000     35.5877     50.8467
  1186.2500   2000.0000   2000.0000     36.2706     50.1412
  1186.5000   2000.0000   2000.0000     36.9018     48.6315
  1186.7500   2000.0000   2000.0000     37.5074     47.1332
  1187.0000   2000.0000   2000.0000     38.0656     44.2689
  1187.2500   2000.0000   2000.0000     38.4876     42.1414
  1187.5000   2000.0000   2000.0000     38.6563     39.0510
  1187.7500   2000.0000   2000.0000     38.5086     37.3157
  1188.0000   2000.0000   2000.0000     38.0873     35.4467
  1188.2500   2000.0000   2000.0000     37.5017     34.6462
  1188.5000   2000.0000   2000.0000     36.8356     33.8627
  1188.7500   2000.0000   2000.0000     36.0971     33.6030
  1189.0000   2000.0000   2000.0000     35.2456     34.1817
  1189.2500   2000.0000   2000.0000     34.2499     35.8510
  1189.5000   2000.0000   2000.0000     33.1174     41.3286
  1189.7500   2000.0000   2000.0000     31.8812     47.2801
  1190.0000   2000.0000   2000.0000     30.5778     59.4452
  1190.2500   2000.0000   2000.0000     29.2396     68.9950
  1190.5000   2000.0000   2000.0000     27.8990     83.2565
  1190.7500   2000.0000   2000.0000     26.5924     91.3440
  1191.0000   2000.0000   2000.0000     25.3597    100.0271
  1191.2500   2000.0000   2000.0000     24.2384    103.4708
  1191.5000   2000.0000   2000.0000     23.2556    105.6163
  1191.7500   2000.0000   2000.0000     22.4197    105.4216
  1192.0000   2000.0000   2000.0000     21.7203    103.4860
  1192.2500   2000.0000   2000.0000     21.1339    101.5483
  1192.5000   2000.0000   2000.0000     20.6345     98.2008
  1192.7500   2000.0000   2000.0000     20.2032     95.9539
  1193.0000   2000.0000   2000.0000     19.8336     93.3377
  1193.2500   2000.0000   2000.0000     19.5294     92.5578
  1193.5000   2000.0000   2000.0000     19.3006     92.9057
  1193.7500   2000.0000   2000.0000     19.1580     93.6644
  1194.0000   2000.0000   2000.0000     19.1115     94.5847
  1194.2500   2000.0000   2000.0000     19.1669     94.8555
  1194.5000   2000.0000   2000.0000     19.3229     95.3886
  1194.7500   2000.0000   2000.0000     19.5667     96.5113
  1195.0000   2000.0000   2000.0000     19.8716    100.0709
  1195.2500   2000.0000   2000.0000     20.1971    103.4874
  1195.5000   2000.0000   2000.0000     20.4957    109.0053
  1195.7500   2000.0000   2000.0000     20.7263    112.1701
  1196.0000   2000.0000   2000.0000     20.8719    115.0683
  1196.2500   2000.0000   2000.0000     20.9485    115.3794
  1196.5000   2000.0000   2000.0000     20.9981    113.5193
  1196.7500   2000.0000   2000.0000     21.0689    111.2878
  1197.0000   2000.0000   2000.0000     21.1960    107.6955
  1197.2500   2000.0000   2000.0000     21.3908    105.6940
  1197.5000   2000.0000   2000.0000     21.6398    103.9004
  1197.7500   2000.0000   2000.0000     21.9066    103.7676
  1198.0000   2000.0000   2000.0000     22.1357    105.2699
  1198.2500   2000.0000   2000.0000     22.2645    107.1035
  1198.5000   2000.0000   2000.0000     22.2427    109.9781
  1198.7500   2000.0000   2000.0000     22.0560    111.1994
  1199.0000   2000.0000   2000.0000     21.7345    111.0760
  1199.2500   2000.0000   2000.0000     21.3398    109.6438
  1199.5000   2000.0000   2000.0000     20.9375    106.3557
  1199.7500   2000.0000   2000.0000     20.5736    104.4054
  1200.0000   2000.0000   2000.0000     20.2646    103.6871
  1200.2500   2000.0000   2000.0000     20.0012    105.1183
  1200.5000   2000.0000   2000.0000     19.7590    108.9768
  1200.7500   2000.0000   2000.0000     19.5096    111.3982
  1201.0000   2000.0000   2000.0000     19.2313    113.4387
  1201.2500   2000.0000   2000.0000     18.9160    113.9142
  1201.5000   2000.0000   2000.0000     18.5722    114.3143
  1201.7500   2000.0000   2000.0000     18.2223    114.5594
