~Version Information
VERS.                      2.0: CWLS Log ASCII Standard - VERSION 2.0
WRAP.                       NO: One line per depth step
~Well Information Block
STRT.FT                -8.2500: 
STOP.FT              2119.7500: 
STEP.FT                 0.2500: 
NULL.                -999.2500: 
COMP.          Pioneer Natural Resources: COMPANY
WELL.          Hemisphere 32-24: WELL
FLD.           Purgatorie River: FIELD
LOC.           1850' FNL & 2284' FEL--: LOCATION
PROV.                       CO: PROVINCE
CNTY.               Las Animas: COUNTRY
SRVC.          Patterson Wireline: SERVICE COMPANY
DATE.          Sat Aug 27 08:06:42 2005: LOG DATE
UWI.           05 071 08440 00: UNIQUE WELL ID
~Curve Information Block
DEPT.FT            0 000 00 00: Depth
CCL.                          : Casing Collar Locator
TT3.usec                      : CBL 3' Travel Time
AMP3.mV                       : CBL 3' Amplitude
GR.GAPI                       : Gamma Ray
~Parameter Information Block
~A  Depth       CCL         TT3         AMP3         GR     
# ...
   963.2500      0.0000    712.2722      6.0250    143.4066
   963.5000      0.0000    710.9261      5.9282    141.6269
   963.7500      0.0000    713.7200      5.8333    140.5845
   964.0000      0.0000    720.5825      5.7459    141.5062
   964.2500      0.0000    728.8842      5.6697    143.7919
   964.5000      0.0000    735.1873      5.6094    145.6183
   964.7500      0.0000    736.7979      5.5671    145.4635
   965.0000      0.0000    732.2413      5.5365    142.8821
   965.2500      0.0000    722.3664      5.4998    138.2038
   965.5000      0.0000    711.1779      5.4387    131.9264
   965.7500      0.0000    703.4498      5.3485    124.1963
   966.0000      0.0000    700.5051      5.2393    114.5933
   966.2500      0.0000    699.6130      5.1267    102.5350
   966.5000      0.0000    698.0101      5.0223     88.1076
   966.7500      0.0000    695.7369      4.9291     72.5438
   967.0000      0.0000    693.6708      4.8433     57.9043
   967.2500      0.0000    690.9198      4.7693     46.2292
   967.5000      0.0000    686.0325      4.7366     38.6498
   967.7500      0.0000    679.4418      4.7905     35.0066
   968.0000      0.0000    672.8550      4.9580     34.1942
   968.2500      0.0000    666.6021      5.2302     34.8497
   968.5000      0.0000    658.6658      5.5850     35.8899
   968.7500      0.0000    646.5370      5.9991     36.8240
   969.0000      0.0000    629.8546      6.4145     37.8193
   969.2500      0.0000    611.2167      6.7150     39.2245
   969.5000      0.0000    594.8497      6.7776     40.8363
   969.7500      0.0000    585.7669      6.5651     41.9064
   970.0000      0.0000    589.7396      6.1679     42.1585
   970.2500      0.0000    610.1685      5.7495     42.6222
   970.5000      0.0000    642.4215      5.4435     45.2730
   970.7500      0.0000    674.1838      5.2876     51.9721
   971.0000      0.0000    694.6646      5.2419     63.5485
   971.2500      0.0000    702.4045      5.2530     79.1060
   971.5000      0.0000    702.8731      5.2939     95.7988
   971.7500      0.0000    701.0479      5.3539    109.7777
   972.0000      0.0000    698.6416      5.4116    118.1556
   972.2500      0.0000    696.2803      5.4269    120.4742
   972.5000      0.0000    694.5925      5.3550    118.4457
   972.7500      0.0000    692.9639      5.1801    114.6796
   973.0000      0.0000    689.8806      4.9538    111.7222
   973.2500      0.0000    685.8436      4.7805    111.2693
   973.5000      0.0000    684.6525      4.7262    113.3693
   973.7500      0.0000    690.2980      4.7484    116.6759
   974.0000      0.0000    702.9172      4.7551    119.7600
   974.2500      0.0000    718.9385      4.7187    121.8182
   974.5000      0.0000    734.9833      4.6922    122.3278
   974.7500     -2.0000    750.5493      4.7311    121.1516
   975.0000      2.0000    767.2761      4.8413    119.3525
   975.2500      0.0000    786.6241      4.9970    118.9272
   975.5000      0.0000    807.4018      5.1891    121.0306
   975.7500      0.0000    823.9088      5.4485    124.8392
   976.0000      0.0000    827.6329      5.8093    128.5946
   976.2500      0.0000    813.3881      6.2379    131.3925
   976.5000      0.0000    784.2159      6.6285    133.2744
   976.7500      0.0000    749.5109      6.9015    133.8332
   977.0000      0.0000    718.6430      7.0810    131.9333
   977.2500      0.0000    696.4316      7.2425    127.3558
   977.5000      0.0000    683.1563      7.4128    121.8784
   977.7500      0.0000    677.0195      7.5475    117.8409
   978.0000      0.0000    676.1511      7.5832    115.7489
   978.2500      0.0000    678.9719      7.4908    113.7913
   978.5000      0.0000    683.4797      7.2931    109.8041
   978.7500      0.0000    687.0076      7.0455    103.6116
   979.0000      0.0000    687.5422      6.8046     97.5206
   979.2500      0.0000    685.4479      6.6096     94.7040
   979.5000      0.0000    683.4141      6.4824     96.8892
   979.7500      0.0000    684.2376      6.4307    102.9857
   980.0000      0.0000    688.5206      6.4441    109.6007
   980.2500      0.0000    694.1777      6.4900    113.4022
   980.5000      0.0000    697.8805      6.5229    113.6426
   980.7500      0.0000    697.2195      6.5046    112.5352
   981.0000      0.0000    692.1168      6.4221    113.1271
   981.2500      0.0000    684.6635      6.2874    116.8773
   981.5000      0.0000    677.6127      6.1229    123.0208
   981.7500      0.0000    672.7251      5.9544    129.6399
   982.0000      0.0000    670.1997      5.8121    135.0483
   982.2500      0.0000    669.2928      5.7260    138.4585
   982.5000      0.0000    669.1955      5.7099    139.7450
   982.7500      0.0000    669.4888      5.7506    138.9286
   983.0000      0.0000    670.1965      5.8158    136.1751
   983.2500      0.0000    671.7001      5.8718    132.2897
   983.5000      0.0000    674.3270      5.8950    128.9127
   983.7500      0.0000    677.2880      5.8740    127.6026
   984.0000      0.0000    677.4788      5.8053    128.2269
   984.2500      0.0000    669.9110      5.6914    128.6160
   984.5000      0.0000    650.9828      5.5445    126.4793
   984.7500      0.0000    622.6360      5.3907    121.5877
   985.0000      0.0000    593.4895      5.2649    115.6671
   985.2500      0.0000    575.2397      5.1975    110.4778
   985.5000      0.0000    576.8056      5.2020    106.3871
   985.7500      0.0000    600.1387      5.2728    102.5773
   986.0000      0.0000    639.6010      5.3924     98.3013
   986.2500      0.0000    684.4868      5.5407     93.9450
   986.5000      0.0000    723.2363      5.7019     90.7484
   986.7500      0.0000    747.8372      5.8637     89.4239
   987.0000      0.0000    756.7387      6.0100     89.4841
   987.2500      0.0000    754.3730      6.1165     90.1798
   987.5000      0.0000    746.9958      6.1603     91.5792
   987.7500      0.0000    738.5085      6.1377     94.3187
   988.0000      0.0000    730.5928      6.0708     98.6072
   988.2500      0.0000    725.5385      5.9947    103.7004
   988.5000      0.0000    726.0145      5.9343    108.1867
   988.7500      0.0000    731.4103      5.8934    110.6055
   989.0000      0.0000    736.6468      5.8624    109.8809
   989.2500      0.0000    735.9741      5.8364    105.5418
   989.5000      0.0000    727.8326      5.8230     98.0853
   989.7500      0.0000    716.0536      5.8323     89.3568
   990.0000      0.0000    705.8755      5.8654     81.8941
   990.2500      0.0000    697.3611      5.9157     77.2016
   990.5000      0.0000    682.8376      5.9762     74.8493
   990.7500      0.0000    653.8590      6.0378     73.6004
   991.0000      0.0000    613.0045      6.0831     73.0146
   991.2500      0.0000    576.6888      6.0897     73.4719
   991.5000      0.0000    562.4874      6.0445     75.0008
   991.7500      0.0000    573.7126      5.9523     76.8800
   992.0000      0.0000    598.5999      5.8317     78.4376
   992.2500      0.0000    622.9595      5.7066     79.7763
   992.5000      0.0000    640.3492      5.6004     81.6576
   992.7500      0.0000    651.4861      5.5329     84.7118
   993.0000      0.0000    658.7223      5.5148     88.4392
   993.2500      0.0000    663.1011      5.5422     90.9137
   993.5000      0.0000    664.9521      5.5996     89.9488
   993.7500      0.0000    665.1362      5.6706     84.9258
   994.0000      0.0000    665.0064      5.7503     77.4034
   994.2500      0.0000    665.2243      5.8463     69.8974
   994.5000      0.0000    664.7830      5.9639     64.2243
   994.7500      0.0000    661.0731      6.0910     60.8523
   995.0000      0.0000    651.3351      6.2012     59.2754
   995.2500      0.0000    635.6353      6.2737     58.7357
   995.5000      0.0000    619.4374      6.3078     58.8566
   995.7500      0.0000    611.4613      6.3210     59.8191
   996.0000      0.0000    616.5895      6.3362     61.8365
   996.2500      0.0000    631.3397      6.3680     64.5387
   996.5000      0.0000    647.4662      6.4118     67.0987
