~Version Information
VERS.                      2.0: CWLS Log ASCII Standard - VERSION 2.0
WRAP.                       NO: One line per depth step
~Well Information Block
STRT.FT                -8.5000: 
STOP.FT              1214.7500: 
STEP.FT                 0.2500: 
NULL.                -999.2500: 
COMP.          Pioneer Natural Resources: COMPANY
WELL.          Rock Island 44-24 Tr: WELL
FLD.           Purgatorie River: FIELD
LOC.           814' FSL & 761' FEL--: LOCATION
CNTY.               Las Animas: COUNTY
SRVC.          Patterson Wireline: SERVICE COMPANY
DATE.          Fri Apr 28 10:23:18 2006: LOG DATE
UWI.           05 071 08680 00: UNIQUE WELL ID
STAT.                       CO: STATE
~Curve Information Block
DEPT.FT            0 000 00 00: Depth
CCL.                          : Casing Collar Locator
TT3.usec                      : CBL 3' Travel Time
AMP3.mV                       : CBL 3' Amplitude
GR.GAPI                       : Gamma Ray
~Parameter Information Block
~A  Depth       CCL         TT3         AMP3         GR     
# ...
  1030.0000      0.0000    630.6398      6.0056    108.5061
  1030.2500      0.0000    610.2738      6.0155    114.0787
  1030.5000      0.0000    605.4100      6.0282    117.6671
  1030.7500      0.0000    617.4225      6.0358    117.6154
  1031.0000      0.0000    639.9014      6.0259    112.9000
  1031.2500      0.0000    664.3851      5.9998    104.7822
  1031.5000      0.0000    682.8512      5.9773     97.1051
  1031.7500      0.0000    687.4399      5.9802     94.0255
  1032.0000      0.0000    672.7084      6.0121     96.9750
  1032.2500      0.0000    641.1415      6.0525    103.6409
  1032.5000      0.0000    605.3843      6.0711    109.7634
  1032.7500      0.0000    581.3738      6.0512    112.2344
  1033.0000      0.0000    576.6270      6.0026    111.0359
  1033.2500      0.0000    585.6307      5.9532    108.5254
  1033.5000      0.0000    597.4775      5.9291    106.9505
  1033.7500      0.0000    606.1854      5.9373    106.6230
  1034.0000      0.0000    612.4767      5.9640    106.3538
  1034.2500      0.0000    618.5330      5.9904    105.3959
  1034.5000      0.0000    624.5649      6.0100    104.5381
  1034.7500      0.0000    629.6022      6.0312    105.0489
  1035.0000      0.0000    632.8826      6.0621    107.0181
  1035.2500      0.0000    634.3622      6.0974    109.2611
  1035.5000      0.0000    635.2532      6.1222    110.6103
  1035.7500      0.0000    637.4081      6.1256    110.7612
  1036.0000      0.0000    640.6033      6.1070    109.8587
  1036.2500      0.0000    641.7639      6.0708    107.6678
  1036.5000      0.0000    638.8259      6.0212    103.6538
  1036.7500      0.0000    633.3354      5.9634     98.0168
  1037.0000      0.0000    626.8347      5.9063     92.1051
  1037.2500      0.0000    616.7224      5.8599     87.4324
  1037.5000      0.0000    598.5132      5.8298     84.6408
  1037.7500      0.0000    571.6046      5.8149     83.7305
  1038.0000      0.0000    542.1324      5.8118     84.7360
  1038.2500      0.0000    520.4513      5.8218     87.5923
  1038.5000      0.0000    514.8190      5.8519     91.5820
  1038.7500      0.0000    526.4440      5.9080     95.4782
  1039.0000      0.0000    550.8269      5.9893     98.3033
  1039.2500      0.0000    582.0455      6.0908     99.6431
  1039.5000      0.0000    613.8441      6.2111     99.2205
  1039.7500      0.0000    639.5654      6.3550     96.6111
  1040.0000      0.0000    655.4876      6.5276     91.8314
  1040.2500      0.0000    663.2874      6.7222     86.0565
  1040.5000      0.0000    666.7437      6.9116     81.2607
  1040.7500      0.0000    667.6831      7.0535     78.8860
  1041.0000      0.0000    667.5797      7.1131     78.9616
  1041.2500      0.0000    670.7967      7.0914     80.5170
  1041.5000      0.0000    682.2182      7.0323     82.6532
  1041.7500      0.0000    701.5897      6.9974     85.0842
  1042.0000      0.0000    722.9213      7.0287     87.8511
  1042.2500      0.0000    740.0247      7.1309     91.0900
  1042.5000      0.0000    751.1884      7.2758     95.3389
  1042.7500      0.0000    758.1779      7.4155    101.5484
  1043.0000      0.0000    762.4520      7.4973    110.2170
  1043.2500      0.0000    764.0708      7.4815    120.5535
  1043.5000      0.0000    763.7922      7.3562    130.6067
  1043.7500      0.0000    763.6054      7.1435    138.1570
  1044.0000      0.0000    763.9779      6.8930    141.7899
  1044.2500      0.0000    762.2285      6.6624    141.6402
  1044.5000      0.0000    755.1713      6.4924    139.1609
  1044.7500      0.0000    742.6382      6.3905    135.9876
  1045.0000      0.0000    727.8346      6.3360    133.0097
  1045.2500      0.0000    714.8637      6.2970    130.2665
  1045.5000      0.0000    706.1485      6.2467    127.4334
  1045.7500      0.0000    701.4904      6.1736    124.8167
  1046.0000      0.0000    699.1123      6.0851    124.2233
  1046.2500      0.0000    697.9160      6.0012    128.0861
  1046.5000      0.0000    699.1765      5.9415    136.9601
  1046.7500      0.0000    705.5593      5.9160    148.0897
  1047.0000      0.0000    717.5361      5.9260    156.8857
  1047.2500      0.0000    730.7145      5.9693    160.0163
  1047.5000      0.0000    737.7884      6.0428    157.2404
  1047.7500      0.0000    734.0546      6.1396    150.5719
  1048.0000      0.0000    721.0897      6.2421    142.0268
  1048.2500      0.0000    705.0892      6.3189    132.2859
  1048.5000      0.0000    692.2134      6.3391    121.2695
  1048.7500      0.0000    685.6243      6.2975    109.5749
  1049.0000      0.0000    685.6971      6.2240     99.0313
  1049.2500      0.0000    691.0203      6.1607     91.9609
  1049.5000      0.0000    698.1501      6.1289     90.2538
  1049.7500      0.0000    701.4783      6.1180     94.9422
  1050.0000      0.0000    695.5760      6.1041    105.7129
  1050.2500      0.0000    679.2715      6.0734    120.2128
  1050.5000      0.0000    657.7814      6.0318    134.3529
  1050.7500      0.0000    640.3561      5.9953    144.2834
  1051.0000      0.0000    634.4414      5.9719    148.5488
  1051.2500      0.0000    640.6368      5.9539    148.2793
  1051.5000      0.0000    653.0507      5.9292    145.4559
  1051.7500      0.0000    664.6598      5.8950    141.3739
  1052.0000      0.0000    672.0108      5.8582    136.8294
  1052.2500      0.0000    675.4442      5.8269    133.1885
  1052.5000      0.0000    676.6588      5.8051    132.3094
  1052.7500      0.0000    676.9427      5.7953    134.8909
  1053.0000      0.0000    676.9207      5.7986    139.3887
  1053.2500      0.0000    676.8532      5.8116    143.2320
  1053.5000      0.0000    676.7834      5.8247    145.0410
  1053.7500      0.0000    676.5240      5.8242    145.3730
  1054.0000      0.0000    675.8428      5.8007    145.4497
  1054.2500      0.0000    674.9750      5.7578    145.5424
  1054.5000      0.0000    674.8317      5.7080    144.7809
  1054.7500      0.0000    676.1997      5.6576    142.2047
  1055.0000      0.0000    678.5973      5.5958    137.7126
  1055.2500      0.0000    680.3529      5.5135    132.3118
  1055.5000      0.0000    679.7543      5.4372    127.7414
  1055.7500      0.0000    675.4440      5.4229    125.3738
  1056.0000      0.0000    665.9020      5.4961    125.0620
  1056.2500      0.0000    649.8212      5.6128    125.4096
  1056.5000      0.0000    627.8785      5.7056    125.4166
  1056.7500      0.0000    604.1770      5.7549    125.4632
  1057.0000      0.0000    585.8961      5.7881    126.6372
  1057.2500      0.0000    581.1052      5.8330    129.5090
  1057.5000      2.0000    594.9208      5.9009    133.4725
  1057.7500      0.0000    625.1348      6.0006    136.9557
  1058.0000      0.0000    661.2643      6.1481    138.4032
  1058.2500      0.0000    690.3913      6.3613    137.3706
  1058.5000      0.0000    705.8374      6.6340    134.5687
  1058.7500      0.0000    709.9151      6.9039    130.8430
  1059.0000      0.0000    708.3168      7.0737    126.6279
  1059.2500      0.0000    703.8253      7.0995    122.5841
  1059.5000      0.0000    696.5352      7.0419    120.0841
  1059.7500      0.0000    687.9675      7.0016    120.4792
  1060.0000      0.0000    681.6663      7.0256    124.0222
  1060.2500      0.0000    679.1504      7.0899    129.6226
  1060.5000      0.0000    677.4097      7.1430    135.3029
  1060.7500      0.0000    671.0420      7.1445    138.8747
  1061.0000      0.0000    655.2608      7.0820    138.9509
  1061.2500      0.0000    627.4310      6.9720    135.9070
  1061.5000      0.0000    588.9290      6.8485    131.5757
  1061.7500      0.0000    546.1855      6.7439    127.6510
  1062.0000      0.0000    507.5398      6.6763    124.5609
  1062.2500      0.0000    478.2085      6.6452    121.9577
  1062.5000      0.0000    458.9432      6.6333    119.7541
  1062.7500      0.0000    448.6474      6.6163    118.3781
  1063.0000      0.0000    446.0436      6.5776    118.2401
  1063.2500      0.0000    448.5016      6.5184    119.0955
