~Version Information
VERS.                      2.0: CWLS Log ASCII Standard - VERSION 2.0
WRAP.                       NO: One line per depth step
~Well Information Block
STRT.FT                -7.7500: 
STOP.FT              1420.5000: 
STEP.FT                 0.2500: 
NULL.                -999.2500: 
COMP.          Pioneer Natural Resources: COMPANY
WELL.          Parklane 43-34 Tr: WELL
FLD.           Purgatorie River: FIELD
LOC.           1643' FSL & 966' FEL--: LOCATION
PROV.                       CO: PROVINCE
CNTY.               Las Animas: COUNTRY
SRVC.          Patterson Wireline: SERVICE COMPANY
DATE.          Tue Aug 02 11:35:27 2005: LOG DATE
UWI.           05 071 08452 00: UNIQUE WELL ID
~Curve Information Block
DEPT.FT            0 000 00 00: Depth
CCL.                          : Casing Collar Locator
TT3.usec                      : CBL 3' Travel Time
AMP3.mV                       : CBL 3' Amplitude
GR.GAPI                       : Gamma Ray
~Parameter Information Block
~A  Depth       CCL         TT3         AMP3         GR     
# ...
  1298.7500      0.0000    610.4208     10.3139     88.9605
  1299.0000      0.0000    611.0209     10.3660     84.4087
  1299.2500      0.0000    618.2076     10.4040     78.7690
  1299.5000      0.0000    625.8491     10.4442     74.8262
  1299.7500      0.0000    622.4556     10.5013     74.4690
  1300.0000      0.0000    608.4852     10.5774     77.8014
  1300.2500      0.0000    600.4377     10.6600     83.6300
  1300.5000      0.0000    614.3779     10.7301     90.1219
  1300.7500      0.0000    645.9879     10.7734     95.3658
  1301.0000      0.0000    669.9868     10.7867     98.2534
  1301.2500      0.0000    660.2716     10.7778     99.2852
  1301.5000      0.0000    610.5612     10.7615    100.4041
  1301.7500      0.0000    537.7367     10.7547    103.6577
  1302.0000      0.0000    467.6893     10.7696    109.6201
  1302.2500      0.0000    417.7654     10.8077    116.9777
  1302.5000      0.0000    390.0594     10.8583    123.7698
  1302.7500      0.0000    377.4229     10.8994    129.0743
  1303.0000      0.0000    373.3167     10.8992    133.3512
  1303.2500      0.0000    377.6900     10.8199    137.1888
  1303.5000      0.0000    396.7628     10.6214    139.9941
  1303.7500      0.0000    436.9391     10.2680    140.2537
  1304.0000      0.0000    496.2111      9.7552    136.9747
  1304.2500      0.0000    561.5173      9.1552    130.4928
  1304.5000      0.0000    617.0252      8.6103    121.9981
  1304.7500      0.0000    655.0255      8.2445    112.8350
  1305.0000      0.0000    677.6219      8.0799    104.3062
  1305.2500      0.0000    690.6526      8.0516     97.6490
  1305.5000     -2.0000    699.5146      8.0812     93.8169
  1305.7500      0.0000    708.6307      8.1195     93.2038
  1306.0000      0.0000    720.4601      8.1442     95.6283
  1306.2500      0.0000    734.3516      8.1525    100.4455
  1306.5000      0.0000    747.7130      8.1693    106.6326
  1306.7500      0.0000    758.3817      8.2502    112.9900
  1307.0000      0.0000    765.6506      8.4456    118.5025
  1307.2500      0.0000    769.7395      8.7363    122.6369
  1307.5000      0.0000    771.0685      9.0159    125.4504
  1307.7500      0.0000    770.3047      9.1639    127.4976
  1308.0000      0.0000    768.6840      9.1322    129.5883
  1308.2500      0.0000    767.4572      8.9522    132.6008
  1308.5000      0.0000    767.0360      8.6790    137.1176
  1308.7500      0.0000    767.4468      8.3561    142.4687
  1309.0000      0.0000    769.2661      8.0213    146.0399
  1309.2500      0.0000    773.0074      7.7193    144.4618
  1309.5000      0.0000    777.8725      7.4926    136.1931
  1309.7500      0.0000    782.1638      7.3634    122.8056
  1310.0000      0.0000    784.8361      7.3277    107.7190
  1310.2500      0.0000    786.0425      7.3645     93.9218
  1310.5000      0.0000    786.4470      7.4459     82.6707
  1310.7500      0.0000    786.4683      7.5459     73.7442
  1311.0000      0.0000    785.9664      7.6488     66.7106
  1311.2500      0.0000    784.0967      7.7551     61.9949
  1311.5000      0.0000    779.3590      7.8790     60.7058
  1311.7500      0.0000    770.4333      8.0407     63.3918
  1312.0000      0.0000    757.7645      8.2654     69.1280
  1312.2500      0.0000    744.4295      8.5779     75.9694
  1312.5000      0.0000    734.6086      8.9799     82.2541
  1312.7500      0.0000    730.4080      9.4260     87.3957
  1313.0000      0.0000    730.0991      9.8345     91.7469
  1313.2500      0.0000    729.7955     10.1330     96.0886
  1313.5000      0.0000    726.9644     10.2932    101.0856
  1313.7500      0.0000    722.1596     10.3297    106.7026
  1314.0000      0.0000    717.6337     10.2799    111.9405
  1314.2500      0.0000    715.1353     10.1808    115.2859
  1314.5000      0.0000    715.2429     10.0555    115.7453
  1314.7500      0.0000    717.7868      9.9165    113.7151
  1315.0000      0.0000    722.0121      9.7804    110.8945
  1315.2500      0.0000    726.5808      9.6729    109.2336
  1315.5000      0.0000    730.0833      9.6161    109.7978
  1315.7500      0.0000    731.6356      9.6119    112.4861
  1316.0000      0.0000    730.9012      9.6390    116.7416
  1316.2500      0.0000    728.0452      9.6648    122.2319
  1316.5000      0.0000    724.0723      9.6637    128.4903
  1316.7500      0.0000    720.7048      9.6326    134.1847
  1317.0000      0.0000    719.2803      9.5930    137.5747
  1317.2500      0.0000    719.8760      9.5775    137.8525
  1317.5000      0.0000    721.9851      9.6083    135.5245
  1317.7500      0.0000    726.0419      9.6867    131.4998
  1318.0000      0.0000    733.6010      9.7971    126.5347
  1318.2500      0.0000    745.4125      9.9180    121.6195
  1318.5000      0.0000    759.6295     10.0276    118.0592
  1318.7500      0.0000    772.6033     10.1030    116.6883
  1319.0000      0.0000    781.4626     10.1230    117.3389
  1319.2500      0.0000    785.5558     10.0817    119.2499
  1319.5000      0.0000    785.8380     10.0027    121.6193
  1319.7500      0.0000    783.8506      9.9344    123.6543
  1320.0000      0.0000    781.4309      9.9209    124.5299
  1320.2500      0.0000    780.4015      9.9743    123.6281
  1320.5000      0.0000    781.6265     10.0748    120.8360
  1320.7500      0.0000    784.4386     10.1931    116.7010
  1321.0000      0.0000    787.3923     10.3047    112.3342
  1321.2500      0.0000    789.4890     10.3885    108.8637
  1321.5000      0.0000    790.5869     10.4232    106.6548
  1321.7500      0.0000    791.0043     10.3958    105.0087
  1322.0000      0.0000    791.0833     10.3115    102.8676
  1322.2500      0.0000    791.0433     10.1934     99.9612
  1322.5000      0.0000    790.9899     10.0715     97.0449
  1322.7500      0.0000    790.9391      9.9687     94.9559
  1323.0000      0.0000    790.8212      9.8932     93.8367
  1323.2500      0.0000    790.4565      9.8417     93.4516
  1323.5000      0.0000    789.5223      9.8099     93.8391
  1323.7500      0.0000    787.6736      9.7971     95.3121
  1324.0000      0.0000    784.9890      9.7986     97.9359
  1324.2500      0.0000    782.4062      9.8010    101.2114
  1324.5000      0.0000    781.3364      9.7900    104.2816
  1324.7500      0.0000    782.4445      9.7599    106.2743
  1325.0000      0.0000    784.9620      9.7128    106.3586
  1325.2500      0.0000    787.4583      9.6537    103.9625
  1325.5000      0.0000    789.0712      9.5906     99.5095
  1325.7500      0.0000    789.8215      9.5341     94.5779
  1326.0000      0.0000    790.0963      9.4921     90.6424
  1326.2500      0.0000    790.1815      9.4644     87.7905
  1326.5000      0.0000    790.1919      9.4435     84.9219
  1326.7500      0.0000    790.1748      9.4192     80.8112
  1327.0000      0.0000    790.1647      9.3852     74.9498
  1327.2500      0.0000    790.1937      9.3419     68.1240
  1327.5000      0.0000    790.3223      9.2936     62.3724
  1327.7500      0.0000    790.7015      9.2437     59.6279
  1328.0000      0.0000    791.5867      9.1934     60.0655
  1328.2500      0.0000    793.1512      9.1446     62.0997
  1328.5000      0.0000    794.9911      9.1021     63.9202
  1328.7500      0.0000    795.7331      9.0718     64.7033
  1329.0000      0.0000    793.6755      9.0566     64.7583
  1329.2500      0.0000    788.4919      9.0529     65.2954
  1329.5000      0.0000    782.2308      9.0508     68.0309
  1329.7500      0.0000    778.0614      9.0414     74.3263
  1330.0000      0.0000    777.9924      9.0232     84.1219
  1330.2500      0.0000    782.0554      9.0017     95.6324
  1330.5000      0.0000    789.1989      8.9839    106.2984
  1330.7500      0.0000    797.8521      8.9736    114.4301
  1331.0000      0.0000    805.3866      8.9693    120.1732
  1331.2500      0.0000    808.4288      8.9659    124.8928
  1331.5000      0.0000    805.1927      8.9605    129.5236
  1331.7500      0.0000    797.4096      8.9552    133.3644
  1332.0000      0.0000    788.9443      8.9510    134.4919
