~Version Information
VERS.                      2.0: CWLS Log ASCII Standard - VERSION 2.0
WRAP.                       NO: One line per depth step
~Well Information Block
STRT.FT                -7.7500: 
STOP.FT              1793.5000: 
STEP.FT                 0.2500: 
NULL.                -999.2500: 
COMP.          Pioneer Natural Resources: COMPANY
WELL.           Loews 41-32 Tr: WELL
FLD.           Purgatorie River: FIELD
LOC.           706' FNL & 224' FEL--: LOCATION
CNTY.               Las Animas: COUNTY
SRVC.          Patterson Wireline: SERVICE COMPANY
DATE.          Fri Feb 24 11:31:48 2006: LOG DATE
UWI.           05 071 08690 00: UNIQUE WELL ID
STAT.                       CO: STATE
~Curve Information Block
DEPT.FT            0 000 00 00: Depth
CCL.                          : Casing Collar Locator
TT3.usec                      : CBL 3' Travel Time
AMP3.mV                       : CBL 3' Amplitude
GR.GAPI                       : Gamma Ray
~Parameter Information Block
~A  Depth       CCL         TT3         AMP3         GR     
# ...
   829.7500      0.0000    513.6710     15.2900     60.1202
   830.0000      0.0000    501.8391     15.3860     62.9171
   830.2500      0.0000    506.9929     15.3319     64.4814
   830.5000      0.0000    524.2511     15.1078     65.0000
   830.7500      0.0000    544.0186     14.7564     65.8267
   831.0000      0.0000    553.1204     14.3568     67.8110
   831.2500      0.0000    544.9273     13.9721     70.4498
   831.5000      0.0000    529.5533     13.6208     72.3612
   831.7500      0.0000    528.6314     13.2945     72.1734
   832.0000      0.0000    556.1775     12.9927     69.2610
   832.2500      0.0000    605.8859     12.7300     64.2424
   832.5000      0.0000    658.1551     12.5160     58.8965
   832.7500      0.0000    696.9234     12.3404     55.2656
   833.0000      0.0000    718.4438     12.1916     54.4774
   833.2500      0.0000    727.6705     12.0891     56.1357
   833.5000      0.0000    730.9749     12.0851     58.6494
   833.7500      0.0000    732.5417     12.2198     60.1814
   834.0000      0.0000    734.4130     12.4743     59.6972
   834.2500      0.0000    737.1158     12.7841     57.6080
   834.5000      0.0000    739.2863     13.1046     55.4857
   834.7500      0.0000    736.7338     13.4579     55.0121
   835.0000      0.0000    722.3184     13.9058     57.0837
   835.2500      0.0000    688.7925     14.4777     61.7593
   835.5000      0.0000    634.7747     15.1284     68.9122
   835.7500      0.0000    568.9849     15.7683     78.8711
   836.0000      0.0000    506.3128     16.3325     92.0750
   836.2500      0.0000    457.7659     16.8166    107.5996
   836.5000      0.0000    424.4779     17.2410    122.3049
   836.7500      0.0000    400.9768     17.5919    132.5201
   837.0000      0.0000    382.2798     17.8134    137.0835
   837.2500      0.0000    367.2549     17.8670    138.2229
   837.5000      0.0000    356.8541     17.7867    139.1657
   837.7500      0.0000    351.2146     17.6649    141.3580
   838.0000      0.0000    348.9810     17.5856    144.1218
   838.2500      0.0000    348.4155     17.5728    146.2269
   838.5000      0.0000    348.3602     17.5978    147.1594
   838.7500      0.0000    348.3328     17.6257    147.1148
   839.0000      0.0000    348.2195     17.6494    146.3450
   839.2500      0.0000    348.0593     17.6863    144.8650
   839.5000      0.0000    347.9179     17.7559    142.7137
   839.7500      0.0000    347.8199     17.8662    140.0200
   840.0000      0.0000    347.7008     18.0135    136.7477
   840.2500      0.0000    347.4547     18.1851    132.9097
   840.5000      0.0000    347.0424     18.3581    129.0836
   840.7500      0.0000    346.5491     18.5027    126.1339
   841.0000      0.0000    346.1233     18.5919    124.4314
   841.2500      0.0000    345.8686     18.6182    123.7201
   841.5000      0.0000    345.8028     18.5970    123.5576
   841.7500      0.0000    345.8992     18.5554    123.6527
   842.0000      0.0000    346.1248     18.5136    124.0238
   842.2500      0.0000    346.4303     18.4746    124.8624
   842.5000      0.0000    346.7288     18.4272    125.9275
   842.7500      0.0000    346.9124     18.3619    126.2869
   843.0000      0.0000    346.9290     18.2843    125.2707
   843.2500      0.0000    346.9030     18.2068    123.6906
   843.5000      0.0000    347.4597     18.1284    123.5543
   843.7500      0.0000    350.5020     18.0297    126.4145
   844.0000      0.0000    360.3201     17.8898    132.3047
   844.2500      0.0000    383.5745     17.6996    140.0145
   844.5000      0.0000    425.5634     17.4576    147.6589
   844.7500      0.0000    483.5237     17.1574    152.9970
   845.0000      0.0000    544.3781     16.7786    154.2330
   845.2500      0.0000    592.3954     16.2818    151.0508
   845.5000      0.0000    619.6773     15.6210    144.6715
   845.7500      0.0000    628.7085     14.7994    136.6779
   846.0000      0.0000    627.7889     13.9254    127.7280
   846.2500      0.0000    626.1206     13.1680    117.3937
   846.5000      0.0000    630.0394     12.6112    105.3522
   846.7500      0.0000    641.1943     12.1834     92.6506
   847.0000      0.0000    657.8619     11.7780     81.4188
   847.2500      0.0000    676.2664     11.4003     73.2802
   847.5000      0.0000    691.0541     11.1437     68.4491
   847.7500     -2.0000    698.5864     11.0743     66.2936
   848.0000      2.0000    700.6899     11.2049     66.0604
   848.2500      0.0000    701.7636     11.5588     66.9954
   848.5000      0.0000    700.5579     12.2220     68.5521
   848.7500      0.0000    686.8258     13.3014     70.7108
   849.0000      0.0000    648.6474     14.7611     73.5531
   849.2500      0.0000    584.5654     16.2806     76.3889
   849.5000      0.0000    508.3188     17.3946     77.9005
   849.7500      0.0000    440.1185     17.8702     77.3131
   850.0000      0.0000    392.9220     17.8726     75.1475
   850.2500      0.0000    367.2429     17.7247     72.8875
   850.5000      0.0000    356.4407     17.6105     72.2554
   850.7500      0.0000    353.8711     17.5376     74.7768
   851.0000      0.0000    355.6511     17.4572     81.5473
   851.2500      0.0000    360.0193     17.3464     92.8649
   851.5000      0.0000    366.2921     17.2150    107.6787
   851.7500      0.0000    374.4052     17.0844    123.2456
   852.0000      0.0000    384.9289     16.9708    135.6726
   852.2500      0.0000    400.2793     16.8780    141.7853
   852.5000      0.0000    426.0972     16.7996    141.2096
   852.7500      0.0000    468.6614     16.7256    136.4368
   853.0000      0.0000    527.8312     16.6555    130.6337
   853.2500      0.0000    593.4174     16.6015    125.7818
   853.5000      0.0000    650.9755     16.5737    122.8622
   853.7500      0.0000    690.9707     16.5629    122.6739
   854.0000      0.0000    711.7529     16.5449    125.5491
   854.2500      0.0000    715.3655     16.5095    130.5380
   854.5000      0.0000    703.1371     16.4839    135.5757
   854.7500      0.0000    676.2480     16.5182    138.7260
   855.0000      0.0000    639.0983     16.6395    139.3789
   855.2500      0.0000    599.0693     16.8163    138.4580
   855.5000      0.0000    561.3942     16.9760    137.6188
   855.7500      0.0000    526.2682     17.0645    138.0143
   856.0000      0.0000    492.3697     17.0876    139.3367
   856.2500      0.0000    461.3880     17.0932    139.9691
   856.5000      0.0000    437.7297     17.1183    138.4916
   856.7500      0.0000    424.3565     17.1618    135.1455
   857.0000      0.0000    419.0399     17.2104    131.4277
   857.2500      0.0000    414.6173     17.2789    128.2606
   857.5000      0.0000    404.0742     17.4076    125.1879
   857.7500      0.0000    386.3645     17.6143    121.6423
   858.0000      0.0000    366.9629     17.8590    118.4869
   858.2500      0.0000    352.4843     18.0650    117.6215
   858.5000      0.0000    345.4976     18.1783    119.8765
   858.7500      0.0000    344.1334     18.2062    123.7712
   859.0000      0.0000    345.1024     18.1982    126.9376
   859.2500      0.0000    346.2190     18.2008    128.5372
   859.5000      0.0000    346.7917     18.2315    129.6253
   859.7500      0.0000    346.8918     18.2865    131.3410
   860.0000      0.0000    346.7169     18.3568    133.6351
   860.2500      0.0000    346.4077     18.4349    135.9548
   860.5000      0.0000    346.0770     18.5141    138.3814
   860.7500      0.0000    345.8153     18.5890    141.4548
   861.0000      0.0000    345.6565     18.6599    145.1527
   861.2500      0.0000    345.5597     18.7345    148.5649
   861.5000      0.0000    345.4511     18.8178    150.4645
   861.7500      0.0000    345.2842     18.8970    149.8535
   862.0000      0.0000    345.0660     18.9423    146.0388
   862.2500      0.0000    344.8413     18.9293    138.6658
   862.5000      0.0000    344.6660     18.8597    128.0857
   862.7500      0.0000    344.5905     18.7555    115.7698
   863.0000      0.0000    344.6487     18.6378    104.1343
