~Version Information
VERS.                      2.0: CWLS Log ASCII Standard - VERSION 2.0
WRAP.                       NO: One line per depth step
~Well Information Block
STRT.FT               490.0000: 
STOP.FT              2303.5000: 
STEP.FT                 0.1000: 
NULL.                -999.2500: 
COMP.          Pioneer Natural Resources: COMPANY
WELL.             Baa Baa 34-1: WELL
FLD.           Purgatoire River: FIELD
LOC.           617' FSL & 2289' FEL: LOCATION
STAT.                 Colorado: State
CNTY.               Las Animas: COUNTY
CTRY. USA : Country
SECT. 1 : Section
TOWN. 33S : Township
RANG. 67W : Range
SRVC.                Patterson: SERVICE COMPANY
DATE.          Thu Sep 08 09:44:32 2005: LOG DATE
API.           05 071 08502 00: UNIQUE WELL ID
~Curve Information Block
DEPT.FT            0 000 00 00: Depth
DCAL.in                       : CDL Caliper
RHOB.g/cc                     : CDL Bulk Density
RHOC.g/cc                     : CDL Density Correction
DPOR.pu                       : CDL Density Porosity
GR.GAPI                       : Gamma Ray
NPOR.pu                       : Neutron Porosity
~Parameter Information Block
~A  Depth       DCAL        RHOB        RHOC        DPOR         GR         NPOR    
# ...
   970.0000      7.9099      2.3592     -0.0211     17.6255    147.5852     23.1951
   970.1000      7.9099      2.3003     -0.0538     21.1962    156.9513     22.5793
   970.2000      7.9099      2.2806     -0.0072     22.3901    157.6031     22.8984
   970.3000      7.8816      2.2952      0.0628     21.5024    149.8195     23.7580
   970.4000      7.8816      2.3415      0.0357     18.6986    141.6857     24.3299
   970.5000      7.9271      2.4281      0.1491     13.4469    138.4373     24.8191
   970.6000      7.9271      2.5385      0.2693      6.7587    138.6510     25.5533
   970.7000      7.9271      2.6293      0.4042      1.2530    139.3824     26.0744
   970.8000      7.9983      2.6766      0.4233     -1.6146    139.3654     26.2141
   970.9000      7.9983      2.6915      0.4132     -2.5162    137.3148     26.1483
   971.0000      8.0225      2.6880      0.3222     -2.3007    130.6776     25.7374
   971.1000      8.0225      2.6728      0.2011     -1.3822    124.0674     24.9068
   971.2000      8.0225      2.6602      0.1575     -0.6187    125.8239     24.3727
   971.3000      8.0389      2.6531      0.1988     -0.1861    133.6962     24.8051
   971.4000      8.0389      2.6415      0.0686      0.5135    138.8034     25.4338
   971.5000      8.0420      2.6295      0.0923      1.2438    138.2756     25.4299
   971.6000      8.0420      2.6162      0.0830      2.0471    137.6251     25.1215
   971.7000      8.0420      2.5905      0.0630      3.6088    141.2026     24.8967
   971.8000      8.0515      2.5574      0.0211      5.6136    145.4909     24.9299
   971.9000      8.0515      2.5303     -0.0197      7.2541    144.6237     25.1468
   972.0000      8.0607      2.5047      0.0129      8.8060    137.6666     25.4666
   972.1000      8.0607      2.4791     -0.0410     10.3573    130.7552     26.0214
   972.2000      8.0607      2.4740     -0.0742     10.6662    132.1966     26.5471
   972.3000      8.0613      2.4920      0.0453      9.5763    138.1199     26.7583
   972.4000      8.0613      2.5065      0.0637      8.6974    138.1852     26.6088
   972.5000      8.0237      2.5108     -0.0178      8.4372    135.1124     26.2637
   972.6000      8.0237      2.5190      0.0442      7.9396    133.6703     26.2730
   972.7000      8.0237      2.5311      0.0262      7.2032    134.7658     26.8035
   972.8000      7.9922      2.5412      0.0447      6.5959    140.7384     27.2360
   972.9000      7.9922      2.5493      0.0490      6.1044    150.2318     27.0280
   973.0000      7.9763      2.5599      0.0077      5.4635    156.3289     26.3800
   973.1000      7.9763      2.5753      0.0343      4.5275    152.8745     26.0183
   973.2000      7.9763      2.5839      0.0983      4.0085    144.9179     26.1207
   973.3000      7.9935      2.5734      0.0876      4.6440    140.0298     26.2489
   973.4000      7.9935      2.5543      0.0275      5.7980    138.6016     26.3132
   973.5000      8.0012      2.5454      0.0237      6.3401    139.9699     26.5734
   973.6000      8.0012      2.5442      0.0343      6.4141    141.9254     26.9891
   973.7000      8.0012      2.5332     -0.0002      7.0770    140.1536     27.3483
   973.8000      8.0147      2.5159     -0.0131      8.1273    134.2565     27.4606
   973.9000      8.0147      2.5209     -0.0560      7.8217    124.5862     27.3908
   974.0000      8.0389      2.5545      0.0215      5.7849    116.7751     27.3378
   974.1000      8.0389      2.5832      0.0377      4.0459    115.4743     27.1514
   974.2000      8.0389      2.5892      0.0066      3.6865    118.8628     26.7930
   974.3000      8.0623      2.5828      0.0420      4.0741    125.3536     26.7190
   974.4000      8.0623      2.5671      0.0070      5.0237    128.9401     27.0839
   974.5000      8.0495      2.5458      0.0016      6.3136    126.0976     27.2011
   974.6000      8.0495      2.5334     -0.0378      7.0681    123.1072     26.6998
   974.7000      8.0495      2.5279      0.0480      7.3980    123.7902     26.1513
   974.8000      8.0220      2.5136      0.0210      8.2689    121.9596     25.9706
   974.9000      8.0220      2.4960     -0.0123      9.3335    117.4219     26.1173
   975.0000      7.9769      2.4971     -0.0567      9.2678    118.0968     26.2384
   975.1000      7.9769      2.5106      0.0393      8.4465    121.1379     25.9218
   975.2000      7.9769      2.5075      0.0400      8.6344    119.7627     25.2653
   975.3000      7.9903      2.4872     -0.0108      9.8659    115.6522     24.9870
   975.4000      7.9903      2.4737      0.0148     10.6864    115.1710     25.5309
   975.5000      7.9930      2.4749      0.0117     10.6114    120.6590     26.2538
   975.6000      7.9930      2.4764      0.0438     10.5199    127.5374     26.2836
   975.7000      7.9930      2.4717     -0.0011     10.8065    125.3471     25.8423
   975.8000      8.0024      2.4790     -0.0263     10.3608    109.8515     25.5247
   975.9000      8.0024      2.5068      0.0276      8.6779     93.5764     25.3290
   976.0000      7.9997      2.5365      0.0333      6.8818     88.0195     25.1219
   976.1000      7.9997      2.5512      0.0122      5.9851     90.8532     25.0611
   976.2000      7.9997      2.5546      0.0264      5.7835     94.8354     25.2266
   976.3000      8.0052      2.5581      0.0017      5.5687     95.3086     25.2538
   976.4000      8.0052      2.5701      0.0286      4.8398     91.9071     25.1213
   976.5000      7.9928      2.5877      0.0362      3.7767     89.3591     24.9647
   976.6000      7.9928      2.5981      0.0959      3.1441     87.9960     24.4157
   976.7000      7.9928      2.5954      0.0567      3.3097     82.6236     23.5925
   976.8000      7.9607      2.5893      0.0156      3.6806     74.0311     23.1962
   976.9000      7.9607      2.5795      0.0399      4.2715     68.6204     23.0862
   977.0000      7.9515      2.5537      0.0297      5.8343     70.8241     22.7442
   977.1000      7.9515      2.5219     -0.0524      7.7652     76.8633     22.3192
   977.2000      7.9515      2.5047     -0.0013      8.8038     79.1321     22.1322
   977.3000      7.9558      2.5035     -0.0131      8.8799     76.2080     22.2057
   977.4000      7.9558      2.5075      0.0116      8.6391     72.1940     22.3181
   977.5000      7.9654      2.5102     -0.0189      8.4739     70.6954     22.1844
   977.6000      7.9654      2.5165     -0.0117      8.0908     71.0520     21.7999
   977.7000      7.9654      2.5301      0.0220      7.2657     69.8127     21.3661
   977.8000      7.9614      2.5463      0.0283      6.2842     67.3471     21.1079
   977.9000      7.9614      2.5593      0.0576      5.4955     65.2861     20.9681
   978.0000      7.9585      2.5657      0.0489      5.1103     61.2916     20.7223
   978.1000      7.9585      2.5630      0.0368      5.2701     55.6934     20.3232
   978.2000      7.9585      2.5489      0.0284      6.1276     52.7866     19.9215
   978.3000      7.9274      2.5262      0.0148      7.5009     53.2911     19.7933
   978.4000      7.9274      2.5138     -0.0237      8.2566     52.8095     19.7477
   978.5000      7.9416      2.5289     -0.0112      7.3374     49.0100     19.4232
   978.6000      7.9416      2.5525      0.0803      5.9063     44.9127     18.8475
   978.7000      7.9416      2.5454      0.0275      6.3388     44.7048     18.1674
   978.8000      7.9542      2.5032     -0.0044      8.8950     47.7784     17.6961
   978.9000      7.9542      2.4595     -0.0327     11.5438     49.8161     17.6646
   979.0000      7.9526      2.4385      0.0060     12.8211     48.3450     17.7940
   979.1000      7.9526      2.4354     -0.0171     13.0030     44.6911     17.5790
   979.2000      7.9526      2.4421      0.0268     12.5979     41.6861     17.1276
   979.3000      7.9588      2.4568      0.0256     11.7102     39.2229     16.8776
   979.4000      7.9588      2.4772      0.0471     10.4757     35.6722     16.8452
   979.5000      7.9712      2.4961      0.0502      9.3297     34.4528     17.0653
