~Version Information
VERS.                      2.0: CWLS Log ASCII Standard - VERSION 2.0
WRAP.                       NO: One line per depth step
~Well Information Block
STRT.FT               440.0000: 
STOP.FT              1702.7000: 
STEP.FT                 0.1000: 
NULL.                -999.2500: 
COMP.          Pioneer Natural Resources: COMPANY
WELL.          Culver 14-12 Tr: WELL
FLD.           Purgatoire River: FIELD
LOC.           915' FSL & 1048' FWL--: LOCATION
STAT.                 Colorado: State
CNTY.               Las Animas: COUNTY
CTRY. USA : Country
SECT. 12 : Section
TOWN. 32S : Township
RANG. 66W : Range
SRVC.                Patterson: SERVICE COMPANY
DATE.          Wed Sep 28 10:00:59 2005: LOG DATE
API.           05 071 08520 00: UNIQUE WELL ID
~Curve Information Block
DEPT.FT            0 000 00 00: Depth
DCAL.in                       : CDL Caliper
RHOB.g/cc                     : CDL Bulk Density
RHOC.g/cc                     : CDL Density Correction
DPOR.pu                       : CDL Density Porosity
NPOR.pu                       : Neutron Porosity
GR.GAPI                       : Gamma Ray
~Parameter Information Block
~A  Depth       DCAL        RHOB        RHOC        DPOR        NPOR         GR     
# ...
  1342.4000      7.9728      2.6968      0.0817     -2.8335     25.8336     89.7865
  1342.5000      7.9569      2.6559      0.0078     -0.3563     27.5049     94.7629
  1342.6000      7.9569      2.5895      0.0285      3.6654     28.7707     98.5247
  1342.7000      7.9569      2.5124     -0.0383      8.3376     29.7366    107.8053
  1342.8000      7.9418      2.4568     -0.0304     11.7062     30.8411    120.0735
  1342.9000      7.9418      2.4391     -0.0142     12.7791     31.9923    123.4426
  1343.0000      7.9436      2.4423     -0.0067     12.5876     32.7860    118.7580
  1343.1000      7.9436      2.4421      0.0020     12.6012     33.3994    117.3366
  1343.2000      7.9436      2.4300     -0.0128     13.3331     34.0297    123.3850
  1343.3000      7.9833      2.4165     -0.0047     14.1512     34.4230    133.1845
  1343.4000      7.9833      2.4095      0.0271     14.5758     34.6306    139.9794
  1343.5000      8.0597      2.3961      0.1123     15.3874     34.8486    141.2368
  1343.6000      8.0597      2.3631      0.1319     17.3905     35.0440    141.2973
  1343.7000      8.0597      2.3225      0.1591     19.8506     35.1325    143.2480
  1343.8000      8.1273      2.2895      0.1646     21.8507     34.9337    146.0181
  1343.9000      8.1273      2.2681      0.1046     23.1456     34.4102    147.1477
  1344.0000      8.1617      2.2696      0.0810     23.0551     33.5932    145.5755
  1344.1000      8.1617      2.3127      0.0738     20.4443     32.6807    143.0503
  1344.2000      8.1617      2.3982      0.2002     15.2582     31.8700    141.8644
  1344.3000      8.2524      2.4908      0.3265      9.6456     31.1736    141.5266
  1344.4000      8.2524      2.5466      0.3344      6.2644     30.8058    142.5615
  1344.5000      8.3983      2.5512      0.3194      5.9900     30.8948    145.6498
  1344.6000      8.3983      2.5218      0.2279      7.7693     31.2067    148.4407
  1344.7000      8.3983      2.4894      0.1902      9.7334     31.2894    148.2980
  1344.8000      8.3975      2.4740      0.1634     10.6657     31.1185    145.9604
  1344.9000      8.3975      2.4823      0.1087     10.1613     31.2080    146.0851
  1345.0000      8.2050      2.5097      0.1157      8.5020     31.7066    150.3415
  1345.1000      8.2050      2.5340      0.1102      7.0318     32.0351    157.7495
  1345.2000      8.2050      2.5403      0.0728      6.6456     31.8499    163.6514
  1345.3000      8.0583      2.5383      0.0757      6.7720     31.4962    161.0746
  1345.4000      8.0583      2.5433      0.0806      6.4667     31.0103    153.4004
  1345.5000      8.0183      2.5595      0.1121      5.4835     30.0879    149.4601
  1345.6000      8.0183      2.5822      0.1298      4.1113     28.9367    150.3887
  1345.7000      8.0183      2.6114      0.1634      2.3408     28.1884    153.3496
  1345.8000      8.0042      2.6442      0.2140      0.3490     28.0534    156.8028
  1345.9000      8.0042      2.6590      0.2187     -0.5482     28.1830    155.0154
  1346.0000      7.9847      2.6406      0.0990      0.5688     28.0158    147.9393
  1346.1000      7.9847      2.6064      0.0584      2.6437     27.3577    145.6225
  1346.2000      7.9847      2.5855      0.0038      3.9065     26.8817    150.3166
  1346.3000      7.9704      2.5855      0.0683      3.9104     27.2577    153.6252
  1346.4000      7.9704      2.5880      0.0588      3.7579     28.0417    149.8303
  1346.5000      7.9649      2.5870      0.0497      3.8196     28.4268    141.1522
  1346.6000      7.9649      2.5977      0.0316      3.1690     28.4463    133.6616
  1346.7000      7.9649      2.6215      0.0859      1.7280     28.5132    128.5468
  1346.8000      7.9582      2.6399      0.0256      0.6101     28.4498    121.9808
  1346.9000      7.9582      2.6446      0.0660      0.3283     27.9489    116.7823
  1347.0000      7.9471      2.6418      0.0323      0.4966     27.2678    117.8328
  1347.1000      7.9471      2.6403      0.0812      0.5860     26.7530    121.1566
  1347.2000      7.9471      2.6363      0.0736      0.8316     26.5750    122.8016
  1347.3000      7.9401      2.6273      0.0170      1.3768     26.7612    127.0764
  1347.4000      7.9401      2.6223      0.0440      1.6772     27.0608    137.1460
  1347.5000      7.9387      2.6230      0.0519      1.6363     27.3692    146.3701
  1347.6000      7.9387      2.6289      0.0012      1.2783     27.7244    146.6501
  1347.7000      7.9387      2.6426      0.0218      0.4514     27.8387    142.7454
  1347.8000      7.9387      2.6508      0.0810     -0.0508     27.4442    141.8327
  1347.9000      7.9387      2.6399      0.0263      0.6095     26.8517    144.8082
  1348.0000      7.9385      2.6269      0.0501      1.4010     26.5905    150.1046
  1348.1000      7.9385      2.6369      0.0234      0.7925     26.4393    150.6012
  1348.2000      7.9385      2.6624      0.0918     -0.7530     26.0179    143.1193
  1348.3000      7.9397      2.6750      0.0896     -1.5165     25.8286    135.3369
  1348.4000      7.9397      2.6733      0.0423     -1.4139     26.2853    132.1473
  1348.5000      7.9403      2.6754      0.0481     -1.5422     26.8424    131.3759
  1348.6000      7.9403      2.6755      0.0809     -1.5476     27.1575    127.8792
  1348.7000      7.9403      2.6595      0.0331     -0.5730     27.4321    118.2752
  1348.8000      7.9389      2.6383     -0.0004      0.7106     27.8766    109.0506
  1348.9000      7.9389      2.6280      0.0157      1.3315     28.4309    108.5366
  1349.0000      7.9393      2.6278      0.0446      1.3441     28.7171    113.6841
  1349.1000      7.9393      2.6289      0.0127      1.2776     28.2613    113.1875
  1349.2000      7.9393      2.6328      0.0058      1.0404     26.9902    107.1536
  1349.3000      7.9395      2.6442      0.0319      0.3524     25.5678    106.8809
  1349.4000      7.9395      2.6577      0.0503     -0.4665     24.6934    110.8143
  1349.5000      7.9392      2.6673      0.0539     -1.0504     24.2441    109.0783
  1349.6000      7.9392      2.6683      0.0490     -1.1086     23.7836    103.3957
  1349.7000      7.9392      2.6540      0.0427     -0.2425     23.5472    101.0285
  1349.8000      7.9404      2.6270     -0.0128      1.3927     23.7665    101.1913
  1349.9000      7.9404      2.6053     -0.0019      2.7102     24.0115     99.6844
  1350.0000      7.9410      2.5983      0.0199      3.1329     24.1058     98.0094
  1350.1000      7.9410      2.5949      0.0018      3.3391     24.1144     99.6440
  1350.2000      7.9410      2.5886     -0.0074      3.7216     23.8790    102.6071
  1350.3000      7.9408      2.5871     -0.0136      3.8114     23.7246     98.6616
  1350.4000      7.9408      2.6009      0.0265      2.9747     23.6987     86.5460
  1350.5000      7.9426      2.6328      0.0400      1.0406     23.2108     76.6949
  1350.6000      7.9426      2.6692      0.0736     -1.1665     22.4531     75.8662
  1350.7000      7.9426      2.6866      0.0892     -2.2192     22.1396     79.1781
  1350.8000      7.9459      2.6729      0.1042     -1.3896     22.3506     80.8755
  1350.9000      7.9459      2.6374      0.0732      0.7638     22.6061     81.9515
  1351.0000      7.9458      2.5996      0.0648      3.0543     22.8176     82.7813
  1351.1000      7.9458      2.5740      0.0192      4.6089     23.0613     83.9761
  1351.2000      7.9458      2.5638      0.0565      5.2233     22.9444     86.4019
  1351.3000      7.9430      2.5603      0.0600      5.4388     22.5357     84.2078
  1351.4000      7.9430      2.5609      0.0429      5.3991     22.3691     77.2356
  1351.5000      7.9412      2.5685      0.0507      4.9419     22.4257     74.2839
  1351.6000      7.9412      2.5724      0.0681      4.7008     22.3874     75.8533
  1351.7000      7.9412      2.5697      0.0483      4.8677     22.3168     76.3223
  1351.8000      7.9421      2.5705      0.0428      4.8203     22.4210     75.2065
  1351.9000      7.9421      2.5733      0.0419      4.6500     22.6598     73.0600
