~Version Information
VERS.                      2.0: CWLS Log ASCII Standard - VERSION 2.0
WRAP.                       NO: One line per depth step
~Well Information Block
STRT.FT                31.2500: 
STOP.FT               700.7500: 
STEP.FT                 0.2500: 
NULL.                -999.2500: 
COMP.          XTO Energy Inc.: COMPANY
WELL.          Golden Eagle 20-14: WELL
FLD.           Purgatrorie River: FIELD
LOC.           587' FSL & 2478' FWL--: LOCATION
STAT.                       CO: State
CNTY.               Las Animas: COUNTY
CTRY. USA : Country
SECT. 20 : Section
TOWN. 33S : Township
RANG. 67W : Range
SRVC.          Patterson Wireline: SERVICE COMPANY
DATE.          Sat Dec 10 15:54:00 2005: LOG DATE
API.           05 071 08614 00: UNIQUE WELL ID
~Curve Information Block
DEPT.FT            0 000 00 00: Depth
CCL.                          : Casing Collar Locator
TT3.usec                      : CBL 3' Travel Time
AMP3.mV                       : CBL 3' Amplitude
GR.GAPI                       : Gamma Ray
~Parameter Information Block
~A  Depth       CCL         TT3         AMP3         GR     
# ...
   232.2500      0.0000    894.0000      2.3479    121.9706
   232.5000      0.0000    894.0000      2.3438    120.5103
   232.7500      0.0000    894.0000      2.3386    119.0328
   233.0000      0.0000    894.0000      2.3312    117.8627
   233.2500      0.0000    894.0000      2.3227    117.6058
   233.5000      0.0000    894.0000      2.3151    117.9976
   233.7500      0.0000    894.0000      2.3096    117.3592
   234.0000      0.0000    894.0000      2.3065    113.7692
   234.2500      0.0000    894.0000      2.3072    106.7486
   234.5000      0.0000    894.0000      2.3130     97.7227
   234.7500      0.0000    894.0000      2.3243     89.1195
   235.0000      0.0000    894.0000      2.3397     83.0104
   235.2500      0.0000    894.0000      2.3562     80.0682
   235.5000      0.0000    894.0000      2.3699     79.4136
   235.7500      0.0000    894.0000      2.3781     79.6348
   236.0000      0.0000    894.0000      2.3801     80.1761
   236.2500      0.0000    894.0000      2.3773     81.6174
   236.5000      0.0000    894.0000      2.3722     84.7061
   236.7500      0.0000    894.0000      2.3674     89.4978
   237.0000      0.0000    894.0000      2.3643     95.4014
   237.2500      0.0000    894.0000      2.3629    101.6325
   237.5000      0.0000    894.0000      2.3623    107.4690
   237.7500      0.0000    894.0000      2.3622    112.2385
   238.0000      0.0000    894.0000      2.3620    115.2342
   238.2500      0.0000    894.0000      2.3616    115.7921
   238.5000      0.0000    894.0000      2.3607    113.8803
   238.7500      0.0000    894.0000      2.3592    110.8447
   239.0000      0.0000    894.0000      2.3579    109.0394
   239.2500      0.0000    894.0000      2.3585    110.1954
   239.5000      0.0000    894.0000      2.3625    114.4222
   239.7500      0.0000    894.0000      2.3692    120.9488
   240.0000      0.0000    894.0000      2.3765    128.9764
   240.2500      0.0000    894.0000      2.3819    137.3093
   240.5000      0.0000    894.0000      2.3838    143.9369
   240.7500      0.0000    894.0000      2.3818    146.8765
   241.0000      0.0000    894.0000      2.3764    145.4860
   241.2500      0.0000    894.0000      2.3687    140.8571
   241.5000      0.0000    894.0000      2.3610    135.1012
   241.7500      0.0000    894.0000      2.3554    130.2304
   242.0000      0.0000    894.0000      2.3530    127.3593
   242.2500      0.0000    894.0000      2.3535    126.5846
   242.5000      0.0000    894.0000      2.3559    127.4638
   242.7500      0.0000    894.0000      2.3591    129.7023
   243.0000      0.0000    894.0000      2.3620    133.3368
   243.2500      0.0000    894.0000      2.3645    137.8578
   243.5000      0.0000    894.0000      2.3663    141.2348
   243.7500      0.0000    894.0000      2.3658    140.7587
   244.0000      0.0000    894.0000      2.3620    135.3765
   244.2500      0.0000    894.0000      2.3558    126.7181
   244.5000      0.0000    894.0000      2.3498    117.5144
   244.7500      0.0000    894.0000      2.3470    109.5784
   245.0000      0.0000    894.0000      2.3485    103.6165
   245.2500      0.0000    894.0000      2.3527    100.0883
   245.5000      0.0000    894.0000      2.3571     99.3272
   245.7500      0.0000    894.0000      2.3602    101.2788
   246.0000      0.0000    894.0000      2.3619    105.8050
   246.2500      0.0000    894.0000      2.3631    112.7559
   246.5000      0.0000    894.0000      2.3637    121.1613
   246.7500      0.0000    894.0000      2.3622    128.9043
   247.0000      0.0000    894.0000      2.3556    134.0158
   247.2500      0.0000    894.0000      2.3429    136.2752
   247.5000      0.0000    894.0000      2.3277    137.0007
   247.7500      0.0000    894.0000      2.3175    137.2640
   248.0000      0.0000    894.0000      2.3178    136.8454
   248.2500      0.0000    894.0000      2.3281    134.9281
   248.5000      0.0000    894.0000      2.3430    131.1555
   248.7500      0.0000    894.0000      2.3564    125.8094
   249.0000      0.0000    894.0000      2.3639    119.5836
   249.2500      0.0000    894.0000      2.3638    113.5176
   249.5000      0.0000    894.0000      2.3562    108.7308
   249.7500      0.0000    894.0000      2.3434    106.0245
   250.0000      0.0000    894.0000      2.3309    105.8145
   250.2500      0.0000    894.0000      2.3247    108.0160
   250.5000      0.0000    894.0000      2.3268    111.5871
   250.7500      0.0000    894.0000      2.3326    114.7534
   251.0000      0.0000    894.0000      2.3350    116.3674
   251.2500      0.0000    894.0000      2.3310    116.7458
   251.5000      0.0000    894.0000      2.3230    116.7972
   251.7500      0.0000    894.0000      2.3147    116.8081
   252.0000      0.0000    894.0000      2.3074    116.6420
   252.2500      0.0000    894.0000      2.3011    116.6988
   252.5000      0.0000    894.0000      2.2961    117.8491
   252.7500      0.0000    894.0000      2.2941    120.3179
   253.0000      0.0000    894.0000      2.2959    123.3073
   253.2500      0.0000    894.0000      2.3003    126.0588
   253.5000      0.0000    894.0000      2.3051    128.9697
   253.7500      0.0000    894.0000      2.3092    133.2242
   254.0000      0.0000    894.0000      2.3142    139.1586
   254.2500      0.0000    894.0000      2.3228    145.3474
   254.5000      0.0000    894.0000      2.3370    149.5303
   254.7500      0.0000    894.0000      2.3555    150.2690
   255.0000      0.0000    894.0000      2.3738    147.6513
   255.2500      0.0000    894.0000      2.3868    142.8606
   255.5000      0.0000    894.0000      2.3919    137.3732
   255.7500      0.0000    894.0000      2.3890    132.3242
   256.0000      0.0000    894.0000      2.3798    128.2960
   256.2500      0.0000    894.0000      2.3683    125.4518
   256.5000      0.0000    894.0000      2.3598    123.8395
   256.7500      0.0000    894.0000      2.3591    123.6680
   257.0000      0.0000    894.0000      2.3673    125.4004
   257.2500      0.0000    894.0000      2.3821    129.5104
   257.5000      0.0000    894.0000      2.3981    135.9429
   257.7500      0.0000    894.0000      2.4090    143.7129
   258.0000      0.0000    894.0000      2.4113    151.1205
   258.2500      0.0000    894.0000      2.4076    156.6392
   258.5000      0.0000    894.0000      2.4040    159.8213
   258.7500      0.0000    894.0000      2.4055    161.2691
   259.0000      0.0000    894.0000      2.4132    161.4239
   259.2500      0.0000    894.0000      2.4253    159.7259
   259.5000      0.0000    894.0000      2.4394    155.8402
   259.7500      0.0000    894.0000      2.4531    151.5193
   260.0000      0.0000    894.0000      2.4650    149.7589
   260.2500      0.0000    894.0000      2.4752    151.4719
   260.5000      0.0000    894.0000      2.4834    154.1492
   260.7500      0.0000    894.0000      2.4881    154.4526
   261.0000      0.0000    894.0000      2.4873    151.2074
   261.2500      0.0000    894.0000      2.4804    145.5664
   261.5000      0.0000    894.0000      2.4688    139.4415
   261.7500      0.0000    894.0000      2.4549    134.0812
   262.0000      0.0000    894.0000      2.4423    129.1605
   262.2500      0.0000    894.0000      2.4339    123.1122
   262.5000      0.0000    894.0000      2.4312    115.0036
   262.7500      0.0000    894.0000      2.4327    106.0175
   263.0000      0.0000    894.0000      2.4355     98.7947
   263.2500      0.0000    894.0000      2.4380     95.6337
   263.5000      0.0000    894.0000      2.4412     97.4407
   263.7500      0.0000    894.0000      2.4474    103.6660
   264.0000      0.0000    894.0000      2.4578    112.5696
   264.2500      0.0000    894.0000      2.4712    121.6153
   264.5000      0.0000    894.0000      2.4857    128.4091
   264.7500      0.0000    894.0000      2.5007    132.0129
   265.0000      0.0000    894.0000      2.5173    133.2325
   265.2500      0.0000    894.0000      2.5368    133.0683
   265.5000      0.0000    894.0000      2.5587    131.1289
