~Version Information
VERS.                      2.0: CWLS Log ASCII Standard - VERSION 2.0
WRAP.                       NO: One line per depth step
~Well Information Block
STRT.FT               620.0000: 
STOP.FT              3067.2000: 
STEP.FT                 0.1000: 
NULL.                -999.2500: 
COMP.          Pioneer Natural Resources: COMPANY
WELL.          Interceptor 43-13 Kv: WELL
FLD.           Purgatoire River: FIELD
LOC.           2073' FSL & 519' FEL--: LOCATION
PROV.                 Colorado: PROVINCE
CNTY.               Las Animas: COUNTRY
SRVC.                Patterson: SERVICE COMPANY
DATE.          Sat Jan 14 20:27:27 2006: LOG DATE
UWI.           05 071 08655 00: UNIQUE WELL ID
~Curve Information Block
DEPT.FT            0 000 00 00: Depth
DCAL.in                       : CDL Caliper
RHOB.g/cc                     : CDL Bulk Density
RHOC.g/cc                     : CDL Density Correction
DPOR.pu                       : CDL Density Porosity
NPOR.pu                       : Neutron Porosity
GR.GAPI                       : Gamma Ray
~Parameter Information Block
~A  Depth       DCAL        RHOB        RHOC        DPOR        NPOR         GR     
# ...
  1589.6000      8.8357      1.9565      0.3247     42.0297     63.7081     87.8724
  1589.7000      8.8357      2.0836      0.3678     34.3279     63.7081     88.4058
  1589.8000      9.5097      2.1525      0.3941     30.1495     63.7081     90.5366
  1589.9000      9.5097      2.1655      0.3611     29.3607     63.7081     96.8590
  1590.0000     10.0929      2.1303      0.2864     31.4955     63.7081    106.2483
  1590.1000     10.0929      2.0568      0.2447     35.9511     63.7081    113.8177
  1590.2000     10.0929      1.9566      0.1133     42.0219     63.7081    114.7165
  1590.3000     10.0728      1.8529     -0.0214     48.3092     63.7081    111.6132
  1590.4000     10.0728      1.7707     -0.0952     53.2898     63.7081    110.3783
  1590.5000      9.4149      1.7166     -0.0848     56.5682     63.7081    108.5136
  1590.6000      9.4149      1.6770     -0.0791     58.9671     63.7081    100.2484
  1590.7000      9.4149      1.6387     -0.1010     61.2907     63.7081     91.1912
  1590.8000      8.6976      1.6051     -0.0831     63.3265     63.7081     89.0099
  1590.9000      8.6976      1.5934     -0.0682     64.0347     63.7081     86.7680
  1591.0000      8.3674      1.6189     -0.0046     62.4934     63.7081     80.2323
  1591.1000      8.3674      1.6792      0.0930     58.8376     63.7081     78.0080
  1591.2000      8.3674      1.7636      0.1052     53.7231     63.7081     81.4287
  1591.3000      8.3040      1.8661      0.1561     47.5081     63.7081     83.8793
  1591.4000      8.3040      1.9708      0.2034     41.1655     63.7081     85.0793
  1591.5000      8.3012      2.0522      0.2089     36.2307     63.7081     88.5158
  1591.6000      8.3012      2.1053      0.1504     33.0121     63.7081     93.4607
  1591.7000      8.3012      2.1453      0.1616     30.5881     63.7081     98.0074
  1591.8000      8.3030      2.1751      0.1715     28.7813     63.7081    100.9805
  1591.9000      8.3030      2.1702      0.2513     29.0770     63.7081    101.3650
  1592.0000      8.2965      2.1095      0.1128     32.7558     63.7081    100.0660
  1592.1000      8.2965      2.0107     -0.0034     38.7463     63.7081     97.9170
  1592.2000      8.2965      1.9075     -0.0731     44.9972     63.7081     94.5398
  1592.3000      8.2831      1.8127     -0.0750     50.7444     63.7081     90.7838
  1592.4000      8.2831      1.7160     -0.1321     56.6047     63.7081     88.1729
  1592.5000      8.2753      1.6105     -0.1861     62.9974     63.7081     86.1076
  1592.6000      8.2753      1.5170     -0.2180     68.6652     63.7081     81.1346
  1592.7000      8.2753      1.4726     -0.1952     71.3576     63.7081     70.9171
  1592.8000      8.2745      1.4826     -0.0519     70.7527     63.7081     59.6747
  1592.9000      8.2745      1.5132      0.0374     68.8971     63.7081     52.9302
  1593.0000      8.2794      1.5417      0.0512     67.1703     63.7081     51.7661
  1593.1000      8.2794      1.5685      0.0794     65.5438     63.7081     55.7890
  1593.2000      8.2794      1.5927      0.0847     64.0788     63.7081     61.4435
  1593.3000      8.2988      1.6136      0.0844     62.8150     63.7081     63.3007
  1593.4000      8.2988      1.6377      0.0688     61.3509     63.7081     61.0742
  1593.5000      8.3224      1.6611      0.1101     59.9341     63.7081     59.5105
  1593.6000      8.3224      1.6678      0.0352     59.5299     63.7081     61.1416
  1593.7000      8.3224      1.6572      0.0002     60.1678     63.7081     63.8464
  1593.8000      8.3281      1.6328      0.0618     61.6479     63.7081     67.2163
  1593.9000      8.3281      1.5883      0.0653     64.3447     63.7081     71.0290
  1594.0000      8.3248      1.5379      0.0126     67.3977     63.7081     73.2461
  1594.1000      8.3248      1.5179     -0.0039     68.6137     63.7081     75.0956
  1594.2000      8.3248      1.5524     -0.0008     66.5184     63.7081     78.6604
  1594.3000      8.3295      1.6321      0.0564     61.6885     63.7081     81.7492
  1594.4000      8.3295      1.7105      0.1360     56.9379     63.7081     81.3147
  1594.5000      8.3583      1.7440      0.0588     54.9088     63.7081     77.7561
  1594.6000      8.3583      1.7374     -0.0066     55.3062     63.7081     74.5375
  1594.7000      8.3583      1.7200      0.0464     56.3642     63.7081     74.2877
  1594.8000      8.4086      1.7060      0.0609     57.2141     63.7081     77.4008
  1594.9000      8.4086      1.6950      0.0543     57.8799     63.7081     82.4218
  1595.0000      8.4467      1.6791      0.0454     58.8403     63.7081     84.8994
  1595.1000      8.4467      1.6481     -0.0265     60.7217     63.7081     83.9931
  1595.2000      8.4467      1.5954     -0.0309     63.9165     63.7081     84.0352
  1595.3000      8.4593      1.5251     -0.0480     68.1728     63.7081     86.6026
  1595.4000      8.4593      1.4578     -0.0660     72.2562     63.7081     87.3970
  1595.5000      8.4595      1.4222     -0.0673     74.4146     63.7081     83.6659
  1595.6000      8.4595      1.4410     -0.0471     73.2734     63.7081     80.2395
  1595.7000      8.4595      1.5154      0.0327     68.7634     63.7081     81.5663
  1595.8000      8.4637      1.6243      0.0558     62.1624     63.7081     83.2814
  1595.9000      8.4637      1.7449      0.1131     54.8533     63.7081     82.3483
  1596.0000      8.4903      1.8680      0.1511     47.3954     63.7081     83.4565
  1596.1000      8.4903      1.9942      0.2428     39.7429     63.7081     88.2317
  1596.2000      8.4903      2.1217      0.3165     32.0180     63.7081     95.3858
  1596.3000      8.5183      2.2508      0.3058     24.1931     63.7081    105.0772
  1596.4000      8.5183      2.3786      0.3493     16.4467     63.7081    115.6784
  1596.5000      8.4414      2.4858      0.2780      9.9538     63.7081    126.1131
  1596.6000      8.4414      2.5511      0.2124      5.9942     63.7081    135.3806
  1596.7000      8.4414      2.5675      0.1293      5.0021     63.7081    140.1249
  1596.8000      8.2505      2.5542      0.0398      5.8068     63.7081    140.7470
  1596.9000      8.2505      2.5422      0.0543      6.5342     63.7081    144.8416
  1597.0000      8.1149      2.5392      0.0517      6.7165     63.7081    151.7340
  1597.1000      8.1149      2.5361      0.0374      6.9020     63.7081    153.0635
  1597.2000      8.1149      2.5289      0.0546      7.3414     63.7081    152.2376
  1597.3000      8.0809      2.5223      0.0398      7.7423     63.7081    153.7661
  1597.4000      8.0809      2.5323     -0.0225      7.1345     63.7081    152.3795
  1597.5000      8.0908      2.5637      0.0531      5.2326     63.7081    148.7879
  1597.6000      8.0908      2.5932      0.0888      3.4434     63.7081    148.2641
  1597.7000      8.0908      2.6058      0.0578      2.6811     63.7081    147.5421
  1597.8000      8.0873      2.6111      0.0965      2.3574     63.7081    141.4212
  1597.9000      8.0873      2.6163      0.0821      2.0424     63.7081    134.9578
  1598.0000      8.0341      2.6216      0.0611      1.7216     63.7081    134.0876
  1598.1000      8.0341      2.6294      0.0479      1.2459     63.7081    135.6655
  1598.2000      8.0341      2.6335      0.0680      1.0000     63.7081    133.6032
  1598.3000      7.9833      2.6220      0.0630      1.6954     63.7081    127.1970
  1598.4000      7.9833      2.6030      0.0124      2.8512     63.7081    124.2418
  1598.5000      7.9633      2.5882      0.0351      3.7474     63.7081    129.5682
  1598.6000      7.9633      2.5731      0.0363      4.6592     63.7081    136.4274
  1598.7000      7.9633      2.5642     -0.0004      5.2018     63.7081    139.6854
  1598.8000      7.9574      2.5697      0.0524      4.8643     63.7081    141.1590
  1598.9000      7.9574      2.5752      0.0560      4.5340     63.7081    139.2327
  1599.0000      7.9558      2.5762      0.0275      4.4724     63.7081    132.1769
  1599.1000      7.9558      2.5885      0.0289      3.7247     63.7081    126.2530
