~Version Information
 VERS.                                  2.0 : CWLS LAS VERSION
 WRAP.                                   NO : WRAPING MODE
 SWARE .                 MController 2.5.0J : SOFTWARE VERSION
~Well Information
 WELL.                     Hemisphere 32-24 : WELL
 COMP.    Pioneer Natural Resources USA Inc : COMPANY
 FLD.                      Purgatoire River : FIELD
 LOC.                 SE/SW Sec 24 T33 R67W : LOCATION
 DATE.                             08/14/05 : DATE(S) LOGGED
 SRVC.       BLANCO Geological Services LLC : SERVICE COMPANY
 STAT.                                   CO : STATE
 CNTY.                           Las Animas : COUNTY
 CTRY.                                  USA : COUNTRY
 API.                       05-071-08440-00 : API NUMBER
 STRT.FT                             399.00 : START DEPTH
 STOP.FT                            2171.00 : STOP DEPTH
 STEP.FT                               1.00 : DEPTH INCREMENT
 NULL.                                -9999 : NULL VALUE
~Curve information
 DEPTH.FT                                   :
 ROP.MIN/FT                                 :
 GAS.UNITS                                  :
~ASCII Log data
       399.0     -9999.00          9.7 
       400.0         0.20          9.9 
       401.0         0.30          9.7 
       402.0         0.27          9.8 
       403.0         0.27          9.8 
       404.0         0.23          9.6 
       405.0         0.33         10.0 
       406.0         0.30          9.6 
       407.0         0.27          9.8 
       408.0         0.27          9.8 
       409.0         0.28         10.1 
       410.0         0.30          9.5 
       411.0         0.27         10.0 
       412.0         0.23          9.9 
       413.0         0.23          9.9 
       414.0         0.27         10.1 
       415.0         0.27          9.7 
       416.0         0.20         10.0 
       417.0         0.17         10.0 
       418.0         0.20          9.7 
       419.0         0.17          9.7 
       420.0         0.17          9.8 
       421.0         0.20          9.7 
       422.0         0.27          9.9 
       423.0         0.27          9.7 
       424.0         0.15          9.7 
       425.0         0.13          9.8 
       426.0         0.27         10.6 
       427.0         0.67         10.2 
       428.0         0.10         10.0 
       429.0         0.23          9.5 
       430.0         0.13          9.7 
       431.0         0.10          9.7 
       432.0         0.33         10.1 
       433.0         0.33          9.8 
       434.0         0.30          9.9 
       435.0         0.27         10.0 
       436.0         0.23         10.1 
       437.0         0.28         10.1 
       438.0         0.27          9.7 
       439.0         0.27          9.7 
       440.0         0.27          9.7 
       441.0         0.27         10.2 
       442.0         0.27          9.7 
       443.0         0.27          9.7 
       444.0         0.20          9.7 
       445.0         0.23         10.1 
       446.0         0.30          9.8 
       447.0         0.27         10.0 
       448.0         0.30          9.8 
       449.0         0.27         10.0 
       450.0         0.28         10.1 
       451.0         0.27          9.8 
       452.0         0.27          9.9 
       453.0         0.27         10.0 
       454.0         0.27         10.2 
       455.0         0.27          9.5 
       456.0         0.30          9.6 
       457.0         0.43          9.8 
       458.0         0.40          9.7 
       459.0         0.20          9.8 
       460.0         0.17         10.1 
       461.0         0.13          9.8 
       462.0         0.13          9.8 
       463.0         0.28          9.9 
       464.0         0.40         10.0 
       465.0         0.47          9.8 
       466.0         0.13          9.7 
       467.0         0.20         10.0 
       468.0         0.20          9.8 
       469.0         0.23         10.1 
       470.0         0.33          9.7 
       471.0         0.17          9.9 
       472.0         0.10          9.9 
       473.0         0.23          9.5 
       474.0         0.20          9.6 
       475.0         0.27         10.3 
       476.0         0.28          9.7 
       477.0         0.27         10.2 
       478.0         0.33          4.8 
       479.0         0.33          4.8 
       480.0         0.20          5.0 
       481.0         0.20          5.5 
       482.0         0.27          5.1 
       483.0         0.30          4.9 
       484.0         0.30          5.4 
       485.0         0.37          5.2 
       486.0         0.37          5.0 
       487.0         0.38          5.2 
       488.0         0.17          4.9 
       489.0         0.20          4.8 
       490.0         0.20          4.8 
       491.0         0.20          4.7 
       492.0         0.20          5.1 
       493.0         0.27          0.0 
       494.0         0.23          0.0 
       495.0         0.27          0.0 
       496.0         0.23          0.0 
       497.0         8.72        463.9 
       498.0         0.10          5.4 
       499.0         0.17          5.4 
       500.0         0.30          5.8 
       501.0         0.72          5.7 
       502.0         0.13          5.7 
       503.0         0.20          5.5 
       504.0         0.20          5.9 
       505.0         0.23          5.2 
       506.0         0.30          5.3 
       507.0         0.27          5.6 
       508.0         0.23          5.7 
       509.0         0.23          5.6 
       510.0         0.20          5.6 
       511.0         0.17          5.2 
       512.0         0.10          5.2 
       513.0         0.17          5.5 
       514.0         0.23          5.5 
       515.0         0.27          5.6 
       516.0         0.28          5.7 
       517.0         0.27          5.4 
       518.0         0.27          5.6 
       519.0         0.27          5.3 
       520.0         0.23          5.1 
       521.0         0.23          5.4 
       522.0         0.23          5.8 
       523.0         0.23          5.1 
       524.0         0.23          5.5 
       525.0         0.23          5.2 
       526.0         0.20          5.2 
       527.0         0.23          5.5 
       528.0         0.10          5.5 
       529.0         0.17          5.1 
       530.0         0.28          5.3 
       531.0         0.23          5.3 
       532.0         0.23          5.9 
       533.0         0.27          5.5 
       534.0         0.17          5.6 
       535.0         0.43          5.5 
       536.0         1.07          5.6 
       537.0         0.27          5.0 
       538.0         0.23          4.9 
       539.0         0.42          5.5 
       540.0         0.27          5.2 
       541.0         0.23          5.1 
       542.0         0.27          5.3 
       543.0         0.23          5.1 
       544.0         0.27          5.1 
       545.0         0.23          5.3 
       546.0         0.23          5.0 
       547.0         0.27          5.3 
       548.0         0.23          5.0 
       549.0         0.23          5.2 
       550.0         0.27          5.4 
       551.0         0.27          5.5 
       552.0         0.27          5.3 
       553.0         0.32          5.2 
       554.0         0.23          5.7 
       555.0         0.23          5.6 
       556.0         0.27          4.9 
       557.0         0.23          5.2 
       558.0         0.23          5.1 
       559.0         0.20          5.2 
       560.0         0.23          5.0 
       561.0         0.23          5.2 
       562.0         0.23          5.3 
       563.0         0.23          5.5 
       564.0         0.27          5.9 
       565.0         0.23          5.9 
       566.0         2.78          6.1 
       567.0         0.27          6.5 
       568.0         0.23          6.7 
       569.0         0.23          6.9 
       570.0         0.25          6.5 
       571.0         0.20          6.8 
       572.0         0.27          6.6 
       573.0         0.20          6.4 
       574.0         0.23          6.3 
       575.0         0.20          5.9 
       576.0         0.27          6.5 
       577.0         0.20          6.1 
       578.0         0.17          6.0 
       579.0         0.17          6.3 
       580.0         0.20          6.3 
       581.0         0.13          6.0 
       582.0         0.27          5.8 
       583.0         0.27          6.3 
       584.0         0.23          6.2 
       585.0         0.25          6.8 
       586.0         0.23          6.0 
       587.0         0.23          5.7 
       588.0         0.30          6.0 
       589.0         0.27          6.3 
       590.0         0.23          5.6 
       591.0         0.30          5.6 
       592.0         0.27          5.8 
       593.0         0.27          5.5 
       594.0         0.13          5.6 
       595.0         0.30          5.6 
       596.0         1.92          5.9 
       597.0         0.23          6.0 
       598.0         0.10          6.0 
