~Version Information
VERS.                      2.0: CWLS Log ASCII Standard - VERSION 2.0
WRAP.                       NO: One line per depth step
~Well Information Block
STRT.FT               550.0000: 
STOP.FT              1500.5000: 
STEP.FT                 0.2500: 
NULL.                -999.2500: 
COMP.          Pioneer Natural Resources: COMPANY
WELL.          Surtees 23-34 Tr: WELL
FLD.           Purgatoire River: FIELD
LOC.           1559' FSL & 1997' FWL: LOCATION
PROV.                 Colorado: PROVINCE
CNTY.               Las Animas: COUNTRY
SRVC.                Patterson: SERVICE COMPANY
DATE.          Tue Jul 26 23:47:42 2005: LOG DATE
UWI.           05 071 08449 00: UNIQUE WELL ID
~Curve Information Block
DEPT.FT            0 000 00 00: Depth
SN.Ohm-m                      : IEL Short Normal
SP.mV                         : IEL Spontaneous Potential
DIR.Ohm-m                     : IEL Induction Resistivity
GR.GAPI                       : Gamma Ray
~Parameter Information Block
~A  Depth        SN          SP         DIR          GR     
# ...
  1454.5000     11.4925     52.5338     11.2348    160.9222
  1454.7500     11.5436     51.7713     11.0818    160.1081
  1455.0000     11.6184     50.9856     10.9813    158.0646
  1455.2500     11.6551     50.1738     10.9312    156.8919
  1455.5000     11.5971     49.3359     10.9287    156.5058
  1455.7500     11.4784     48.4764     10.9726    157.3380
  1456.0000     11.3804     47.6013     11.0636    159.5828
  1456.2500     11.3697     46.7174     11.2030    161.0289
  1456.5000     11.5006     45.8341     11.3882    161.9424
  1456.7500     11.7496     44.9645     11.6116    161.2935
  1457.0000     11.9596     44.1219     11.8607    158.2137
  1457.2500     12.0578     43.3087     12.1212    154.8461
  1457.5000     12.2254     42.5063     12.3788    148.3049
  1457.7500     12.6397     41.6762     12.6215    143.4104
  1458.0000     13.2833     40.7770     12.8403    136.1146
  1458.2500     14.0952     39.7824     13.0290    131.6658
  1458.5000     15.0231     38.6838     13.1835    126.1482
  1458.7500     15.9119     37.4809     13.3013    123.5838
  1459.0000     16.5438     36.1759     13.3824    121.8487
  1459.2500     16.7660     34.7758     13.4301    122.1155
  1459.5000     16.5642     33.2966     13.4515    124.5759
  1459.7500     16.1182     31.7612     13.4584    127.7174
  1460.0000     15.6900     30.1899     13.4666    134.7646
  1460.2500     15.3397     28.5869     13.4911    140.5323
  1460.5000     14.9092     26.9294     13.5394    148.9396
  1460.7500     14.3369     25.1680     13.6050    153.0935
  1461.0000     13.7751     23.2378     13.6698    155.5747
  1461.2500     13.4206     21.0741     13.7129    154.6268
  1461.5000     13.3875     18.6206     13.7198    150.4409
  1461.7500     13.6393     15.8251     13.6876    146.6833
  1462.0000     14.0226     12.6303     13.6243    140.8136
  1462.2500     14.4401      8.9777     13.5454    137.4564
  1462.5000     14.8650      4.8323     13.4694    134.4777
  1462.7500     15.1916      0.2273     13.4135    134.0258
  1463.0000     15.2909     -4.6753     13.3907    134.4327
  1463.2500     15.2211     -9.5362     13.4115    134.4489
  1463.5000     15.1428    -13.8629     13.4851    133.5980
  1463.7500     15.0660    -17.1547     13.6202    132.9745
  1464.0000     14.9133    -19.1234     13.8205    133.0594
  1464.2500     14.7219    -19.8534     14.0788    134.0231
  1464.5000     14.6017    -19.7946     14.3742    136.5461
  1464.7500     14.6196    -19.5907     14.6782    138.6276
  1465.0000     14.8166    -19.8069     14.9682    141.6115
  1465.2500     15.2034    -20.6312     15.2393    142.8639
  1465.5000     15.7367    -21.6833     15.5064    142.2103
  1465.7500     16.4164    -22.1127     15.7941    139.3588
  1466.0000     17.3098    -21.0033     16.1247    131.1654
  1466.2500     18.4117    -17.8215     16.5096    123.7248
  1466.5000     19.5852    -12.5739     16.9486    111.7627
  1466.7500     20.6994     -5.6142     17.4331    104.6299
  1467.0000     21.8186      2.6658     17.9516     96.7290
  1467.2500     23.0917     11.9755     18.4990     93.5205
  1467.5000     24.4170     21.9805     19.0871     91.1895
  1467.7500     25.4888     32.0315     19.7428     90.6981
  1468.0000     26.1502     41.1217     20.4841     90.7221
  1468.2500     26.5223     48.2648     21.2855     91.0553
  1468.5000     26.8444     53.0132     22.0622     91.8758
  1468.7500     27.2691     55.6266     22.7056     92.2221
  1469.0000     27.7816     56.7794     23.1524     91.0852
  1469.2500     28.2590     57.1442     23.4232     88.5761
  1469.5000     28.6094     57.1729     23.5913     82.2609
  1469.7500     28.8666     57.0995     23.7201     77.0711
  1470.0000     29.1584     57.0253     23.8282     69.4244
  1470.2500     29.5833     56.9855     23.9001     65.1497
  1470.5000     30.1024     56.9827     23.9200     60.6336
  1470.7500     30.5893     57.0054     23.8964     59.0444
  1471.0000     30.9473     57.0415     23.8595     58.8210
  1471.2500     31.1030     57.0858     23.8366     59.9299
  1471.5000     30.9565     57.1417     23.8316     62.6886
  1471.7500     30.4733     57.2195     23.8283     64.6114
  1472.0000     29.8117     57.3318     23.8113     66.6719
  1472.2500     29.2202     57.4851     23.7821     67.2942
  1472.5000     28.8133     57.6732     23.7525     67.4710
  1472.7500     28.5572     57.8758     23.7250     67.5406
  1473.0000     28.3877     58.0634     23.6839     68.2352
  1473.2500     28.2446     58.2035     23.6065     69.1906
  1473.5000     28.0998     58.2668     23.4836     70.9386
  1473.7500     27.9804     58.2352     23.3307     71.8378
  1474.0000     27.9081     58.1099     23.1767     72.1169
  1474.2500     27.8310     57.9178     23.0455     71.6115
  1474.5000     27.6638     57.7084     22.9440     70.5822
  1474.7500     27.4023     57.5410     22.8637     70.1870
  1475.0000     27.1094     57.4632     22.7866     70.2495
  1475.2500     26.7824     57.4860     22.6911     70.6341
  1475.5000     26.3852     57.5717     22.5593     71.9277
  1475.7500     25.9462     57.6489     22.3905     73.7796
  1476.0000     25.5182     57.6469     22.2079     78.9696
  1476.2500     25.1359     57.5241     22.0521     83.9619
  1476.5000     24.8437     57.2757     21.9639     91.9669
  1476.7500     24.6877     56.9240     21.9665     96.0639
  1477.0000     24.6546     56.5047     22.0571     98.2530
  1477.2500     24.6552     56.0537     22.2074     96.7855
  1477.5000     24.5973     55.5995     22.3733     91.2702
  1477.7500     24.5107     55.1578     22.5117     86.4975
  1478.0000     24.5732     54.7296     22.5966     79.4595
  1478.2500     24.9337     54.3063     22.6268     75.4477
  1478.5000     25.5378     53.8864     22.6227     70.7265
  1478.7500     26.1554     53.4923     22.6141     68.3719
  1479.0000     26.5911     53.1724     22.6291     65.7884
  1479.2500     26.8206     52.9773     22.6863     64.5652
  1479.5000     26.8816     52.9251     22.7935     63.5036
  1479.7500     26.8299     52.9811     22.9519     63.5095
  1480.0000     26.8102     53.0740     23.1650     64.6835
  1480.2500     26.9538     53.1409     23.4425     65.6599
  1480.5000     27.2770     53.1649     23.7946     64.9138
  1480.7500     27.7215     53.1734     24.2169     61.0985
  1481.0000     28.1903     53.1948     24.6748     48.8568
  1481.2500     28.5753     53.2135     25.1034     37.4983
  1481.5000     28.8535     53.1651     25.4281     20.4480
  1481.7500     29.1652     52.9758     25.5954     11.6866
  1482.0000     29.6621     52.6079     25.5874      3.9256
  1482.2500     30.3012     52.0799     25.4043      1.5909
  1482.5000     30.9199     51.4715     25.0297      0.3117
  1482.7500     31.4211     50.9415     24.4171      0.0864
  1483.0000     31.8046     50.7464     23.5246      0.0082
  1483.2500     32.0301     51.1993     22.3734      0.0000
  1483.5000     31.8767     52.5083     21.0687   -999.2500
  1483.7500     31.0402     54.5594     19.7528   -999.2500
  1484.0000     29.4020     56.8610     18.5346   -999.2500
  1484.2500     27.1507     58.7845     17.4543   -999.2500
  1484.5000     24.6390     59.9239     16.4965   -999.2500
  1484.7500     22.1685     60.2586     15.6287   -999.2500
  1485.0000     19.9003     60.0475     14.8347   -999.2500
  1485.2500     17.8927     59.6390     14.1237   -999.2500
  1485.5000     16.1856     59.3453     13.5123   -999.2500
  1485.7500     14.8033     59.3622     13.0035   -999.2500
  1486.0000     13.7002     59.7074     12.5777   -999.2500
  1486.2500     12.8376     60.2368     12.2019   -999.2500
  1486.5000     12.2635     60.7862     11.8468   -999.2500
  1486.7500     11.9954     61.3315     11.4983   -999.2500
  1487.0000     11.9368     62.0067     11.1605   -999.2500
  1487.2500     11.9755     62.9568     10.8508   -999.2500
  1487.5000     12.0342     64.1705     10.5144   -999.2500
  1487.7500     12.0337     65.4457     10.3326   -999.2500
