~Version Information
VERS.                      2.0: CWLS Log ASCII Standard - VERSION 2.0
WRAP.                       NO: One line per depth step
~Well Information Block
STRT.FT                -5.5000: 
STOP.FT               791.0000: 
STEP.FT                 0.2500: 
NULL.                -999.2500: 
COMP.          Pioneer Natural Resources: COMPANY
WELL.           Beringer 33-18: WELL
FLD.           Purgatoire River: FIELD
LOC.           2356' FSL & 2338' FEL--: LOCATION
CNTY.               Las Animas: COUNTY
SRVC.                Patterson: SERVICE COMPANY
DATE.          Mon Apr 03 11:39:01 2006: LOG DATE
UWI.           05 071 08725 00: UNIQUE WELL ID
STAT.                 Colorado: STATE
~Curve Information Block
DEPT.FT            0 000 00 00: Depth
CCL.                          : Casing Collar Locator
TT3.usec                      : CBL 3' Travel Time
AMP3.mV                       : CBL 3' Amplitude
GR.GAPI                       : Gamma Ray
~Parameter Information Block
~A  Depth       CCL         TT3         AMP3         GR     
# ...
   698.0000      0.0000    717.5266      5.3751     89.4546
   698.2500      0.0000    717.0269      5.4142     88.9175
   698.5000      0.0000    719.6385      5.3878     89.1192
   698.7500      0.0000    723.8895      5.3299     89.4225
   699.0000      0.0000    734.2977      5.2239     89.8040
   699.2500      0.0000    743.2961      5.1570     90.1359
   699.5000      0.0000    756.5602      5.0658     91.2656
   699.7500      0.0000    762.3472      5.0048     92.6424
   700.0000      0.0000    762.6185      4.9153     95.3201
   700.2500      0.0000    757.3818      4.8690     96.9663
   700.5000      0.0000    746.1739      4.8263     98.2150
   700.7500      0.0000    740.0520      4.7993     97.8618
   701.0000     -2.0000    736.3208      4.7310     95.8662
   701.2500      0.0000    737.0164      4.6707     94.5989
   701.5000      0.0000    739.5485      4.5913     95.4226
   701.7500      0.0000    740.5729      4.5645     98.4736
   702.0000      0.0000    740.4608      4.5888    104.4255
   702.2500      0.0000    739.6616      4.6528    106.5759
   702.5000      0.0000    737.5094      4.7881    104.1660
   702.7500      0.0000    735.2358      4.8728     99.4996
   703.0000      0.0000    731.0067      4.9742     91.4454
   703.2500      0.0000    728.4114      5.0408     86.8181
   703.5000      0.0000    725.8429      5.1583     80.9658
   703.7500      0.0000    725.0215      5.2350     77.2758
   704.0000      0.0000    724.7333      5.3092     72.5273
   704.2500      0.0000    725.1788      5.3226     70.8047
   704.5000      0.0000    727.6975      5.3107     70.9197
   704.7500      0.0000    731.5305      5.3047     72.0496
   705.0000      0.0000    741.6439      5.3227     73.6438
   705.2500      0.0000    750.7718      5.3462     74.1666
   705.5000      0.0000    764.5739      5.3603     73.9034
   705.7500      0.0000    771.3159      5.3366     72.8774
   706.0000      0.0000    775.2955      5.2596     69.8974
   706.2500      0.0000    774.0115      5.2071     67.1504
   706.5000      0.0000    767.7888      5.1694     62.8606
   706.7500      0.0000    761.7941      5.1769     60.6416
   707.0000      0.0000    751.8881      5.2195     59.1748
   707.2500      0.0000    745.8474      5.2554     59.4525
   707.5000      0.0000    738.9941      5.2984     61.1177
   707.7500      0.0000    735.9213      5.3051     62.5852
   708.0000      0.0000    732.6588      5.2668     64.5959
   708.2500      0.0000    730.8908      5.2162     65.6249
   708.5000      0.0000    728.6708      5.1363     67.2216
   708.7500      0.0000    727.6269      5.0963     68.8980
   709.0000      0.0000    726.8730      5.0598     72.5705
   709.2500      0.0000    726.8157      5.0466     75.1598
   709.5000      0.0000    726.9942      5.0386     77.6794
   709.7500      0.0000    727.0070      5.0402     77.9593
   710.0000      0.0000    726.5045      5.0502     76.7956
   710.2500      0.0000    725.8336      5.0624     75.8840
   710.5000      0.0000    724.8294      5.0927     75.9083
   710.7500      0.0000    724.5527      5.1182     77.1309
   711.0000      0.0000    725.0188      5.1509     79.6303
   711.2500      0.0000    725.8530      5.1678     80.6028
   711.5000      0.0000    727.9864      5.2062     79.8578
   711.7500      0.0000    730.4612      5.2525     78.0718
   712.0000      0.0000    736.8662      5.3457     74.4995
   712.2500      0.0000    743.1404      5.4078     71.9398
   712.5000      0.0000    754.2199      5.4770     68.1885
   712.7500      0.0000    761.1443      5.5009     66.1566
   713.0000      0.0000    768.3925      5.5034     64.7819
   713.2500      0.0000    770.6895      5.4877     65.2064
   713.5000      0.0000    771.4156      5.4553     67.4751
   713.7500      0.0000    771.2057      5.4417     69.8179
   714.0000      0.0000    771.4496      5.4512     74.1303
   714.2500      0.0000    772.4956      5.4747     76.8064
   714.5000      0.0000    775.5600      5.5092     78.5823
   714.7500      0.0000    778.3441      5.5195     77.6565
   715.0000      0.0000    782.8250      5.5216     74.1614
   715.2500      0.0000    785.5828      5.5268     71.7522
   715.5000      0.0000    788.9987      5.5497     69.6190
   715.7500      0.0000    790.7004      5.5651     69.4920
   716.0000      0.0000    792.3210      5.5609     71.4429
   716.2500      0.0000    792.9057      5.5335     74.2350
   716.5000      0.0000    793.5180      5.4713     80.3650
   716.7500      0.0000    793.9034      5.4345     85.3976
   717.0000      0.0000    794.1617      5.4183     93.3992
   717.2500      0.0000    793.8878      5.4434     97.9245
   717.5000      0.0000    793.1392      5.5186    100.8809
   717.7500      0.0000    793.1811      5.5651     99.3325
   718.0000      0.0000    795.4988      5.5825     92.5759
   718.2500      0.0000    798.7361      5.5553     86.7134
   718.5000      0.0000    805.1023      5.4892     78.5062
   718.7500      0.0000    809.7208      5.4474     74.1922
   719.0000      0.0000    817.3923      5.3919     69.6521
   719.2500      0.0000    823.4875      5.3548     67.8738
   719.5000      0.0000    833.8112      5.3059     67.3149
   719.7500      0.0000    840.4789      5.2867     68.5148
   720.0000      0.0000    848.3401      5.2797     72.4715
   720.2500      0.0000    851.3930      5.2846     76.1388
   720.5000      0.0000    850.9912      5.3036     82.1699
   720.7500      0.0000    845.7734      5.3261     85.6459
   721.0000      0.0000    828.0234      5.3707     88.1651
   721.2500      0.0000    809.9671      5.3980     87.4291
   721.5000      0.0000    779.0392      5.4133     83.4682
   721.7500      0.0000    760.4767      5.3979     80.1252
   722.0000      0.0000    741.0606      5.3396     76.0630
   722.2500      0.0000    733.9722      5.2893     74.6956
   722.5000      0.0000    729.2868      5.2198     74.9499
   722.7500      0.0000    728.2685      5.1837     76.2972
   723.0000      0.0000    727.9415      5.1485     78.8035
   723.2500      0.0000    728.0402      5.1446     80.0788
   723.5000      0.0000    728.3692      5.1897     81.0637
   723.7500      0.0000    728.6428      5.2596     81.3847
   724.0000      0.0000    729.0906      5.3980     81.6156
   724.2500      0.0000    729.4180      5.4823     81.1999
   724.5000      0.0000    729.9643      5.5609     78.6543
   724.7500      0.0000    730.3391      5.5811     75.6033
   725.0000      0.0000    730.7838      5.5789     70.6806
   725.2500      0.0000    730.8883      5.5593     68.7755
   725.5000      0.0000    730.5760      5.4971     69.7808
   725.7500      0.0000    729.9778      5.4353     72.8074
   726.0000      0.0000    728.4450      5.3405     78.9464
   726.2500      0.0000    727.0918      5.2995     82.9500
   726.5000      0.0000    725.1011      5.2865     87.6688
   726.7500      0.0000    724.2738      5.2977     89.5559
   727.0000      0.0000    724.3616      5.3215     89.5022
   727.2500      0.0000    725.2413      5.3451     86.8712
   727.5000      0.0000    727.0571      5.4018     79.0904
   727.7500      0.0000    728.1218      5.4390     72.6003
   728.0000      0.0000    729.1193      5.4437     64.0954
   728.2500      0.0000    729.5211      5.4001     60.4874
   728.5000      0.0000    730.5928      5.2982     57.9873
   728.7500      0.0000    732.5837      5.2394     57.2206
   729.0000      0.0000    739.9589      5.1985     55.8717
   729.2500      0.0000    749.3177      5.2012     54.8036
   729.5000      0.0000    770.9111      5.2324     54.4710
   729.7500      0.0000    788.7776      5.2649     56.2613
   730.0000      0.0000    814.1011      5.3221     62.5599
   730.2500      0.0000    824.9529      5.3519     68.0740
   730.5000      0.0000    825.5654      5.3517     74.8321
   730.7500      0.0000    814.8427      5.3173     76.5638
   731.0000      0.0000    787.2820      5.2494     74.1481
   731.2500      0.0000    766.4126      5.2220     70.1052
