~Version Information
 VERS.                                  2.0 : CWLS LAS VERSION
 WRAP.                                   NO : WRAPING MODE
 SWARE .                  MController 2.5.1 : SOFTWARE VERSION
~Well Information
 WELL.                           Erin 21-15 : WELL
 COMP.  Pioneer Natural Resources USA, Inc. : COMPANY
 FLD.                      Purgatoire River : FIELD
 LOC.             NE/NW Sec. 15, T33S, R67W : LOCATION
 DATE.                03/01/2006-03/02/2006 : DATE(S) LOGGED
 SRVC.                  Entrada GeoSciences : SERVICE COMPANY
 STAT.                             Colorado : STATE
 CNTY.                           Las Animas : COUNTY
 CTRY.                        United States : COUNTRY
 API.                          05-071-08713 : API NUMBER
 STRT.FT                             553.00 : START DEPTH
 STOP.FT                            2200.00 : STOP DEPTH
 STEP.FT                               1.00 : DEPTH INCREMENT
 NULL.                                -9999 : NULL VALUE
~Curve information
 DEPTH.FT                                   :
 ROP.MIN/FT                                 :
 GAS.UNITS                                  :
~ASCII Log data
# ...
     1753.00         0.17         39.2 
     1754.00         0.20         39.7 
     1755.00         0.33         43.6 
     1756.00         0.27         47.0 
     1757.00         0.20         48.1 
     1758.00         0.17         55.3 
     1759.00         0.13         52.6 
     1760.00         0.17         47.6 
     1761.00         0.20         43.0 
     1762.00         0.27         39.3 
     1763.00         0.28         37.6 
     1764.00         0.23         36.4 
     1765.00         0.20         35.4 
     1766.00         0.17         32.8 
     1767.00         0.13         31.0 
     1768.00         0.17         27.3 
     1769.00         0.17         24.4 
     1770.00         0.20         21.3 
     1771.00         0.20         19.6 
     1772.00         0.17         24.6 
     1773.00         0.17         54.7 
     1774.00         0.13         60.3 
     1775.00         0.20         46.8 
     1776.00         0.17         41.8 
     1777.00         0.27         36.7 
     1778.00         0.23         33.2 
     1779.00         0.27         35.6 
     1780.00         0.28         36.5 
     1781.00         0.27         37.2 
     1782.00         0.17         37.8 
     1783.00         0.27         38.1 
     1784.00         0.30         41.0 
     1785.00         0.27         45.4 
     1786.00         0.27         48.4 
     1787.00         0.27         46.9 
     1788.00         0.57         19.3 
     1789.00         0.43         30.3 
     1790.00         0.40         39.2 
     1791.00         0.50         51.2 
     1792.00         0.43         55.2 
     1793.00         0.42         54.0 
     1794.00         0.43         47.4 
     1795.00         0.40         40.0 
     1796.00         0.40         29.1 
     1797.00         0.47         22.7 
     1798.00         0.43         18.2 
     1799.00         0.37         23.3 
     1800.00         0.30         84.0 
     1801.00         0.27         44.7 
     1802.00         0.32         21.2 
     1803.00         0.37         14.3 
     1804.00         0.37         11.1 
     1805.00         0.27         10.8 
     1806.00         0.27         12.7 
     1807.00         0.30         14.7 
     1808.00         0.30         18.6 
     1809.00         0.30         22.6 
     1810.00         0.33         26.6 
     1811.00         0.27         30.6 
     1812.00         0.30         34.5 
     1813.00         0.28         36.2 
     1814.00         0.30         38.3 
     1815.00         0.30         41.7 
     1816.00         0.30         42.1 
     1817.00         0.27         40.7 
     1818.00         0.53         36.1 
     1819.00         0.53         55.6 
     1820.00         0.37         61.5 
     1821.00         0.37         63.4 
     1822.00         0.40         58.2 
     1823.00         0.48         52.5 
     1824.00         0.47         45.3 
     1825.00         0.43         37.1 
     1826.00         0.40         31.6 
     1827.00         0.40         65.8 
     1828.00         0.43         27.5 
     1829.00         0.40         17.6 
     1830.00         0.47         19.1 
     1831.00         0.25         21.7 
     1832.00         0.23         23.1 
     1833.00         0.17         23.7 
     1834.00         0.17         25.3 
     1835.00         0.17         29.6 
     1836.00         0.13         31.5 
     1837.00         0.17         33.2 
     1838.00         0.17         34.2 
     1839.00         0.10         34.4 
     1840.00         0.13         33.9 
     1841.00         0.27         35.6 
     1842.00         0.40         37.4 
     1843.00         0.43         39.8 
     1844.00         0.40         40.9 
     1845.00         0.35         42.9 
     1846.00         0.17         43.0 
     1847.00         0.23         42.9 
     1848.00         0.30         29.8 
     1849.00         0.50         27.4 
     1850.00         0.43         24.8 
     1851.00         0.30         25.0 
     1852.00         0.37         26.6 
     1853.00         0.35         23.8 
     1854.00         0.27         24.8 
     1855.00         0.33         29.7 
     1856.00         0.30         35.1 
     1857.00         0.20         37.6 
     1858.00         0.27         41.7 
     1859.00         0.27         43.5 
     1860.00         0.23         42.4 
     1861.00         0.23         38.0 
     1862.00         0.23         32.9 
     1863.00         0.23         28.4 
     1864.00         0.13         26.8 
     1865.00         0.17         24.8 
     1866.00         0.13         23.8 
     1867.00         0.27         21.5 
     1868.00         0.28         18.5 
     1869.00         0.27         20.2 
     1870.00         0.27         53.8 
     1871.00         0.20         48.4 
     1872.00         0.23         36.9 
     1873.00         0.20         24.9 
     1874.00         0.23         18.5 
     1875.00         0.20         17.0 
     1876.00         0.10         16.5 
     1877.00         0.20         18.9 
     1878.00         0.20         24.0 
     1879.00         0.40         19.4 
     1880.00         0.33         20.0 
     1881.00         0.33         22.2 
     1882.00         0.37         20.3 
     1883.00         0.47         29.7 
     1884.00         0.57         42.7 
     1885.00         0.45         54.8 
     1886.00         0.43         67.8 
     1887.00         0.47         63.5 
     1888.00         0.40         51.9 
     1889.00         0.43         40.0 
     1890.00         0.40         29.1 
     1891.00         0.33         23.6 
     1892.00         0.30         51.3 
     1893.00         0.43         35.3 
     1894.00         0.35         21.1 
     1895.00         0.30         15.4 
     1896.00         0.30         16.1 
     1897.00         0.30         19.7 
     1898.00         0.30         22.6 
     1899.00         0.43         28.6 
     1900.00         0.63         36.6 
     1901.00         0.57         45.6 
     1902.00         0.58         48.4 
     1903.00         0.80         49.9 
     1904.00         0.43         48.0 
     1905.00         0.43         51.0 
     1906.00         0.50         51.8 
     1907.00         0.60         56.6 
     1908.00         0.35         34.1 
     1909.00         0.73         39.2 
     1910.00         0.77         64.5 
     1911.00         0.75         68.1 
     1912.00         0.60         71.1 
     1913.00         0.67         50.9 
     1914.00         0.50         37.4 
     1915.00         0.17         33.9 
     1916.00         0.20         28.3 
     1917.00         0.23         30.5 
     1918.00         0.20         56.2 
     1919.00         0.13         58.3 
     1920.00         0.18         50.0 
     1921.00         0.27         37.0 
     1922.00         0.23         30.4 
     1923.00         0.23         25.4 
     1924.00         0.33         25.4 
     1925.00         0.27         27.3 
     1926.00         0.23         29.8 
     1927.00         0.23         34.3 
     1928.00         0.23         36.0 
     1929.00         0.30         34.9 
     1930.00         0.33         42.7 
     1931.00         0.33         44.4 
     1932.00         0.35         45.4 
     1933.00         0.33         49.9 
     1934.00         0.17         53.4 
     1935.00         0.20         54.9 
     1936.00         0.13         55.2 
     1937.00         0.20         55.6 
     1938.00         0.30        472.9 
     1939.00         0.47        535.9 
     1940.00         0.33        658.7 
     1941.00         0.27        760.7 
     1942.00         0.40        957.7 
     1943.00         0.30       1122.4 
     1944.00         0.33       1185.4 
     1945.00         0.20       1182.5 
     1946.00         0.30       1135.8 
     1947.00         0.38       1011.8 
     1948.00         0.40        860.5 
     1949.00         0.43        768.7 
     1950.00         0.33        695.8 
     1951.00         0.30        571.7 
     1952.00         0.27        446.9 
