~Version Information
VERS.                      2.0: CWLS Log ASCII Standard - VERSION 2.0
WRAP.                       NO: One line per depth step
~Well Information Block
STRT.FT               260.0000: 
STOP.FT              1230.0000: 
STEP.FT                 0.2500: 
NULL.                -999.2500: 
COMP.          Pioneer Natural Resources: COMPANY
WELL.             Mahalo 12-20: WELL
FLD.           Purgatoire River: FIELD
LOC.           1689' FNL & 479' FWL: LOCATION
CNTY.               Las Animas: COUNTY
SRVC.                Patterson: SERVICE COMPANY
DATE.          Thu Feb 23 20:25:01 2006: LOG DATE
UWI.           05 071 08700 00: UNIQUE WELL ID
STAT.                 Colorado: STATE
~Curve Information Block
DEPT.FT            0 000 00 00: Depth
SN.Ohm-m                      : IEL Short Normal
SP.mV                         : IEL Spontaneous Potential
DIR.Ohm-m                     : IEL Induction Resistivity
GR.GAPI                       : Gamma Ray
~Parameter Information Block
~A  Depth        SN          SP         DIR          GR     
# ...
   561.5000   2000.0000   2000.0000     28.6735     57.1695
   561.7500   2000.0000   2000.0000     28.3959     56.7018
   562.0000   2000.0000   2000.0000     28.0500     55.6114
   562.2500   2000.0000   2000.0000     27.6742     55.2892
   562.5000   2000.0000   2000.0000     27.2983     55.9942
   562.7500   2000.0000   2000.0000     26.9554     57.0617
   563.0000   2000.0000   2000.0000     26.6960     58.5217
   563.2500   2000.0000   2000.0000     26.5806     58.7909
   563.5000   2000.0000   2000.0000     26.6506     57.9074
   563.7500   2000.0000   2000.0000     26.8989     56.9405
   564.0000   2000.0000   2000.0000     27.2561     56.1161
   564.2500   2000.0000   2000.0000     27.6066     56.3117
   564.5000   2000.0000   2000.0000     27.8356     57.2830
   564.7500   2000.0000   2000.0000     27.8843     57.9107
   565.0000   2000.0000   2000.0000     27.7693     58.4165
   565.2500   2000.0000   2000.0000     27.5526     58.4664
   565.5000   2000.0000   2000.0000     27.2985     58.1964
   565.7500   2000.0000   2000.0000     27.0555     57.8548
   566.0000   2000.0000   2000.0000     26.8605     57.3678
   566.2500   2000.0000   2000.0000     26.7414     57.2586
   566.5000   2000.0000   2000.0000     26.7083     57.5435
   566.7500   2000.0000   2000.0000     26.7466     57.9143
   567.0000   2000.0000   2000.0000     26.8224     58.4358
   567.2500   2000.0000   2000.0000     26.9001     58.6963
   567.5000   2000.0000   2000.0000     26.9555     59.0339
   567.7500   2000.0000   2000.0000     26.9703     59.2505
   568.0000   2000.0000   2000.0000     26.9154     59.5598
   568.2500   2000.0000   2000.0000     26.7432     59.8618
   568.5000   2000.0000   2000.0000     26.4063     60.9238
   568.7500   2000.0000   2000.0000     25.8881     62.4131
   569.0000   2000.0000   2000.0000     25.2165     66.6153
   569.2500   2000.0000   2000.0000     24.4518     71.3284
   569.5000   2000.0000   2000.0000     23.6655     82.2528
   569.7500   2000.0000   2000.0000     22.9231     92.2164
   570.0000   2000.0000   2000.0000     22.2706    109.7982
   570.2500   2000.0000   2000.0000     21.7218    121.6304
   570.5000   2000.0000   2000.0000     21.2545    136.5010
   570.7500   2000.0000   2000.0000     20.8235    143.3509
   571.0000   2000.0000   2000.0000     20.3868    148.7059
   571.2500   2000.0000   2000.0000     19.9307    149.5566
   571.5000   2000.0000   2000.0000     19.4774    148.2995
   571.7500   2000.0000   2000.0000     19.0711    146.6514
   572.0000   2000.0000   2000.0000     18.7562    143.8737
   572.2500   2000.0000   2000.0000     18.5608    141.9879
   572.5000   2000.0000   2000.0000     18.4904    139.3889
   572.7500   2000.0000   2000.0000     18.5296    138.0890
   573.0000   2000.0000   2000.0000     18.6453    136.7587
   573.2500   2000.0000   2000.0000     18.7921    135.7348
   573.5000   2000.0000   2000.0000     18.9236    132.9861
   573.7500   2000.0000   2000.0000     19.0080    130.3410
   574.0000   2000.0000   2000.0000     19.0391    126.1719
   574.2500   2000.0000   2000.0000     19.0344    123.9887
   574.5000   2000.0000   2000.0000     19.0227    122.3575
   574.7500   2000.0000   2000.0000     19.0291    122.3086
   575.0000   2000.0000   2000.0000     19.0658    122.8251
   575.2500   2000.0000   2000.0000     19.1294    122.8405
   575.5000   2000.0000   2000.0000     19.2018    121.8115
   575.7500   2000.0000   2000.0000     19.2585    120.6039
   576.0000   2000.0000   2000.0000     19.2790    118.6350
   576.2500   2000.0000   2000.0000     19.2529    117.6077
   576.5000   2000.0000   2000.0000     19.1761    117.3448
   576.7500   2000.0000   2000.0000     19.0377    118.4921
   577.0000   2000.0000   2000.0000     18.8157    122.4204
   577.2500   2000.0000   2000.0000     18.4874    126.2049
   577.5000   2000.0000   2000.0000     18.0535    132.4900
   577.7500   2000.0000   2000.0000     17.5510    136.1529
   578.0000   2000.0000   2000.0000     17.0423    139.2637
   578.2500   2000.0000   2000.0000     16.5822    139.3163
   578.5000   2000.0000   2000.0000     16.1889    137.0684
   578.7500   2000.0000   2000.0000     15.8407    135.0535
   579.0000   2000.0000   2000.0000     15.5013    133.0383
   579.2500   2000.0000   2000.0000     15.1524    132.9662
   579.5000   2000.0000   2000.0000     14.8100    134.9998
   579.7500   2000.0000   2000.0000     14.5135    137.7595
   580.0000   2000.0000   2000.0000     14.2996    143.8860
   580.2500   2000.0000   2000.0000     14.1825    148.8313
   580.5000   2000.0000   2000.0000     14.1495    155.5399
   580.7500   2000.0000   2000.0000     14.1698    158.0553
   581.0000   2000.0000   2000.0000     14.2101    157.1504
   581.2500   2000.0000   2000.0000     14.2474    153.2322
   581.5000   2000.0000   2000.0000     14.2739    143.2380
   581.7500   2000.0000   2000.0000     14.2948    134.8712
   582.0000   2000.0000   2000.0000     14.3259    122.2894
   582.2500   2000.0000   2000.0000     14.3927    115.4673
   582.5000   2000.0000   2000.0000     14.5284    109.2319
   582.7500   2000.0000   2000.0000     14.7650    107.4636
   583.0000   2000.0000   2000.0000     15.1207    106.1487
   583.2500   2000.0000   2000.0000     15.5888    104.8313
   583.5000   2000.0000   2000.0000     16.1357    101.5401
   583.7500   2000.0000   2000.0000     16.7110     99.0124
   584.0000   2000.0000   2000.0000     17.2700     95.9432
   584.2500   2000.0000   2000.0000     17.7912     94.7295
   584.5000   2000.0000   2000.0000     18.2775     94.1401
   584.7500   2000.0000   2000.0000     18.7377     94.5064
   585.0000   2000.0000   2000.0000     19.1702     96.4310
   585.2500   2000.0000   2000.0000     19.5596     98.9469
   585.5000   2000.0000   2000.0000     19.8877    104.7863
   585.7500   2000.0000   2000.0000     20.1474    109.5671
   586.0000   2000.0000   2000.0000     20.3522    116.1948
   586.2500   2000.0000   2000.0000     20.5363    119.2261
   586.5000   2000.0000   2000.0000     20.7442    121.3151
   586.7500   2000.0000   2000.0000     21.0120    121.5647
   587.0000   2000.0000   2000.0000     21.3503    121.0372
   587.2500   2000.0000   2000.0000     21.7346    120.1335
   587.5000   2000.0000   2000.0000     22.1102    117.6056
   587.7500   2000.0000   2000.0000     22.4099    114.9006
   588.0000   2000.0000   2000.0000     22.5794    109.0391
   588.2500   2000.0000   2000.0000     22.5972    104.1763
   588.5000   2000.0000   2000.0000     22.4750     97.2336
   588.7500   2000.0000   2000.0000     22.2368     94.3791
   589.0000   2000.0000   2000.0000     21.8931     94.4577
   589.2500   2000.0000   2000.0000     21.4313     97.0939
   589.5000   2000.0000   2000.0000     20.8321    102.5813
   589.7500   2000.0000   2000.0000     20.0954    105.9221
   590.0000   2000.0000   2000.0000     19.2542    109.8338
   590.2500   2000.0000   2000.0000     18.3621    112.2784
   590.5000   2000.0000   2000.0000     17.4687    116.9920
   590.7500   2000.0000   2000.0000     16.6052    121.1871
   591.0000   2000.0000   2000.0000     15.7860    128.8445
   591.2500   2000.0000   2000.0000     15.0199    134.4937
   591.5000   2000.0000   2000.0000     14.3186    143.0948
   591.7500   2000.0000   2000.0000     13.6942    148.5434
   592.0000   2000.0000   2000.0000     13.1521    155.8976
   592.2500   2000.0000   2000.0000     12.6840    160.2712
   592.5000   2000.0000   2000.0000     12.2695    166.3402
   592.7500   2000.0000   2000.0000     11.8842    170.0615
   593.0000   2000.0000   2000.0000     11.5119    174.2679
   593.2500   2000.0000   2000.0000     11.1523    175.3412
   593.5000   2000.0000   2000.0000     10.8194    174.0779
   593.7500   2000.0000   2000.0000     10.5332    172.4607
   594.0000   2000.0000   2000.0000     10.3085    171.9395
   594.2500   2000.0000   2000.0000     10.1493    173.8284
   594.5000   2000.0000   2000.0000     10.0474    178.7733
   594.7500   2000.0000   2000.0000      9.9873    181.6713
