~Version Information
VERS.                      2.0: CWLS Log ASCII Standard - VERSION 2.0
WRAP.                       NO: One line per depth step
~Well Information Block
STRT.FT               550.0000: 
STOP.FT              1500.5000: 
STEP.FT                 0.2500: 
NULL.                -999.2500: 
COMP.          Pioneer Natural Resources: COMPANY
WELL.          Surtees 23-34 Tr: WELL
FLD.           Purgatoire River: FIELD
LOC.           1559' FSL & 1997' FWL: LOCATION
PROV.                 Colorado: PROVINCE
CNTY.               Las Animas: COUNTRY
SRVC.                Patterson: SERVICE COMPANY
DATE.          Tue Jul 26 23:47:42 2005: LOG DATE
UWI.           05 071 08449 00: UNIQUE WELL ID
~Curve Information Block
DEPT.FT            0 000 00 00: Depth
SN.Ohm-m                      : IEL Short Normal
SP.mV                         : IEL Spontaneous Potential
DIR.Ohm-m                     : IEL Induction Resistivity
GR.GAPI                       : Gamma Ray
~Parameter Information Block
~A  Depth        SN          SP         DIR          GR     
# ...
  1387.5000     20.0128      5.9860     18.6519    111.6608
  1387.7500     19.8145      6.1116     18.5754    109.4235
  1388.0000     19.8593      6.1998     18.5126    107.5254
  1388.2500     20.0862      6.2697     18.4749    106.6531
  1388.5000     20.3171      6.3530     18.4635    104.9236
  1388.7500     20.4360      6.4739     18.4712    103.1335
  1389.0000     20.4495      6.6349     18.4881     99.3311
  1389.2500     20.4022      6.8167     18.5072     96.1536
  1389.5000     20.3280      6.9896     18.5292     90.8753
  1389.7500     20.2334      7.1295     18.5600     87.4256
  1390.0000     20.0676      7.2288     18.6025     83.0471
  1390.2500     19.8039      7.2937     18.6503     80.8966
  1390.5000     19.5352      7.3351     18.6893     79.1655
  1390.7500     19.4091      7.3618     18.7049     79.4063
  1391.0000     19.4750      7.3786     18.6869     82.6202
  1391.2500     19.6255      7.3845     18.6256     86.7035
  1391.5000     19.7200      7.3710     18.5090     94.7428
  1391.7500     19.7264      7.3268     18.3281    100.3870
  1392.0000     19.6928      7.2443     18.0911    107.5527
  1392.2500     19.6371      7.1225     17.8285    110.8185
  1392.5000     19.5517      6.9661     17.5802    113.5355
  1392.7500     19.4646      6.7844     17.3727    114.6660
  1393.0000     19.4159      6.5913     17.2067    117.2709
  1393.2500     19.3688      6.4024     17.0648    120.5200
  1393.5000     19.2097      6.2289     16.9300    127.9332
  1393.7500     18.8520      6.0715     16.7995    133.8838
  1394.0000     18.2929      5.9163     16.6819    142.3397
  1394.2500     17.6017      5.7352     16.5850    146.5660
  1394.5000     16.8468      5.4903     16.5045    149.8321
  1394.7500     16.0387      5.1426     16.4241    150.1136
  1395.0000     15.2116      4.6665     16.3267    148.8232
  1395.2500     14.5001      4.0614     16.2085    147.5032
  1395.5000     14.0603      3.3493     16.0847    145.1042
  1395.7500     13.9931      2.5608     15.9823    142.7237
  1396.0000     14.3926      1.7243     15.9269    136.8359
  1396.2500     15.3045      0.8609     15.9337    131.2462
  1396.5000     16.5520     -0.0162     16.0074    121.7138
  1396.7500     17.7685     -0.8996     16.1477    116.0081
  1397.0000     18.6887     -1.7833     16.3526    110.6593
  1397.2500     19.2988     -2.6572     16.6177    109.7131
  1397.5000     19.6896     -3.5057     16.9316    111.2549
  1397.7500     19.9093     -4.3113     17.2733    113.1333
  1398.0000     19.9948     -5.0588     17.6156    115.6811
  1398.2500     20.0339     -5.7411     17.9308    116.9398
  1398.5000     20.1185     -6.3628     18.1975    118.7442
  1398.7500     20.2537     -6.9379     18.4060    120.4368
  1399.0000     20.3878     -7.4776     18.5633    124.1529
  1399.2500     20.5296     -7.9814     18.6908    127.3233
  1399.5000     20.7408     -8.4375     18.8140    132.9426
  1399.7500     21.0442     -8.8257     18.9492    137.3126
  1400.0000     21.4286     -9.1126     19.0995    144.7988
  1400.2500     21.8784     -9.2518     19.2626    150.1468
  1400.5000     22.3666     -9.1987     19.4415    157.6570
  1400.7500     22.9136     -8.9342     19.6489    161.3070
  1401.0000     23.5786     -8.4817     19.9046    162.4951
  1401.2500     24.3262     -7.9132     20.2252    159.2792
  1401.5000     25.0491     -7.3300     20.6099    148.0396
  1401.7500     25.6884     -6.8179     21.0278    137.4205
  1402.0000     26.2441     -6.4086     21.4165    120.5999
  1402.2500     26.7523     -6.0813     21.7033    110.9309
  1402.5000     27.2149     -5.7934     21.8422    100.1768
  1402.7500     27.5419     -5.5080     21.8376     94.9249
  1403.0000     27.6432     -5.2037     21.7332     88.4385
  1403.2500     27.5638     -4.8739     21.5743     85.0029
  1403.5000     27.4402     -4.5250     21.3836     82.5336
  1403.7500     27.2829     -4.1726     21.1628     83.3090
  1404.0000     26.9215     -3.8357     20.9121     87.6965
  1404.2500     26.2514     -3.5278     20.6398     91.9837
  1404.5000     25.4030     -3.2532     20.3598     99.1590
  1404.7500     24.5688     -3.0083     20.0856    103.7315
  1405.0000     23.7931     -2.7866     19.8289    108.7871
  1405.2500     23.0559     -2.5821     19.5997    110.1663
  1405.5000     22.4196     -2.3900     19.4037    109.0396
  1405.7500     21.9338     -2.2105     19.2424    106.9789
  1406.0000     21.5032     -2.0524     19.1173    104.1786
  1406.2500     21.0036     -1.9337     19.0361    103.4515
  1406.5000     20.4911     -1.8744     19.0103    104.1059
  1406.7500     20.1350     -1.8833     19.0472    105.2067
  1407.0000     19.9858     -1.9483     19.1426    107.4633
  1407.2500     19.9845     -2.0387     19.2787    109.4238
  1407.5000     20.0648     -2.1220     19.4275    112.3917
  1407.7500     20.1549     -2.1829     19.5611    113.3755
  1408.0000     20.2529     -2.2317     19.6646    111.9152
  1408.2500     20.4253     -2.2990     19.7429    109.1469
  1408.5000     20.6668     -2.4185     19.8134    104.1715
  1408.7500     20.9010     -2.6073     19.8911    101.4112
  1409.0000     21.0797     -2.8538     19.9829     98.4791
  1409.2500     21.2195     -3.1206     20.0925     96.6247
  1409.5000     21.3496     -3.3622     20.2256     92.5651
  1409.7500     21.4697     -3.5450     20.3856     88.8178
  1410.0000     21.6014     -3.6563     20.5645     82.6444
  1410.2500     21.7962     -3.7018     20.7402     79.0688
  1410.5000     22.0411     -3.6942     20.8864     75.7537
  1410.7500     22.2575     -3.6467     20.9857     75.2650
  1411.0000     22.4012     -3.5721     21.0356     77.0756
  1411.2500     22.4799     -3.4824     21.0433     79.6108
  1411.5000     22.5125     -3.3854     21.0186     84.4216
  1411.7500     22.5450     -3.2822     20.9733     87.7312
  1412.0000     22.6131     -3.1675     20.9263     92.2583
  1412.2500     22.6655     -3.0292     20.8974     94.9375
  1412.5000     22.6667     -2.8482     20.8888     98.7043
  1412.7500     22.7097     -2.6059     20.8709    101.2785
  1413.0000     22.8766     -2.2923     20.7912    105.6108
  1413.2500     23.0724     -1.9057     20.6060    108.8365
  1413.5000     23.1108     -1.4471     20.3081    113.5569
  1413.7500     22.9116     -0.9201     19.9246    116.1321
  1414.0000     22.5492     -0.3339     19.4908    119.2412
  1414.2500     22.1534      0.2990     19.0247    121.6355
  1414.5000     21.7781      0.9728     18.5263    127.2241
  1414.7500     21.3567      1.6956     17.9968    132.3760
  1415.0000     20.8151      2.4854     17.4579    140.9052
  1415.2500     20.1460      3.3606     16.9517    146.1131
  1415.5000     19.3836      4.3377     16.5250    152.0551
  1415.7500     18.6274      5.4338     16.2125    154.5264
  1416.0000     17.9998      6.6590     16.0316    156.4571
  1416.2500     17.5299      7.9945     15.9832    157.3859
  1416.5000     17.1940      9.3832     16.0552    159.6187
  1416.7500     17.0002     10.7545     16.2248    161.5410
  1417.0000     16.9364     12.0655     16.4609    162.7839
  1417.2500     16.9722     13.3172     16.7279    160.6764
  1417.5000     17.1448     14.5407     16.9914    150.9642
  1417.7500     17.5394     15.7780     17.2253    140.1025
  1418.0000     18.2948     17.0687     17.4207    119.3787
  1418.2500     19.6617     18.4261     17.5925    104.7391
  1418.5000     21.9087     19.8105     17.7754     85.5818
  1418.7500     25.1162     21.1377     18.0118     76.5509
  1419.0000     28.8749     22.3321     18.3355     69.9261
  1419.2500     32.1107     23.3711     18.7597     69.7519
  1419.5000     33.6411     24.2742     19.2740     74.3390
  1419.7500     33.1034     25.0560     19.8494     79.8263
  1420.0000     31.1495     25.7000     20.4460     90.6134
  1420.2500     28.8248     26.1721     21.0150     98.7956
  1420.5000     26.8916     26.4505     21.4952    110.9376
  1420.7500     25.5903     26.5428     21.8169    117.8897
