~Version Information
VERS.                      2.0: CWLS Log ASCII Standard - VERSION 2.0
WRAP.                       NO: One line per depth step
~Well Information Block
STRT.FT                -6.7500: 
STOP.FT              1661.0000: 
STEP.FT                 0.2500: 
NULL.                -999.2500: 
COMP.          Pioneer Natural Resources: COMPANY
WELL.           Pedri 42-33 Tr: WELL
FLD.           Purgatorie River: FIELD
LOC.           1933'' FNL & 662' FEL--: LOCATION
PROV.                       CO: PROVINCE
CNTY.               Las Animas: COUNTRY
SRVC.          Patterson Wireline: SERVICE COMPANY
DATE.          Tue Dec 27 08:53:52 2005: LOG DATE
UWI.           05 071 08640 00: UNIQUE WELL ID
~Curve Information Block
DEPT.FT            0 000 00 00: Depth
CCL.                          : Casing Collar Locator
TT3.usec                      : CBL 3' Travel Time
AMP3.mV                       : CBL 3' Amplitude
GR.GAPI                       : Gamma Ray
~Parameter Information Block
~A  Depth       CCL         TT3         AMP3         GR     
# ...
   864.2500      0.0000    737.5125      7.2071    138.2976
   864.5000      0.0000    739.3453      7.2264    134.8119
   864.7500      0.0000    737.8749      7.2563    129.7294
   865.0000      0.0000    735.5651      7.3036    124.7860
   865.2500      0.0000    735.7747      7.3673    121.3389
   865.5000      0.0000    739.5479      7.4381    119.4418
   865.7500      0.0000    744.5986      7.5044    118.4504
   866.0000      0.0000    747.4787      7.5618    117.9208
   866.2500      0.0000    746.3927      7.6124    117.7461
   866.5000      0.0000    742.1669      7.6562    117.8105
   866.7500      0.0000    737.2250      7.6900    117.9701
   867.0000      0.0000    733.5608      7.7157    118.5755
   867.2500      0.0000    731.3193      7.7421    120.7845
   867.5000      0.0000    729.1819      7.7717    125.6455
   867.7500      0.0000    725.9072      7.7918    132.3976
   868.0000      0.0000    721.3448      7.7833    138.1269
   868.2500      0.0000    716.3054      7.7366    139.8214
   868.5000      0.0000    711.7812      7.6555    136.8868
   868.7500      0.0000    708.0510      7.5519    131.4926
   869.0000      0.0000    704.5745      7.4385    126.6775
   869.2500      0.0000    701.3779      7.3277    124.3856
   869.5000      0.0000    700.3495      7.2348    124.8158
   869.7500      0.0000    703.9883      7.1804    126.8067
   870.0000      0.0000    712.2487      7.1791    128.7703
   870.2500      0.0000    721.1411      7.2231    129.8542
   870.5000      0.0000    725.3223      7.2813    130.5029
   870.7500      0.0000    722.7676      7.3206    131.8078
   871.0000      0.0000    716.9222      7.3267    134.2448
   871.2500      0.0000    713.7941      7.3072    137.0623
   871.5000      0.0000    716.4796      7.2803    138.7916
   871.7500      0.0000    722.5115      7.2591    138.1101
   872.0000      0.0000    726.8369      7.2437    134.3377
   872.2500      0.0000    727.4127      7.2252    127.7989
   872.5000      0.0000    727.5216      7.1958    120.1268
   872.7500      0.0000    732.3063      7.1554    113.7010
   873.0000      0.0000    743.2653      7.1124    110.3067
   873.2500      0.0000    756.1658      7.0794    110.3564
   873.5000      0.0000    763.3552      7.0662    113.1652
   873.7500      0.0000    757.3477      7.0729    117.3834
   874.0000      0.0000    733.6880      7.0916    121.4003
   874.2500      0.0000    694.1011      7.1149    124.0933
   874.5000      0.0000    649.4778      7.1380    125.2795
   874.7500      0.0000    617.4495      7.1545    125.1545
   875.0000      0.0000    611.3646      7.1570    123.6185
   875.2500      0.0000    629.2759      7.1430    120.4352
   875.5000      0.0000    655.8627      7.1186    115.7339
   875.7500      0.0000    675.7243      7.0933    110.1821
   876.0000      0.0000    682.8500      7.0734    104.9901
   876.2500      0.0000    678.2573      7.0619    101.6532
   876.5000      0.0000    663.3391      7.0605    100.9529
   876.7500      0.0000    639.0898      7.0677    101.8897
   877.0000      0.0000    611.1707      7.0774    102.1717
   877.2500      0.0000    591.7510      7.0808    100.0901
   877.5000      0.0000    592.0454      7.0740     95.6681
   877.7500      0.0000    612.5164      7.0642     90.0465
   878.0000      0.0000    642.9709      7.0663     84.3699
   878.2500      0.0000    672.3519      7.0897     79.3809
   878.5000      0.0000    696.1345      7.1286     75.4881
   878.7500      0.0000    715.0798      7.1671     72.8437
   879.0000      0.0000    730.6131      7.1943     71.4867
   879.2500      0.0000    742.8926      7.2119     71.3045
   879.5000      0.0000    751.7259      7.2300     71.5617
   879.7500      0.0000    757.7546      7.2574     70.8824
   880.0000      0.0000    762.4266      7.2973     68.5250
   880.2500      0.0000    766.7054      7.3523     65.4961
   880.5000      0.0000    769.2698      7.4294     63.6247
   880.7500      0.0000    765.6776      7.5387     63.5806
   881.0000      0.0000    749.6249      7.6829     64.3454
   881.2500      0.0000    716.1257      7.8472     64.7476
   881.5000      0.0000    665.3860      7.9983     65.1432
   881.7500      0.0000    606.2343      8.0943     67.0856
   882.0000      0.0000    556.3719      8.1035     71.0839
   882.2500      0.0000    535.4306      8.0212     75.2478
   882.5000      0.0000    552.2030      7.8746     77.0826
   882.7500      0.0000    596.3163      7.7113     76.6398
   883.0000      0.0000    642.8403      7.5824     76.9995
   883.2500      0.0000    665.9199      7.5274     81.1554
   883.5000      0.0000    651.2196      7.5606     88.9867
   883.7500      0.0000    602.0745      7.6637     97.9038
   884.0000      0.0000    538.2130      7.7959    105.8662
   884.2500      0.0000    486.2998      7.9184    112.7432
   884.5000      0.0000    466.4332      8.0093    119.0539
   884.7500      0.0000    483.4089      8.0622    124.8000
   885.0000      0.0000    527.0060      8.0781    129.8176
   885.2500      0.0000    579.1486      8.0634    134.2155
   885.5000      0.0000    623.8595      8.0292    137.9666
   885.7500      0.0000    654.6147      7.9818    140.4998
   886.0000      0.0000    673.9261      7.9062    140.9528
   886.2500      0.0000    686.6467      7.7600    139.0054
   886.5000      0.0000    694.8238      7.5031    135.6071
   886.7500      0.0000    699.0292      7.1594    132.3884
   887.0000      0.0000    702.4980      6.8387    130.0435
   887.2500      0.0000    711.2505      6.6533    127.9367
   887.5000      0.0000    729.0080      6.6097    125.6011
   887.7500      0.0000    752.5740      6.6199    123.7069
   888.0000      0.0000    773.7252      6.6100    122.9915
   888.2500      0.0000    786.4094      6.5717    123.1826
   888.5000      0.0000    791.7036      6.5243    123.7879
   888.7500     -2.0000    794.9601      6.4803    125.1636
   889.0000      0.0000    798.6133      6.4587    127.6283
   889.2500      0.0000    799.1845      6.5172    129.7582
   889.5000      0.0000    791.8691      6.7619    128.6061
   889.7500      0.0000    776.9689      7.2814    122.1553
   890.0000      0.0000    760.5052      8.0230    111.4628
   890.2500      0.0000    748.7770      8.7586    100.2283
   890.5000      0.0000    743.5684      9.2370     92.5150
   890.7500      0.0000    742.3298      9.3624     90.9789
   891.0000      0.0000    741.2747      9.2088     96.2262
   891.2500      0.0000    738.2435      8.9156    106.5630
   891.5000      0.0000    733.8943      8.6096    118.5796
   891.7500      0.0000    730.0890      8.3806    129.1262
   892.0000      0.0000    727.1448      8.2652    136.9856
   892.2500      0.0000    724.1930      8.2369    142.3656
   892.5000      0.0000    722.6469      8.2285    145.3046
   892.7500      0.0000    726.8271      8.1785    145.5771
   893.0000      0.0000    739.5884      8.0691    144.1721
   893.2500      0.0000    758.2918      7.9239    143.5841
   893.5000      0.0000    776.1673      7.7758    145.4854
   893.7500      0.0000    786.9299      7.6461    148.4932
   894.0000      0.0000    787.5916      7.5459    149.4219
   894.2500      0.0000    778.5631      7.4796    146.9614
   894.5000      0.0000    763.1790      7.4434    143.3516
   894.7500      0.0000    746.6172      7.4279    141.8779
   895.0000      0.0000    733.0953      7.4217    143.1847
   895.2500      0.0000    723.7735      7.4161    144.8620
   895.5000      0.0000    718.3080      7.4131    144.3963
   895.7500      0.0000    717.1393      7.4262    141.6187
   896.0000      0.0000    720.0427      7.4630    138.4354
   896.2500      0.0000    723.4471      7.5070    137.2449
   896.5000      0.0000    722.1677      7.5249    139.6059
   896.7500      0.0000    714.4007      7.4958    145.2876
   897.0000      0.0000    703.4869      7.4269    152.0602
   897.2500      0.0000    694.5471      7.3443    156.9268
   897.5000      0.0000    690.7440      7.2724    158.0533
