~Version Information
 VERS.                                  2.0 : CWLS LAS VERSION
 WRAP.                                   NO : WRAPING MODE
 SWARE .                 MController 2.5.0J : SOFTWARE VERSION
~Well Information
 WELL.                    Greenwood 43-29Tr : WELL
 COMP.    Pioneer Natural Resources USA Inc : COMPANY
 FLD.                      Purgatoire River : FIELD
 LOC.                 NE/SE SEC29 T32S R67W : LOCATION
 DATE.                          08/30-31/05 : DATE(S) LOGGED
 SRVC.       Blanco Geological Services LLC : SERVICE COMPANY
 STAT.                             Colorado : STATE
 CNTY.                           Las Animas : COUNTY
 CTRY.                                  USA : COUNTRY
 API.                       05-071-08478-00 : API NUMBER
 STRT.FT                             941.00 : START DEPTH
 STOP.FT                            2097.00 : STOP DEPTH
 STEP.FT                               1.00 : DEPTH INCREMENT
 NULL.                                -9999 : NULL VALUE
~Curve information
 DEPTH.FT                                   :
 ROP.MIN/FT                                 :
 GAS.UNITS                                  :
~ASCII Log data
# ...
      1741.0         0.20        705.7 
      1742.0         0.17        695.5 
      1743.0         0.13        695.5 
      1744.0         0.13        679.0 
      1745.0         0.13        671.1 
      1746.0         0.17        671.1 
      1747.0         0.23        661.9 
      1748.0         0.23        653.3 
      1749.0         0.27        648.2 
      1750.0         0.23        640.0 
      1751.0         0.13        631.4 
      1752.0         0.17        624.1 
      1753.0         0.23        622.5 
      1754.0         0.25        621.0 
      1755.0         0.23        622.2 
      1756.0         0.23        668.9 
      1757.0         0.27        700.3 
      1758.0         0.23        705.7 
      1759.0         0.23        700.0 
      1760.0         0.23        679.7 
      1761.0         0.20        670.5 
      1762.0         0.17        673.3 
      1763.0         0.10        694.0 
      1764.0         0.10        694.0 
      1765.0         0.17        732.4 
      1766.0         2.55       1018.6 
      1767.0         0.30        879.9 
      1768.0         0.37        830.1 
      1769.0         0.33        770.1 
      1770.0         0.27        718.4 
      1771.0         0.23        718.4 
      1772.0         0.23        720.6 
      1773.0         0.28        711.1 
      1774.0         0.23        708.9 
      1775.0         0.53        718.4 
      1776.0         0.37        718.7 
      1777.0         0.23        710.1 
      1778.0         0.17        707.3 
      1779.0         0.20        701.6 
      1780.0         0.13        697.4 
      1781.0         0.23        693.3 
      1782.0         0.27        682.8 
      1783.0         0.23        678.1 
      1784.0         0.23        674.3 
      1785.0         0.27        675.2 
      1786.0         0.28        669.8 
      1787.0         0.23        650.5 
      1788.0         0.23        627.9 
      1789.0         0.23        620.6 
      1790.0         0.23        623.8 
      1791.0         0.20        644.4 
      1792.0         0.13        644.4 
      1793.0         0.13        679.4 
      1794.0         0.10        679.4 
      1795.0         0.13        682.8 
      1796.0         2.62        986.9 
      1797.0         0.37        776.5 
      1798.0         0.27        724.1 
      1799.0         0.17        697.8 
      1800.0         0.20        689.5 
      1801.0         0.20        684.1 
      1802.0         0.63        693.6 
      1803.0         0.23        690.5 
      1804.0         0.17        687.9 
      1805.0         0.58        682.5 
      1806.0         0.73        674.9 
      1807.0         0.37        685.1 
      1808.0         0.53        687.6 
      1809.0         0.40        675.5 
      1810.0         0.33        675.9 
      1811.0         0.33        662.2 
      1812.0         0.42        658.7 
      1813.0         0.33        658.1 
      1814.0         0.30        662.2 
      1815.0         0.30        661.9 
      1816.0         0.20        660.6 
      1817.0         0.20        659.7 
      1818.0         0.23        657.8 
      1819.0         0.30        646.3 
      1820.0         0.27        623.8 
      1821.0         0.23        619.4 
      1822.0         0.23        620.0 
      1823.0         0.33        630.5 
      1824.0         0.32        664.8 
      1825.0         0.20        710.5 
      1826.0         2.87        890.1 
      1827.0         0.32        681.9 
      1828.0         0.23        674.6 
      1829.0         0.27        702.8 
      1830.0         0.27        736.2 
      1831.0         0.30        788.5 
      1832.0         0.30        810.1 
      1833.0         0.30        797.4 
      1834.0         0.23        786.6 
      1835.0         0.20        766.3 
      1836.0         0.37        749.8 
      1837.0         0.40        724.7 
      1838.0         0.48        717.1 
      1839.0         0.43        711.7 
      1840.0         0.33        699.3 
      1841.0         0.27        691.7 
      1842.0         0.40        697.4 
      1843.0         0.50        698.4 
      1844.0         0.27        703.5 
      1845.0         0.33        763.5 
      1846.0         0.30        793.9 
      1847.0         0.28        765.7 
      1848.0         0.17        729.2 
      1849.0         0.20        716.8 
      1850.0         0.17        716.8 
      1851.0         0.10        717.8 
      1852.0         0.17        717.8 
      1853.0         0.30        771.1 
      1854.0         0.27        801.9 
      1855.0         1.60       1110.0 
      1856.0         0.48       1029.7 
      1857.0         0.53        976.4 
      1858.0         0.70        853.9 
      1859.0         0.47        734.3 
      1860.0         0.30        740.6 
      1861.0         0.40        753.9 
      1862.0         0.27        752.7 
      1863.0         0.23        737.1 
      1864.0         0.32        728.2 
      1865.0         0.33        724.7 
      1866.0         0.40        708.6 
      1867.0         0.43        701.6 
      1868.0         0.40        688.9 
      1869.0         0.37        683.2 
      1870.0         0.30        684.4 
      1871.0         0.27        688.2 
      1872.0         0.27        695.2 
      1873.0         0.30        704.7 
      1874.0         0.28        696.8 
      1875.0         0.30        689.5 
      1876.0         0.33        684.1 
      1877.0         0.30        671.4 
      1878.0         0.27        661.3 
      1879.0         0.20        638.4 
      1880.0         0.20        629.8 
      1881.0         0.20        627.3 
      1882.0         0.20        629.5 
      1883.0         0.20        653.6 
      1884.0         0.20        674.6 
      1885.0         0.20        696.5 
      1886.0         1.98       1105.0 
      1887.0         0.40        946.3 
      1888.0         0.80        848.5 
      1889.0         0.30        747.6 
      1890.0         0.23        732.7 
      1891.0         0.27        728.5 
      1892.0         0.48        729.2 
      1893.0         0.47        737.8 
      1894.0         0.40        730.8 
      1895.0         0.40        706.6 
      1896.0         0.37        699.0 
      1897.0         0.33        688.2 
      1898.0         0.30        686.3 
      1899.0         0.27        691.1 
      1900.0         0.27        695.5 
      1901.0         0.32        698.4 
      1902.0         0.27        698.7 
      1903.0         0.30        698.4 
      1904.0         0.27        695.9 
      1905.0         0.23        692.0 
      1906.0         0.23        693.0 
      1907.0         0.23        688.9 
      1908.0         0.27        683.2 
      1909.0         0.23        668.6 
      1910.0         0.27        644.4 
      1911.0         0.23        634.3 
      1912.0         0.23        624.4 
      1913.0         0.27        630.8 
      1914.0         0.28        672.7 
      1915.0         0.20        693.0 
      1916.0         1.90        941.5 
      1917.0         0.70        947.2 
      1918.0         0.45        872.0 
      1919.0         0.43        755.5 
      1920.0         0.40        739.0 
      1921.0         0.33        700.6 
      1922.0         0.37        684.4 
      1923.0         0.33        679.0 
      1924.0         0.37        679.4 
      1925.0         0.37        680.9 
      1926.0         0.40        696.2 
      1927.0         0.35        706.3 
      1928.0         0.33        715.2 
      1929.0         0.30        707.3 
      1930.0         0.27        703.8 
      1931.0         0.27        692.0 
      1932.0         0.23        683.5 
      1933.0         0.23        681.6 
      1934.0         0.27        679.4 
      1935.0         0.27        676.8 
      1936.0         0.23        672.4 
      1937.0         0.27        667.3 
      1938.0         0.23        663.5 
      1939.0         0.27        657.1 
      1940.0         0.28        651.7 
