~Version Information
VERS.                      2.0: CWLS Log ASCII Standard - VERSION 2.0
WRAP.                       NO: One line per depth step
~Well Information Block
STRT.FT               440.0000: 
STOP.FT              1702.7000: 
STEP.FT                 0.1000: 
NULL.                -999.2500: 
COMP.          Pioneer Natural Resources: COMPANY
WELL.          Culver 14-12 Tr: WELL
FLD.           Purgatoire River: FIELD
LOC.           915' FSL & 1048' FWL--: LOCATION
STAT.                 Colorado: State
CNTY.               Las Animas: COUNTY
CTRY. USA : Country
SECT. 12 : Section
TOWN. 32S : Township
RANG. 66W : Range
SRVC.                Patterson: SERVICE COMPANY
DATE.          Wed Sep 28 10:00:59 2005: LOG DATE
API.           05 071 08520 00: UNIQUE WELL ID
~Curve Information Block
DEPT.FT            0 000 00 00: Depth
DCAL.in                       : CDL Caliper
RHOB.g/cc                     : CDL Bulk Density
RHOC.g/cc                     : CDL Density Correction
DPOR.pu                       : CDL Density Porosity
NPOR.pu                       : Neutron Porosity
GR.GAPI                       : Gamma Ray
~Parameter Information Block
~A  Depth       DCAL        RHOB        RHOC        DPOR        NPOR         GR     
# ...
   526.4000      8.1490      2.6222      0.0668      1.6871     26.1484     97.6278
   526.5000      8.1299      2.6108      0.1015      2.3735     26.2429     96.0372
   526.6000      8.1299      2.5877      0.0819      3.7735     26.4030     93.1938
   526.7000      8.1299      2.5696      0.0616      4.8727     26.7995     89.3849
   526.8000      8.1279      2.5748      0.0826      4.5567     27.4838     86.8684
   526.9000      8.1279      2.5994      0.1180      3.0683     27.9514     87.5510
   527.0000      8.1258      2.6162      0.1898      2.0475     28.0458     88.8430
   527.1000      8.1258      2.6052      0.0916      2.7147     27.9854     88.7105
   527.2000      8.1258      2.5772      0.0438      4.4113     27.5547     89.5976
   527.3000      8.1244      2.5478      0.0655      6.1939     26.4773     90.4573
   527.4000      8.1244      2.5237     -0.0051      7.6573     25.2752     88.9648
   527.5000      8.1254      2.5137      0.0101      8.2596     24.5344     86.7446
   527.6000      8.1254      2.5209     -0.0052      7.8243     24.0471     85.5251
   527.7000      8.1254      2.5300      0.0453      7.2718     23.4251     85.2528
   527.8000      8.1263      2.5176      0.0225      8.0250     22.5506     84.5694
   527.9000      8.1263      2.4870     -0.0258      9.8790     21.5171     82.1292
   528.0000      8.1259      2.4639      0.0562     11.2783     20.5901     79.2299
   528.1000      8.1259      2.4640     -0.0211     11.2725     20.0885     79.1984
   528.2000      8.1259      2.4812      0.0695     10.2284     19.8415     81.7657
   528.3000      8.1260      2.4956      0.0067      9.3572     19.4421     83.6559
   528.4000      8.1260      2.4983      0.0654      9.1967     18.9452     83.4235
   528.5000      8.1253      2.4913     -0.0057      9.6176     18.4349     80.9259
   528.6000      8.1253      2.4822      0.0012     10.1692     18.0926     77.2589
   528.7000      8.1253      2.4755      0.0114     10.5731     18.0931     77.1490
   528.8000      8.1236      2.4699      0.0190     10.9169     18.1615     82.3188
   528.9000      8.1236      2.4652     -0.0009     11.2011     17.8735     88.6182
   529.0000      8.1235      2.4620      0.0051     11.3924     17.0859     90.4779
   529.1000      8.1235      2.4638      0.0037     11.2856     16.3465     86.1077
   529.2000      8.1235      2.4770     -0.0046     10.4850     16.1976     79.5926
   529.3000      8.1260      2.4942      0.0204      9.4442     16.3742     75.2479
   529.4000      8.1260      2.4912      0.0272      9.6258     16.5854     74.6580
   529.5000      8.1272      2.4607      0.0216     11.4715     16.9387     75.7348
   529.6000      8.1272      2.4286     -0.0407     13.4182     17.3225     75.5990
   529.7000      8.1272      2.4200     -0.0269     13.9395     17.4438     76.4374
   529.8000      8.1274      2.4304      0.0156     13.3080     17.3105     79.8122
   529.9000      8.1274      2.4412      0.0075     12.6538     17.1571     82.1610
   530.0000      8.1279      2.4456      0.0091     12.3850     17.2386     80.7287
   530.1000      8.1279      2.4456      0.0138     12.3896     17.5773     76.4189
   530.2000      8.1279      2.4421      0.0195     12.5977     17.9107     72.1829
   530.3000      8.1269      2.4347      0.0173     13.0482     18.0872     70.9147
   530.4000      8.1269      2.4222      0.0038     13.8037     18.1346     72.0861
   530.5000      8.1252      2.4129     -0.0218     14.3707     18.0016     72.7161
   530.6000      8.1252      2.4150      0.0006     14.2438     17.7308     73.1763
   530.7000      8.1252      2.4228      0.0224     13.7718     17.4530     74.2817
   530.8000      8.1254      2.4342     -0.0181     13.0759     17.2173     75.2353
   530.9000      8.1254      2.4537      0.0003     11.8998     17.1372     76.9965
   531.0000      8.1240      2.4651      0.0521     11.2083     17.0023     78.6209
   531.1000      8.1240      2.4548      0.0167     11.8328     16.3806     77.8454
   531.2000      8.1240      2.4380      0.0296     12.8503     15.5105     76.3302
   531.3000      8.1206      2.4318     -0.0071     13.2253     15.0411     73.9517
   531.4000      8.1206      2.4364      0.0323     12.9432     14.8526     69.7726
   531.5000      8.1197      2.4427      0.0186     12.5662     14.4216     65.7711
   531.6000      8.1197      2.4453      0.0083     12.4038     14.0119     64.1717
   531.7000      8.1197      2.4399      0.0472     12.7310     14.2894     67.3307
   531.8000      8.1221      2.4212      0.0124     13.8688     15.4130     73.9011
   531.9000      8.1221      2.4013     -0.0238     15.0727     16.7247     77.5996
   532.0000      8.1247      2.4010      0.0050     15.0894     17.3835     75.0706
   532.1000      8.1247      2.4212     -0.0070     13.8642     17.1678     69.9970
   532.2000      8.1247      2.4447      0.0336     12.4437     16.5163     67.4495
   532.3000      8.1252      2.4585      0.0223     11.6051     16.0262     66.7588
   532.4000      8.1252      2.4658      0.0551     11.1641     15.8221     64.8385
   532.5000      8.1251      2.4697      0.0649     10.9281     15.8286     62.9638
   532.6000      8.1251      2.4690      0.0338     10.9718     15.8973     62.7406
   532.7000      8.1251      2.4690      0.0145     10.9671     15.9751     62.1717
   532.8000      8.1250      2.4720      0.0522     10.7886     16.2518     62.2303
   532.9000      8.1250      2.4734      0.0256     10.7019     16.6169     66.6503
   533.0000      8.1245      2.4683      0.0458     11.0100     16.9004     74.4729
   533.1000      8.1245      2.4498      0.0394     12.1334     17.3010     79.9790
   533.2000      8.1245      2.4266     -0.0345     13.5411     17.9095     80.4747
   533.3000      8.1240      2.4194     -0.0223     13.9734     18.5185     77.6529
   533.4000      8.1240      2.4331      0.0030     13.1427     18.8288     74.6671
   533.5000      8.1247      2.4582     -0.0002     11.6247     18.7835     73.8414
   533.6000      8.1247      2.4746      0.0587     10.6292     18.7532     74.9103
   533.7000      8.1247      2.4628      0.0562     11.3430     18.9002     77.2136
   533.8000      8.1233      2.4336      0.0369     13.1160     18.9881     78.9690
   533.9000      8.1233      2.4147      0.0269     14.2598     19.0636     78.7657
   534.0000      8.1190      2.4171      0.0351     14.1163     19.1924     78.7767
   534.1000      8.1190      2.4334      0.0485     13.1263     19.1336     79.5492
   534.2000      8.1190      2.4504      0.0603     12.0945     18.8274     79.1288
   534.3000      8.1149      2.4530      0.0866     11.9398     18.6185     77.5967
   534.4000      8.1149      2.4347      0.0227     13.0461     18.5832     77.1958
   534.5000      8.1118      2.4041      0.0328     14.9013     18.3811     78.5218
   534.6000      8.1118      2.3793     -0.0227     16.4088     17.9641     79.0573
   534.7000      8.1118      2.3800     -0.0244     16.3626     17.5581     77.0138
   534.8000      8.1113      2.3988      0.0484     15.2238     17.3859     74.5986
   534.9000      8.1113      2.4110      0.0303     14.4870     17.4296     74.6469
   535.0000      8.1123      2.4163      0.0328     14.1645     17.4327     77.3133
   535.1000      8.1123      2.4265      0.0313     13.5439     17.2172     78.5286
   535.2000      8.1123      2.4333      0.0685     13.1319     16.7171     76.5043
   535.3000      8.1143      2.4273     -0.0113     13.4960     16.1147     74.5519
   535.4000      8.1143      2.4222      0.0196     13.8079     15.8918     75.0779
   535.5000      8.1180      2.4297      0.0239     13.3523     16.1567     76.7383
   535.6000      8.1180      2.4464      0.0502     12.3389     16.6067     76.7565
   535.7000      8.1180      2.4631      0.0555     11.3250     16.9693     75.0018
   535.8000      8.1217      2.4725      0.0619     10.7574     17.2050     73.3865
   535.9000      8.1217      2.4700      0.0636     10.9120     17.4842     73.2841
