~Version Information
VERS.                      2.0: CWLS Log ASCII Standard - VERSION 2.0
WRAP.                       NO: One line per depth step
~Well Information Block
STRT.FT               570.0000: 
STOP.FT              2090.5000: 
STEP.FT                 0.1000: 
NULL.                -999.2500: 
COMP.          XTO Energy Inc.: COMPANY
WELL.          Golden Eagle 19-10: WELL
FLD.           Purgatoire River: FIELD
LOC.           2684' FSL & 1825' FEL: LOCATION
CNTY.               Las Animas: COUNTY
SRVC.                Patterson: SERVICE COMPANY
DATE.          Mon Mar 06 07:05:15 2006: LOG DATE
UWI.           05 071 08697 00: UNIQUE WELL ID
STAT.                 Colorado: STATE
~Curve Information Block
DEPT.FT            0 000 00 00: Depth
DCAL.in                       : CDL Caliper
RHOB.g/cc                     : CDL Bulk Density
RHOC.g/cc                     : CDL Density Correction
DPOR.pu                       : CDL Density Porosity
GR.GAPI                       : Gamma Ray
NPOR.pu                       : Neutron Porosity
~Parameter Information Block
~A  Depth       DCAL        RHOB        RHOC        DPOR         GR         NPOR    
   570.0000   -999.2500   -999.2500   -999.2500   -999.2500     99.7690     31.3266
   570.1000   -999.2500   -999.2500      0.2095   -999.2500     91.5660     31.6737
   570.2000   -999.2500   -999.2500      0.2605   -999.2500     89.5193     32.0911
   570.3000   -999.2500   -999.2500      0.2883   -999.2500     94.0635     32.6838
   570.4000   -999.2500   -999.2500      0.3477   -999.2500    101.3843     33.3328
   570.5000      3.1501   -999.2500      0.3796   -999.2500    109.2227     33.7853
   570.6000      3.1501      1.3015      0.3671     81.7271    113.7057     33.7874
   570.7000      3.1501      1.2160      0.3644     86.9089    112.7197     33.5648
   570.8000      3.1541      1.1378      0.3227     91.6505    110.9445     33.3389
   570.9000      3.1541      1.0613      0.3192     96.2854    112.1325     32.7636
   571.0000      3.1436      0.9719      0.2508    101.7036    112.9466     31.5550
   571.1000      3.1436      0.8606      0.1439    108.4460    113.0114     30.3990
   571.2000      3.1436      0.7324     -0.0029    116.2173    117.1444     30.3482
   571.3000      3.1357      0.6029     -0.1527    124.0678    121.6691     31.1711
   571.4000      3.1357      0.4917     -0.2957    130.8089    119.2116     31.7840
   571.5000      3.1374      0.4164     -0.3773    135.3675    112.7232     31.7227
   571.6000      3.1374      0.3967     -0.5224    136.5610    110.4519     31.3076
   571.7000      3.1374      0.4473     -0.4737    133.4983    114.1592     30.6080
   571.8000      3.1443      0.5688     -0.4849    126.1320    119.0076     29.6434
   571.9000      3.1443      0.7626     -0.4066    114.3900    121.4791     29.4819
   572.0000      3.1474      1.0252     -0.2308     98.4739    120.3438     30.5030
   572.1000      3.1474      1.3497     -0.0903     78.8090    113.4730     31.1322
   572.2000      3.1474      1.7427      0.1075     54.9895    102.8730     30.5541
   572.3000      3.1332      2.1972      0.3692     27.4419     98.2564     29.8220
   572.4000      3.1332      2.6697      0.5846     -1.1964    106.1527     29.5007
   572.5000      3.1018      3.1102      0.7802    -27.8919    117.9859     29.2381
   572.6000      3.1018      3.4595      0.9481    -49.0581    122.3125     28.8582
   572.7000      3.1018      3.6063      1.0957    -57.9588    117.7396     28.5915
   572.8000      3.0707      3.4304      0.9958    -47.2960    109.3494     28.8318
   572.9000      3.0707      2.9058      0.6742    -15.5008    104.5137     29.6403
   573.0000      3.0633      2.1298      0.1720     31.5262    106.8674     30.5040
   573.1000      3.0633      1.2820     -0.3092     82.9092    112.0683     30.8847
   573.2000      3.0633      0.5642     -0.8040    126.4091    115.8094     30.4608
   573.3000      3.0865      0.1379     -1.1168    152.2477    117.4640     29.5223
   573.4000      3.0865      0.0542     -0.9175    157.3238    117.1873     28.8913
   573.5000      3.1175      0.2319     -0.6073    146.5491    116.5677     29.1618
   573.6000      3.1175      0.5168     -0.1769    129.2821    117.7969     30.2484
   573.7000      3.1175      0.7390      0.2202    115.8202    121.0023     31.1355
   573.8000      3.1426      0.7831      0.1957    113.1429    122.0313     30.9740
   573.9000      3.1426      0.6693     -0.0936    120.0406    119.5258     30.2870
   574.0000      3.3220      0.5401     -0.3817    127.8750    117.3330     29.8723
   574.1000      3.3220      0.5940     -0.5077    124.6084    116.7458     29.5752
   574.2000      3.3220      0.9979     -0.4939    100.1267    118.3544     29.3982
   574.3000      4.1948      1.6884     -0.0310     58.2762    120.5686     29.7140
   574.4000      4.1948      2.3404      0.2190     18.7617    118.1724     29.9299
   574.5000      5.9435      2.7197      0.3257     -4.2256    112.5351     29.5634
   574.6000      5.9435      2.8609      0.3845    -12.7800    110.7049     29.2306
   574.7000      5.9435      2.8538      0.4193    -12.3512    110.9163     29.4312
   574.8000      7.5170      2.6948      0.4596     -2.7147    107.9471     29.5895
   574.9000      7.5170      2.4161     -0.2481     14.1768    106.9417     29.4662
   575.0000      8.1791      2.1755     -0.5635     28.7592    109.1886     29.7545
   575.1000      8.1791      2.0765     -0.5337     34.7562    108.1653     30.2799
   575.2000      8.1791      2.0720     -0.4819     35.0317    103.8336     30.6013
   575.3000      8.3019      2.0824     -0.4842     34.3987    101.2572     30.7141
   575.4000      8.3019      2.0838     -0.5090     34.3153    102.4650     30.2751
   575.5000      8.3095      2.0887     -0.5048     34.0173    106.2966     29.3693
   575.6000      8.3095      2.1001     -0.4781     33.3247    109.4039     28.6035
   575.7000      8.3095      2.1054     -0.4784     33.0038    109.5758     28.3453
   575.8000      8.3081      2.0999     -0.4823     33.3413    109.9654     28.6237
   575.9000      8.3081      2.0952     -0.5075     33.6220    112.4605     29.3104
   576.0000      8.3080      2.0993     -0.4961     33.3778    113.2925     29.9713
   576.1000      8.3080      2.1033     -0.4477     33.1318    109.9356     30.4267
   576.2000      8.3080      2.1065     -0.5409     32.9411    106.5922     30.6185
   576.3000      8.3082      2.1221     -0.5108     31.9947    105.3750     30.3563
   576.4000      8.3082      2.1517     -0.4818     30.2010    101.0191     30.1879
   576.5000      8.3087      2.1855     -0.4644     28.1523     94.7983     30.5171
   576.6000      8.3087      2.2237     -0.5076     25.8341     92.4319     30.6247
   576.7000      8.3087      2.2622     -0.4098     23.5013     92.6486     30.0069
   576.8000      8.3095      2.2820     -0.4393     22.3044     91.5291     29.3030
   576.9000      8.3095      2.2820     -0.4326     22.3029     90.8664     28.9283
   577.0000      8.3096      2.2773     -0.4358     22.5906     95.5446     28.6914
   577.1000      8.3096      2.2714     -0.4426     22.9449    101.5853     28.4266
   577.2000      8.3096      2.2529     -0.4637     24.0672    103.9288     28.5257
   577.3000      8.3090      2.2118     -0.4886     26.5580    104.5899     29.2516
   577.4000      8.3090      2.1633     -0.5295     29.4987    103.5056     29.7552
   577.5000      8.3090      2.1339     -0.4987     31.2798    102.1322     29.8862
   577.6000      8.3090      2.1310     -0.5241     31.4516    106.1453     30.3731
   577.7000      8.3090      2.1436     -0.4454     30.6933    114.2809     30.6846
   577.8000      8.3092      2.1525     -0.4737     30.1540    119.7714     30.1514
   577.9000      8.3092      2.1456     -0.4685     30.5682    117.6254     29.4683
   578.0000      8.3095      2.1309     -0.5130     31.4627    111.3067     29.5188
   578.1000      8.3095      2.1206     -0.4701     32.0871    109.7247     29.6258
   578.2000      8.3095      2.1037     -0.4516     33.1077    111.3834     28.8022
   578.3000      8.3098      2.0694     -0.5348     35.1880    109.0721     27.7965
   578.4000      8.3098      2.0389     -0.5526     37.0374    104.9375     27.7590
   578.5000      8.3104      2.0404     -0.5745     36.9434    103.0113     28.0359
   578.6000      8.3104      2.0721     -0.5071     35.0269    101.9737     27.5670
   578.7000      8.3104      2.1017     -0.4708     33.2308    101.5992     26.7794
   578.8000      8.3107      2.1078     -0.4912     32.8607    103.5035     26.6897
   578.9000      8.3107      2.0960     -0.5053     33.5780    104.6368     27.1625
   579.0000      8.3105      2.0723     -0.5163     35.0126     98.8843     27.3189
   579.1000      8.3105      2.0405     -0.5352     36.9418     87.7604     27.0935
   579.2000      8.3105      2.0134     -0.5649     38.5795     81.1598     27.3075
   579.3000      8.3100      2.0012     -0.5121     39.3240     85.3491     28.6784
   579.4000      8.3100      2.0026     -0.5740     39.2368     94.1701     30.3645
   579.5000      8.3102      2.0144     -0.5152     38.5182     94.8323     31.1745
