~Version Information
VERS.                      2.0: CWLS Log ASCII Standard - VERSION 2.0
WRAP.                       NO: One line per depth step
~Well Information Block
STRT.FT               625.0000: 
STOP.FT              2053.7000: 
STEP.FT                 0.1000: 
NULL.                -999.2500: 
COMP.          Pioneer Natural Resources: COMPANY
WELL.            Zink 44-10 Tr: WELL
FLD.           Purgatoire River: FIELD
LOC.           486' FSL & 554' FEL--: LOCATION
PROV.                 Colorado: PROVINCE
CNTY.               Las Animas: COUNTRY
SRVC.                Patterson: SERVICE COMPANY
DATE.          Sun Jul 24 08:46:57 2005: LOG DATE
UWI.           05 071 08446 00: UNIQUE WELL ID
~Curve Information Block
DEPT.FT            0 000 00 00: Depth
DCAL.in                       : CDL Caliper
RHOB.g/cc                     : CDL Bulk Density
RHOC.g/cc                     : CDL Density Correction
DPOR.pu                       : CDL Density Porosity
NPOR.pu                       : Neutron Porosity
GR.GAPI                       : Gamma Ray
~Parameter Information Block
~A  Depth       DCAL        RHOB        RHOC        DPOR        NPOR         GR     
# ...
  2026.6000      7.8265      2.5485      0.0646      6.1523     25.9229   -999.2500
  2026.7000      7.8265      2.5474      0.0355      6.2197     25.5175   -999.2500
  2026.8000      7.8410      2.5586      0.0479      5.5375     26.0224   -999.2500
  2026.9000      7.8410      2.5724      0.0655      4.7008     28.6356   -999.2500
  2027.0000      7.8507      2.5832      0.0601      4.0473     35.0993   -999.2500
  2027.1000      7.8507      2.5966      0.0542      3.2367     43.6149   -999.2500
  2027.2000      7.8507      2.6127      0.0902      2.2589     49.3054   -999.2500
  2027.3000      7.8543      2.6216      0.0917      1.7192     51.3222   -999.2500
  2027.4000      7.8543      2.6209      0.0774      1.7649     51.7150   -999.2500
  2027.5000      7.8526      2.6130      0.0724      2.2438     51.7564   -999.2500
  2027.6000      7.8526      2.5972      0.0712      3.1976     51.7587   -999.2500
  2027.7000      7.8526      2.5790      0.0577      4.3028   -999.2500   -999.2500
  2027.8000      7.8402      2.5666      0.0791      5.0562   -999.2500   -999.2500
  2027.9000      7.8402      2.5581      0.0633      5.5691   -999.2500   -999.2500
  2028.0000      7.8279      2.5453      0.0600      6.3456   -999.2500   -999.2500
  2028.1000      7.8279      2.5255      0.0513      7.5443   -999.2500   -999.2500
  2028.2000      7.8279      2.5074      0.0177      8.6425   -999.2500   -999.2500
  2028.3000      7.8344      2.5039      0.0113      8.8553   -999.2500   -999.2500
  2028.4000      7.8344      2.5131      0.0636      8.2947   -999.2500   -999.2500
  2028.5000      7.8496      2.5129      0.0891      8.3070   -999.2500   -999.2500
  2028.6000      7.8496      2.4911      0.0774      9.6288   -999.2500   -999.2500
  2028.7000      7.8496      2.4647      0.0369     11.2327   -999.2500   -999.2500
  2028.8000      7.8630      2.4503      0.0525     12.1052   -999.2500   -999.2500
  2028.9000      7.8630      2.4438      0.0799     12.4948   -999.2500   -999.2500
  2029.0000      7.8753      2.4467      0.0203     12.3235   -999.2500   -999.2500
  2029.1000      7.8753      2.4692      0.0766     10.9548   -999.2500   -999.2500
  2029.2000      7.8753      2.4960      0.1264      9.3304   -999.2500   -999.2500
  2029.3000      7.9046      2.5041      0.0856      8.8430   -999.2500   -999.2500
  2029.4000      7.9046      2.5031      0.1072      8.9020   -999.2500   -999.2500
  2029.5000      7.9727      2.5178      0.1203      8.0117   -999.2500   -999.2500
  2029.6000      7.9727      2.5529      0.1710      5.8836   -999.2500   -999.2500
  2029.7000      7.9727      2.5900      0.1934      3.6365   -999.2500   -999.2500
  2029.8000      8.0360      2.6063      0.2019      2.6510   -999.2500   -999.2500
  2029.9000      8.0360      2.5956      0.1306      3.2943   -999.2500   -999.2500
  2030.0000      8.0400      2.5796      0.0765      4.2642   -999.2500   -999.2500
  2030.1000      8.0400      2.5785      0.0925      4.3350   -999.2500   -999.2500
  2030.2000      8.0400      2.5869      0.1005      3.8226   -999.2500   -999.2500
  2030.3000      7.9838      2.5943      0.0956      3.3754   -999.2500   -999.2500
  2030.4000      7.9838      2.5983      0.0680      3.1348   -999.2500   -999.2500
  2030.5000      7.8936      2.5949      0.1043      3.3419   -999.2500   -999.2500
  2030.6000      7.8936      2.5771      0.0690      4.4186   -999.2500   -999.2500
  2030.7000      7.8936      2.5486      0.0737      6.1450   -999.2500   -999.2500
  2030.8000      7.8287      2.5250      0.0284      7.5748   -999.2500   -999.2500
  2030.9000      7.8287      2.5198      0.0416      7.8938   -999.2500   -999.2500
  2031.0000      7.8106      2.5257      0.0645      7.5316   -999.2500   -999.2500
  2031.1000      7.8106      2.5268      0.0804      7.4649   -999.2500   -999.2500
  2031.2000      7.8106      2.5249      0.0479      7.5794   -999.2500   -999.2500
  2031.3000      7.8268      2.5326      0.0531      7.1172   -999.2500   -999.2500
  2031.4000      7.8268      2.5464      0.0658      6.2808   -999.2500   -999.2500
  2031.5000      7.8598      2.5542      0.0733      5.8080   -999.2500   -999.2500
  2031.6000      7.8598      2.5596      0.0853      5.4803   -999.2500   -999.2500
  2031.7000      7.8598      2.5710      0.0771      4.7904   -999.2500   -999.2500
  2031.8000      7.8805      2.5822      0.1401      4.1071   -999.2500   -999.2500
  2031.9000      7.8805      2.5836      0.1364      4.0239   -999.2500   -999.2500
  2032.0000      7.8666      2.5799      0.1455      4.2466   -999.2500   -999.2500
  2032.1000      7.8666      2.5853      0.1252      3.9226   -999.2500   -999.2500
  2032.2000      7.8666      2.5970      0.1636      3.2145   -999.2500   -999.2500
  2032.3000      7.8329      2.5920      0.1423      3.5152   -999.2500   -999.2500
  2032.4000      7.8329      2.5682      0.0727      4.9578   -999.2500   -999.2500
  2032.5000      7.8064      2.5543      0.0584      5.7970   -999.2500   -999.2500
  2032.6000      7.8064      2.5678      0.0832      4.9796   -999.2500   -999.2500
  2032.7000      7.8064      2.5949      0.0824      3.3382   -999.2500   -999.2500
  2032.8000      7.7886      2.6131      0.1306      2.2369   -999.2500   -999.2500
  2032.9000      7.7886      2.6167      0.0905      2.0175   -999.2500   -999.2500
  2033.0000      7.7635      2.6198      0.1029      1.8322   -999.2500   -999.2500
  2033.1000      7.7635      2.6289      0.0873      1.2812   -999.2500   -999.2500
  2033.2000      7.7635      2.6400      0.0733      0.6046   -999.2500   -999.2500
  2033.3000      7.7321      2.6497      0.0865      0.0166   -999.2500   -999.2500
  2033.4000      7.7321      2.6484      0.0889      0.0979   -999.2500   -999.2500
  2033.5000      7.7115      2.6257      0.1096      1.4716   -999.2500   -999.2500
  2033.6000      7.7115      2.5953      0.0225      3.3141   -999.2500   -999.2500
  2033.7000      7.7115      2.5895      0.0432      3.6663   -999.2500   -999.2500
  2033.8000      7.6988      2.6124      0.0796      2.2787   -999.2500   -999.2500
  2033.9000      7.6988      2.6381      0.0804      0.7230   -999.2500   -999.2500
  2034.0000      7.6938      2.6477      0.0750      0.1382   -999.2500   -999.2500
  2034.1000      7.6938      2.6425      0.0726      0.4568   -999.2500   -999.2500
  2034.2000      7.6938      2.6369      0.0359      0.7934   -999.2500   -999.2500
  2034.3000      7.7016      2.6391      0.0844      0.6593   -999.2500   -999.2500
  2034.4000      7.7016      2.6599      0.0679     -0.6022   -999.2500   -999.2500
  2034.5000      7.6691      2.7365      0.0627     -5.2442   -999.2500   -999.2500
  2034.6000      7.6691      2.7535      0.0995     -6.2752   -999.2500   -999.2500
  2034.7000      7.6691      2.2898      0.6121     21.8295   -999.2500   -999.2500
  2034.8000      7.2937      1.2935      0.0730     82.2115   -999.2500   -999.2500
  2034.9000      7.2937      0.4371      0.0730    134.1166   -999.2500   -999.2500
  2035.0000      5.6952      0.0828   -999.2500    155.5866   -999.2500   -999.2500
  2035.1000      5.6952      0.0085   -999.2500    160.0893   -999.2500   -999.2500
  2035.2000      5.6952      0.0005   -999.2500    160.5780   -999.2500   -999.2500
  2035.3000      3.0796      0.0000   -999.2500    160.6061   -999.2500   -999.2500
  2035.4000      3.0796      0.0000   -999.2500    160.6061   -999.2500   -999.2500
  2035.5000      1.4946   -999.2500   -999.2500   -999.2500   -999.2500   -999.2500
  2035.6000      1.4946   -999.2500   -999.2500   -999.2500   -999.2500   -999.2500
  2035.7000      1.4946   -999.2500   -999.2500   -999.2500   -999.2500   -999.2500
  2035.8000      1.1409   -999.2500   -999.2500   -999.2500   -999.2500   -999.2500
  2035.9000      1.1409   -999.2500   -999.2500   -999.2500   -999.2500   -999.2500
  2036.0000      1.1119   -999.2500   -999.2500   -999.2500   -999.2500   -999.2500
  2036.1000      1.1119   -999.2500   -999.2500   -999.2500   -999.2500   -999.2500
