~Version Information
VERS.                      2.0: CWLS Log ASCII Standard - VERSION 2.0
WRAP.                       NO: One line per depth step
~Well Information Block
STRT.FT                 0.0000: 
STOP.FT              2062.2500: 
STEP.FT                 0.2500: 
NULL.                -999.2500: 
COMP.          Petrogulf Corporation: COMPANY
WELL.           Montoya 12-44R: WELL
FLD.           Purgatorie River: FIELD
LOC.           713' FSL & 798' FEL: LOCATION
PROV.                 Colorado: PROVINCE
CNTY.               Las Animas: COUNTRY
SRVC.                Patterson: SERVICE COMPANY
DATE.          Wed Nov 09 13:30:24 2005: LOG DATE
UWI.           05-071-08538               : UNIQUE WELL ID
~Curve Information Block
DEPT.FT            0 000 00 00: Depth
CCL.                          : Casing Collar Locator
TT3.usec                      : CBL 3' Travel Time
AMP3.mV                       : CBL 3' Amplitude
GR.GAPI                       : Gamma Ray
~Parameter Information Block
~A  Depth       CCL         TT3         AMP3         GR     
# ...
  1105.5000      0.0000    298.9064     22.6935     70.4232
  1105.7500      0.0000    298.5598     23.6006     71.1248
  1106.0000      0.0000    298.3548     24.1978     72.0633
  1106.2500      0.0000    298.4053     24.2375     72.2493
  1106.5000      0.0000    298.6247     23.9435     71.5447
  1106.7500      0.0000    298.8699     23.7618     70.5802
  1107.0000      0.0000    299.3401     23.7263     70.2520
  1107.2500      0.0000    301.0889     23.3965     71.2479
  1107.5000      0.0000    306.1266     22.5097     73.8716
  1107.7500      0.0000    315.4500     21.3627     78.1989
  1108.0000      0.0000    325.1100     20.4928     84.3470
  1108.2500      0.0000    327.3975     20.2122     92.4488
  1108.5000      0.0000    320.1908     20.4422    102.1114
  1108.7500      0.0000    310.2067     20.8978    111.8710
  1109.0000      0.0000    303.7658     21.4312    119.5041
  1109.2500      0.0000    301.0964     22.1077    123.3065
  1109.5000      0.0000    300.0346     22.9364    123.1259
  1109.7500      0.0000    299.4198     23.7451    119.8299
  1110.0000      0.0000    298.9708     24.3656    113.9912
  1110.2500      0.0000    298.6129     24.7773    105.7748
  1110.5000      0.0000    298.3215     25.0560     96.0026
  1110.7500      0.0000    298.1019     25.2822     86.4787
  1111.0000      0.0000    297.9500     25.5037     78.9843
  1111.2500      0.0000    297.8470     25.6814     74.3568
  1111.5000      0.0000    297.8095     25.6915     72.6757
  1111.7500      0.0000    297.8936     25.4625     74.0212
  1112.0000      0.0000    298.1386     24.9776     78.6437
  1112.2500      0.0000    298.5599     24.1496     86.2916
  1112.5000      0.0000    299.1430     22.9518     95.6851
  1112.7500      0.0000    299.7553     21.6558    105.0892
  1113.0000      0.0000    300.1605     20.6880    113.4053
  1113.2500      0.0000    300.2947     20.2266    120.3786
  1113.5000      0.0000    300.5412     20.0961    125.8189
  1113.7500      0.0000    302.0428     20.0232    129.1638
  1114.0000      0.0000    307.2513     19.7989    130.0385
  1114.2500      0.0000    318.9871     19.2415    128.8639
  1114.5000      0.0000    336.6740     18.2607    126.6644
  1114.7500      0.0000    354.5979     16.9833    124.4548
  1115.0000      0.0000    366.9623     15.6615    122.8291
  1115.2500      0.0000    374.0972     14.4688    121.8287
  1115.5000      0.0000    383.8875     13.4567    121.0839
  1115.7500      0.0000    410.1954     12.6180    120.1706
  1116.0000      0.0000    464.1128     11.9298    118.8751
  1116.2500      0.0000    536.7399     11.3861    117.2489
  1116.5000      0.0000    595.8798     11.0187    115.6866
  1116.7500      0.0000    607.4330     10.9148    114.9384
  1117.0000      0.0000    560.7611     11.2291    115.5110
  1117.2500      0.0000    479.9850     12.1091    116.7930
  1117.5000      0.0000    405.5575     13.5800    117.2693
  1117.7500      0.0000    358.8917     15.5681    115.8765
  1118.0000      0.0000    334.8168     17.9591    112.8233
  1118.2500      0.0000    320.7405     20.5151    109.0682
  1118.5000      0.0000    310.1671     22.8933    105.4631
  1118.7500      0.0000    302.6965     24.8979    102.3874
  1119.0000      0.0000    298.7574     26.5651     99.7454
  1119.2500      0.0000    297.2041     28.0156     97.2495
  1119.5000      0.0000    296.5471     29.4230     94.9145
  1119.7500      0.0000    296.0288     30.9135     93.2592
  1120.0000      0.0000    295.5252     32.3027     92.8954
  1120.2500      0.0000    295.1398     33.2211     93.8759
  1120.5000      0.0000    294.9613     33.5267     95.5031
  1120.7500      0.0000    295.0564     33.2622     96.8982
  1121.0000      0.0000    295.5752     32.3917     97.8246
  1121.2500      0.0000    296.9261     31.0140     98.8077
  1121.5000      0.0000    301.1383     29.5350    100.2706
  1121.7500      0.0000    315.4818     28.1578    101.6873
  1122.0000      0.0000    351.3242     26.4096    101.8103
  1122.2500      0.0000    403.8679     23.6702     99.6477
  1122.5000      0.0000    436.9171     20.2996     95.0876
  1122.7500      0.0000    422.6525     17.5656     88.7931
  1123.0000      0.0000    382.6168     16.1508     81.9012
  1123.2500      0.0000    352.6705     15.6212     75.8710
  1123.5000      0.0000    341.0102     15.3394     72.1856
  1123.7500     -2.0000    338.5339     15.0175     71.7505
  1124.0000      2.0000    338.6219     14.5540     74.4766
  1124.2500      0.0000    341.4494     14.0037     79.5395
  1124.5000      0.0000    355.3353     13.6944     85.9037
  1124.7500      0.0000    396.3885     13.7682     92.4075
  1125.0000      0.0000    469.4721     13.6591     97.6191
  1125.2500      0.0000    541.8485     12.9605    100.2479
  1125.5000      0.0000    569.0013     12.2520     99.9869
  1125.7500      0.0000    553.3107     12.0462     97.7952
  1126.0000      0.0000    531.0940     12.0912     95.3157
  1126.2500      0.0000    514.5229     12.0845     94.1042
  1126.5000      0.0000    486.5009     12.0476     95.0067
  1126.7500      0.0000    437.1997     12.0905     97.5234
  1127.0000      0.0000    384.0619     12.2632     99.8098
  1127.2500      0.0000    349.3322     12.5346    100.1236
  1127.5000      0.0000    335.2405     12.8308     98.4802
  1127.7500      0.0000    331.7797     13.1687     96.3126
  1128.0000      0.0000    331.4552     13.6900     94.5707
  1128.2500      0.0000    331.5148     14.4988     92.9090
  1128.5000      0.0000    330.7428     15.5462     90.8405
  1128.7500      0.0000    327.6107     16.6774     88.9497
  1129.0000      0.0000    321.1408     17.7504     88.5459
  1129.2500      0.0000    312.8137     18.7139     90.3615
  1129.5000      0.0000    305.7998     19.5891     93.8642
  1129.7500      0.0000    301.7435     20.4263     97.7174
  1130.0000      0.0000    299.9474     21.3181    100.7657
  1130.2500      0.0000    299.1627     22.4156    102.7704
  1130.5000      0.0000    298.6795     23.9047    104.3125
  1130.7500      0.0000    298.2214     25.8991    105.9058
  1131.0000      0.0000    297.7188     28.2597    107.3138
  1131.2500      0.0000    297.2243     30.6773    107.9276
  1131.5000      0.0000    296.8056     32.9848    107.6847
  1131.7500      0.0000    296.4846     35.1424    107.4408
  1132.0000      0.0000    296.2732     37.0136    108.4486
  1132.2500      0.0000    296.1799     38.4171    111.4086
  1132.5000      0.0000    296.1775     39.2870    115.8058
  1132.7500      0.0000    296.2284     39.6521    120.1177
  1133.0000      0.0000    296.3200     39.5925    122.7256
  1133.2500      0.0000    296.4407     39.2778    122.6436
  1133.5000      0.0000    296.5728     38.8959    119.6411
  1133.7500      0.0000    296.7284     38.4848    114.1324
  1134.0000      0.0000    296.9298     37.9773    107.3084
  1134.2500      0.0000    297.1503     37.3991    101.2108
  1134.5000      0.0000    297.3203     36.9119     97.9547
  1134.7500      0.0000    297.3752     36.7319     98.3697
  1135.0000      0.0000    297.2688     37.0039    101.5581
  1135.2500      0.0000    296.8394     37.6371    105.8781
  1135.5000      0.0000    295.3605     38.3797    110.1575
  1135.7500      0.0000    291.2756     39.1341    114.2304
  1136.0000      0.0000    283.7226     39.9579    118.7520
  1136.2500      0.0000    275.3339     40.6833    124.3030
  1136.5000      0.0000    271.5443     40.8251    130.3036
  1136.7500      0.0000    275.2677     39.9963    135.0827
  1137.0000      0.0000    283.6543     38.2191    137.3745
  1137.2500      0.0000    291.3781     35.7897    137.5165
  1137.5000      0.0000    295.8446     33.0793    136.8657
  1137.7500      0.0000    297.8514     30.4796    136.3516
  1138.0000      0.0000    299.3141     28.2280    135.9884
  1138.2500      0.0000    303.0127     26.2459    135.3907
  1138.5000      0.0000    314.7769     24.3115    134.1290
  1138.7500      0.0000    345.3075     22.2870    131.6744
