~Version Information
VERS.                      2.0: CWLS Log ASCII Standard - VERSION 2.0
WRAP.                       NO: One line per depth step
~Well Information Block
STRT.FT                -7.5000: 
STOP.FT              1517.5000: 
STEP.FT                 0.2500: 
NULL.                -999.2500: 
COMP.          Pioneer Natural Resources: COMPANY
WELL.          McClaren 13-34 Tr: WELL
FLD.           Purgatorie River: FIELD
LOC.           1934' FSL & 826' WL--: LOCATION
PROV.                       CO: PROVINCE
CNTY.               Las Animas: COUNTRY
SRVC.          Patterson Wireline: SERVICE COMPANY
DATE.          Fri Jul 15 13:10:35 2005: LOG DATE
UWI.           05 071 08437 00: UNIQUE WELL ID
~Curve Information Block
DEPT.FT            0 000 00 00: Depth
CCL.                          : Casing Collar Locator
TT3.usec                      : CBL 3' Travel Time
AMP3.mV                       : CBL 3' Amplitude
GR.GAPI                       : Gamma Ray
~Parameter Information Block
~A  Depth       CCL         TT3         AMP3         GR     
    -7.5000   -999.2500   -999.2500   -999.2500     95.3165
    -7.2500   -999.2500   -999.2500   -999.2500     96.2623
    -7.0000   -999.2500   -999.2500   -999.2500     94.2169
    -6.7500   -999.2500   -999.2500   -999.2500     90.5920
    -6.5000   -999.2500   -999.2500   -999.2500     87.6780
    -6.2500   -999.2500   -999.2500   -999.2500     86.5550
    -6.0000   -999.2500   -999.2500   -999.2500     86.4451
    -5.7500   -999.2500   -999.2500   -999.2500     85.8197
    -5.5000   -999.2500   -999.2500   -999.2500     84.0923
    -5.2500   -999.2500   -999.2500   -999.2500     82.2130
    -5.0000   -999.2500   -999.2500   -999.2500     81.6130
    -4.7500   -999.2500   -999.2500   -999.2500     82.8111
    -4.5000   -999.2500   -999.2500   -999.2500     85.0174
    -4.2500   -999.2500   -999.2500   -999.2500     86.7041
    -4.0000   -999.2500   -999.2500   -999.2500     86.5066
    -3.7500   -999.2500   -999.2500   -999.2500     83.9174
    -3.5000   -999.2500   -999.2500   -999.2500     79.4872
    -3.2500   -999.2500   -999.2500   -999.2500     74.5853
    -3.0000   -999.2500   -999.2500   -999.2500     70.8677
    -2.7500   -999.2500   -999.2500   -999.2500     69.5947
    -2.5000   -999.2500   1170.0000      0.6404     71.0465
    -2.2500   -999.2500   1170.0000      0.6570     74.2790
    -2.0000   -999.2500   1170.0000      0.6888     77.4423
    -1.7500   -999.2500   1170.0000      0.7234     78.7900
    -1.5000   -999.2500   1170.0000      0.7476     77.7406
    -1.2500   -999.2500   1170.0000      0.7538     74.9700
    -1.0000   -999.2500   1170.0000      0.7403     71.5511
    -0.7500   -999.2500   1170.0000      0.7123     68.2118
    -0.5000   -999.2500   1170.0000      0.6820     65.2454
    -0.2500   -999.2500   1170.0000      0.6633     62.7765
     0.0000   -999.2500   1170.0000      0.6646     60.9165
     0.2500   -999.2500   1170.0000      0.6834     59.5405
     0.5000   -999.2500   1170.0000      0.7081     57.9576
     0.7500   -999.2500   1170.0000      0.7247     50.6145
     1.0000   -999.2500   1170.0000      0.7124     44.7619
     1.2500   -999.2500   1170.0000      0.6984     38.7312
     1.5000   -999.2500   1170.0000      0.6889     33.7415
     1.7500   -999.2500   1170.0000      0.6816     30.7635
     2.0000   -999.2500   1170.0000      0.6720     30.4536
     2.2500   -999.2500   1170.0000      0.6610     33.0120
     2.5000   -999.2500   1170.0000      0.6548     37.9641
     2.7500   -999.2500   1170.0000      0.6582     44.2551
     3.0000      0.0000   1170.0000      0.6717     50.7585
     3.2500      0.0000   1170.0000      0.6913     56.6500
     3.5000      0.0000   1170.0000      0.7106     61.2538
     3.7500      0.0000   1170.0000      0.7242     63.8690
     4.0000      0.0000   1170.0000      0.7312     64.1988
     4.2500      0.0000   1170.0000      0.7344     62.9096
     4.5000      0.0000   1170.0000      0.7369     61.3969
     4.7500      0.0000   1170.0000      0.7395     60.9205
     5.0000      0.0000   1170.0000      0.7428     62.0797
     5.2500      0.0000   1170.0000      0.7479     64.7525
     5.5000      0.0000   1170.0000      0.7547     67.8805
     5.7500      0.0000   1170.0000      0.7608     69.4838
     6.0000      0.0000   1169.9391      0.7663     67.8774
     6.2500      0.0000   1169.5415      0.7853     63.3722
     6.5000      0.0000   1167.5226      0.8926     58.3600
     6.7500      0.0000   1159.5381      1.3354     55.3086
     7.0000      0.0000   1134.9449      2.7044     54.7591
     7.2500      0.0000   1075.9515      5.9649     55.3148
     7.5000      0.0000    965.7444     11.9955     55.2528
     7.7500      0.0000    805.4083     20.6672     53.8922
     8.0000      0.0000    623.7468     30.3507     51.6182
     8.2500      0.0000    463.4598     38.7288     49.1333
     8.5000      0.0000    353.3211     44.3222     47.0315
     8.7500      0.0000    294.3792     47.1807     45.8297
     9.0000      0.0000    269.8049     48.2771     45.7839
     9.2500      0.0000    261.8208     48.5676     46.4431
     9.5000      0.0000    259.8113     48.5812     46.7334
     9.7500      0.0000    259.4470     48.5088     45.8372
    10.0000      0.0000    259.4346     48.4041     43.9807
    10.2500      0.0000    259.4783     48.2966     42.2255
    10.5000      0.0000    259.5031     48.2189     41.5464
    10.7500      0.0000    259.5063     48.1944     42.1963
    11.0000      0.0000    259.4949     48.2161     43.7958
    11.2500      0.0000    259.4823     48.2405     45.7210
    11.5000      0.0000    259.4830     48.2180     47.2913
    11.7500      0.0000    259.5061     48.1329     47.8913
    12.0000      0.0000    259.5561     48.0019     47.4282
    12.2500      0.0000    259.6568     47.8224     46.8725
    12.5000      0.0000    259.9084     47.5066     48.0405
    12.7500      0.0000    260.7424     46.8417     52.3897
    13.0000      0.0000    263.3638     45.5184     59.7345
    13.2500      0.0000    270.1517     43.2481     68.2409
    13.5000      0.0000    283.9441     39.9619     75.8645
    13.7500      0.0000    305.5730     35.9792     81.6984
    14.0000      0.0000    331.3662     31.9378     85.9638
    14.2500      0.0000    354.4973     28.4098     89.1827
    14.5000      0.0000    371.1585     25.5376     91.5791
    14.7500      0.0000    387.4139     23.1146     92.8494
    15.0000      0.0000    420.7162     20.9549     92.4325
    15.2500      0.0000    491.4885     19.0518     90.4180
    15.5000      0.0000    606.7661     17.4458     88.1323
    15.7500      0.0000    749.0687     16.1168     87.3208
    16.0000      2.0000    883.9183     15.0207     88.6596
    16.2500      0.0000    979.1705     14.1666     91.2999
    16.5000      0.0000   1017.7002     13.6359     93.7836
    16.7500      0.0000    999.5075     13.5167     95.1446
    17.0000      0.0000    939.4584     13.7991     95.3322
    17.2500      0.0000    858.0125     14.3550     95.0125
    17.5000      0.0000    765.9578     15.0541     94.7479
    17.7500      0.0000    662.1356     15.8379     94.1716
    18.0000      0.0000    549.9416     16.6377     92.4480
    18.2500      0.0000    447.0473     17.3121     89.7938
    18.5000      0.0000    372.4865     17.7393     87.9133
    18.7500      0.0000    330.8138     17.9205     88.3604
    19.0000      0.0000    312.9481     17.9519     90.7645
    19.2500      0.0000    307.0930     17.9322     93.1725
    19.5000      0.0000    305.6635     17.9163     93.9133
    19.7500      0.0000    305.4277     17.9255     92.6741
    20.0000      0.0000    305.4284     17.9654     90.0923
    20.2500      0.0000    305.4410     18.0340     86.9873
    20.5000      0.0000    305.4124     18.1206     83.8886
    20.7500      0.0000    305.3491     18.2093     80.8534
    21.0000      0.0000    305.2684     18.2869     77.8996
    21.2500      0.0000    305.1893     18.3500     75.9162
    21.5000      0.0000    305.1229     18.4073     76.6214
    21.7500      0.0000    305.0663     18.4738     80.9590
    22.0000      0.0000    305.0097     18.5575     87.6887
    22.2500      0.0000    304.9525     18.6499     94.0303
    22.5000      0.0000    304.9094     18.7303     97.6334
    22.7500      0.0000    304.8919     18.7849     97.8568
    23.0000      0.0000    304.8879     18.8206     95.5822
    23.2500      0.0000    304.8683     18.8587     92.1632
    23.5000      0.0000    304.8148     18.9159     88.5152
    23.7500      0.0000    304.7325     18.9910     85.1176
    24.0000      0.0000    304.6363     19.0674     82.5894
    24.2500      0.0000    304.5343     19.1221     81.6508
    24.5000      0.0000    304.4280     19.1353     82.2594
    24.7500      0.0000    304.3181     19.1028     83.2211
    25.0000      0.0000    304.2100     19.0443     83.0221
    25.2500      0.0000    304.1168     18.9941     81.0266
    25.5000      0.0000    304.0558     18.9777     77.9046
    25.7500      0.0000    304.0379     18.9973     75.1879
