~Version Information
VERS.                      2.0: CWLS Log ASCII Standard - VERSION 2.0
WRAP.                       NO: One line per depth step
~Well Information Block
STRT.FT                10.0000: 
STOP.FT              1485.0000: 
STEP.FT                 0.1000: 
NULL.                -999.2500: 
COMP.          Pioneer Natural Resources: COMPANY
WELL.          Old Faithful 21-2: WELL
FLD.           Purgatorie River: FIELD
LOC.           806' FNL & 2509' FWL: LOCATION
PROV.                 Colorado: PROVINCE
CNTY.               Las Animas: COUNTRY
SRVC.                Patterson: SERVICE COMPANY
DATE.          Wed Dec 07 13:17:12 2005: LOG DATE
UWI.                          : UNIQUE WELL ID
~Curve Information Block
DEPT.FT            0 000 00 00: Depth
DCAL.in                       : CDL Caliper
RHOB.g/cc                     : CDL Bulk Density
RHOC.g/cc                     : CDL Density Correction
DPOR.pu                       : CDL Density Porosity
GR.GAPI                       : Gamma Ray
NPOR.pu                       : Neutron Porosity
~Parameter Information Block
~A  Depth       DCAL        RHOB        RHOC        DPOR         GR         NPOR    
# ...
   106.0000     -3.1029      2.3503      2.4611     -0.0060    118.1530     29.0226
   106.1000     -3.1029      2.3475      2.4346     -0.0061    118.2778     28.9714
   106.2000     -3.1029      2.3289      2.4610     -0.0064    119.9765     29.2995
   106.3000     -3.1029      2.3081      2.3905     -0.0068    121.5702     29.7692
   106.4000     -3.1029      2.3007      2.4284     -0.0070    120.6091     29.8260
   106.5000     -3.1029      2.3044      2.4350     -0.0069    118.5285     29.5198
   106.6000     -3.1029      2.3112      2.4180     -0.0068    117.6070     29.4540
   106.7000     -3.1029      2.3190      2.4143     -0.0066    116.9860     29.6716
   106.8000     -3.1029      2.3292      2.4067     -0.0064    114.9208     29.6779
   106.9000     -3.1029      2.3446      2.4498     -0.0061    112.7973     29.4302
   107.0000     -3.1029      2.3581      2.4602     -0.0058    112.8328     29.3148
   107.1000     -3.1029      2.3589      2.4722     -0.0058    113.2299     29.3139
   107.2000     -3.1029      2.3510      2.4153     -0.0060    113.0721     29.3698
   107.3000     -3.1029      2.3463      2.4405     -0.0061    114.7038     29.4161
   107.4000     -3.1029      2.3434      2.4386     -0.0061    117.4296     29.2733
   107.5000     -3.1029      2.3335      2.4398     -0.0063    118.1986     29.1041
   107.6000     -3.1029      2.3153      2.4334     -0.0067    115.8353     29.0232
   107.7000     -3.1029      2.2970      2.3945     -0.0071    112.1914     28.7944
   107.8000     -3.1029      2.2890      2.4132     -0.0072    109.4155     28.3048
   107.9000     -3.1029      2.2932      2.4188     -0.0071    108.0689     27.8529
   108.0000     -3.1029      2.3030      2.4378     -0.0069    110.2015     27.8535
   108.1000     -3.1029      2.3075      2.4374     -0.0069    113.5550     28.2931
   108.2000     -3.1029      2.2998      2.4151     -0.0070    112.1347     28.8659
   108.3000     -3.1029      2.2848      2.4098     -0.0073    108.1328     29.2428
   108.4000     -3.1029      2.2754      2.3887     -0.0075    105.9234     29.3083
   108.5000     -3.1029      2.2805      2.3990     -0.0074    104.5931     29.2965
   108.6000     -3.1029      2.2951      2.4272     -0.0071    105.4544     29.2187
   108.7000     -3.1029      2.3071      2.4291     -0.0069    111.1114     28.8949
   108.8000     -3.1029      2.3070      2.4438     -0.0069    115.9780     28.6101
   108.9000     -3.1029      2.2904      2.4251     -0.0072    114.9467     28.7810
   109.0000     -3.1029      2.2715      2.3830     -0.0076    112.2420     29.1935
   109.1000     -3.1029      2.2704      2.3876     -0.0076    111.5673     29.3074
   109.2000     -3.1029      2.2832      2.4060     -0.0073    112.5006     29.0878
   109.3000     -3.1029      2.2923      2.4260     -0.0072    114.5499     28.9158
   109.4000     -3.1029      2.2917      2.4141     -0.0072    115.9484     29.0112
   109.5000     -3.1029      2.2870      2.4023     -0.0073    116.2319     29.3207
   109.6000     -3.1029      2.2857      2.3996     -0.0073    117.4383     29.5418
   109.7000     -3.1029      2.2892      2.3770     -0.0072    121.0329     29.4878
   109.8000     -3.1029      2.2964      2.3967     -0.0071    125.0718     29.2869
   109.9000     -3.1029      2.3085      2.3888     -0.0068    125.4981     29.0914
   110.0000     -3.1029      2.3199      2.4486     -0.0066    122.3510     29.0185
   110.1000     -3.1029      2.3200      2.4347     -0.0066    119.8145     29.1485
   110.2000     -3.1029      2.3141      2.4081     -0.0067    120.7707     29.3758
   110.3000     -3.1029      2.3197      2.3775     -0.0066    124.2250     29.5082
   110.4000     -3.1029      2.3367      2.4447     -0.0063    124.9468     29.3812
   110.5000     -3.1029      2.3469      2.4242     -0.0061    119.7932     29.0969
   110.6000     -3.1029      2.3451      2.4450     -0.0061    112.9712     29.0160
   110.7000     -3.1029      2.3462      2.4008     -0.0061    111.1681     29.1503
   110.8000     -3.1029      2.3625      2.4230     -0.0058    113.5658     29.1555
   110.9000     -3.1029      2.3889      2.4352     -0.0052    113.7406     29.1041
   111.0000     -3.1029      2.4161      2.4216     -0.0047    110.9008     29.3437
   111.1000     -3.1029      2.4468      2.4225     -0.0041    109.4391     29.6537
   111.2000     -3.1029      2.4797      2.4810     -0.0034    110.5338     29.6020
   111.3000     -3.1029      2.5052      2.4649     -0.0029    112.3966     29.4526
   111.4000     -3.1029      2.5207      2.4674     -0.0026    112.9902     29.3524
   111.5000     -3.1029      2.5218      2.4941     -0.0026    110.1662     28.9659
   111.6000     -3.1029      2.5060      2.4449     -0.0029    106.8962     28.4550
   111.7000     -3.1029      2.4891      2.4579     -0.0032    107.3587     28.2393
   111.8000     -3.1029      2.4823      2.4708     -0.0034    110.2586     28.1200
   111.9000     -3.1029      2.4776      2.4968     -0.0034    113.4931     27.8883
   112.0000     -3.1029      2.4644      2.4657     -0.0037    115.6337     27.9374
   112.1000     -3.1029      2.4422      2.4559     -0.0042    116.3582     28.0266
   112.2000     -3.1029      2.4139      2.4613     -0.0047    116.5776     27.5807
   112.3000     -3.1029      2.3850      2.4274     -0.0053    115.7512     27.0953
   112.4000     -3.1029      2.3653      2.4407     -0.0057    114.1268     27.3107
   112.5000     -3.1029      2.3549      2.4288     -0.0059    113.9062     27.8537
   112.6000     -3.1029      2.3451      2.4234     -0.0061    114.4826     28.0533
   112.7000     -3.1029      2.3352      2.4064     -0.0063    112.5493     28.1208
   112.8000     -3.1029      2.3353      2.4014     -0.0063    108.2665     28.0682
   112.9000     -3.1029      2.3491      2.4052     -0.0060    106.2509     27.7134
   113.0000     -3.1029      2.3635      2.4939     -0.0057    109.3995     27.6972
   113.1000     -3.1029      2.3665      2.4054     -0.0057    114.7812     28.1361
   113.2000     -3.1029      2.3605      2.4386     -0.0058    116.7589     28.2208
   113.3000     -3.1029      2.3492      2.4108     -0.0060    113.3104     27.8422
   113.4000     -3.1029      2.3413      2.3731     -0.0062    107.9083     27.5666
   113.5000     -3.1029      2.3454      2.4054     -0.0061    106.9544     27.5267
   113.6000     -3.1029      2.3542      2.4286     -0.0059    111.7480     27.5578
   113.7000     -3.1029      2.3616      2.3892     -0.0058    117.0911     27.6542
   113.8000     -3.1029      2.3690      2.4497     -0.0056    118.2775     27.7314
   113.9000     -3.1029      2.3797      2.3992     -0.0054    115.5310     27.5520
   114.0000     -3.1029      2.3957      2.4522     -0.0051    113.8235     27.1980
   114.1000     -3.1029      2.4050      2.4519     -0.0049    113.8827     27.0735
   114.2000     -3.1029      2.3990      2.4428     -0.0050    113.1972     27.0798
   114.3000     -3.1029      2.3872      2.4642     -0.0053    112.9095     26.9032
   114.4000     -3.1029      2.3812      2.4336     -0.0054    112.8010     26.7256
   114.5000     -3.1029      2.3862      2.4429     -0.0053    109.8234     26.9356
   114.6000     -3.1029      2.3941      2.4583     -0.0051    106.2860     27.5641
   114.7000     -3.1029      2.3895      2.4470     -0.0052    106.3749     28.1089
   114.8000     -3.1029      2.3730      2.4156     -0.0055    108.6471     28.1524
   114.9000     -3.1029      2.3602      2.4260     -0.0058    110.3960     27.9003
   115.0000     -3.1029      2.3605      2.4132     -0.0058    113.5835     27.8326
   115.1000     -3.1029      2.3676      2.4450     -0.0057    120.1467     28.0134
   115.2000     -3.1029      2.3695      2.4194     -0.0056    126.0686     27.8153
   115.3000     -3.1029      2.3620      2.4563     -0.0058    125.4526     27.0281
   115.4000     -3.1029      2.3559      2.4150     -0.0059    120.7161     26.3646
   115.5000     -3.1029      2.3670      2.4306     -0.0057    118.8624     26.3229
