~Version Information
VERS.                      2.0: CWLS Log ASCII Standard - VERSION 2.0
WRAP.                       NO: One line per depth step
~Well Information Block
STRT.FT               335.0000: 
STOP.FT              1013.5000: 
STEP.FT                 0.1000: 
NULL.                -999.2500: 
COMP.          Pioneer Natural Resources: COMPANY
WELL.             Giggle 21-22: WELL
FLD.           Purgatoire River: FIELD
LOC.           950' FNL & 2094' FWL: LOCATION
CNTY.               Las Animas: COUNTY
SRVC.                Patterson: SERVICE COMPANY
DATE.          Thu Apr 13 09:31:38 2006: LOG DATE
UWI.           05 071 08726 00: UNIQUE WELL ID
STAT.                 Colorado: STATE
~Curve Information Block
DEPT.FT            0 000 00 00: Depth
DCAL.in                       : CDL Caliper
RHOB.g/cc                     : CDL Bulk Density
RHOC.g/cc                     : CDL Density Correction
DPOR.pu                       : CDL Density Porosity
GR.GAPI                       : Gamma Ray
NPOR.pu                       : Neutron Porosity
~Parameter Information Block
~A  Depth       DCAL        RHOB        RHOC        DPOR         GR         NPOR    
# ...
   690.2000      8.0798      2.5397      0.0769      6.6877    110.9018     24.3215
   690.3000      8.0802      2.5384      0.0528      6.7661    106.8764     24.1948
   690.4000      8.0802      2.5475     -0.0103      6.2131    100.3189     24.3406
   690.5000      8.0826      2.5732      0.1014      4.6529     97.3027     24.2828
   690.6000      8.0826      2.5970      0.0545      3.2105     99.0800     23.9084
   690.7000      8.0826      2.5996      0.0814      3.0545    102.8068     23.5706
   690.8000      8.0832      2.5776      0.0555      4.3880    105.9028     23.3862
   690.9000      8.0832      2.5476      0.0114      6.2070    107.2979     23.3627
   691.0000      8.0813      2.5307      0.0321      7.2310    105.1956     23.7000
   691.1000      8.0813      2.5207      0.0712      7.8339    101.3543     23.7247
   691.2000      8.0813      2.5013      0.0258      9.0118     99.8023     22.7959
   691.3000      8.0814      2.4735      0.0523     10.6993     98.6348     21.7131
   691.4000      8.0814      2.4445      0.0103     12.4550     97.1007     21.4427
   691.5000      8.0808      2.4285     -0.0326     13.4236     96.7630     21.9537
   691.6000      8.0808      2.4364      0.0318     12.9463     96.5780     22.4457
   691.7000      8.0808      2.4677     -0.0071     11.0468     98.4916     22.3698
   691.8000      8.0742      2.5136      0.0912      8.2676    103.8550     22.3401
   691.9000      8.0742      2.5460      0.0834      6.3011    108.9999     22.7583
   692.0000      8.0710      2.5432      0.0897      6.4702    111.7944     23.0638
   692.1000      8.0710      2.5143      0.0551      8.2259    111.4815     23.1193
   692.2000      8.0710      2.4865      0.0307      9.9089    108.4433     23.4110
   692.3000      8.0678      2.4734      0.0947     10.7045    104.9675     24.0648
   692.4000      8.0678      2.4648      0.0789     11.2214    102.1249     24.9145
   692.5000      8.0653      2.4532      0.1175     11.9255    100.2515     25.6335
   692.6000      8.0653      2.4427      0.0874     12.5620    101.0762     25.5028
   692.7000      8.0653      2.4393      0.0817     12.7722    105.9472     24.6481
   692.8000      8.0613      2.4382      0.0722     12.8370    112.2292     24.1010
   692.9000      8.0613      2.4332      0.0346     13.1400    116.2185     24.1422
   693.0000      8.0579      2.4298      0.0594     13.3476    117.4758     24.5207
   693.1000      8.0579      2.4307      0.1232     13.2922    116.9617     24.9346
   693.2000      8.0579      2.4316      0.0389     13.2341    116.6415     24.9416
   693.3000      8.0520      2.4406      0.0799     12.6897    117.1584     24.4228
   693.4000      8.0520      2.4725      0.0676     10.7554    114.9959     23.7677
   693.5000      8.0589      2.5238      0.1758      7.6497    109.8768     23.2754
   693.6000      8.0589      2.5685      0.2006      4.9370    106.0028     22.9910
   693.7000      8.0589      2.5919      0.1751      3.5231    102.8071     22.9884
   693.8000      8.0573      2.5903      0.1965      3.6177     95.3617     23.0734
   693.9000      8.0573      2.5627      0.1338      5.2894     85.1524     23.2235
   694.0000      8.0564      2.5226      0.1321      7.7188     79.2131     23.7239
   694.1000      8.0564      2.4938      0.0578      9.4692     76.9660     24.2744
   694.2000      8.0564      2.5001      0.0176      9.0870     72.6320     24.4434
   694.3000      8.0585      2.5356      0.0760      6.9330     66.4175     24.5400
   694.4000      8.0585      2.5673      0.1003      5.0135     61.8983     24.8374
   694.5000      8.0585      2.5808      0.1088      4.1956     59.3581     24.9054
   694.6000      8.0585      2.5911      0.0591      3.5717     56.5088     24.5702
   694.7000      8.0585      2.6142      0.0401      2.1703     52.0968     24.2930
   694.8000      8.0576      2.6489      0.0584      0.0695     47.4862     24.2638
   694.9000      8.0576      2.6886      0.1008     -2.3389     44.3800     23.9193
   695.0000      8.0547      2.7167      0.1290     -4.0434     42.7322     23.2123
   695.1000      8.0547      2.7080      0.1187     -3.5164     40.5858     22.7465
   695.2000      8.0547      2.6717      0.0177     -1.3168     38.0480     22.5921
   695.3000      8.0464      2.6408      0.0082      0.5595     37.9056     22.3345
   695.4000      8.0464      2.6257     -0.0084      1.4757     39.7436     21.6632
   695.5000      8.0484      2.6156      0.0226      2.0868     40.4514     20.8756
   695.6000      8.0484      2.6010     -0.0043      2.9678     40.0350     20.4986
   695.7000      8.0484      2.5810      0.0281      4.1834     41.6402     20.3682
   695.8000      8.0514      2.5656     -0.0167      5.1157     46.1055     20.0077
   695.9000      8.0514      2.5685      0.0445      4.9416     48.6094     19.4268
   696.0000      8.0585      2.5851      0.0016      3.9308     47.0963     18.8586
   696.1000      8.0585      2.6039      0.0666      2.7917     45.5583     18.6130
   696.2000      8.0585      2.6191      0.0148      1.8706     43.9908     19.0932
   696.3000      8.0600      2.6317      0.0571      1.1073     40.6305     20.2810
   696.4000      8.0600      2.6525      0.0513     -0.1498     38.4370     21.4699
   696.5000      8.0580      2.6964      0.0422     -2.8147     41.2581     22.3296
   696.6000      8.0580      2.7473      0.0908     -5.8993     48.0485     23.1031
   696.7000      8.0580      2.7556      0.0728     -6.3990     52.9400     23.7234
   696.8000      8.0552      2.7107      0.0195     -3.6794     52.4304     24.2236
   696.9000      8.0552      2.6708     -0.0376     -1.2627     49.9185     24.5644
   697.0000      8.0549      2.6772      0.0166     -1.6493     49.1575     24.4587
   697.1000      8.0549      2.6935      0.0309     -2.6361     49.5615     23.9347
   697.2000      8.0549      2.6795     -0.0557     -1.7853     58.4984     22.8769
   697.3000      8.0512      2.6431     -0.0511      0.4207     60.4626     21.4179
   697.4000      8.0512      2.6066     -0.0870      2.6283     65.9506     20.2836
   697.5000      8.0391      2.5891     -0.0023      3.6905     73.5337     19.7295
   697.6000      8.0391      2.5966      0.0309      3.2373     78.4247     19.2090
   697.7000      8.0391      2.6160      0.0767      2.0603     78.8067     18.4199
   697.8000      8.0412      2.6327      0.0953      1.0510     76.7135     17.6356
   697.9000      8.0412      2.6434      0.1100      0.4019     73.5483     17.0657
   698.0000      8.0502      2.6440      0.1331      0.3613     71.4014     16.9431
   698.1000      8.0502      2.6277      0.1003      1.3511     71.2921     17.1918
   698.2000      8.0502      2.6032      0.0656      2.8391     82.6043     17.3258
   698.3000      8.0555      2.5901      0.0486      3.6331     84.1970     17.3526
   698.4000      8.0555      2.5841      0.0865      3.9952     84.5497     17.6364
   698.5000      8.0565      2.5633      0.0815      5.2565     83.1951     17.9950
   698.6000      8.0565      2.5342     -0.0085      7.0176     81.6901     18.0480
   698.7000      8.0565      2.5204      0.0219      7.8551     79.9535     17.9747
   698.8000      8.0556      2.5221      0.0424      7.7490     78.5360     18.1547
   698.9000      8.0556      2.5249      0.0391      7.5822     78.5320     18.4855
   699.0000      8.0550      2.5236      0.0509      7.6585     77.7882     18.6615
   699.1000      8.0550      2.5265      0.0476      7.4849     74.7087     18.6891
   699.2000      8.0550      2.5406      0.0737      6.6288     72.7536     18.6756
   699.3000      8.0535      2.5525      0.1116      5.9118     76.5503     18.8950
   699.4000      8.0535      2.5459      0.0590      6.3071     85.8783     19.6388
   699.5000      8.0550      2.5377      0.0335      6.8078     94.8745     20.3758
   699.6000      8.0550      2.5459      0.0966      6.3067     96.3995     20.2399
   699.7000      8.0550      2.5622      0.0945      5.3195     91.2332     19.3825
