~Version Information
VERS.                      2.0: CWLS Log ASCII Standard - VERSION 2.0
WRAP.                       NO: One line per depth step
~Well Information Block
STRT.FT                 6.0000: 
STOP.FT              1577.7500: 
STEP.FT                 0.2500: 
NULL.                -999.2500: 
COMP.          Pioneer Natural Resources: COMPANY
WELL.           Kermit 32-7 Tr: WELL
FLD.           Purgatoire River: FIELD
LOC.           2009' FNL & 2196' FEL: LOCATION
PROV.                 Colorado: PROVINCE
CNTY.               Las Animas: COUNTRY
SRVC.                Patterson: SERVICE COMPANY
DATE.          Wed Jan 18 14:19:39 2006: LOG DATE
UWI.           05 071 08664 00: UNIQUE WELL ID
~Curve Information Block
DEPT.FT            0 000 00 00: Depth
GR.GAPI                       : Gamma Ray
CCL.                          : Casing Collar Locator
TT3.usec                      : CBL 3' Travel Time
AMP3.mV                       : CBL 3' Amplitude
~Parameter Information Block
~A  Depth        GR         CCL         TT3         AMP3    
     6.0000   -999.2500   -999.2500   -999.2500   -999.2500
     6.2500   -999.2500   -999.2500   -999.2500   -999.2500
     6.5000   -999.2500   -999.2500   -999.2500   -999.2500
     6.7500   -999.2500   -999.2500   -999.2500   -999.2500
     7.0000   -999.2500   -999.2500   1473.0000     -1.2040
     7.2500   -999.2500   -999.2500   1473.0000     -1.2281
     7.5000   -999.2500   -999.2500   1473.0000     -1.2536
     7.7500   -999.2500   -999.2500   1473.0000     -1.2750
     8.0000   -999.2500   -999.2500   1473.0000     -1.2900
     8.2500   -999.2500   -999.2500   1473.0000     -1.2980
     8.5000   -999.2500   -999.2500   1473.0000     -1.2971
     8.7500   -999.2500   -999.2500   1473.0000     -1.2862
     9.0000   -999.2500   -999.2500   1473.0000     -1.2677
     9.2500   -999.2500   -999.2500   1473.0000     -1.2475
     9.5000   -999.2500   -999.2500   1473.0000     -1.2307
     9.7500   -999.2500   -999.2500   1472.9844     -1.2194
    10.0000   -999.2500   -999.2500   1472.8829     -1.2129
    10.2500   -999.2500   -999.2500   1472.3832     -1.2085
    10.5000   -999.2500   -999.2500   1470.4481     -1.2034
    10.7500   -999.2500   -999.2500   1464.6532     -1.1967
    11.0000   -999.2500   -999.2500   1451.3788     -1.1915
    11.2500   -999.2500   -999.2500   1428.1047     -1.1851
    11.5000   -999.2500   -999.2500   1396.2659     -1.1475
    11.7500   -999.2500   -999.2500   1358.6156     -0.9434
    12.0000   -999.2500   -999.2500   1309.1765     -0.1517
    12.2500   -999.2500   -999.2500   1227.7106      2.1984
    12.5000   -999.2500   -999.2500   1092.9659      7.6670
    12.7500   -999.2500      0.0000    906.4343     17.6872
    13.0000   -999.2500      0.0000    700.0181     32.1334
    13.2500   -999.2500      0.0000    517.1928     48.4901
    13.5000   -999.2500      0.0000    386.5827     62.9924
    13.7500   -999.2500      0.0000    311.0535     72.9635
    14.0000   -999.2500      0.0000    275.7737     78.0177
    14.2500   -999.2500      0.0000    262.5821     79.2741
    14.5000   -999.2500      0.0000    258.8348     77.9756
    14.7500   -999.2500      0.0000    258.5834     74.8992
    15.0000   -999.2500      0.0000    260.3730     70.5166
    15.2500   -999.2500      0.0000    265.4677     65.2142
    15.5000   -999.2500      0.0000    277.2635     59.2648
    15.7500   -999.2500      0.0000    300.5177     52.7423
    16.0000   -999.2500      0.0000    338.9767     45.6214
    16.2500   -999.2500      0.0000    392.0457     38.0386
    16.5000   -999.2500      0.0000    454.1765     30.4308
    16.7500   -999.2500      0.0000    518.3197     23.3921
    17.0000   -999.2500      0.0000    578.1803     17.4165
    17.2500   -999.2500      0.0000    625.5560     12.7623
    17.5000     52.0210      0.0000    649.7656      9.4554
    17.7500     50.9307      0.0000    645.9096      7.3452
    18.0000     49.5701     -3.0000    623.0563      6.1873
    18.2500     48.3963     -3.0000    598.7547      5.7394
    18.5000     48.0567      0.0000    583.3815      5.8461
    18.7500     49.1255      0.0000    572.3740      6.4660
    19.0000     51.5889      0.0000    555.0506      7.5881
    19.2500     54.7709      0.0000    527.9208      9.0591
    19.5000     57.8578      0.0000    497.0928     10.5094
    19.7500     60.4822      0.0000    470.7238     11.5355
    20.0000     62.8079      0.0000    452.6731     11.9785
    20.2500     65.0406      0.0000    442.2711     11.9859
    20.5000     66.9605      0.0000    437.0164     11.8195
    20.7500     68.0584      0.0000    434.6196     11.6576
    21.0000     68.0054      0.0000    433.6716     11.5507
    21.2500     66.7883      0.0000    433.4920     11.4786
    21.5000     64.6290      0.0000    433.7358     11.4106
    21.7500     62.1077      0.0000    434.1466     11.3314
    22.0000     60.1708      0.0000    434.5118     11.2428
    22.2500     59.5597      0.0000    434.7447     11.1535
    22.5000     60.1594      0.0000    434.9628     11.0712
    22.7500     61.1056      0.0000    435.5124     11.0009
    23.0000     61.5540      0.0000    437.0084     10.9455
    23.2500     61.3024      0.0000    440.3173     10.9032
    23.5000     60.7844      0.0000    446.1992     10.8655
    23.7500     60.5645      0.0000    454.6163     10.8207
    24.0000     60.8001      0.0000    464.4248     10.7608
    24.2500     61.1003      0.0000    474.1581     10.6874
    24.5000     60.8464      0.0000    483.2933     10.6123
    24.7500     59.6924      0.0000    492.4686     10.5510
    25.0000     57.9209      0.0000    502.3087     10.5141
    25.2500     56.4122      0.0000    512.3684     10.5033
    25.5000     56.0880      0.0000    521.5711     10.5151
    25.7500     57.0562      0.0000    529.4517     10.5469
    26.0000     58.3439      0.0000    536.3349     10.5968
    26.2500     58.7272      0.0000    542.0879     10.6598
    26.5000     57.8438      0.0000    545.3203     10.7281
    26.7500     56.4289      0.0000    544.4655     10.7957
    27.0000     55.6572      0.0000    539.5331     10.8609
    27.2500     56.3543      0.0000    532.2200     10.9250
    27.5000     58.4903      0.0000    524.8051     10.9904
    27.7500     61.1378      0.0000    520.1799     11.0602
    28.0000     63.0176      0.0000    522.5497     11.1372
    28.2500     63.2914      0.0000    535.4875     11.2197
    28.5000     61.9997      0.0000    557.7394     11.2998
    28.7500     60.0532      0.0000    582.4844     11.3684
    29.0000     58.8618      0.0000    602.2891     11.4229
    29.2500     59.3945      0.0000    614.1426     11.4675
    29.5000     61.0894      0.0000    619.3202     11.5056
    29.7500     61.9993      0.0000    619.8071     11.5334
    30.0000     60.5575      0.0000    615.6109     11.5367
    30.2500     57.1493      0.0000    605.0547     11.4866
    30.5000     53.6537      0.0000    588.0763     11.3349
    30.7500     51.5784      0.0000    570.1044     11.0273
    31.0000     51.0107      0.0000    561.4128     10.5360
    31.2500     51.1899      0.0000    569.8759      9.8796
    31.5000     51.4647      0.0000    593.8698      9.1082
    31.7500     51.4889      0.0000    623.6779      8.2944
    32.0000     50.9401      0.0000    650.1160      7.5504
    32.2500     49.6100      0.0000    670.8327      7.0085
    32.5000     47.7960      0.0000    688.1005      6.7401
    32.7500     46.1971      0.0000    702.0887      6.7069
    33.0000     45.2955      0.0000    708.5463      6.8095
    33.2500     45.1388      3.0000    702.4646      6.9680
    33.5000     45.7545      0.0000    680.9449      7.1654
    33.7500     47.4188      0.0000    643.8525      7.4559
    34.0000     50.3250      0.0000    596.9792      7.9349
    34.2500     54.0655      0.0000    553.8508      8.6567
    34.5000     57.5567      0.0000    527.3226      9.5629
    34.7500     59.6667      0.0000    517.2847     10.5159
    35.0000     60.0663      0.0000    510.9779     11.3917
    35.2500     59.3780      0.0000    496.3395     12.1129
    35.5000     58.4143      0.0000    471.8519     12.6297
    35.7500     57.4252      0.0000    444.2685     12.9272
    36.0000     56.2590      0.0000    421.4781     13.0402
    36.2500     55.0757      0.0000    408.8476     13.0345
    36.5000     54.4852      0.0000    409.4380     12.9732
    36.7500     54.8562      0.0000    425.1978     12.9006
    37.0000     55.8143      0.0000    457.2403     12.8424
    37.2500     56.7221      0.0000    504.6432     12.8083
    37.5000     57.4659      0.0000    562.6111     12.7967
    37.7500     58.4316      0.0000    622.5642     12.8011
    38.0000     59.7619      0.0000    675.3892     12.8160
    38.2500     60.9821      0.0000    715.1472     12.8383
    38.5000     61.4691      0.0000    740.1816     12.8666
    38.7500     61.1173      0.0000    752.1735     12.8996
    39.0000     60.3879      0.0000    754.7690     12.9378
    39.2500     59.8121      0.0000    752.0613     12.9842
