~Version Information
VERS.                      2.0: CWLS Log ASCII Standard - VERSION 2.0
WRAP.                       NO: One line per depth step
~Well Information Block
STRT.FT                10.0000: 
STOP.FT              1063.0000: 
STEP.FT                 0.1000: 
NULL.                -999.2500: 
COMP.          Pioneer Natural Resources: COMPANY
WELL.                Mac 22-36: WELL
FLD.           Purgatorie River: FIELD
LOC.           2545' FNL & 1398' FWL: LOCATION
PROV.                 Colorado: PROVINCE
CNTY.               Las Animas: COUNTRY
SRVC.                Patterson: SERVICE COMPANY
DATE.          Mon Dec 05 10:55:42 2005: LOG DATE
UWI.                          : UNIQUE WELL ID
~Curve Information Block
DEPT.FT            0 000 00 00: Depth
DCAL.in                       : CDL Caliper
RHOB.g/cc                     : CDL Bulk Density
RHOC.g/cc                     : CDL Density Correction
DPOR.pu                       : CDL Density Porosity
GR.GAPI                       : Gamma Ray
NPOR.pu                       : Neutron Porosity
~Parameter Information Block
~A  Depth       DCAL        RHOB        RHOC        DPOR         GR         NPOR    
# ...
   221.2000      2.7444      2.2417      2.4813     -0.0082    137.4272     21.0566
   221.3000      2.7444      2.2295      2.4672     -0.0084    139.9836     21.2885
   221.4000      2.7444      2.2228      2.4796     -0.0085    139.3491     21.5427
   221.5000      2.7444      2.2241      2.4432     -0.0085    136.7735     21.8883
   221.6000      2.7444      2.2365      2.4733     -0.0083    133.6216     22.3044
   221.7000      2.7444      2.2527      2.4876     -0.0079    133.5900     22.6683
   221.8000      2.7444      2.2622      2.4592     -0.0078    140.2976     22.8542
   221.9000      2.7444      2.2666      2.4860     -0.0077    148.2983     22.9092
   222.0000      2.7444      2.2746      2.4839     -0.0075    149.8965     22.8903
   222.1000      2.7444      2.2868      2.5479     -0.0073    146.1717     23.0342
   222.2000      2.7444      2.2990      2.5009     -0.0070    142.0987     23.6064
   222.3000      2.7444      2.3112      2.5357     -0.0068    138.5804     24.3471
   222.4000      2.7444      2.3222      2.5303     -0.0066    135.4342     24.9650
   222.5000      2.7444      2.3381      2.4862     -0.0062    131.4596     25.7357
   222.6000      2.7444      2.3705      2.5061     -0.0056    124.7050     26.9617
   222.7000      2.7444      2.4192      2.5391     -0.0046    116.6799     28.5083
   222.8000      2.7444      2.4728      2.5686     -0.0035    108.2557     29.9857
   222.9000      2.7444      2.5182      2.5558     -0.0026     99.8089     31.2275
   223.0000      2.7444      2.5539      2.5687     -0.0019     92.4197     32.4664
   223.1000      2.7444      2.5867      2.5818     -0.0013     87.0228     33.6934
   223.2000      2.7444      2.6159      2.6270     -0.0007     84.7305     34.4720
   223.3000      2.7444      2.6401      2.6041     -0.0002     84.2368     34.5541
   223.4000      2.7444      2.6606      2.6317      0.0002     83.2866     33.9252
   223.5000      2.7444      2.6657      2.6512      0.0003     81.2775     32.6361
   223.6000      2.7444      2.6420      2.6550     -0.0002     78.3189     31.0976
   223.7000      2.7444      2.5967      2.5834     -0.0011     75.1441     29.8753
   223.8000      2.7444      2.5512      2.5947     -0.0020     73.2550     29.0559
   223.9000      2.7444      2.5099      2.5865     -0.0028     73.9014     28.2116
   224.0000      2.7444      2.4628      2.5522     -0.0037     76.0961     26.9617
   224.1000      2.7444      2.4090      2.5658     -0.0048     77.8072     25.6474
   224.2000      2.7444      2.3578      2.5566     -0.0058     78.7268     24.8462
   224.3000      2.7444      2.3187      2.5448     -0.0066     79.1734     24.5573
   224.4000      2.7444      2.3007      2.5103     -0.0070     79.3596     24.2442
   224.5000      2.7444      2.2990      2.5392     -0.0070     79.7403     23.6885
   224.6000      2.7444      2.2916      2.5562     -0.0072     80.2457     23.2611
   224.7000      2.7444      2.2746      2.4841     -0.0075     81.1880     23.0743
   224.8000      2.7444      2.2675      2.5091     -0.0077     82.1065     22.8262
   224.9000      2.7444      2.2746      2.5190     -0.0075     81.9539     22.4919
   225.0000      2.7444      2.2869      2.5062     -0.0073     82.0181     22.5241
   225.1000      2.7444      2.2931      2.5577     -0.0071     83.9145     23.0818
   225.2000      2.7444      2.2836      2.5046     -0.0073     85.9278     23.6370
   225.3000      2.7444      2.2646      2.4917     -0.0077     85.9394     23.5712
   225.4000      2.7444      2.2453      2.4947     -0.0081     85.0039     22.9199
   225.5000      2.7444      2.2249      2.4995     -0.0085     84.2742     22.4945
   225.6000      2.7444      2.2064      2.4373     -0.0089     84.0547     22.9130
   225.7000      2.7444      2.2040      2.4285     -0.0089     84.1482     23.8907
   225.8000      2.7444      2.2246      2.4709     -0.0085     83.8830     24.7966
   225.9000      2.7444      2.2569      2.4899     -0.0079     82.8397     25.3731
   226.0000      2.7444      2.2834      2.5009     -0.0073     82.4511     25.6811
   226.1000      2.7444      2.2939      2.5179     -0.0071     84.7797     25.8293
   226.2000      2.7444      2.2901      2.5166     -0.0072     88.1828     25.7912
   226.3000      2.7444      2.2723      2.5395     -0.0076     88.9139     25.4394
   226.4000      2.7444      2.2416      2.4585     -0.0082     85.2926     24.9162
   226.5000      2.7444      2.2163      2.4266     -0.0087     81.3106     24.4963
   226.6000      2.7444      2.2141      2.4150     -0.0087     81.7500     24.2562
   226.7000      2.7444      2.2299      2.4676     -0.0084     84.5083     24.4099
   226.8000      2.7444      2.2504      2.4509     -0.0080     85.1155     24.9810
   226.9000      2.7444      2.2603      2.5314     -0.0078     84.0227     25.3836
   227.0000      2.7444      2.2424      2.4720     -0.0082     84.8719     25.1198
   227.1000      2.7444      2.2006      2.4519     -0.0090     89.7226     24.4594
   227.2000      2.7444      2.1508      2.4205     -0.0100    100.1753     24.1764
   227.3000      2.7444      2.1049      2.3838     -0.0109    115.5678     24.6405
   227.4000      2.7444      2.0797      2.3796     -0.0114    131.4187     25.4066
   227.5000      2.7444      2.0830      2.4079     -0.0113    145.0721     25.9808
   227.6000      2.7444      2.1032      2.4499     -0.0109    156.5207     26.2367
   227.7000      2.7444      2.1341      2.4260     -0.0103    165.3929     26.0958
   227.8000      2.7444      2.1763      2.5035     -0.0095    169.5316     25.5634
   227.9000      2.7444      2.2180      2.5565     -0.0086    167.5096     24.8605
   228.0000      2.7444      2.2534      2.5544     -0.0079    159.6381     24.2289
   228.1000      2.7444      2.2903      2.5728     -0.0072    149.9291     23.9314
   228.2000      2.7444      2.3298      2.5994     -0.0064    144.1423     24.0292
   228.3000      2.7444      2.3615      2.5884     -0.0058    141.3147     24.2773
   228.4000      2.7444      2.3768      2.6011     -0.0055    134.7391     24.5612
   228.5000      2.7444      2.3784      2.5866     -0.0054    121.7219     24.6680
   228.6000      2.7444      2.3752      2.5822     -0.0055    105.1382     24.3353
   228.7000      2.7444      2.3644      2.5977     -0.0057     91.0783     23.9810
   228.8000      2.7444      2.3370      2.5405     -0.0063     84.1459     24.0133
   228.9000      2.7444      2.2963      2.5010     -0.0071     83.0326     24.2005
   229.0000      2.7444      2.2506      2.4482     -0.0080     82.5475     24.4430
   229.1000      2.7444      2.1998      2.4811     -0.0090     79.8907     24.7998
   229.2000      2.7444      2.1483      2.4303     -0.0100     77.8578     25.1495
   229.3000      2.7444      2.1136      2.4141     -0.0107     78.3862     25.4973
   229.4000      2.7444      2.1113      2.3970     -0.0108     80.2091     25.7852
   229.5000      2.7444      2.1437      2.4020     -0.0101     83.5583     25.7411
   229.6000      2.7444      2.2023      2.4720     -0.0090     88.1926     25.3992
   229.7000      2.7444      2.2760      2.4779     -0.0075     90.3315     25.1569
   229.8000      2.7444      2.3549      2.5389     -0.0059     88.3761     25.1610
   229.9000      2.7444      2.4191      2.5958     -0.0046     85.8285     25.1667
   230.0000      2.7444      2.4408      2.6250     -0.0042     84.5853     24.9847
   230.1000      2.7444      2.3996      2.6007     -0.0050     83.4848     24.7024
   230.2000      2.7444      2.3004      2.5348     -0.0070     83.0929     24.5828
   230.3000      2.7444      2.1779      2.4634     -0.0094     84.0984     24.5923
   230.4000      2.7444      2.0754      2.4040     -0.0115     84.9653     24.4117
   230.5000      2.7444      2.0326      2.3131     -0.0124     85.0147     24.1641
   230.6000      2.7444      2.0858      2.2982     -0.0113     84.9434     24.2062
   230.7000      2.7444      2.2430      2.3712     -0.0081     85.0630     24.6491
