~Version Information
VERS.                      2.0: CWLS Log ASCII Standard - VERSION 2.0
WRAP.                       NO: One line per depth step
~Well Information Block
STRT.FT               360.0000: 
STOP.FT              2475.0000: 
STEP.FT                 0.1000: 
NULL.                -999.2500: 
COMP.          Pioneer Natural Resources: COMPANY
WELL.          Hellzonfire 32-31: WELL
FLD.           Purgatoire River: FIELD
LOC.           1993' FNL & 2265' FEL: LOCATION
STAT.                 Colorado: State
CNTY.               Las Animas: COUNTY
CTRY. USA : Country
SECT. 31 : Section
TOWN. 32S : Township
RANG. 66W : Range
SRVC.                Patterson: SERVICE COMPANY
DATE.          Fri Sep 02 07:26:13 2005: LOG DATE
API.           05 071 08483 00: UNIQUE WELL ID
~Curve Information Block
DEPT.FT            0 000 00 00: Depth
DCAL.in                       : CDL Caliper
RHOB.g/cc                     : CDL Bulk Density
RHOC.g/cc                     : CDL Density Correction
DPOR.pu                       : CDL Density Porosity
GR.GAPI                       : Gamma Ray
NPOR.pu                       : Neutron Porosity
~Parameter Information Block
~A  Depth       DCAL        RHOB        RHOC        DPOR         GR         NPOR    
# ...
  1617.6000      7.9469      2.5305      0.1026      7.2426    175.3466     28.5085
  1617.7000      7.9469      2.5203      0.1041      7.8620    172.3215     29.7760
  1617.8000      7.9593      2.5120      0.0813      8.3627    173.5392     29.6446
  1617.9000      7.9593      2.5158      0.0983      8.1333    178.1984     28.4943
  1618.0000      8.0049      2.5289      0.1465      7.3370    178.4278     27.6918
  1618.1000      8.0049      2.5361      0.2011      6.9032    175.0166     28.0056
  1618.2000      8.0049      2.5316      0.1923      7.1738    171.0198     28.9279
  1618.3000      8.0771      2.5303      0.1653      7.2562    166.0976     29.2188
  1618.4000      8.0771      2.5403      0.1733      6.6469    164.4233     28.8117
  1618.5000      7.9518      2.5511      0.1682      5.9923    169.4868     28.1619
  1618.6000      7.9518      2.5576      0.1807      5.6020    175.3401     27.2267
  1618.7000      7.9518      2.5720      0.1698      4.7289    175.5989     26.4543
  1618.8000      7.8972      2.6062      0.1515      2.6571    170.6301     26.3880
  1618.9000      7.8972      2.6432      0.2167      0.4117    166.7178     27.2066
  1619.0000      7.9267      2.6511      0.2459     -0.0669    168.0378     28.7453
  1619.1000      7.9267      2.6295      0.1838      1.2426    168.4314     30.1292
  1619.2000      7.9267      2.6058      0.0945      2.6766    164.1551     30.3409
  1619.3000      7.9694      2.5980      0.0676      3.1508    163.2915     29.4627
  1619.4000      7.9694      2.6032      0.0697      2.8364    167.4237     28.5113
  1619.5000      7.9707      2.6096      0.0610      2.4514    171.4720     28.0645
  1619.6000      7.9707      2.6083      0.1084      2.5276    173.6443     28.0603
  1619.7000      7.9707      2.5972      0.0706      3.2021    168.3310     28.3422
  1619.8000      8.0273      2.5839      0.0861      4.0065    152.1996     28.7033
  1619.9000      8.0273      2.5815      0.1008      4.1490    133.9159     28.7991
  1620.0000      8.0510      2.6010      0.0913      2.9712    121.7233     28.1293
  1620.1000      8.0510      2.6387      0.1325      0.6847    115.4502     26.7703
  1620.2000      8.0510      2.6772      0.0718     -1.6496    112.9865     25.7755
  1620.3000      8.0196      2.7000      0.1214     -3.0323    113.2169     25.5052
  1620.4000      8.0196      2.6998      0.1152     -3.0170    116.0249     25.4239
  1620.5000      8.0260      2.6888      0.0825     -2.3490    119.6838     25.2985
  1620.6000      8.0260      2.6705      0.1441     -1.2397    121.8343     25.3162
  1620.7000      8.0260      2.6331      0.0759      1.0257    125.7561     25.5660
  1620.8000      7.9808      2.5853      0.0468      3.9200    133.3057     25.8870
  1620.9000      7.9808      2.5514      0.0016      5.9760    139.9536     25.9965
  1621.0000      7.9561      2.5472     -0.0032      6.2278    144.3533     25.7271
  1621.1000      7.9561      2.5680      0.0052      4.9672    146.9774     25.1381
  1621.2000      7.9561      2.5951      0.0047      3.3243    149.6901     24.6685
  1621.3000      8.0075      2.6140      0.0474      2.1834    156.7885     24.4915
  1621.4000      8.0075      2.6166      0.0649      2.0223    164.7081     24.1120
  1621.5000      8.0590      2.6018      0.0721      2.9187    166.0913     23.6159
  1621.6000      8.0590      2.5741      0.0619      4.6001    161.9427     23.8531
  1621.7000      8.0590      2.5383      0.0533      6.7686    158.4653     24.8677
  1621.8000      8.0686      2.5059     -0.0162      8.7338    156.4028     25.7895
  1621.9000      8.0686      2.4958      0.0147      9.3433    154.6478     25.8304
  1622.0000      8.0778      2.5145      0.0297      8.2110    158.0073     25.2419
  1622.1000      8.0778      2.5405      0.0945      6.6364    162.8479     25.0792
  1622.2000      8.0778      2.5482      0.0661      6.1701    158.3301     25.7219
  1622.3000      8.0740      2.5460      0.0521      6.3057    149.5090     26.3243
  1622.4000      8.0740      2.5540      0.1061      5.8173    148.3404     25.9815
  1622.5000      8.0090      2.5666      0.1317      5.0569    155.5459     25.3954
  1622.6000      8.0090      2.5691      0.1154      4.9023    160.2306     25.6017
  1622.7000      8.0090      2.5615      0.1160      5.3663    153.8854     26.3070
  1622.8000      7.9559      2.5594      0.1241      5.4918    145.3751     26.7414
  1622.9000      7.9559      2.5789      0.1293      4.3086    147.6742     26.9519
  1623.0000      7.9163      2.6109      0.1639      2.3694    157.2865     27.3970
  1623.1000      7.9163      2.6297      0.1792      1.2302    163.7236     27.9568
  1623.2000      7.9163      2.6243      0.1388      1.5560    164.8054     28.0439
  1623.3000      7.9430      2.6110      0.0523      2.3650    163.3903     27.3280
  1623.4000      7.9430      2.6057      0.1168      2.6869    159.9424     26.1344
  1623.5000      7.9846      2.5992      0.1009      3.0762    154.4038     25.2073
  1623.6000      7.9846      2.5844      0.0372      3.9752    150.8648     25.1096
  1623.7000      7.9846      2.5678      0.0602      4.9835    151.1102     25.5911
  1623.8000      8.0710      2.5505      0.0374      6.0277    153.0807     25.7373
  1623.9000      8.0710      2.5261      0.0806      7.5114    157.8722     25.1723
  1624.0000      8.1226      2.4916      0.0288      9.6011    162.6017     24.6251
  1624.1000      8.1226      2.4684     -0.0011     11.0036    158.1683     24.6733
  1624.2000      8.1226      2.4743     -0.0029     10.6489    143.4699     24.9650
  1624.3000      8.1711      2.4893      0.0374      9.7366    126.4724     24.9464
  1624.4000      8.1711      2.4927     -0.0024      9.5330    116.2947     24.6624
  1624.5000      8.2105      2.4911      0.0001      9.6300    116.1247     24.4463
  1624.6000      8.2105      2.4978     -0.0023      9.2236    117.5457     24.3522
  1624.7000      8.2105      2.5210      0.0110      7.8160    114.2916     24.1611
  1624.8000      8.0590      2.5611      0.0412      5.3853    111.1834     23.8281
  1624.9000      8.0590      2.6096      0.0542      2.4491    111.1635     23.6908
  1625.0000      8.0044      2.6590      0.1106     -0.5463    110.1114     23.8894
  1625.1000      8.0044      2.6943      0.1512     -2.6873    107.2108     24.2432
  1625.2000      8.0044      2.6935      0.1704     -2.6335    106.9463     24.7512
  1625.3000      8.0010      2.6627      0.0829     -0.7676    106.9010     25.2376
  1625.4000      8.0010      2.6361      0.0536      0.8424    102.9064     25.2381
  1625.5000      7.9799      2.6167      0.1001      2.0198    101.9907     25.0327
  1625.6000      7.9799      2.5805      0.0203      4.2123    110.1460     25.2990
  1625.7000      7.9799      2.5340      0.0059      7.0285    120.5929     25.6549
  1625.8000      7.9809      2.5113     -0.0130      8.4075    127.8562     25.1485
  1625.9000      7.9809      2.5327     -0.0059      7.1107    134.3486     23.9527
  1626.0000      7.9880      2.5788      0.0764      4.3174    138.3767     23.0209
  1626.1000      7.9880      2.6155      0.0680      2.0887    134.5787     23.0705
  1626.2000      7.9880      2.6406      0.1407      0.5696    123.6573     24.0572
  1626.3000      8.0064      2.6628      0.1669     -0.7765    112.7385     25.0167
  1626.4000      8.0064      2.6717      0.1612     -1.3132    108.7006     25.0565
  1626.5000      8.0298      2.6579      0.1766     -0.4782    107.2627     24.7028
  1626.6000      8.0298      2.6318      0.1725      1.1060    102.1029     24.8339
  1626.7000      8.0298      2.6127      0.0619      2.2594     98.9971     25.3774
  1626.8000      8.0082      2.6196      0.0438      1.8396    101.1468     25.6919
  1626.9000      8.0082      2.6557      0.0806     -0.3443    102.7324     25.2566
  1627.0000      7.9581      2.6976      0.1482     -2.8819    103.4440     24.3970
  1627.1000      7.9581      2.7188      0.1325     -4.1702    105.4567     23.9171
