~Version Information
VERS.                      2.0: CWLS Log ASCII Standard - VERSION 2.0
WRAP.                       NO: One line per depth step
~Well Information Block
STRT.FT               460.0000: 
STOP.FT              1349.5000: 
STEP.FT                 0.2500: 
NULL.                -999.2500: 
COMP.          Pioneer Natural Resources: COMPANY
WELL.              Dicks 32-5R: WELL
FLD.           Purgatorie River: FIELD
LOC.           1485' FNL & 1684' FEL: LOCATION
PROV.                 Colorado: PROVINCE
CNTY.               Las Animas: COUNTRY
SRVC.                Patterson: SERVICE COMPANY
DATE.          Thu Dec 08 23:11:15 2005: LOG DATE
UWI.                          : UNIQUE WELL ID
~Curve Information Block
DEPT.FT            0 000 00 00: Depth
SN.Ohm-m                      : IEL Short Normal
SP.mV                         : IEL Spontaneous Potential
DIR.Ohm-m                     : IEL Induction Resistivity
GR.GAPI                       : Gamma Ray
~Parameter Information Block
~A  Depth        SN          SP         DIR          GR     
# ...
  1096.5000     24.3259    221.9777     20.7795     72.4773
  1096.7500     24.0732    221.9229     21.1690     68.8784
  1097.0000     23.5725    221.9510     21.4298     65.8405
  1097.2500     22.8754    222.1003     21.5288     65.4836
  1097.5000     22.0389    222.4050     21.4249     67.2142
  1097.7500     21.1779    222.8667     21.1028     69.5956
  1098.0000     20.3911    223.4526     20.5922     74.2412
  1098.2500     19.6994    224.1092     19.9585     77.4882
  1098.5000     19.0918    224.7692     19.2764     81.7701
  1098.7500     18.5737    225.3512     18.6076     83.9838
  1099.0000     18.1553    225.7612     17.9932     86.3209
  1099.2500     17.8319    225.9072     17.4577     87.4486
  1099.5000     17.5912    225.7232     17.0167     89.1846
  1099.7500     17.4086    225.1880     16.6767     90.6911
  1100.0000     17.2353    224.3233     16.4322     93.3506
  1100.2500     17.0503    223.1703     16.2633     94.9770
  1100.5000     16.9075    221.7669     16.1415     96.5975
  1100.7500     16.8691    220.1425     16.0398     97.1329
  1101.0000     16.9320    218.3306     15.9442     97.6033
  1101.2500     17.0180    216.3820     15.8584     97.9701
  1101.5000     17.0166    214.3642     15.8008     98.6624
  1101.7500     16.8994    212.3491     15.7945     99.0247
  1102.0000     16.7760    210.4001     15.8549     98.9401
  1102.2500     16.7781    208.5684     15.9812     98.2911
  1102.5000     16.9465    206.8954     16.1523     96.6423
  1102.7500     17.2219    205.4143     16.3298     95.5227
  1103.0000     17.4858    204.1463     16.4669     94.5989
  1103.2500     17.6469    203.0954     16.5235     94.6848
  1103.5000     17.6950    202.2504     16.4827     95.6603
  1103.7500     17.6414    201.5948     16.3589     96.4896
  1104.0000     17.4839    201.1176     16.1911     96.8513
  1104.2500     17.2869    200.8168     16.0278     95.6314
  1104.5000     17.2049    200.6977     15.9130     90.5544
  1104.7500     17.3364    200.7634     15.8836     85.2000
  1105.0000     17.6082    200.9998     15.9734     76.2009
  1105.2500     17.8873    201.3661     16.2155     71.2082
  1105.5000     18.1592    201.8065     16.6386     67.5457
  1105.7500     18.5098    202.2803     17.2567     68.1894
  1106.0000     19.0075    202.7850     18.0584     73.1342
  1106.2500     19.7141    203.3532     19.0035     78.0657
  1106.5000     20.7457    204.0304     20.0256     85.9720
  1106.7500     22.2224    204.8511     21.0414     90.7635
  1107.0000     24.2212    205.8268     21.9651     96.4898
  1107.2500     26.7890    206.9469     22.7234     98.9540
  1107.5000     29.9033    208.1866     23.2618     99.5796
  1107.7500     33.4133    209.5105     23.5388     97.4006
  1108.0000     36.9786    210.8757     23.5164     90.5049
  1108.2500     39.9901    212.2413     23.1778     84.5155
  1108.5000     41.6796    213.5824     22.5638     75.7084
  1108.7500     41.5152    214.8943     21.7857     70.9272
  1109.0000     39.4866    216.1822     20.9819     66.1419
  1109.2500     36.0276    217.4428     20.2521     64.6862
  1109.5000     31.8175    218.6494     19.6263     65.2487
  1109.7500     27.6087    219.7565     19.0801     67.4444
  1110.0000     24.0058    220.7238     18.5715     72.9537
  1110.2500     21.2793    221.5370     18.0677     77.4547
  1110.5000     19.3857    222.2085     17.5515     84.1674
  1110.7500     18.1421    222.7651     17.0171     88.1150
  1111.0000     17.3631    223.2385     16.4666     93.0320
  1111.2500     16.9027    223.6627     15.9123     95.7466
  1111.5000     16.6365    224.0703     15.3794     99.2163
  1111.7500     16.4478    224.4823     14.9019    101.2256
  1112.0000     16.2807    224.8990     14.5128    103.7396
  1112.2500     16.1709    225.3006     14.2318    104.8945
  1112.5000     16.1560    225.6549     14.0602    105.5595
  1112.7500     16.1938    225.9263     13.9835    105.3579
  1113.0000     16.1904    226.0835     13.9812    104.4722
  1113.2500     16.0979    226.1069     14.0392    103.6102
  1113.5000     15.9739    225.9940     14.1543    101.8312
  1113.7500     15.9034    225.7593     14.3281    100.3149
  1114.0000     15.9087    225.4304     14.5537     97.8349
  1114.2500     15.9864    225.0396     14.8049     96.2651
  1114.5000     16.1609    224.6170     15.0395     94.2461
  1114.7500     16.4525    224.1891     15.2126     93.1936
  1115.0000     16.8229    223.7815     15.2912     92.2266
  1115.2500     17.1648    223.4155     15.2606     92.0062
  1115.5000     17.3856    223.1038     15.1239     91.9414
  1115.7500     17.5127    222.8526     14.8973     91.7431
  1116.0000     17.6285    222.6694     14.6052     90.9925
  1116.2500     17.7293    222.5606     14.2773     90.4231
  1116.5000     17.7709    222.5223     13.9488     90.2786
  1116.7500     17.7724    222.5380     13.6563     91.0731
  1117.0000     17.7508    222.5841     13.4282     93.6890
  1117.2500     17.6668    222.6328     13.2738     96.0087
  1117.5000     17.4993    222.6540     13.1822     99.3191
  1117.7500     17.2605    222.6248     13.1343    100.8231
  1118.0000     16.9424    222.5382     13.1187    101.4349
  1118.2500     16.5475    222.4010     13.1377    100.8521
  1118.5000     16.1289    222.2244     13.2002     99.4855
  1118.7500     15.7289    222.0189     13.3085     99.0142
  1119.0000     15.3320    221.7976     13.4508     99.7651
  1119.2500     14.9112    221.5815     13.6049    101.0852
  1119.5000     14.4738    221.4044     13.7500    103.0869
  1119.7500     14.0306    221.3130     13.8791    103.5669
  1120.0000     13.5925    221.3555     14.0046    102.0160
  1120.2500     13.2718    221.5618     14.1553     99.4220
  1120.5000     13.2953    221.9288     14.3676     94.0089
  1120.7500     13.8187    222.4230     14.6742     90.1574
  1121.0000     14.7783    222.9945     15.0937     85.3218
  1121.2500     15.9467    223.5904     15.6206     83.3297
  1121.5000     17.0966    224.1612     16.2206     82.7740
  1121.7500     18.1275    224.6612     16.8305     83.9616
  1122.0000     19.0607    225.0473     17.3711     87.3016
  1122.2500     19.9388    225.2793     17.7719     89.9461
  1122.5000     20.7755    225.3272     17.9988     93.5277
  1122.7500     21.5541    225.1854     18.0633     95.1599
  1123.0000     22.1894    224.8791     18.0061     95.9636
  1123.2500     22.5612    224.4488     17.8695     95.4163
  1123.5000     22.7023    223.9241     17.6832     93.4297
  1123.7500     22.8383    223.3131     17.4654     91.6807
  1124.0000     23.1051    222.6131     17.2301     89.1082
  1124.2500     23.3527    221.8265     16.9920     87.9679
  1124.5000     23.3070    220.9651     16.7649     88.0762
  1124.7500     22.8377    220.0483     16.5568     89.5198
  1125.0000     22.0152    219.1042     16.3683     92.8923
  1125.2500     20.9930    218.1753     16.1975     95.1307
  1125.5000     19.9348    217.3178     16.0498     97.6356
  1125.7500     18.9956    216.5842     15.9413     98.8469
  1126.0000     18.2887    215.9973     15.8929    100.7002
  1126.2500     17.8603    215.5352     15.9205    102.2207
  1126.5000     17.6961    215.1446     16.0290    104.6974
  1126.7500     17.7415    214.7757     16.2116    106.1205
  1127.0000     17.9191    214.4094     16.4521    107.4314
  1127.2500     18.1893    214.0579     16.7333    107.6633
  1127.5000     18.5928    213.7474     17.0463    107.0815
  1127.7500     19.1902    213.5064     17.3963    106.0978
  1128.0000     20.0082    213.3619     17.8003    103.5877
  1128.2500     21.0662    213.3349     18.2810    100.9690
  1128.5000     22.3798    213.4346     18.8634     95.0182
  1128.7500     23.8427    213.6586     19.5727     89.5141
  1129.0000     25.1260    213.9964     20.4254     79.4710
  1129.2500     25.8758    214.4286     21.4059     72.4574
  1129.5000     26.0501    214.9317     22.4378     63.4607
  1129.7500     25.9080    215.4891     23.3691     59.5133
