~Version Information
VERS.                      2.0: CWLS Log ASCII Standard - VERSION 2.0
WRAP.                       NO: One line per depth step
~Well Information Block
STRT.FT                -8.0000: 
STOP.FT              1323.7500: 
STEP.FT                 0.2500: 
NULL.                -999.2500: 
COMP.          Pioneer Natural Resources: COMPANY
WELL.              Geyser 41-2: WELL
FLD.           Purgatorie River: FIELD
LOC.           506' FNL & 1127' FEL--: LOCATION
PROV.                       CO: PROVINCE
CNTY.               Las Animas: COUNTRY
SRVC.          Patterson Wireline: SERVICE COMPANY
DATE.          Tue Dec 06 09:28:14 2005: LOG DATE
UWI.           08 071 08598 00: UNIQUE WELL ID
~Curve Information Block
DEPT.FT            0 000 00 00: Depth
CCL.                          : Casing Collar Locator
TT3.usec                      : CBL 3' Travel Time
AMP3.mV                       : CBL 3' Amplitude
GR.GAPI                       : Gamma Ray
~Parameter Information Block
~A  Depth       CCL         TT3         AMP3         GR     
# ...
  1298.5000      0.0000    828.9863     12.2766     97.4999
  1298.7500      0.0000    827.4932     12.3375     97.5710
  1299.0000      0.0000    824.7475     12.4152     97.2365
  1299.2500      0.0000    820.1506     12.4831     96.5285
  1299.5000      0.0000    813.2487     12.5094     97.0607
  1299.7500      0.0000    804.4999     12.4672     99.8665
  1300.0000      0.0000    795.8662     12.3381    103.8954
  1300.2500      0.0000    790.4196     12.1224    107.0569
  1300.5000      0.0000    791.1738     11.8446    108.3755
  1300.7500      0.0000    800.2269     11.5481    108.7678
  1301.0000      0.0000    818.4654     11.2804    109.8544
  1301.2500      0.0000    844.4877     11.0706    112.2099
  1301.5000      0.0000    872.3824     10.9129    114.7718
  1301.7500      0.0000    891.8587     10.7720    116.0171
  1302.0000      0.0000    894.1310     10.6132    115.6291
  1302.2500      0.0000    879.2200     10.4271    114.6675
  1302.5000      0.0000    856.0026     10.2305    114.1127
  1302.7500      0.0000    834.6020     10.0491    113.6857
  1303.0000      0.0000    819.6497      9.9004    112.1486
  1303.2500      0.0000    809.9581      9.7867    108.5368
  1303.5000      0.0000    802.3407      9.7020    103.2006
  1303.7500      0.0000    795.0242      9.6450     97.7715
  1304.0000      0.0000    788.3682      9.6213     94.0087
  1304.2500      0.0000    783.4811      9.6304     92.7928
  1304.5000      0.0000    780.7980      9.6619     94.3103
  1304.7500      0.0000    779.9265      9.7106     98.4692
  1305.0000      0.0000    780.3444      9.7885    104.3391
  1305.2500      0.0000    782.0083      9.9195    109.6783
  1305.5000      0.0000    785.5888     10.1235    112.0990
  1305.7500      0.0000    792.2990     10.4019    110.9343
  1306.0000      0.0000    803.3558     10.7289    107.5896
  1306.2500      0.0000    819.0324     11.0551    104.0877
  1306.5000      0.0000    837.3487     11.3278    101.5344
  1306.7500      0.0000    853.3677     11.5129    100.0128
  1307.0000      0.0000    861.1839     11.6040     99.6510
  1307.2500      0.0000    858.4647     11.6143    101.1896
  1307.5000      0.0000    849.0238     11.5678    105.2112
  1307.7500      0.0000    840.0819     11.4907    111.1504
  1308.0000      0.0000    837.4278     11.4037    117.3422
  1308.2500      0.0000    842.8634     11.3160    121.8912
  1308.5000      0.0000    853.6584     11.2239    123.6349
  1308.7500      0.0000    863.0146     11.1147    122.6971
  1309.0000      0.0000    863.3574     10.9766    120.0465
  1309.2500      0.0000    851.9058     10.8106    115.8703
  1309.5000      0.0000    832.7641     10.6330    108.2556
  1309.7500      0.0000    812.6552     10.4642     94.2936
  1310.0000      0.0000    795.6793     10.3186     73.3510
  1310.2500      0.0000    782.7142     10.2022     49.0962
  1310.5000      0.0000    773.9813     10.1145     27.4944
  1310.7500      0.0000    770.1089     10.0469     12.6278
  1311.0000      0.0000    770.5082      9.9837      4.6907
  1311.2500      0.0000    772.1321      9.9089      1.3947
  1311.5000      0.0000    771.4946      9.8184      0.3293
  1311.7500      0.0000    768.0452      9.7245      0.0607
  1312.0000      0.0000    764.5261      9.6472      0.0080
  1312.2500      0.0000    763.7511      9.6023      0.0000
  1312.5000      0.0000    765.8989      9.5993   -999.2500
  1312.7500      0.0000    768.9474      9.6435   -999.2500
  1313.0000      0.0000    770.6815      9.7332   -999.2500
  1313.2500      0.0000    769.9622      9.8554   -999.2500
  1313.5000      0.0000    766.7892      9.9837   -999.2500
  1313.7500      0.0000    761.8116     10.0855   -999.2500
  1314.0000      0.0000    755.2180     10.1272   -999.2500
  1314.2500      0.0000    744.3856     10.0646   -999.2500
  1314.5000      0.0000    720.7086      9.8093   -999.2500
  1314.7500      0.0000    669.3539      9.2092   -999.2500
  1315.0000      0.0000    576.7458      8.1141   -999.2500
  1315.2500      0.0000    444.3138      6.5381   -999.2500
  1315.5000      0.0000    295.7267      4.7597   -999.2500
  1315.7500      0.0000    165.3491      3.1926   -999.2500
  1316.0000      0.0000     76.0353      2.1160   -999.2500
  1316.2500      0.0000     28.3177      1.5397   -999.2500
  1316.5000      0.0000      8.4468      1.2994   -999.2500
  1316.7500      0.0000      1.9992      1.2214   -999.2500
  1317.0000      0.0000      0.3699      1.2017   -999.2500
  1317.2500      0.0000      0.0492      1.1978   -999.2500
  1317.5000      0.0000   -999.2500   -999.2500   -999.2500
  1317.7500      0.0000   -999.2500   -999.2500   -999.2500
  1318.0000      0.0000   -999.2500   -999.2500   -999.2500
  1318.2500      0.0000   -999.2500   -999.2500   -999.2500
  1318.5000      0.0000   -999.2500   -999.2500   -999.2500
  1318.7500      0.0000   -999.2500   -999.2500   -999.2500
  1319.0000      0.0000   -999.2500   -999.2500   -999.2500
  1319.2500      0.0000   -999.2500   -999.2500   -999.2500
  1319.5000      0.0000   -999.2500   -999.2500   -999.2500
  1319.7500      0.0000   -999.2500   -999.2500   -999.2500
  1320.0000      0.0000   -999.2500   -999.2500   -999.2500
  1320.2500      0.0000   -999.2500   -999.2500   -999.2500
  1320.5000      0.0000   -999.2500   -999.2500   -999.2500
  1320.7500      0.0000   -999.2500   -999.2500   -999.2500
  1321.0000      0.0000   -999.2500   -999.2500   -999.2500
  1321.2500      0.0000   -999.2500   -999.2500   -999.2500
  1321.5000      0.0000   -999.2500   -999.2500   -999.2500
  1321.7500      0.0000   -999.2500   -999.2500   -999.2500
  1322.0000      0.0000   -999.2500   -999.2500   -999.2500
  1322.2500      0.0000   -999.2500   -999.2500   -999.2500
  1322.5000      0.0000   -999.2500   -999.2500   -999.2500
  1322.7500      0.0000   -999.2500   -999.2500   -999.2500
  1323.0000      0.0000   -999.2500   -999.2500   -999.2500
  1323.2500   -999.2500   -999.2500   -999.2500   -999.2500
  1323.5000   -999.2500   -999.2500   -999.2500   -999.2500
  1323.7500   -999.2500   -999.2500   -999.2500   -999.2500
