~Version Information
VERS.                      2.0: CWLS Log ASCII Standard - VERSION 2.0
WRAP.                       NO: One line per depth step
~Well Information Block
STRT.FT                -8.0000: 
STOP.FT              2135.0000: 
STEP.FT                 0.2500: 
NULL.                -999.2500: 
COMP.          Pioneer Natural Resources: COMPANY
WELL.             AMX 13-13 Tr: WELL
FLD.           Purgatorie River: FIELD
LOC.           2401' FSL & 895' FWL--: LOCATION
PROV.                       CO: PROVINCE
CNTY.               Las Animas: COUNTRY
SRVC.          Patterson Wireline: SERVICE COMPANY
DATE.          Thu Jan 05 10:37:28 2006: LOG DATE
UWI.           05 071 08631 00: UNIQUE WELL ID
~Curve Information Block
DEPT.FT            0 000 00 00: Depth
CCL.                          : Casing Collar Locator
TT3.usec                      : CBL 3' Travel Time
AMP3.mV                       : CBL 3' Amplitude
GR.GAPI                       : Gamma Ray
~Parameter Information Block
~A  Depth       CCL         TT3         AMP3         GR     
# ...
   126.0000      0.0000    705.0444     16.1380     47.6359
   126.2500      0.0000    745.7881     16.1188     44.3786
   126.5000      0.0000    767.5126     16.0948     42.7514
   126.7500      0.0000    770.1026     16.0776     43.3926
   127.0000      0.0000    756.1598     16.0769     45.9004
   127.2500      0.0000    729.2388     16.0950     48.9001
   127.5000      0.0000    696.9373     16.1220     50.9179
   127.7500      0.0000    669.8067     16.1452     51.3512
   128.0000      0.0000    655.1993     16.1634     50.5505
   128.2500      0.0000    655.1045     16.1855     49.1946
   128.5000      0.0000    669.5391     16.2149     47.8965
   128.7500      0.0000    696.5522     16.2460     47.1394
   129.0000      0.0000    728.8839     16.2740     47.0497
   129.2500      0.0000    756.5169     16.2958     47.2903
   129.5000      0.0000    773.8154     16.3023     47.6255
   129.7500      0.0000    781.8254     16.2784     48.4331
   130.0000      0.0000    784.5776     16.2149     50.0918
   130.2500      0.0000    785.3035     16.1167     52.0430
   130.5000      0.0000    785.5405     15.9991     53.1353
   130.7500      0.0000    785.7311     15.8778     52.8371
   131.0000      0.0000    785.8916     15.7575     51.6124
   131.2500      0.0000    785.9892     15.6308     50.2096
   131.5000      0.0000    786.0271     15.4888     49.1388
   131.7500      0.0000    786.0521     15.3324     48.8753
   132.0000      0.0000    786.0981     15.1750     49.9892
   132.2500      0.0000    786.1460     15.0332     52.5563
   132.5000      0.0000    786.0927     14.9169     55.5402
   132.7500      0.0000    785.6912     14.8252     57.2890
   133.0000      0.0000    784.4399     14.7516     57.0755
   133.2500      0.0000    781.5448     14.6916     55.9714
   133.5000      0.0000    776.2592     14.6431     55.6637
   133.7500      0.0000    768.6440     14.6019     56.3574
   134.0000      0.0000    760.0433     14.5622     56.4314
   134.2500      0.0000    752.4627     14.5228     54.3573
   134.5000      0.0000    747.2544     14.4879     50.4459
   134.7500      0.0000    744.4415     14.4606     46.5276
   135.0000      0.0000    743.1872     14.4386     44.3635
   135.2500      0.0000    742.6260     14.4165     44.5209
   135.5000      0.0000    742.2612     14.3889     46.3407
   135.7500      0.0000    741.9111     14.3544     48.5663
   136.0000      0.0000    741.5391     14.3148     49.9984
   136.2500      0.0000    741.1523     14.2718     49.9674
   136.5000      0.0000    740.7651     14.2243     48.7502
   136.7500      0.0000    740.3967     14.1692     47.6176
   137.0000      0.0000    740.0757     14.1028     48.0568
   137.2500      0.0000    739.8351     14.0215     50.5896
   137.5000      0.0000    739.6936     13.9231     54.3603
   137.7500      0.0000    739.6486     13.8111     57.9508
   138.0000      0.0000    739.6820     13.6935     60.4535
   138.2500      0.0000    739.7673     13.5765     61.6614
   138.5000      0.0000    739.8776     13.4647     61.7703
   138.7500      0.0000    740.0007     13.3680     61.4695
   139.0000      0.0000    740.1389     13.3016     61.8316
   139.2500      0.0000    740.2849     13.2770     63.2764
   139.5000      0.0000    740.4094     13.2953     64.7315
   139.7500      0.0000    740.4877     13.3498     64.3737
   140.0000      0.0000    740.5312     13.4354     61.3282
   140.2500      0.0000    740.5726     13.5545     56.6417
   140.5000      0.0000    740.6273     13.7104     52.6305
   140.7500      0.0000    740.6927     13.8928     51.0829
   141.0000      0.0000    740.8283     14.0735     51.9119
   141.2500      0.0000    741.2443     14.2232     53.5037
   141.5000      0.0000    742.3069     14.3345     54.2379
   141.7500      0.0000    744.3365     14.4270     53.6105
   142.0000      0.0000    747.1653     14.5287     52.2029
   142.2500      0.0000    749.8194     14.6552     50.8487
   142.5000      0.0000    751.0111     14.7998     49.7416
   142.7500      0.0000    750.3354     14.9402     48.2714
   143.0000      0.0000    748.8644     15.0547     45.8821
   143.2500      0.0000    748.2451     15.1336     43.0504
   143.5000      0.0000    749.1672     15.1800     41.1741
   143.7500      0.0000    750.7278     15.2013     41.3620
   144.0000      0.0000    751.2635     15.2028     43.3660
   144.2500      0.0000    749.8816     15.1852     45.8107
   144.5000      0.0000    747.1848     15.1493     47.5113
   144.7500      0.0000    744.5217     15.1001     48.3747
   145.0000      0.0000    742.7958     15.0460     48.9085
   145.2500      0.0000    742.0835     14.9928     49.3438
   145.5000      0.0000    742.0706     14.9445     49.7442
   145.7500      0.0000    742.5547     14.9075     50.5526
   146.0000      0.0000    743.6706     14.8916     52.2761
   146.2500      0.0000    745.8331     14.9047     54.6957
   146.5000      0.0000    749.4324     14.9485     56.8418
   146.7500      0.0000    754.4595     15.0179     57.7436
   147.0000      0.0000    760.4517     15.1029     57.0670
   147.2500      0.0000    766.7670     15.1927     55.2240
   147.5000      0.0000    772.7504     15.2800     53.0187
   147.7500      0.0000    777.7231     15.3671     51.0562
   148.0000      0.0000    781.1842     15.4638     49.3608
   148.2500      0.0000    783.1285     15.5750     47.6245
   148.5000      0.0000    784.0098     15.6910     45.8671
   148.7500      0.0000    784.3796     15.7936     44.7566
   149.0000      0.0000    784.6003     15.8742     45.1164
   149.2500      0.0000    784.7937     15.9432     47.0118
   149.5000      0.0000    784.9302     16.0205     49.4240
   149.7500      0.0000    784.9493     16.1158     51.0680
   150.0000      0.0000    784.8516     16.2213     51.4504
   150.2500      0.0000    784.6973     16.3240     50.8797
   150.5000      0.0000    784.5148     16.4219     49.6498
   150.7500      0.0000    784.1907     16.5270     47.8080
   151.0000      0.0000    783.4244     16.6517     45.8036
   151.2500      0.0000    781.8785     16.7965     44.7362
   151.5000      0.0000    779.6005     16.9487     45.4098
   151.7500      0.0000    777.4022     17.0915     47.2849
   152.0000      0.0000    776.5217     17.2139     48.7851
   152.2500      0.0000    777.5616     17.3129     48.6928
   152.5000      0.0000    779.8751     17.3874     47.1079
   152.7500      0.0000    782.2123     17.4315     45.2313
   153.0000      0.0000    783.7946     17.4348     44.3634
   153.2500      0.0000    784.6304     17.3941     44.9783
   153.5000      0.0000    785.0985     17.3240     46.7086
   153.7500      0.0000    785.5051     17.2510     49.1432
   154.0000      0.0000    785.9393     17.1917     52.1544
   154.2500      0.0000    786.3301     17.1400     55.1570
   154.5000      0.0000    786.6393     17.0765     56.5978
   154.7500      0.0000    787.1252     16.9893     55.0990
   155.0000      0.0000    788.5253     16.8839     51.2295
   155.2500      0.0000    791.8559     16.7764     47.4120
   155.5000      0.0000    797.6064     16.6820     45.7208
   155.7500      0.0000    804.8211     16.6114     46.1763
   156.0000      0.0000    811.2052     16.5717     47.3278
   156.2500      0.0000    814.5645     16.5713     47.9113
   156.5000      0.0000    814.2520     16.6247     47.6719
   156.7500      0.0000    811.6235     16.7490     47.0096
   157.0000      0.0000    809.3188     16.9495     46.2659
   157.2500      0.0000    809.0382     17.2039     45.3209
   157.5000      0.0000    808.1639     17.4650     43.7105
   157.7500      0.0000    799.0211     17.6830     41.2299
   158.0000      0.0000    774.5452     17.8305     38.5794
   158.2500      0.0000    735.9113     17.9064     37.1949
   158.5000      0.0000    691.7295     17.9125     38.0253
   158.7500      0.0000    649.1933     17.8140     40.5964
   159.0000      0.0000    611.5010     17.5212     43.6747
   159.2500      0.0000    584.5447     16.9422     46.6284
