~Version Information
VERS.                      2.0: CWLS Log ASCII Standard - VERSION 2.0
WRAP.                       NO: One line per depth step
~Well Information Block
STRT.FT                 0.0000: 
STOP.FT              2062.2500: 
STEP.FT                 0.2500: 
NULL.                -999.2500: 
COMP.          Petrogulf Corporation: COMPANY
WELL.           Montoya 12-44R: WELL
FLD.           Purgatorie River: FIELD
LOC.           713' FSL & 798' FEL: LOCATION
PROV.                 Colorado: PROVINCE
CNTY.               Las Animas: COUNTRY
SRVC.                Patterson: SERVICE COMPANY
DATE.          Wed Nov 09 13:30:24 2005: LOG DATE
UWI.           05-071-08538               : UNIQUE WELL ID
~Curve Information Block
DEPT.FT            0 000 00 00: Depth
CCL.                          : Casing Collar Locator
TT3.usec                      : CBL 3' Travel Time
AMP3.mV                       : CBL 3' Amplitude
GR.GAPI                       : Gamma Ray
~Parameter Information Block
~A  Depth       CCL         TT3         AMP3         GR     
# ...
   804.0000      0.0000    297.2682     33.8277    156.2278
   804.2500      0.0000    299.6287     30.6496    158.3694
   804.5000      0.0000    303.1799     27.3162    161.0578
   804.7500      0.0000    315.5382     24.2960    164.9391
   805.0000      0.0000    351.0595     21.9401    169.1992
   805.2500      0.0000    419.3743     20.2907    171.5224
   805.5000      0.0000    504.4972     19.2062    169.8857
   805.7500      0.0000    573.0211     18.4633    164.3281
   806.0000      0.0000    609.6861     17.8404    157.0579
   806.2500      0.0000    625.5656     17.2555    150.9610
   806.5000      0.0000    635.3093     16.7804    147.9468
   806.7500      0.0000    643.7165     16.5342    148.2178
   807.0000      0.0000    649.1990     16.6339    150.4275
   807.2500      0.0000    644.1755     17.1795    152.4484
   807.5000      0.0000    610.6827     18.1728    152.5699
   807.7500      0.0000    535.5658     19.4368    150.4406
   808.0000      0.0000    437.9832     20.6783    146.9946
   808.2500      0.0000    358.8929     21.6583    143.3878
   808.5000      0.0000    318.1056     22.2586    139.8477
   808.7500      0.0000    304.6490     22.4480    135.5932
   809.0000      0.0000    301.7884     22.3363    129.9520
   809.2500      0.0000    301.3269     22.1664    123.3697
   809.5000      0.0000    301.1851     22.0787    117.2272
   809.7500      0.0000    301.3106     21.9686    112.9455
   810.0000      0.0000    302.7775     21.6854    111.3207
   810.2500      0.0000    309.4824     21.2256    112.1423
   810.5000      0.0000    329.8585     20.6281    114.1262
   810.7500      0.0000    371.5994     19.8537    115.5971
   811.0000      0.0000    430.1101     18.8988    115.4783
   811.2500      0.0000    488.0835     17.8850    113.4872
   811.5000      0.0000    531.7018     16.9276    109.7180
   811.7500      0.0000    563.3211     16.0066    104.6178
   812.0000      0.0000    592.8498     15.0011     99.1120
   812.2500      0.0000    620.8148     13.8105     94.2200
   812.5000      0.0000    640.7695     12.5261     90.7154
   812.7500      0.0000    651.6031     11.4467     89.4004
   813.0000      0.0000    657.0327     10.7987     91.2471
   813.2500      0.0000    660.2934     10.5395     96.5478
   813.5000      0.0000    664.9086     10.4937    103.7863
   813.7500      0.0000    670.5469     10.5747    109.7998
   814.0000      0.0000    668.5254     10.8632    111.5878
   814.2500      0.0000    654.1366     11.4651    108.2658
   814.5000      0.0000    634.8643     12.3026    101.3952
   814.7500      0.0000    615.4812     13.1080     93.5745
   815.0000      0.0000    588.0349     13.5760     86.9331
   815.2500      0.0000    546.7818     13.5838     82.7120
   815.5000      0.0000    503.5784     13.3100     81.3327
   815.7500      0.0000    478.0019     12.8629     82.2770
   816.0000      0.0000    485.5752     11.9909     84.3067
   816.2500      0.0000    533.2098     10.6523     86.2279
   816.5000      0.0000    601.1375      9.3670     87.3668
   816.7500      0.0000    650.8635      8.5838     87.5940
   817.0000      2.0000    663.7649      8.2578     87.5185
   817.2500     -2.0000    648.5106      8.1854     88.5085
   817.5000      0.0000    619.6431      8.3251     91.9027
   817.7500      0.0000    585.9537      8.7711     97.9950
   818.0000      0.0000    552.5569      9.7061    105.7832
   818.2500      0.0000    517.4483     11.4680    113.4525
   818.5000      0.0000    472.8486     14.1981    119.1165
   818.7500      0.0000    428.4307     17.2190    121.6185
   819.0000      0.0000    404.0025     19.7228    121.0696
   819.2500      0.0000    390.3596     22.0462    118.5752
   819.5000      0.0000    364.3458     25.1230    115.3988
   819.7500      0.0000    329.9369     29.2654    112.5048
   820.0000      0.0000    303.4686     34.0060    110.6164
   820.2500      0.0000    286.6481     38.4816    110.1852
   820.5000      0.0000    274.3854     42.0143    111.3110
   820.7500      0.0000    265.8326     44.6417    114.0362
   821.0000      0.0000    261.4023     47.0032    118.4464
   821.2500      0.0000    259.6911     49.7393    123.8417
   821.5000      0.0000    258.9999     53.1595    128.1267
   821.7500      0.0000    258.5574     57.3675    129.0806
   822.0000      0.0000    258.2123     62.2972    126.3716
   822.2500      0.0000    257.9849     67.4646    121.7254
   822.5000      0.0000    257.8828     72.0167    117.2130
   822.7500      0.0000    257.8660     75.2609    113.8872
   823.0000      0.0000    257.8775     77.0386    111.9160
   823.2500      0.0000    257.8787     77.6284    111.3410
   823.5000      0.0000    257.8663     77.4555    112.3165
   823.7500      0.0000    257.8643     76.8588    114.7981
   824.0000      0.0000    257.8842     75.9802    118.3896
   824.2500      0.0000    257.9063     74.8154    122.5802
   824.5000      0.0000    257.9111     73.3833    126.8669
   824.7500      0.0000    257.9125     71.8222    130.4284
   825.0000      0.0000    257.9355     70.2692    131.9421
   825.2500      0.0000    257.9803     68.6955    130.2996
   825.5000      0.0000    258.0396     67.0128    125.7417
   825.7500      0.0000    258.1190     65.3334    120.0856
   826.0000      0.0000    258.2102     63.9596    115.7332
   826.2500      0.0000    258.2743     63.0671    114.3491
   826.5000      0.0000    258.2785     62.4299    116.0015
   826.7500      0.0000    258.2487     61.3866    119.2888
   827.0000      0.0000    258.2938     59.1419    122.5901
   827.2500      0.0000    258.5651     55.4228    125.5397
   827.5000      0.0000    259.1395     50.9465    129.0702
   827.7500      0.0000    260.0398     47.0393    133.8170
   828.0000      0.0000    261.6342     44.5800    138.7075
   828.2500      0.0000    264.7072     43.3305    141.5196
   828.5000      0.0000    268.9738     42.4847    140.8646
   828.7500      0.0000    272.3358     41.5208    137.2293
   829.0000      0.0000    274.4890     40.0598    132.0225
   829.2500      0.0000    278.7016     37.5309    126.3190
   829.5000      0.0000    286.1853     33.7746    120.8671
   829.7500      0.0000    293.5617     29.5304    116.4109
   830.0000      0.0000    298.1960     25.8173    113.0441
   830.2500      0.0000    302.1077     23.2305    109.5451
   830.5000      0.0000    313.2336     21.8260    104.1739
   830.7500      0.0000    346.2190     21.0528     96.2793
   831.0000      0.0000    411.8385     19.9203     86.8487
   831.2500      0.0000    497.0813     17.8402     77.7063
   831.5000      0.0000    570.8035     15.1704     70.6642
   831.7500      0.0000    615.7455     12.6806     67.3741
   832.0000      0.0000    638.6680     10.9447     69.1235
   832.2500      0.0000    653.3221     10.3092     75.9537
   832.5000      0.0000    664.7238     10.8667     85.9440
   832.7500      0.0000    666.5259     12.3784     96.1145
   833.0000      0.0000    651.4416     14.4470    104.5816
   833.2500      0.0000    612.8386     16.7655    111.6128
   833.5000      0.0000    540.8628     19.2732    118.4028
   833.7500      0.0000    445.0445     22.2264    125.3453
   834.0000      0.0000    361.4994     26.0902    131.5977
   834.2500      0.0000    312.4785     31.1993    135.6657
   834.5000      0.0000    288.4966     37.5526    136.3896
   834.7500      0.0000    274.2849     44.9508    133.9575
   835.0000      0.0000    264.9571     52.9645    129.9218
   835.2500      0.0000    260.1533     60.6316    126.0079
   835.5000      0.0000    258.4380     66.7390    123.1007
   835.7500      0.0000    258.0230     70.7077    121.0959
   836.0000      0.0000    257.9626     72.8555    119.0724
   836.2500      0.0000    257.9582     73.8079    115.8540
   836.5000      0.0000    257.9533     73.9829    111.1627
   836.7500      0.0000    257.9493     73.5520    106.2566
   837.0000      0.0000    257.9564     72.6778    103.1894
   837.2500      0.0000    257.9753     71.6903    103.3516
