~Version Information
VERS.                      2.0: CWLS Log ASCII Standard - VERSION 2.0
WRAP.                       NO: One line per depth step
~Well Information Block
STRT.FT                -8.2500: 
STOP.FT              1653.2500: 
STEP.FT                 0.2500: 
NULL.                -999.2500: 
COMP.          Pioneer Natural Resources: COMPANY
WELL.            Relay 12-7 Tr: WELL
FLD.           Purgatorie River: FIELD
LOC.           2025' FNL & 790' FWL--: LOCATION
PROV.                       CO: PROVINCE
CNTY.               Las Animas: COUNTRY
SRVC.          Patterson Wireline: SERVICE COMPANY
DATE.          Tue Jan 24 10:25:08 2006: LOG DATE
UWI.           05 071 08603 00: UNIQUE WELL ID
~Curve Information Block
DEPT.FT            0 000 00 00: Depth
CCL.                          : Casing Collar Locator
TT3.usec                      : CBL 3' Travel Time
AMP3.mV                       : CBL 3' Amplitude
GR.GAPI                       : Gamma Ray
~Parameter Information Block
~A  Depth       CCL         TT3         AMP3         GR     
# ...
  1197.7500      0.0000    671.4992      5.9547    122.8880
  1198.0000      0.0000    672.2714      5.9183    123.8907
  1198.2500      0.0000    672.3785      5.8147    124.6203
  1198.5000      0.0000    672.1861      5.6772    125.8480
  1198.7500      0.0000    671.9130      5.5506    127.4544
  1199.0000      0.0000    671.7341      5.4629    127.8775
  1199.2500      0.0000    671.7724      5.4202    125.3329
  1199.5000      0.0000    672.0378      5.4177    119.8868
  1199.7500      0.0000    672.4236      5.4451    114.1565
  1200.0000      0.0000    672.7781      5.4818    111.7823
  1200.2500      0.0000    673.0106      5.4993    114.9677
  1200.5000      0.0000    673.1340      5.4787    123.1423
  1200.7500      0.0000    673.0993      5.4262    133.5557
  1201.0000      0.0000    672.5202      5.3701    142.9417
  1201.2500      0.0000    670.4447      5.3412    148.9363
  1201.5000      0.0000    665.5035      5.3580    150.7263
  1201.7500      0.0000    656.5056      5.4238    148.9435
  1202.0000      0.0000    643.0088      5.5300    144.9922
  1202.2500      0.0000    625.2892      5.6535    140.2648
  1202.5000      0.0000    604.2213      5.7594    135.7878
  1202.7500      0.0000    581.9187      5.8202    132.2557
  1203.0000      0.0000    562.0858      5.8351    130.0343
  1203.2500      0.0000    548.4852      5.8250    128.9534
  1203.5000      0.0000    542.6164      5.8069    128.2350
  1203.7500      0.0000    543.3099      5.7752    126.8826
  1204.0000      0.0000    548.8001      5.7089    124.3848
  1204.2500      0.0000    558.7449      5.6026    121.0627
  1204.5000      0.0000    573.2299      5.4956    117.5656
  1204.7500      0.0000    589.2937      5.4557    113.9394
  1205.0000      0.0000    599.5332      5.5078    109.4178
  1205.2500      0.0000    595.6437      5.5940    103.2688
  1205.5000      0.0000    573.7150      5.6397     95.7119
  1205.7500      0.0000    536.3663      5.6439     87.8891
  1206.0000      0.0000    491.6598      5.6633     81.0557
  1206.2500      0.0000    451.5757      5.7220     75.9583
  1206.5000      0.0000    429.4304      5.7793     72.9599
  1206.7500      2.0000    434.0424      5.7803     72.3739
  1207.0000      0.0000    463.1891      5.7177     74.2973
  1207.2500      0.0000    503.5982      5.6444     78.2929
  1207.5000      0.0000    540.3802      5.6204     83.7740
  1207.7500      0.0000    567.8622      5.6404     90.7813
  1208.0000      0.0000    590.4073      5.6285     99.9266
  1208.2500      0.0000    613.4523      5.5316    111.1483
  1208.5000      0.0000    636.6274      5.3925    122.5492
  1208.7500      0.0000    656.0152      5.3025    130.7061
  1209.0000      0.0000    669.7218      5.3069    132.5182
  1209.2500      0.0000    678.8868      5.3828    127.1604
  1209.5000      0.0000    684.7286      5.4775    116.3759
  1209.7500      0.0000    687.0309      5.5441    102.8560
  1210.0000      0.0000    685.7567      5.5597     88.6562
  1210.2500      0.0000    682.7847      5.5310     75.2865
  1210.5000      0.0000    681.1749      5.4884     64.5209
  1210.7500      0.0000    683.2175      5.4678     58.0991
  1211.0000      0.0000    689.3567      5.4865     56.4898
  1211.2500      0.0000    698.3280      5.5267     58.3678
  1211.5000      0.0000    707.7963      5.5468     61.5920
  1211.7500      0.0000    715.2386      5.5204     64.7844
  1212.0000      0.0000    718.8011      5.4670     67.9527
  1212.2500      0.0000    717.7585      5.4382     71.6870
  1212.5000      0.0000    712.3826      5.4705     76.0774
  1212.7500      0.0000    703.3287      5.5511     80.4934
  1213.0000      0.0000    690.4918      5.6338     84.0534
  1213.2500      0.0000    672.3788      5.6914     86.0708
  1213.5000      0.0000    647.4937      5.7469     86.2551
  1213.7500      0.0000    616.9630      5.8435     84.7659
  1214.0000      0.0000    585.3928      5.9882     82.2980
  1214.2500      0.0000    559.2018      6.1370     79.9756
  1214.5000      0.0000    544.5334      6.2375     78.7808
  1214.7500      0.0000    545.3120      6.2725     78.9630
  1215.0000      0.0000    560.7454      6.2590     80.2439
  1215.2500      0.0000    584.4769      6.2204     82.4987
  1215.5000      0.0000    607.6899      6.1681     85.7892
  1215.7500      0.0000    624.3432      6.1062     89.7660
  1216.0000      0.0000    634.3920      6.0390     93.5807
  1216.2500      0.0000    642.1243      5.9714     96.4328
  1216.5000      0.0000    651.0802      5.9066     97.8270
  1216.7500      0.0000    661.1433      5.8510     97.5439
  1217.0000      0.0000    670.3491      5.8185     96.0693
  1217.2500      0.0000    677.7284      5.8223     95.0771
  1217.5000      0.0000    683.4210      5.8582     96.5586
  1217.7500      0.0000    687.4230      5.9001    100.6822
  1218.0000      0.0000    689.6756      5.9206    104.8103
  1218.2500      0.0000    691.0683      5.9172    105.4727
  1218.5000      0.0000    693.1450      5.9088    101.6299
  1218.7500      0.0000    696.5562      5.9086     95.6860
  1219.0000      0.0000    700.1862      5.9097     91.2015
  1219.2500      0.0000    701.7917      5.8999     89.9605
  1219.5000      0.0000    699.3380      5.8795     91.2426
  1219.7500      0.0000    692.3371      5.8581     93.2277
  1220.0000      0.0000    682.4668      5.8395     94.4525
  1220.2500      0.0000    672.5900      5.8141     94.0900
  1220.5000      0.0000    665.0449      5.7636     91.7585
  1220.7500      0.0000    661.0701      5.6751     87.6691
  1221.0000      0.0000    661.0266      5.5578     82.6866
  1221.2500      0.0000    664.0192      5.4451     77.9081
  1221.5000      0.0000    667.7881      5.3781     74.2670
  1221.7500      0.0000    670.1964      5.3875     72.5442
  1222.0000      0.0000    670.6946      5.4828     73.4319
  1222.2500      0.0000    669.8041      5.6499     77.2763
  1222.5000      0.0000    667.4094      5.8499     83.6868
  1222.7500      0.0000    662.2518      6.0251     91.6111
  1223.0000      0.0000    653.6847      6.1196    100.0257
  1223.2500      0.0000    644.0919      6.1078    108.4076
  1223.5000      0.0000    638.1423      6.0075    116.3065
  1223.7500      0.0000    637.8455      5.8636    122.8695
  1224.0000      0.0000    638.7620      5.7215    127.3984
  1224.2500      0.0000    633.3569      5.6147    130.1315
  1224.5000      0.0000    618.5201      5.5683    131.8176
  1224.7500      0.0000    598.6837      5.5995    132.6313
  1225.0000      0.0000    581.0235      5.7093    132.1351
  1225.2500      0.0000    568.7046      5.8766    130.2806
  1225.5000      0.0000    559.8963      6.0651    127.9608
  1225.7500      0.0000    552.9600      6.2370    126.5470
  1226.0000      0.0000    551.0759      6.3647    127.0585
  1226.2500      0.0000    560.0574      6.4323    129.5490
  1226.5000      0.0000    579.8571      6.4356    132.9412
  1226.7500      0.0000    598.9102      6.3845    135.5370
  1227.0000      0.0000    600.4901      6.3052    135.9150
  1227.2500      0.0000    576.9911      6.2304    133.4701
  1227.5000      0.0000    536.7492      6.1844    128.5747
  1227.7500      0.0000    496.1176      6.1749    122.6730
  1228.0000      0.0000    466.6219      6.1966    117.7749
  1228.2500      0.0000    450.0987      6.2373    115.1913
  1228.5000      0.0000    442.7344      6.2811    114.7416
  1228.7500      0.0000    440.8367      6.3110    115.3543
  1229.0000      0.0000    443.0319      6.3125    116.2724
  1229.2500      0.0000    448.6551      6.2786    117.3794
  1229.5000      0.0000    454.7284      6.2164    118.4822
  1229.7500      0.0000    455.4505      6.1477    118.8608
  1230.0000      0.0000    446.2018      6.0960    117.7271
  1230.2500      0.0000    428.3045      6.0683    114.8243
  1230.5000      0.0000    408.4972      6.0522    110.5691
  1230.7500      0.0000    393.4758      6.0331    106.0319
  1231.0000      0.0000    386.0698      6.0081    102.7937
