~Version Information
VERS.                      2.0: CWLS Log ASCII Standard - VERSION 2.0
WRAP.                       NO: One line per depth step
~Well Information Block
STRT.FT               655.0000: 
STOP.FT              2623.7500: 
STEP.FT                 0.2500: 
NULL.                -999.2500: 
COMP.          Pioneer Natural Resources: COMPANY
WELL.             Aviator 12-4: WELL
FLD.           Purgatoire River: FIELD
LOC.           1969' FNL & 732' FWL--: LOCATION
CNTY.               Las Animas: COUNTY
SRVC.                Patterson: SERVICE COMPANY
DATE.          Sun Apr 09 14:25:03 2006: LOG DATE
UWI.           05 071 08714 00: UNIQUE WELL ID
STAT.                 Colorado: STATE
~Curve Information Block
DEPT.FT            0 000 00 00: Depth
SN.Ohm-m                      : IEL Short Normal
SP.mV                         : IEL Spontaneous Potential
DIR.Ohm-m                     : IEL Induction Resistivity
GR.GAPI                       : Gamma Ray
~Parameter Information Block
~A  Depth        SN          SP         DIR          GR     
# ...
  2196.0000     14.3137     96.8599     12.6394    129.5001
  2196.2500     14.5194     96.7343     12.8374    132.4017
  2196.5000     14.7443     96.5578     13.0492    137.0441
  2196.7500     14.9739     96.3316     13.2771    139.5075
  2197.0000     15.2108     96.0599     13.5268    142.0069
  2197.2500     15.4700     95.7492     13.8036    143.1926
  2197.5000     15.7608     95.4084     14.1109    144.4254
  2197.7500     16.0927     95.0477     14.4493    144.3703
  2198.0000     16.4679     94.6782     14.8178    141.6894
  2198.2500     16.8663     94.3105     15.2134    138.0410
  2198.5000     17.2630     93.9547     15.6300    131.3528
  2198.7500     17.6517     93.6197     16.0580    127.4149
  2199.0000     18.0361     93.3126     16.4875    123.4899
  2199.2500     18.4100     93.0397     16.9131    122.0143
  2199.5000     18.7657     92.8062     17.3368    120.4811
  2199.7500     19.1087     92.6169     17.7657    119.3374
  2200.0000     19.4461     92.4761     18.2080    117.0049
  2200.2500     19.7719     92.3875     18.6679    115.2528
  2200.5000     20.0783     92.3532     19.1436    113.2074
  2200.7500     20.3766     92.3726     19.6263    112.6075
  2201.0000     20.6936     92.4410     20.1031    112.7277
  2201.2500     21.0502     92.5484     20.5596    113.1205
  2201.5000     21.4585     92.6794     20.9838    113.7993
  2201.7500     21.9374     92.8129     21.3726    114.4440
  2202.0000     22.5175     92.9241     21.7420    116.1110
  2202.2500     23.2351     92.9860     22.1339    117.6345
  2202.5000     24.1220     92.9724     22.6119    119.6530
  2202.7500     25.1885     92.8599     23.2437    120.0484
  2203.0000     26.4138     92.6306     24.0808    118.1451
  2203.2500     27.7693     92.2732     25.1434    115.0776
  2203.5000     29.2673     91.7838     26.4183    108.7244
  2203.7500     30.9788     91.1667     27.8697    104.2829
  2204.0000     33.0029     90.4332     29.4596     98.4576
  2204.2500     35.4345     89.6012     31.1672     95.1559
  2204.5000     38.3530     88.6931     33.0014     90.6131
  2204.7500     41.7919     87.7344     35.0016     87.6844
  2205.0000     45.6856     86.7505     37.2293     83.2121
  2205.2500     49.8513     85.7652     39.7462     79.9639
  2205.5000     54.0522     84.7987     42.5723     74.4914
  2205.7500     58.0730     83.8667     45.6347     70.5269
  2206.0000     61.7446     82.9803     48.7392     64.3607
  2206.2500     64.9582     82.1469     51.6014     60.3069
  2206.5000     67.6865     81.3712     53.9387     55.0112
  2206.7500     69.9712     80.6557     55.5758     52.5238
  2207.0000     71.8878     80.0018     56.5108     50.7489
  2207.2500     73.5271     79.4093     56.9134     50.5387
  2207.5000     74.9772     78.8765     57.0565     50.5686
  2207.7500     76.3001     78.3999     57.2084     50.4154
  2208.0000     77.5301     77.9754     57.5457     50.0226
  2208.2500     78.6774     77.5995     58.1241     49.7476
  2208.5000     79.7083     77.2711     58.9053     48.8986
  2208.7500     80.5299     76.9938     59.8057     47.7243
  2209.0000     81.0106     76.7768     60.7349     45.1094
  2209.2500     81.0290     76.6346     61.6079     43.1710
  2209.5000     80.5094     76.5855     62.3282     40.7811
  2209.7500     79.4366     76.6482     62.7673     39.9533
  2210.0000     77.8707     76.8380     62.7766     40.2664
  2210.2500     75.9527     77.1628     62.2398     41.4883
  2210.5000     73.8915     77.6199     61.1323     44.4779
  2210.7500     71.9338     78.1949     59.5420     47.0598
  2211.0000     70.2586     78.8621     57.6438     51.9395
  2211.2500     68.8357     79.5881     55.6472     56.1442
  2211.5000     67.4308     80.3364     53.7387     63.8377
  2211.7500     65.7684     81.0744     52.0399     69.0683
  2212.0000     63.6780     81.7782     50.5841     74.7517
  2212.2500     61.1340     82.4376     49.3197     76.2152
  2212.5000     58.2164     83.0572     48.1346     75.5387
  2212.7500     55.0686     83.6535     46.8993     74.4931
  2213.0000     51.8889     84.2505     45.5171     74.2699
  2213.2500     48.8885     84.8730     43.9536     75.5751
  2213.5000     46.2007     85.5395     42.2297     79.1559
  2213.7500     43.8309     86.2581     40.3898     81.9011
  2214.0000     41.7013     87.0242     38.4793     85.9412
  2214.2500     39.7385     87.8213     36.5421     88.8496
  2214.5000     37.9137     88.6245     34.6248     94.2396
  2214.7500     36.2173     89.4057     32.7752     98.5038
  2215.0000     34.6226     90.1388     31.0327    105.0072
  2215.2500     33.0879     90.8043     29.4236    108.6295
  2215.5000     31.5894     91.3918     27.9650    111.7478
  2215.7500     30.1409     91.9008     26.6717    112.0509
  2216.0000     28.7768     92.3396     25.5592    110.9986
  2216.2500     27.5264     92.7228     24.6391    110.6124
  2216.5000     26.4042     93.0682     23.9108    112.2161
  2216.7500     25.4117     93.3936     23.3549    114.6290
  2217.0000     24.5468     93.7153     22.9332    118.2904
  2217.2500     23.8169     94.0458     22.5941    119.5308
  2217.5000     23.2209     94.3941     22.2819    119.2202
  2217.7500     22.7211     94.7650     21.9459    118.3935
  2218.0000     22.2521     95.1598     21.5483    117.7973
  2218.2500     21.7536     95.5767     21.0711    118.1467
  2218.5000     21.1912     96.0110     20.5214    119.4805
  2218.7500     20.5710     96.4564     19.9270    120.6082
  2219.0000     19.9362     96.9051     19.3223    122.1054
  2219.2500     19.3330     97.3490     18.7314    122.6236
  2219.5000     18.7856     97.7797     18.1635    122.3204
  2219.7500     18.3042     98.1898     17.6207    121.4262
  2220.0000     17.8911     98.5735     17.1099    119.2208
  2220.2500     17.5352     98.9271     16.6463    117.2050
  2220.5000     17.2142     99.2501     16.2455    113.4814
  2220.7500     16.9033     99.5450     15.9107    110.8438
  2221.0000     16.5736     99.8177     15.6245    107.7409
  2221.2500     16.1902    100.0767     15.3495    106.9802
  2221.5000     15.7203    100.3311     15.0370    108.3554
  2221.7500     15.1516    100.5892     14.6439    110.5327
  2222.0000     14.5090    100.8568     14.1489    114.2327
  2222.2500     13.8455    101.1353     13.5608    116.3525
  2222.5000     13.2105    101.4215     12.9130    118.7215
  2222.7500     12.6309    101.7083     12.2487    119.6591
  2223.0000     12.1147    101.9858     11.6058    119.5560
  2223.2500     11.6589    102.2436     11.0073    118.4167
  2223.5000     11.2542    102.4720     10.4601    116.5956
  2223.7500     10.8886    102.6639      9.9599    116.8085
  2224.0000     10.5448    102.8143      9.4989    120.5637
  2224.2500     10.2016    102.9204      9.0723    124.4783
  2224.5000      9.8473    102.9807      8.6805    129.1976
  2224.7500      9.4897    102.9945      8.3277    130.1883
  2225.0000      9.1543    102.9619      8.0183    128.8574
  2225.2500      8.8754    102.8849      7.7550    127.4636
  2225.5000      8.6803    102.7676      7.5377    126.4032
  2225.7500      8.5852    102.6178      7.3640    126.4064
  2226.0000      8.5914    102.4469      7.2294    126.8342
  2226.2500      8.6668    102.2697      7.1276    127.4025
  2226.5000      8.7521    102.1031      7.0509    129.1025
  2226.7500      8.7978    101.9636      6.9897    130.6785
  2227.0000      8.7813    101.8651      6.9347    132.8814
  2227.2500      8.6996    101.8166      6.8779    134.0682
  2227.5000      8.5687    101.8196      6.8145    136.0184
  2227.7500      8.4187    101.8674      6.7437    137.6893
  2228.0000      8.2728    101.9453      6.6684    140.0140
  2228.2500      8.1452    102.0313      6.5947    140.4991
  2228.5000      8.0559    102.0983      6.5312    138.3934
  2228.7500      8.0311    102.1172      6.4866    135.2344
  2229.0000      8.0887    102.0591      6.4682    129.5962
  2229.2500      8.2227    101.8980      6.4810    126.3411
