~Version Information
 VERS.                                  2.0 : CWLS LAS VERSION
 WRAP.                                   NO : WRAPING MODE
 SWARE .                 MController 2.5.0J : SOFTWARE VERSION
~Well Information
 WELL.                     Montoya 18-11V B : WELL
 COMP.                 Petrogulf Corporation: COMPANY
 FLD.                      Purgatoire River : FIELD
 LOC.                NW/NW Sec 18 T33S R67W : LOCATION
 DATE.                            10/3-4/05 : DATE(S) LOGGED
 SRVC.       BLANCO Geological Services LLC : SERVICE COMPANY
 STAT.                                   CO : STATE
 CNTY.                           Las Animas : COUNTY
 CTRY.                                  USA : COUNTRY
 API.                       05-071-08539-00 : API NUMBER
 STRT.FT                              86.00 : START DEPTH
 STOP.FT                            2495.00 : STOP DEPTH
 STEP.FT                               1.00 : DEPTH INCREMENT
 NULL.                                9999 : NULL VALUE
~Curve information
 DEPTH.FT                                   :
 ROP.MIN/FT                                 :
 GAS.UNITS                                  :
~ASCII Log data 
# ...
      2286.0         0.47         60.0 
      2287.0         0.68         55.4 
      2288.0         0.57         49.3 
      2289.0         0.57         46.3 
      2290.0         0.43         43.1 
      2291.0         0.53         41.3 
      2292.0         0.47         38.8 
      2293.0         0.48         38.1 
      2294.0         0.43         37.8 
      2295.0         0.40         37.6 
      2296.0         0.33         37.4 
      2297.0         0.43         37.5 
      2298.0         0.40         37.4 
      2299.0         0.43         37.8 
      2300.0         0.52         38.4 
      2301.0         0.53         38.4 
      2302.0         0.27         37.5 
      2303.0         0.27         37.5 
      2304.0         0.37         37.2 
      2305.0         0.30         37.1 
      2306.0         0.40         37.3 
      2307.0         0.37         37.2 
      2308.0         0.40         37.1 
      2309.0         0.45         37.3 
      2310.0         0.47         35.8 
      2311.0         0.37         30.3 
      2312.0         0.37         30.4 
      2313.0         0.27         33.1 
      2314.0         2.72         77.8 
      2315.0         0.43         76.0 
      2316.0         0.37         67.7 
      2317.0         0.30         60.1 
      2318.0         0.37         55.4 
      2319.0         0.37         51.5 
      2320.0         0.35         52.7 
      2321.0         0.47         52.7 
      2322.0         0.73         51.5 
      2323.0         0.57         49.9 
      2324.0         0.50         56.2 
      2325.0         0.40         55.3 
      2326.0         0.27         49.7 
      2327.0         0.10         47.7 
      2328.0         0.22         49.9 
      2329.0         0.20         50.8 
      2330.0         0.27         50.3 
      2331.0         0.33         47.8 
      2332.0         0.33         45.4 
      2333.0         0.13         43.7 
      2334.0         0.37         43.7 
      2335.0         0.37         44.0 
      2336.0         0.37         45.0 
      2337.0         0.33         45.2 
      2338.0         0.33         44.7 
      2339.0         0.45         43.5 
      2340.0         0.70         43.0 
      2341.0         0.63         41.7 
      2342.0         0.67         31.5 
      2343.0         0.43         31.8 
      2344.0         3.78         73.1 
      2345.0         0.18         59.5 
      2346.0         0.23         58.0 
      2347.0         0.23         57.9 
      2348.0         0.40         57.3 
      2349.0         0.60         55.7 
      2350.0         0.57         56.9 
      2351.0         0.57         57.2 
      2352.0         0.20         50.1 
      2353.0         0.42         47.4 
      2354.0         0.57         44.0 
      2355.0         0.73         39.6 
      2356.0         0.47         37.8 
      2357.0         0.43         39.2 
      2358.0         0.30         38.8 
      2359.0         0.27         38.4 
      2360.0         0.23         38.3 
      2361.0         0.48         39.1 
      2362.0         0.40         39.5 
      2363.0         0.37         40.1 
      2364.0         0.37         41.3 
      2365.0         0.37         41.4 
      2366.0         0.40         40.3 
      2367.0         0.47         39.6 
      2368.0         0.43         38.9 
      2369.0         0.42         38.8 
      2370.0         0.47         65.4 
      2371.0         0.43         66.5 
      2372.0         0.47         50.9 
      2373.0         0.43         41.9 
      2374.0       325.97       8494.6 
      2375.0         5.80         48.6 
      2376.0         0.77         33.2 
      2377.0         0.77         30.4 
      2378.0         0.85         26.8 
      2379.0         0.80         25.7 
      2380.0         0.73         25.2 
      2381.0         0.83         25.8 
      2382.0         0.82         26.3 
      2383.0         0.73         26.7 
      2384.0         0.70         26.9 
      2385.0         0.80         26.8 
      2386.0         0.77         26.7 
      2387.0         0.78         26.7 
      2388.0         0.73         26.9 
      2389.0         0.77         27.4 
      2390.0         0.78         27.4 
      2391.0         3.45         92.8 
      2392.0         0.57         35.7 
      2393.0         0.73         39.3 
      2394.0         0.60         40.3 
      2395.0         0.75         39.8 
      2396.0         0.57         38.4 
      2397.0         0.60         34.6 
      2398.0         0.57         31.8 
      2399.0         0.60         30.5 
      2400.0         0.62         29.8 
      2401.0         0.53         28.6 
      2402.0         0.60         28.0 
      2403.0         0.53         27.9 
      2404.0         0.57         28.1 
      2405.0         0.62         28.3 
      2406.0         0.57         28.8 
      2407.0         0.60         29.0 
      2408.0         0.57         29.1 
      2409.0         0.65         29.2 
      2410.0         0.60         29.1 
      2411.0         0.60         29.1 
      2412.0         0.60         28.9 
      2413.0         0.63         28.6 
      2414.0         0.58         28.0 
      2415.0         0.57         28.0 
      2416.0         0.70         27.8 
      2417.0         0.53         27.7 
      2418.0         0.47         27.7 
      2419.0         0.55         28.1 
      2420.0         0.50         27.9 
      2421.0         6.13        174.6 
      2422.0         0.87         41.5 
      2423.0         0.72         35.3 
      2424.0         0.83         37.4 
      2425.0         0.67         37.5 
      2426.0         0.63         35.7 
      2427.0         0.73         31.3 
      2428.0         0.75         29.9 
      2429.0         0.70         29.5 
      2430.0         0.67         29.7 
      2431.0         0.70         29.9 
      2432.0         0.68         29.4 
      2433.0         0.67         28.8 
      2434.0         0.67         28.3 
      2435.0         0.67         27.7 
      2436.0         0.82         26.7 
      2437.0         0.80         25.8 
      2438.0         0.67         25.4 
      2439.0         0.77         25.1 
      2440.0         0.82         25.0 
      2441.0         0.73         25.2 
      2442.0         0.70         25.7 
      2443.0         0.77         26.3 
      2444.0         0.78         26.9 
      2445.0         0.77         27.5 
      2446.0         0.67         27.9 
      2447.0         0.80         28.5 
      2448.0         0.92         29.2 
      2449.0         0.80         29.6 
      2450.0         0.73         31.3 
      2451.0         6.30        243.8 
      2452.0         0.65         44.4 
      2453.0         0.70         43.9 
      2454.0         0.70         37.5 
      2455.0         0.47         34.4 
      2456.0         0.50         32.9 
      2457.0         0.45         32.7 
      2458.0         0.43         32.9 
      2459.0         0.47         33.8 
      2460.0         0.50         33.8 
      2461.0         0.43         34.2 
      2462.0         0.67         34.5 
      2463.0         0.75         34.7 
      2464.0         0.53         34.4 
      2465.0         0.57         34.0 
      2466.0         0.50         33.4 
      2467.0         0.43         32.7 
      2468.0         0.47         32.5 
      2469.0         0.58         31.8 
      2470.0         0.53         31.6 
      2471.0         0.47         32.0 
      2472.0         0.53         32.0 
      2473.0         0.50         31.8 
      2474.0         0.43         31.8 
      2475.0         0.58         31.9 
      2476.0         0.50         32.6 
      2477.0         0.50         32.7 
      2478.0         0.50         33.0 
      2479.0         0.40         33.0 
      2480.0         0.33         32.9 
      2481.0         5.95        197.9 
      2482.0         0.83         44.3 
      2483.0         0.60         46.8 
      2484.0         0.50         46.0 
      2485.0         0.57         44.8 
