~Version Information
VERS.                      2.0: CWLS Log ASCII Standard - VERSION 2.0
WRAP.                       NO: One line per depth step
~Well Information Block
STRT.FT               330.0000: 
STOP.FT              2874.7000: 
STEP.FT                 0.1000: 
NULL.                -999.2500: 
COMP.          Pioneer Natural Resources: COMPANY
WELL.                AMX 13-13: WELL
FLD.           Purgatoire River: FIELD
LOC.           2316' FSL & 865' FWL--: LOCATION
PROV.                 Colorado: PROVINCE
CNTY.               Las Animas: COUNTRY
SRVC.                Patterson: SERVICE COMPANY
DATE.          Tue Dec 20 09:57:28 2005: LOG DATE
UWI.           05 071 08630 00: UNIQUE WELL ID
~Curve Information Block
DEPT.FT            0 000 00 00: Depth
DCAL.in                       : CDL Caliper
RHOB.g/cc                     : CDL Bulk Density
RHOC.g/cc                     : CDL Density Correction
DPOR.pu                       : CDL Density Porosity
NPOR.pu                       : Neutron Porosity
GR.GAPI                       : Gamma Ray
~Parameter Information Block
~A  Depth       DCAL        RHOB        RHOC        DPOR        NPOR         GR     
# ...
   829.2000      8.0899      2.5855      0.0233      3.9089     25.5095    124.6397
   829.3000      8.0987      2.5553      0.0441      5.7405     26.1080    121.5405
   829.4000      8.0987      2.5433      0.0331      6.4685     26.4326    120.7332
   829.5000      8.1047      2.5339      0.0592      7.0381     26.2312    125.8039
   829.6000      8.1047      2.5211      0.0422      7.8095     25.9012    134.5806
   829.7000      8.1047      2.5081      0.0263      8.5991     25.7407    141.3611
   829.8000      8.1073      2.5043     -0.0001      8.8301     25.7878    141.2558
   829.9000      8.1073      2.5184      0.0289      7.9742     25.7463    137.2496
   830.0000      8.1071      2.5381      0.0708      6.7831     25.2939    135.6567
   830.1000      8.1071      2.5443      0.0044      6.4082     24.7170    134.0919
   830.2000      8.1071      2.5367      0.0339      6.8651     24.6420    130.8448
   830.3000      8.1054      2.5224      0.0713      7.7303     25.1326    128.1522
   830.4000      8.1054      2.5059      0.0354      8.7308     25.5725    125.3871
   830.5000      8.1058      2.4925      0.0173      9.5484     25.5310    123.7244
   830.6000      8.1058      2.4907      0.0271      9.6548     25.3315    125.3817
   830.7000      8.1058      2.5092      0.0319      8.5314     25.3268    128.0665
   830.8000      8.1083      2.5404      0.1001      6.6395     25.3735    129.9349
   830.9000      8.1083      2.5638      0.0972      5.2229     25.3655    132.7616
   831.0000      8.1092      2.5678      0.0907      4.9814     25.3931    136.8501
   831.1000      8.1092      2.5581      0.0887      5.5695     25.3753    139.0712
   831.2000      8.1092      2.5584      0.0409      5.5528     25.2230    135.9959
   831.3000      8.1078      2.5881      0.0738      3.7503     24.9754    128.1947
   831.4000      8.1078      2.6238      0.1539      1.5895     24.6806    119.0404
   831.5000      8.1075      2.6316      0.1322      1.1154     24.3360    110.4825
   831.6000      8.1075      2.6301      0.0806      1.2073     23.8911    105.7621
   831.7000      8.1075      2.6495      0.1391      0.0319     23.5509    106.6751
   831.8000      8.1094      2.6721      0.1431     -1.3394     23.7831    110.4855
   831.9000      8.1094      2.6698      0.1174     -1.2019     24.5812    115.3374
   832.0000      8.1109      2.6454      0.0668      0.2809     25.4163    120.4434
   832.1000      8.1109      2.6121      0.0730      2.2960     25.8239    123.8097
   832.2000      8.1109      2.5849     -0.0043      3.9459     25.8202    123.0642
   832.3000      8.1133      2.5827      0.0130      4.0791     25.8855    119.8995
   832.4000      8.1133      2.6029      0.0510      2.8542     26.3794    117.7154
   832.5000      8.1211      2.6255      0.0398      1.4868     27.2055    115.6721
   832.6000      8.1211      2.6384      0.1028      0.7001     27.8542    114.7822
   832.7000      8.1211      2.6403      0.0578      0.5850     28.0915    116.9732
   832.8000      8.1321      2.6361      0.0269      0.8454     28.3834    117.6999
   832.9000      8.1321      2.6211      0.0625      1.7531     28.9589    115.1655
   833.0000      8.1412      2.5923     -0.0070      3.4945     29.3847    115.5818
   833.1000      8.1412      2.5712     -0.0358      4.7752     29.2596    122.0059
   833.2000      8.1412      2.5704      0.0337      4.8257     28.6301    129.6290
   833.3000      8.1513      2.5765     -0.0234      4.4544     27.8455    134.8647
   833.4000      8.1513      2.5844     -0.0026      3.9731     27.5566    138.6533
   833.5000      8.1624      2.5939      0.0236      3.4025     27.7893    142.7252
   833.6000      8.1624      2.5927      0.0378      3.4729     27.6959    146.2645
   833.7000      8.1624      2.5797      0.0159      4.2609     27.0469    145.9620
   833.8000      8.1717      2.5792     -0.0104      4.2905     26.4181    141.2476
   833.9000      8.1717      2.6062      0.0582      2.6537     26.1644    136.2438
   834.0000      8.1785      2.6394      0.0590      0.6398     26.4142    134.8860
   834.1000      8.1785      2.6514      0.0668     -0.0821     26.9862    136.8563
   834.2000      8.1785      2.6383      0.0406      0.7113     27.2298    139.0118
   834.3000      8.1777      2.6197      0.0146      1.8356     27.0322    138.3833
   834.4000      8.1777      2.6114      0.0619      2.3407     26.8611    135.3732
   834.5000      8.1638      2.6172      0.0110      1.9896     26.8685    133.5333
   834.6000      8.1638      2.6334      0.0496      1.0043     26.7671    132.9088
   834.7000      8.1638      2.6433      0.0648      0.4068     26.5286    128.5092
   834.8000      8.1460      2.6378      0.0721      0.7416     26.5626    123.2781
   834.9000      8.1460      2.6319      0.0222      1.0989     26.9190    123.5461
   835.0000      8.1384      2.6384      0.0415      0.7044     27.3142    124.4139
   835.1000      8.1384      2.6480      0.0395      0.1228     27.6916    121.9949
   835.2000      8.1384      2.6483      0.0418      0.1006     27.9161    120.5238
   835.3000      8.1386      2.6381      0.0142      0.7197     27.8520    124.0198
   835.4000      8.1386      2.6213      0.0049      1.7372     27.5805    131.0848
   835.5000      8.1402      2.6041      0.0244      2.7837     27.2184    136.3039
   835.6000      8.1402      2.5966     -0.0042      3.2359     26.8796    137.8761
   835.7000      8.1402      2.6042      0.0533      2.7776     26.5998    137.9322
   835.8000      8.1413      2.6136      0.0577      2.2065     26.5390    137.4511
   835.9000      8.1413      2.6071      0.0217      2.6019     26.7581    136.6014
   836.0000      8.1419      2.5853      0.0004      3.9236     26.9173    138.8511
   836.1000      8.1419      2.5663     -0.0071      5.0727     26.7442    143.4416
   836.2000      8.1419      2.5592      0.0146      5.5023     26.2051    143.0531
   836.3000      8.1418      2.5537      0.0130      5.8362     25.5664    138.3234
   836.4000      8.1418      2.5447     -0.0044      6.3843     25.3269    135.0119
   836.5000      8.1401      2.5409      0.0024      6.6117     25.4691    132.5021
   836.6000      8.1401      2.5502     -0.0278      6.0461     25.4707    129.8333
   836.7000      8.1401      2.5633      0.0227      5.2526     25.1602    128.9730
   836.8000      8.1391      2.5696     -0.0129      4.8751     24.7157    128.1992
   836.9000      8.1391      2.5830      0.0042      4.0630     24.2384    124.7860
   837.0000      8.1420      2.6033      0.0887      2.8297     23.7261    122.2883
   837.1000      8.1420      2.6025      0.0757      2.8770     23.3867    128.4061
   837.2000      8.1420      2.5811      0.0031      4.1757     23.6262    141.4941
   837.3000      8.1549      2.5673      0.0067      5.0103     24.1382    151.1363
   837.4000      8.1549      2.5719      0.0139      4.7311     24.2900    152.0224
   837.5000      8.1851      2.5847      0.0334      3.9593     24.3862    145.7559
   837.6000      8.1851      2.5936      0.0534      3.4192     24.5479    137.2066
   837.7000      8.1851      2.5922      0.0454      3.5007     24.2212    132.0730
   837.8000      8.2199      2.5817      0.0347      4.1365     23.5167    131.7484
   837.9000      8.2199      2.5756     -0.0179      4.5078     23.0629    134.3479
   838.0000      8.2369      2.5890      0.0179      3.6990     23.1650    134.9359
   838.1000      8.2369      2.6103      0.0723      2.4091     23.5958    129.8471
   838.2000      8.2369      2.6156      0.0443      2.0837     23.7900    123.7224
   838.3000      8.2405      2.6048      0.0210      2.7422     23.5447    120.5077
   838.4000      8.2405      2.5954      0.0012      3.3096     23.3569    119.5269
   838.5000      8.2407      2.5949      0.0256      3.3377     23.4878    121.6061
   838.6000      8.2407      2.5936      0.0010      3.4204     23.7271    126.4056
   838.7000      8.2407      2.5910      0.0089      3.5736     24.1395    126.7540
