~Version Information
VERS.                      2.0: CWLS Log ASCII Standard - VERSION 2.0
WRAP.                       NO: One line per depth step
~Well Information Block
STRT.FT                 0.0000: 
STOP.FT               712.5000: 
STEP.FT                 0.2500: 
NULL.                -999.2500: 
COMP.          Pioneer Natural Resources: COMPANY
WELL.                Mia 21-18: WELL
FLD.           Purgatorie River: FIELD
LOC.           1067' FNL & 1824' FWL: LOCATION
PROV.                 Colorado: PROVINCE
CNTY.               Las Animas: COUNTRY
SRVC.                Patterson: SERVICE COMPANY
DATE.          Mon Nov 28 13:12:22 2005: LOG DATE
UWI.           05-071-08559               : UNIQUE WELL ID
~Curve Information Block
DEPT.FT            0 000 00 00: Depth
CCL.                          : Casing Collar Locator
TT3.usec                      : CBL 3' Travel Time
AMP3.mV                       : CBL 3' Amplitude
GR.GAPI                       : Gamma Ray
~Parameter Information Block
~A  Depth       CCL         TT3         AMP3         GR     
# ...
   636.5000      0.0000    685.9327      9.6060     57.4655
   636.7500      0.0000    656.7111      9.6141     56.6554
   637.0000      0.0000    600.0136     10.3525     54.4170
   637.2500      0.0000    527.1254     12.2373     51.7860
   637.5000      0.0000    495.1788     14.3982     49.7541
   637.7500      0.0000    535.6697     15.4713     48.6681
   638.0000      0.0000    614.2239     15.3743     48.4504
   638.2500      0.0000    678.2714     15.0217     48.9725
   638.5000      0.0000    709.3877     14.9880     50.1355
   638.7500      0.0000    718.9715     15.1542     51.8350
   639.0000      0.0000    720.8833     15.1839     53.9683
   639.2500      0.0000    721.1463     15.0049     56.3255
   639.5000      0.0000    721.1437     14.8002     58.3633
   639.7500      0.0000    721.0478     14.7396     59.3559
   640.0000      0.0000    720.8846     14.8592     59.0367
   640.2500      0.0000    720.6771     15.1181     57.8714
   640.5000      0.0000    720.4408     15.4985     56.5027
   640.7500      0.0000    720.2081     16.0212     55.2493
   641.0000      0.0000    720.0917     16.6762     54.2888
   641.2500      0.0000    720.2263     17.3787     53.8875
   641.5000      0.0000    720.5801     18.0018     54.2171
   641.7500      0.0000    720.9548     18.4518     55.1385
   642.0000      0.0000    721.1938     18.7497     56.2476
   642.2500      0.0000    721.2761     18.9966     57.0933
   642.5000      0.0000    721.2604     19.2312     57.4539
   642.7500      0.0000    721.2175     19.4119     57.5389
   643.0000      0.0000    721.1807     19.5072     57.8792
   643.2500      0.0000    721.0150     19.5143     58.8684
   643.5000      0.0000    720.0782     19.4480     60.3737
   643.7500      0.0000    717.3039     19.3323     61.9380
   644.0000      0.0000    712.7619     19.1837     63.3851
   644.2500      0.0000    707.2933     19.0361     64.9807
   644.5000      0.0000    694.1743     18.9755     66.7759
   644.7500      0.0000    652.6624     19.1347     67.9440
   645.0000      0.0000    566.9094     19.6425     67.1861
   645.2500      0.0000    457.1953     20.5518     64.0013
   645.5000      0.0000    368.3775     21.7998     59.4345
   645.7500      0.0000    322.2356     23.2304     55.3383
   646.0000      0.0000    306.5768     24.7125     52.9273
   646.2500      0.0000    302.8439     26.2496     52.2175
   646.5000      0.0000    301.9285     27.9103     52.6505
   646.7500      0.0000    301.4312     29.6909     53.7569
   647.0000      0.0000    300.9841     31.5022     55.2129
   647.2500      0.0000    300.5796     33.2327     56.7838
   647.5000      0.0000    300.2500     34.8028     58.5303
   647.7500      0.0000    299.9930     36.1631     60.9865
   648.0000      0.0000    299.7926     37.2562     64.8765
   648.2500      0.0000    299.6552     38.0270     70.3474
   648.5000      0.0000    299.6052     38.4306     76.3480
   648.7500      0.0000    299.6627     38.4265     80.9087
   649.0000      0.0000    299.8187     38.0381     82.2546
   649.2500      0.0000    300.0171     37.3431     79.9208
   649.5000      0.0000    300.1758     36.3439     75.0834
   649.7500      0.0000    300.2567     34.9543     69.7359
   650.0000      0.0000    300.3205     33.1798     65.2280
   650.2500      0.0000    300.4597     31.2912     61.4813
   650.5000      0.0000    300.6750     29.7128     57.6890
   650.7500      0.0000    300.8854     28.6651     53.6870
   651.0000      0.0000    301.0435     28.0468     50.4294
   651.2500      0.0000    301.1563     27.6667     49.1506
   651.5000      0.0000    301.2247     27.4299     50.2074
   651.7500      0.0000    301.2478     27.3567     52.7610
   652.0000      0.0000    301.2406     27.5506     55.5057
   652.2500      0.0000    301.2095     28.0822     57.6568
   652.5000      0.0000    301.1598     28.8347     59.2170
   652.7500      0.0000    301.1118     29.5443     60.4404
   653.0000      0.0000    301.0606     30.0540     61.2982
   653.2500      0.0000    300.9586     30.4401     61.4840
   653.5000      0.0000    300.7803     30.8160     60.7509
   653.7500      0.0000    300.5678     31.1353     59.2723
   654.0000      0.0000    300.3951     31.2893     57.8155
   654.2500      0.0000    300.3064     31.2843     57.4800
   654.5000      0.0000    300.2918     31.2295     59.0607
   654.7500      0.0000    300.3041     31.2142     62.3966
   655.0000      0.0000    300.2921     31.2534     66.1867
   655.2500      0.0000    300.2358     31.3157     68.7666
   655.5000      0.0000    300.1733     31.2958     69.4319
   655.7500      0.0000    300.1796     31.0035     68.7762
   656.0000      0.0000    300.2820     30.3746     67.5757
   656.2500      0.0000    300.4200     29.6009     65.8177
   656.5000      0.0000    300.5218     28.8965     63.0717
   656.7500      0.0000    300.5934     28.2834     59.5172
   657.0000      0.0000    300.6934     27.6700     56.3245
   657.2500      0.0000    300.8439     27.0041     54.9045
   657.5000      0.0000    301.0115     26.3351     55.7823
   657.7500      0.0000    301.1655     25.7608     58.3726
   658.0000      0.0000    301.3223     25.2859     61.8499
   658.2500      0.0000    301.5260     24.7844     66.0223
   658.5000      0.0000    301.7858     24.1803     71.5064
   658.7500      0.0000    302.0603     23.5687     79.3987
   659.0000      0.0000    302.3116     23.0738     90.5057
   659.2500      0.0000    302.5353     22.7117    104.0895
   659.5000      0.0000    302.7466     22.4079    117.1911
   659.7500      0.0000    303.0179     22.0468    125.7156
   660.0000      0.0000    303.7385     21.5451    126.6645
   660.2500      0.0000    307.2428     20.9250    119.7053
   660.5000      0.0000    322.5855     20.2867    107.0813
   660.7500      0.0000    368.4653     19.7048     92.2634
   661.0000      0.0000    457.4625     19.1881     78.3333
   661.2500      0.0000    568.4880     18.7486     67.0362
   661.5000      0.0000    657.4616     18.4318     58.9210
   661.7500      0.0000    703.2688     18.2395     54.0105
   662.0000      0.0000    718.0358     18.1100     52.0370
   662.2500      0.0000    718.0105     18.0102     52.1171
   662.5000      0.0000    703.2545     17.9835     52.7304
   662.7500      0.0000    657.5872     18.0884     52.4919
   663.0000      0.0000    568.8497     18.3214     51.0665
   663.2500      0.0000    458.0769     18.6373     49.2678
   663.5000      0.0000    369.2780     19.0108     48.2126
   663.7500      0.0000    323.5050     19.4248     48.2785
   664.0000      0.0000    308.1850     19.8518     48.8338
   664.2500      0.0000    304.6409     20.2848     48.9723
   664.5000      0.0000    303.8543     20.7178     48.3911
   664.7500      0.0000    303.5541     21.1014     47.5037
   665.0000      0.0000    303.3937     21.3927     46.9233
   665.2500      0.0000    303.3027     21.6182     47.0881
   665.5000      0.0000    303.2615     21.8216     48.2275
   665.7500      0.0000    303.2750     21.9741     50.3243
   666.0000      0.0000    303.3673     21.9946     52.9803
   666.2500      0.0000    303.5586     21.8528     55.4688
   666.5000      0.0000    303.8234     21.5977     57.1139
   666.7500      0.0000    304.0843     21.3024     57.7028
   667.0000      0.0000    304.2867     21.0245     57.5605
   667.2500      0.0000    304.5119     20.7850     57.2768
   667.5000      0.0000    305.1948     20.5542     57.3981
   667.7500      0.0000    308.6745     20.2878     58.3822
   668.0000      0.0000    323.9540     19.9819     60.7185
   668.2500      0.0000    369.6618     19.6675     64.7538
   668.5000      0.0000    458.3628     19.3694     70.2315
   668.7500      0.0000    569.0242     19.0886     76.2695
   669.0000      0.0000    657.6360     18.8134     82.0770
   669.2500      0.0000    703.1822     18.5406     87.5172
   669.5000      0.0000    718.2023     18.2885     92.6825
   669.7500      0.0000    721.3319     18.0823     97.0993
