~Version Information
VERS.                      2.0: CWLS Log ASCII Standard - VERSION 2.0
WRAP.                       NO: One line per depth step
~Well Information Block
STRT.FT                -3.0000: 
STOP.FT              1123.0000: 
STEP.FT                 0.2500: 
NULL.                -999.2500: 
COMP.          Pioneer Natural Resources: COMPANY
WELL.               Ryan 41-17: WELL
FLD.           Purgatoire River: FIELD
LOC.           822' FNL & 532' FEL--: LOCATION
CNTY.               Las Animas: COUNTY
SRVC.                Patterson: SERVICE COMPANY
DATE.          Mon Mar 27 14:50:31 2006: LOG DATE
UWI.           05 071 08719 00: UNIQUE WELL ID
STAT.                 Colorado: STATE
~Curve Information Block
DEPT.FT            0 000 00 00: Depth
CCL.                          : Casing Collar Locator
TT3.usec                      : CBL 3' Travel Time
AMP3.mV                       : CBL 3' Amplitude
GR.GAPI                       : Gamma Ray
~Parameter Information Block
~A  Depth       CCL         TT3         AMP3         GR     
# ...
  1002.0000      0.0000    259.7798     75.9429     58.2847
  1002.2500      0.0000    259.7684     76.1720     53.6509
  1002.5000      0.0000    259.7437     76.5317     46.6345
  1002.7500      0.0000    259.7284     76.7229     42.5435
  1003.0000      0.0000    259.7170     76.8570     39.0770
  1003.2500      0.0000    259.7224     76.8029     39.0870
  1003.5000      0.0000    259.7579     76.4326     41.4571
  1003.7500      0.0000    259.8011     75.9767     43.1434
  1004.0000      0.0000    259.8841     75.0712     43.8618
  1004.2500      0.0000    259.9380     74.4489     42.8824
  1004.5000      0.0000    259.9910     73.7448     39.8772
  1004.7500      0.0000    260.0000     73.5225     37.5303
  1005.0000      0.0000    259.9831     73.5354     35.1044
  1005.2500      0.0000    259.9669     73.6711     35.0468
  1005.5000      0.0000    259.9591     73.8698     37.0729
  1005.7500      0.0000    259.9694     73.9428     38.5994
  1006.0000      0.0000    259.9985     73.9587     39.2654
  1006.2500      0.0000    260.0204     73.9026     38.8590
  1006.5000      0.0000    260.0533     73.6657     38.9158
  1006.7500      0.0000    260.0760     73.3911     39.8905
  1007.0000      0.0000    260.1085     72.8815     41.3355
  1007.2500      0.0000    260.1258     72.5638     41.0918
  1007.5000      0.0000    260.1425     72.2397     38.5172
  1007.7500      0.0000    260.1487     72.1516     36.2574
  1008.0000      0.0000    260.1497     72.2143     33.9961
  1008.2500      0.0000    260.1410     72.3858     33.5465
  1008.5000      0.0000    260.1422     72.8095     33.4779
  1008.7500      0.0000    260.2291     73.1160     33.3063
  1009.0000      0.0000    260.9330     73.2014     33.1254
  1009.2500      0.0000    262.3275     72.6044     33.4087
  1009.5000      0.0000    267.0617     70.0261     34.1337
  1009.7500      0.0000    272.4273     67.0644     34.2155
  1010.0000      0.0000    282.9281     61.3975     33.1667
  1010.2500      0.0000    290.0846     57.5114     31.9220
  1010.5000      0.0000    298.4919     52.5912     30.0054
  1010.7500      0.0000    301.9916     50.2236     28.8318
  1011.0000      0.0000    304.7715     48.0837     26.6913
  1011.2500      0.0000    305.6490     47.4473     24.7013
  1011.5000      0.0000    306.2427     47.2521     21.4226
  1011.7500     -2.0000    306.3363     47.3608     19.9154
  1012.0000      0.0000    306.0721     47.5354     19.6271
  1012.2500      0.0000    305.4923     47.5998     20.4155
  1012.5000      0.0000    303.4187     47.9733     21.7509
  1012.7500      0.0000    300.7497     48.8993     22.3114
  1013.0000      0.0000    294.2732     52.1269     22.6857
  1013.2500      0.0000    288.4763     55.5639     22.7198
  1013.5000      0.0000    278.8094     61.8553     22.6840
  1013.7500      0.0000    272.7452     66.1058     22.9914
  1014.0000      0.0000    265.6963     71.5331     24.5792
  1014.2500      0.0000    262.7024     74.1707     26.2223
  1014.5000      0.0000    260.3892     76.5741     28.5583
  1014.7500      0.0000    259.7925     77.3320     29.7076
  1015.0000      0.0000    259.5445     77.6742     31.1435
  1015.2500      0.0000    259.5477     77.6075     32.1284
  1015.5000      0.0000    259.6107     77.3249     33.4880
  1015.7500      0.0000    259.6526     77.0952     34.1554
  1016.0000      0.0000    259.6949     76.7443     34.9270
  1016.2500      0.0000    259.7096     76.5172     35.4657
  1016.5000      0.0000    259.7212     76.2073     36.5070
  1016.7500      0.0000    259.7282     76.0370     37.5621
  1017.0000      0.0000    259.7433     75.8440     40.4890
  1017.2500      0.0000    259.7569     75.7435     43.7246
  1017.5000      0.0000    259.7805     75.6096     49.9225
  1017.7500      0.0000    259.7951     75.5371     53.9615
  1018.0000      0.0000    259.8091     75.4913     58.7270
  1018.2500      0.0000    259.8117     75.5117     61.2808
  1018.5000      0.0000    259.8102     75.5736     65.1520
  1018.7500      0.0000    259.8100     75.5987     67.7023
  1019.0000      0.0000    259.8156     75.6140     70.1011
  1019.2500      0.0000    259.8217     75.6537     70.0318
  1019.5000      0.0000    259.8285     75.8070     67.7619
  1019.7500      0.0000    259.8302     75.9347     65.8457
  1020.0000      0.0000    259.8302     76.0343     64.1211
  1020.2500      0.0000    259.8290     76.0012     64.0732
  1020.5000      0.0000    259.8231     75.8653     64.9217
  1020.7500      0.0000    259.8160     75.7874     65.3329
  1021.0000      0.0000    259.8042     75.7672     64.9376
  1021.2500      0.0000    259.7983     75.8284     64.4324
  1021.5000      0.0000    259.7905     76.0184     65.4234
  1021.7500      0.0000    259.7809     76.1815     68.2810
  1022.0000      0.0000    259.7545     76.3562     75.5334
  1022.2500      0.0000    259.7341     76.3046     81.1549
  1022.5000      0.0000    259.7220     75.7607     88.5108
  1022.7500      0.0000    259.7408     75.0268     91.6012
  1023.0000      0.0000    259.8196     73.4566     92.0605
  1023.2500      0.0000    259.9017     72.2356     89.2956
  1023.5000      0.0000    260.0596     70.3704     81.3728
  1023.7500      0.0000    260.1991     69.1370     74.4174
  1024.0000      0.0000    260.5633     67.1502     62.7161
  1024.2500      0.0000    261.0702     65.6130     54.8105
  1024.5000      0.0000    262.7884     62.9454     44.5857
  1024.7500      0.0000    265.0641     61.0279     39.9058
  1025.0000      0.0000    270.8730     58.1959     36.5358
  1025.2500      0.0000    276.2243     56.4610     35.7991
  1025.5000      0.0000    284.8745     54.2930     34.3717
  1025.7500      0.0000    289.6322     53.2836     32.1269
  1026.0000      0.0000    293.2290     52.6307     26.7625
  1026.2500      0.0000    292.7849     52.7747     22.6327
  1026.5000      0.0000    288.4061     53.6146     17.3251
  1026.7500      0.0000    284.0490     54.3640     15.1792
  1027.0000      0.0000    277.5994     55.4652     14.8240
  1027.2500      0.0000    274.1771     56.1581     16.7475
  1027.5000      0.0000    270.2248     57.3477     23.1388
  1027.7500      0.0000    267.8998     58.3926     29.6025
  1028.0000      0.0000    264.6466     60.4194     41.5785
  1028.2500      0.0000    262.8787     62.0178     50.1544
  1028.5000      0.0000    261.1440     64.6435     62.1512
  1028.7500      0.0000    260.5270     66.4675     68.6194
  1029.0000      0.0000    260.0849     69.0963     75.1308
  1029.2500      0.0000    259.9614     70.5804     77.6997
  1029.5000      0.0000    259.9056     72.0836     80.8495
  1029.7500      0.0000    259.9230     72.5268     83.5833
  1030.0000      0.0000    259.9945     72.4631     88.9386
  1030.2500      0.0000    260.0552     72.0885     92.6599
  1030.5000      0.0000    260.1448     71.3043     97.4052
  1030.7500      0.0000    260.1976     70.7475    100.0479
  1031.0000      0.0000    260.2639     69.9735    103.7607
  1031.2500      0.0000    260.2964     69.5486    105.8617
  1031.5000      0.0000    260.3157     69.1420    106.9087
  1031.7500      0.0000    260.3043     69.0627    105.2728
  1032.0000      0.0000    260.2575     69.2143     99.0873
  1032.2500      0.0000    260.2191     69.4371     93.4046
  1032.5000      0.0000    260.1724     69.8153     85.3424
  1032.7500      0.0000    260.1564     70.0214     81.8457
  1033.0000      0.0000    260.1678     70.1500     80.6699
  1033.2500      0.0000    260.2305     70.0297     82.4239
  1033.5000      0.0000    260.6191     69.2762     87.6486
  1033.7500      0.0000    261.3853     68.1682     91.4986
  1034.0000      0.0000    264.2951     65.2260     94.1915
  1034.2500      0.0000    268.1503     62.3019     92.1138
  1034.5000      0.0000    278.2441     56.5754     83.4869
  1034.7500      0.0000    289.2692     52.0794     76.3348
  1035.0000      0.0000    317.8648     44.8361     67.9851
  1035.2500      0.0000    350.2485     39.9845     65.2120
