~Version Information
VERS.                      2.0: CWLS Log ASCII Standard - VERSION 2.0
WRAP.                       NO: One line per depth step
~Well Information Block
STRT.FT                -8.2500: 
STOP.FT              1118.7500: 
STEP.FT                 0.2500: 
NULL.                -999.2500: 
COMP.          Pioneer Natural Resources: COMPANY
WELL.             Croc 42-9 Tr: WELL
FLD.           Purgatorie River: FIELD
LOC.           --2429' FNL & 315' FEL------: LOCATION
STAT.                       CO: State
CNTY.               Las Animas: COUNTY
CTRY. USA : Country
SECT. 9 : Section
TOWN. 32S : Township
RANG. 66W : Range
SRVC.          Patterson Wireline: SERVICE COMPANY
DATE.          Tue Oct 18 14:14:43 2005: LOG DATE
API.           05 071 08550 00: UNIQUE WELL ID
~Curve Information Block
DEPT.FT            0 000 00 00: Depth
CCL.                          : Casing Collar Locator
TT3.usec                      : CBL 3' Travel Time
AMP3.mV                       : CBL 3' Amplitude
GR.GAPI                       : Gamma Ray
~Parameter Information Block
~A  Depth       CCL         TT3         AMP3         GR     
# ...
   594.7500      0.0000    878.9623      9.1455     50.1794
   595.0000      0.0000    859.6223      9.5301     48.2751
   595.2500      0.0000    822.9694      9.9230     48.2090
   595.5000      0.0000    781.9772     10.1374     49.3676
   595.7500      0.0000    752.7909     10.1201     51.3825
   596.0000      0.0000    740.8081     10.0252     54.4898
   596.2500      0.0000    739.7315     10.0379     58.6549
   596.5000      0.0000    741.5430     10.1932     62.8822
   596.7500      0.0000    743.3343     10.4137     66.0465
   597.0000      0.0000    746.4152     10.6467     68.0632
   597.2500      0.0000    752.9919     10.8984     69.6269
   597.5000      0.0000    764.2731     11.1814     71.1641
   597.7500      0.0000    779.9196     11.4817     72.7670
   598.0000      0.0000    798.4513     11.7734     74.9376
   598.2500      0.0000    818.3056     12.0417     78.6209
   598.5000      0.0000    838.5164     12.2916     84.2448
   598.7500      0.0000    858.4197     12.5418     90.9115
   599.0000      0.0000    877.0522     12.8118     96.6502
   599.2500      0.0000    893.3313     13.1104     99.5406
   599.5000      0.0000    906.6287     13.4293     98.8258
   599.7500      0.0000    916.5568     13.7429     95.2002
   600.0000      0.0000    922.0861     14.0164     90.2106
   600.2500      0.0000    921.2908     14.2188     85.5160
   600.5000      0.0000    912.3699     14.3342     82.4497
   600.7500      0.0000    895.2299     14.3631     81.6296
   601.0000      0.0000    872.4304     14.3190     82.6374
   601.2500      0.0000    848.6754     14.2256     84.3235
   601.5000      0.0000    828.7191     14.1150     85.7819
   601.7500      0.0000    814.8504     14.0235     87.0482
   602.0000      0.0000    806.2316     13.9761     88.7523
   602.2500      0.0000    800.8469     13.9659     91.1475
   602.5000      0.0000    797.9272     13.9531     93.6460
   602.7500      0.0000    798.4647     13.9002     95.4020
   603.0000      0.0000    804.0227     13.8117     96.1303
   603.2500      0.0000    815.4810     13.7307     96.1018
   603.5000      0.0000    832.4923     13.6936     95.5807
   603.7500      0.0000    853.4523     13.6955     94.5843
   604.0000      0.0000    875.6714     13.7029     93.1009
   604.2500      0.0000    895.8282     13.6837     91.4347
   604.5000      0.0000    910.7502     13.6217     90.3109
   604.7500      0.0000    918.3485     13.5136     90.4671
   605.0000      0.0000    918.6335     13.3674     91.9363
   605.2500      0.0000    914.3482     13.2060     93.8171
   605.5000      0.0000    909.5349     13.0634     94.9454
   605.7500      0.0000    905.8318     12.9643     94.9093
   606.0000      0.0000    900.4304     12.9035     94.3402
   606.2500      0.0000    888.9866     12.8517     94.1034
   606.5000      0.0000    870.3846     12.7856     94.2180
   606.7500      0.0000    847.6995     12.7077     93.6781
   607.0000      0.0000    825.2197     12.6273     91.4183
   607.2500      0.0000    805.9833     12.5267     87.4369
   607.5000      0.0000    791.6869     12.3602     82.8259
   607.7500      0.0000    782.9504     12.0883     78.7101
   608.0000      0.0000    778.7497     11.7022     75.4618
   608.2500      0.0000    776.3856     11.2151     72.9379
   608.5000      0.0000    773.0446     10.6458     71.0610
   608.7500      0.0000    767.8710     10.0197     70.0526
   609.0000      0.0000    762.5662      9.3783     70.3091
   609.2500      0.0000    759.8012      8.7767     71.9818
   609.5000      0.0000    760.7935      8.2692     74.5378
   609.7500      0.0000    764.5324      7.8944     77.0413
   610.0000      0.0000    769.4312      7.6697     78.9604
   610.2500      0.0000    775.2626      7.5933     80.3297
   610.5000      0.0000    782.8724      7.6513     81.1552
   610.7500      0.0000    792.0547      7.8272     81.3242
   611.0000      0.0000    800.2702      8.1078     81.2962
   611.2500      0.0000    803.9578      8.4816     82.1439
   611.5000      0.0000    801.2737      8.9339     84.3945
   611.7500      0.0000    793.2783      9.4459     87.2412
   612.0000      0.0000    782.4759     10.0060     89.2506
   612.2500      0.0000    771.0126     10.6177     89.4834
   612.5000      0.0000    760.4670     11.2842     87.9152
   612.7500      0.0000    752.2343     11.9718     85.2693
   613.0000      0.0000    747.2146     12.5952     82.6306
   613.2500      0.0000    745.4091     13.0542     80.9239
   613.5000      0.0000    746.1407     13.2942     80.5784
   613.7500      0.0000    748.3842     13.3404     81.7088
   614.0000      0.0000    750.7653     13.2759     84.5707
   614.2500      0.0000    751.8781     13.1862     89.8436
   614.5000      0.0000    751.2628     13.1117     98.5363
   614.7500      0.0000    750.0719     13.0432    111.3359
   615.0000      0.0000    750.4009     12.9572    127.3701
   615.2500      0.0000    753.7556     12.8484    143.4733
   615.5000      0.0000    759.8621     12.7307    155.3736
   615.7500      0.0000    766.7043     12.6208    160.1904
   616.0000      0.0000    771.9542     12.5255    158.0349
   616.2500      0.0000    774.6901     12.4417    151.7544
   616.5000      0.0000    775.5220     12.3642    145.5130
   616.7500      0.0000    774.9784     12.2953    142.8895
   617.0000      0.0000    772.4475     12.2426    145.2261
   617.2500      0.0000    767.2305     12.2099    151.2414
   617.5000      0.0000    760.1161     12.1936    157.9660
   617.7500      0.0000    753.2025     12.1931    161.9885
   618.0000      0.0000    748.2620     12.2189    160.5946
   618.2500      0.0000    745.6884     12.2861    153.0665
   618.5000      0.0000    744.8325     12.3983    141.5992
   618.7500      0.0000    744.8498     12.5440    130.7181
   619.0000      0.0000    745.1270     12.7109    125.1589
   619.2500      0.0000    745.2927     12.9034    127.5008
   619.5000      0.0000    744.9224     13.1452    136.7665
   619.7500      0.0000    743.0436     13.4658    148.7266
   620.0000      0.0000    737.5043     13.8779    157.9823
   620.2500      0.0000    725.4617     14.3593    160.7611
   620.5000      0.0000    706.5822     14.8500    156.6801
   620.7500      0.0000    686.9670     15.2714    148.5171
   621.0000      0.0000    677.3541     15.5616    140.3988
   621.2500      0.0000    684.0513     15.7023    135.5716
   621.5000      0.0000    702.5344     15.7201    134.9019
   621.7500      0.0000    722.1567     15.6680    136.8388
   622.0000      0.0000    735.5831     15.6012    138.6505
   622.2500      0.0000    742.0984     15.5560    137.8818
   622.5000      0.0000    744.3610     15.5414    133.2854
   622.7500      0.0000    744.8146     15.5466    125.2612
   623.0000      0.0000    744.6856     15.5541    115.7378
   623.2500      0.0000    744.4300     15.5497    107.1351
   623.5000      0.0000    744.1856     15.5272    100.9492
   623.7500      0.0000    743.9962     15.4881     97.2699
   624.0000      0.0000    743.8302     15.4341     95.3838
   624.2500      0.0000    743.5860     15.3576     94.4638
   624.5000      0.0000    743.0600     15.2415     94.0509
   624.7500      0.0000    742.0129     15.0675     94.7123
   625.0000      0.0000    740.4408     14.8270     98.3147
   625.2500      0.0000    738.8568     14.5320    106.8968
   625.5000      0.0000    738.1049     14.2182    120.7200
   625.7500      0.0000    738.6526     13.9309    137.4432
   626.0000      0.0000    740.1227     13.6961    153.3508
   626.2500      0.0000    741.6016     13.5051    165.5712
   626.5000      0.0000    742.1823     13.3353    173.5167
   626.7500      0.0000    741.0225     13.1832    178.4673
   627.0000      0.0000    737.2305     13.0703    181.7220
   627.2500      0.0000    730.5131     13.0196    183.0062
   627.5000      0.0000    722.4965     13.0369    180.6735
   627.7500      0.0000    716.8707     13.1116    173.4696
   628.0000      0.0000    716.9610     13.2296    162.0587
