~Version Information
 VERS.                                  2.0 : CWLS LAS VERSION
 WRAP.                                   NO : WRAPING MODE
 SWARE .                 MController 2.5.0N : SOFTWARE VERSION
~Well Information
 WELL.                       GAMMA 13-03 TR : WELL
 COMP.    PIONEER NATURAL RESOURCES USA INC : COMPANY
 FLD.                      PURGATOIRE RIVER : FIELD
 LOC.                 NW/SW SEC 3 T33S R67W : LOCATION
 DATE.                          09/18-19/05 : DATE(S) LOGGED
 SRVC.       BLANCO GEOLOGICAL SERVICES LLC : SERVICE COMPANY
 STAT.                             COLORADO : STATE
 CNTY.                           LAS ANIMAS : COUNTY
 CTRY.                                  USA : COUNTRY
 API.                       05-071-08524-00 : API NUMBER
 STRT.FT                             446.00 : START DEPTH
 STOP.FT                            1371.00 : STOP DEPTH
 STEP.FT                               1.00 : DEPTH INCREMENT
 NULL.                                -9999 : NULL VALUE
~Curve information
 DEPTH.FT                                   :
 ROP.MIN/FT                                 :
 GAS.UNITS                                  :
~ASCII Log data
# ...
      1246.0         0.40          8.1 
      1247.0         0.43          8.3 
      1248.0         0.43          8.6 
      1249.0         0.47          8.7 
      1250.0         0.50          8.5 
      1251.0         0.47          8.4 
      1252.0         5.53         22.2 
      1253.0         0.40         12.5 
      1254.0         0.33          8.9 
      1255.0         0.33          8.0 
      1256.0         0.35          8.9 
      1257.0         0.33         10.3 
      1258.0         0.37         10.4 
      1259.0         0.37         10.7 
      1260.0         0.37         10.0 
      1261.0         0.37          9.7 
      1262.0         0.37          9.3 
      1263.0         0.27          8.7 
      1264.0         0.30          8.5 
      1265.0         0.28          8.4 
      1266.0         0.27         10.8 
      1267.0         0.37         14.2 
      1268.0         0.37         17.2 
      1269.0         0.50         24.6 
      1270.0         0.47         26.2 
      1271.0         0.43         24.5 
      1272.0         0.43         20.0 
      1273.0         0.48         15.6 
      1274.0         0.43         13.1 
      1275.0         0.43         12.4 
      1276.0         0.43         12.2 
      1277.0         0.60         11.7 
      1278.0         0.63         11.4 
      1279.0         0.55         11.2 
      1280.0         0.73         11.3 
      1281.0         0.53         10.4 
      1282.0         6.17         27.2 
      1283.0         0.30          9.8 
      1284.0         0.33         10.0 
      1285.0         0.33         13.3 
      1286.0         0.33         16.0 
      1287.0         0.33         16.6 
      1288.0         0.35         16.3 
      1289.0         0.40         16.6 
      1290.0         0.40         17.4 
      1291.0         0.33         17.4 
      1292.0         0.43         16.3 
      1293.0         0.40         14.9 
      1294.0         0.40         13.5 
      1295.0         0.37         12.9 
      1296.0         0.38         12.6 
      1297.0         0.30         12.3 
      1298.0         0.40         12.1 
      1299.0         0.47         11.9 
      1300.0         0.40         11.6 
      1301.0         0.37         11.9 
      1302.0         0.47         12.0 
      1303.0         0.43         11.8 
      1304.0         0.42         11.8 
      1305.0         0.43         11.6 
      1306.0         0.40         11.5 
      1307.0         0.43         11.3 
      1308.0         0.40         11.3 
      1309.0         0.50         11.1 
      1310.0         0.47         11.1 
      1311.0         0.52         11.2 
      1312.0         7.60         33.5 
      1313.0         0.57         11.3 
      1314.0         0.53         13.5 
      1315.0         0.30         13.8 
      1316.0         0.35         13.2 
      1317.0         0.30         12.6 
      1318.0         0.40         11.4 
      1319.0         0.40         10.3 
      1320.0         0.43         10.0 
      1321.0         0.40         10.2 
      1322.0         0.37         10.4 
      1323.0         0.33         10.4 
      1324.0         0.38         10.6 
      1325.0         0.37         10.8 
      1326.0         0.30         10.5 
      1327.0         0.30         10.3 
      1328.0         0.33         10.6 
      1329.0         0.37         10.6 
      1330.0         0.40         10.7 
      1331.0         0.33         10.8 
      1332.0         0.37         10.9 
      1333.0         0.33         10.8 
      1334.0         0.28         10.7 
      1335.0         0.33         10.8 
      1336.0         0.33         11.0 
      1337.0         0.37         11.6 
      1338.0         0.43         13.7 
      1339.0         0.47         14.4 
      1340.0         0.40         14.2 
      1341.0         0.40         13.6 
      1342.0         7.65         51.4 
      1343.0         0.40         10.7 
      1344.0         0.33         13.3 
      1345.0         0.30         14.2 
      1346.0         0.33         14.4 
      1347.0         0.43         13.3 
      1348.0         0.53         12.2 
      1349.0         0.62         12.7 
      1350.0         0.73         12.9 
      1351.0         0.80         12.3 
      1352.0         0.57         11.4 
      1353.0         0.63         11.8 
      1354.0         0.62         11.7 
      1355.0         0.53         11.9 
      1356.0         0.40         11.8 
      1357.0         0.40         11.8 
      1358.0         0.33         12.0 
      1359.0         0.30         13.4 
      1360.0         0.30         13.4 
      1361.0         0.52         13.3 
      1362.0         0.63         12.6 
      1363.0         0.63         13.1 
      1364.0         0.43         13.2 
      1365.0         0.43         12.9 
      1366.0         0.27         12.1 
      1367.0         0.43         11.8 
      1368.0         0.58         11.4 
      1369.0         0.50         12.3 
      1370.0         0.47         12.9 
      1371.0         0.43         12.8 
