~Version Information
VERS.                      2.0: CWLS Log ASCII Standard - VERSION 2.0
WRAP.                       NO: One line per depth step
~Well Information Block
STRT.FT               580.0000: 
STOP.FT              1179.0000: 
STEP.FT                 0.1000: 
NULL.                -999.2500: 
COMP.          Pioneer Natural Resources: COMPANY
WELL.          Tin Barn 14-20 TR: WELL
FLD.           Purgatorie River: FIELD
LOC.           925 FSL & 1151 FWL: LOCATION
PROV.                 Colorado: PROVINCE
CNTY.               Las Animas: COUNTRY
SRVC.                Patterson: SERVICE COMPANY
DATE.          Thu Jan 12 12:02:37 2006: LOG DATE
UWI.                          : UNIQUE WELL ID
~Curve Information Block
DEPT.FT            0 000 00 00: Depth
DCAL.in                       : CDL Caliper
RHOB.g/cc                     : CDL Bulk Density
RHOC.g/cc                     : CDL Density Correction
DPOR.pu                       : CDL Density Porosity
GR.GAPI                       : Gamma Ray
~Parameter Information Block
~A  Depth       DCAL        RHOB        RHOC        DPOR         GR     
# ...
   927.2000      7.9290      2.1497      0.1887     30.3187    120.3446
   927.3000      7.9665      2.1798      0.2230     28.4944    120.8256
   927.4000      7.9665      2.2083      0.1926     26.7693    120.4093
   927.5000      7.9940      2.2370      0.2138     25.0312    118.1048
   927.6000      7.9940      2.2642      0.1968     23.3809    116.7456
   927.7000      7.9940      2.2915      0.1121     21.7269    116.8583
   927.8000      7.9947      2.3242      0.0840     19.7453    116.5934
   927.9000      7.9947      2.3531      0.1246     17.9937    117.0759
   928.0000      7.9853      2.3609      0.1125     17.5238    118.7323
   928.1000      7.9853      2.3462      0.0899     18.4123    120.2534
   928.2000      7.9853      2.3307      0.0345     19.3532    122.1027
   928.3000      8.0901      2.3390      0.0336     18.8486    122.6135
   928.4000      8.0901      2.3724      0.0346     16.8219    121.4480
   928.5000      8.0100      2.4119      0.0940     14.4279    122.7607
   928.6000      8.0100      2.4411      0.0745     12.6623    127.2133
   928.7000      8.0100      2.4499      0.1196     12.1248    129.2543
   928.8000      7.9744      2.4303      0.0782     13.3138    126.3424
   928.9000      7.9744      2.3840      0.0988     16.1218    122.0060
   929.0000      7.9343      2.3193      0.1305     20.0411    120.2211
   929.1000      7.9343      2.2497      0.0417     24.2612    120.9063
   929.2000      7.9343      2.1877      0.0481     28.0160    121.0566
   929.3000      7.9460      2.1327      0.0136     31.3504    120.4156
   929.4000      7.9460      2.0887     -0.0212     34.0198    120.7428
   929.5000      7.9804      2.0708     -0.0214     35.1023    121.6852
   929.6000      7.9804      2.0886      0.0681     34.0232    122.8645
   929.7000      7.9804      2.1447      0.1448     30.6214    125.3747
   929.8000      7.9739      2.2301      0.2913     25.4496    129.8470
   929.9000      7.9739      2.3076      0.4747     20.7526    134.7481
   930.0000      7.9638      2.3301      0.5036     19.3894    137.8624
   930.1000      7.9638      2.2761      0.4739     22.6581    140.1960
   930.2000      7.9638      2.1620      0.3683     29.5769    142.2673
   930.3000      7.9516      2.0316      0.2466     37.4764    140.7834
   930.4000      7.9516      1.9312      0.1847     43.5661    135.9698
   930.5000      7.9963      1.8929      0.0804     45.8849    132.0826
   930.6000      7.9963      1.9346      0.1191     43.3597    129.1293
   930.7000      7.9963      2.0578      0.1599     35.8929    124.0771
   930.8000      7.9593      2.2367      0.3608     25.0488    117.8586
   930.9000      7.9593      2.4154      0.4559     14.2171    113.0534
   931.0000      7.9810      2.5545      0.5231      5.7851    110.6637
   931.1000      7.9810      2.6455      0.5602      0.2748    111.6981
   931.2000      7.9810      2.6719      0.5880     -1.3293    113.5400
   931.3000      7.9581      2.6180      0.4737      1.9419    112.8487
   931.4000      7.9581      2.5039      0.3219      8.8534    112.7312
   931.5000      7.9572      2.3753      0.1684     16.6461    114.7598
   931.6000      7.9572      2.2629      0.1227     23.4614    116.5009
   931.7000      7.9572      2.1676      0.1080     29.2363    118.1772
   931.8000      7.9571      2.0877     -0.0099     34.0809    120.2407
   931.9000      7.9571      2.0435     -0.0876     36.7547    121.9775
   932.0000      8.0868      2.0476      0.0012     36.5076    122.9359
   932.1000      8.0868      2.0780      0.0991     34.6684    122.3675
   932.2000      8.0868      2.1085      0.2359     32.8185    121.4456
   932.3000      8.1523      2.1320      0.2603     31.3923    120.9644
   932.4000      8.1523      2.1518      0.2688     30.1909    120.0639
   932.5000      8.0941      2.1685      0.2673     29.1788    120.5660
   932.6000      8.0941      2.1817      0.2184     28.3838    123.9371
   932.7000      8.0941      2.1931      0.1980     27.6899    127.1842
   932.8000      8.1949      2.2026      0.1928     27.1123    129.2811
   932.9000      8.1949      2.2106      0.1747     26.6316    132.0697
   933.0000      8.4728      2.2228      0.1557     25.8908    134.3904
   933.1000      8.4728      2.2466      0.1150     24.4471    135.6104
   933.2000      8.4728      2.2829      0.1622     22.2501    137.9044
   933.3000      8.1083      2.3193      0.1580     20.0406    139.4986
   933.4000      8.1083      2.3396      0.2013     18.8101    137.7118
   933.5000      8.0844      2.3348      0.1979     19.1006    134.8390
   933.6000      8.0844      2.3044      0.1792     20.9471    134.1606
   933.7000      8.0844      2.2530      0.1717     24.0600    134.8981
   933.8000      8.0274      2.1997      0.1325     27.2932    134.6274
   933.9000      8.0274      2.1835      0.1434     28.2718    133.4325
   934.0000      7.9581      2.2329      0.2612     25.2807    132.2012
   934.1000      7.9581      2.3357      0.3243     19.0486    131.3406
   934.2000      7.9581      2.4584      0.3831     11.6130    132.1439
   934.3000      7.9491      2.5782      0.3573      4.3516    134.7673
   934.4000      7.9491      2.6814      0.4808     -1.9022    136.9166
   934.5000      7.9447      2.7416      0.5349     -5.5533    136.2070
   934.6000      7.9447      2.7412      0.4859     -5.5253    134.1604
   934.7000      7.9447      2.6980      0.4082     -2.9096    133.2920
   934.8000      7.9475      2.6464      0.2728      0.2211    132.9397
   934.9000      7.9475      2.6008      0.2275      2.9819    132.4570
   935.0000      8.0193      2.5500      0.1804      6.0614    133.0946
   935.1000      8.0193      2.4972      0.0258      9.2577    134.2468
   935.2000      8.0193      2.4681      0.0565     11.0259    134.4953
   935.3000      8.2438      2.4629      0.0479     11.3416    134.1745
   935.4000      8.2438      2.4491      0.1380     12.1786    133.6091
   935.5000      8.0990      2.4071      0.0632     14.7203    132.1235
   935.6000      8.0990      2.3642      0.0196     17.3189    129.0737
   935.7000      8.0990      2.3514      0.0370     18.0996    126.6194
   935.8000      8.0734      2.3530      0.1135     18.0020    128.0762
   935.9000      8.0734      2.3456      0.0310     18.4466    130.2959
   936.0000      8.1094      2.3442      0.0506     18.5334    128.6525
   936.1000      8.1094      2.3591      0.1867     17.6308    126.3489
   936.2000      8.1094      2.3706      0.1903     16.9347    126.8588
   936.3000      8.1296      2.3670      0.2352     17.1503    128.0030
   936.4000      8.1296      2.3569      0.2212     17.7630    128.1514
   936.5000      8.0438      2.3544      0.1830     17.9167    129.2442
   936.6000      8.0438      2.3650      0.1902     17.2725    132.9402
   936.7000      8.0438      2.3831      0.2249     16.1733    134.9937
   936.8000      8.0374      2.4132      0.2512     14.3538    131.5967
   936.9000      8.0374      2.4645      0.3468     11.2431    125.6019
   937.0000      8.0580      2.5196      0.3892      7.9059    119.5488
   937.1000      8.0580      2.5532      0.3542      5.8638    115.3711
   937.2000      8.0580      2.5798      0.2993      4.2569    115.2731
   937.3000      8.0883      2.6288      0.3608      1.2866    118.1470
   937.4000      8.0883      2.6888      0.3913     -2.3490    120.7876
   937.5000      8.2417      2.7105      0.4113     -3.6670    120.4096
   937.6000      8.2417      2.6515      0.4186     -0.0895    116.9968
   937.7000      8.2417      2.5138      0.3064      8.2533    112.4960
   937.8000      8.0571      2.3421      0.1939     18.6595    109.0110
   937.9000      8.0571      2.1842      0.0375     28.2303    106.5828
   938.0000      8.0870      2.0538     -0.0183     36.1351    104.0292
   938.1000      8.0870      1.9195     -0.0161     44.2738    101.9526
   938.2000      8.0870      1.7538     -0.1252     54.3145    100.5764
   938.3000      8.1647      1.6101     -0.1781     63.0213     98.6861
