~Version Information
VERS.                      2.0: CWLS Log ASCII Standard - VERSION 2.0
WRAP.                       NO: One line per depth step
~Well Information Block
STRT.FT               240.0000: 
STOP.FT              1159.2500: 
STEP.FT                 0.2500: 
NULL.                -999.2500: 
COMP.          Pioneer Natural Resources: COMPANY
WELL.               Ryan 41-17: WELL
FLD.           Purgatoire River: FIELD
LOC.           822' FNL & 532' FEL--: LOCATION
CNTY.               Las Animas: COUNTY
SRVC.                Patterson: SERVICE COMPANY
DATE.          Thu Mar 16 16:50:09 2006: LOG DATE
UWI.           05 071 08719 00: UNIQUE WELL ID
STAT.                 Colorado: STATE
~Curve Information Block
DEPT.FT            0 000 00 00: Depth
SN.Ohm-m                      : IEL Short Normal
SP.mV                         : IEL Spontaneous Potential
DIR.Ohm-m                     : IEL Induction Resistivity
GR.GAPI                       : Gamma Ray
~Parameter Information Block
~A  Depth        SN          SP         DIR          GR     
# ...
   541.5000   2000.0000   2000.0000     12.7315    138.6137
   541.7500   2000.0000   2000.0000     12.4761    137.6876
   542.0000   2000.0000   2000.0000     12.2296    137.0531
   542.2500   2000.0000   2000.0000     12.0083    137.1392
   542.5000   2000.0000   2000.0000     11.8266    137.7192
   542.7500   2000.0000   2000.0000     11.6944    138.2177
   543.0000   2000.0000   2000.0000     11.6177    139.0002
   543.2500   2000.0000   2000.0000     11.5998    139.6002
   543.5000   2000.0000   2000.0000     11.6414    140.7165
   543.7500   2000.0000   2000.0000     11.7393    141.3633
   544.0000   2000.0000   2000.0000     11.8851    141.0381
   544.2500   2000.0000   2000.0000     12.0650    139.2281
   544.5000   2000.0000   2000.0000     12.2619    133.7317
   544.7500   2000.0000   2000.0000     12.4577    128.7424
   545.0000   2000.0000   2000.0000     12.6356    121.2529
   545.2500   2000.0000   2000.0000     12.7811    117.5436
   545.5000   2000.0000   2000.0000     12.8817    115.1642
   545.7500   2000.0000   2000.0000     12.9254    115.5907
   546.0000   2000.0000   2000.0000     12.8988    118.1561
   546.2500   2000.0000   2000.0000     12.7878    120.5089
   546.5000   2000.0000   2000.0000     12.5835    124.4837
   546.7500   2000.0000   2000.0000     12.2911    127.4958
   547.0000   2000.0000   2000.0000     11.9341    133.0302
   547.2500   2000.0000   2000.0000     11.5477    137.5625
   547.5000   2000.0000   2000.0000     11.1663    144.8821
   547.7500   2000.0000   2000.0000     10.8132    148.9448
   548.0000   2000.0000   2000.0000     10.4992    151.6526
   548.2500   2000.0000   2000.0000     10.2275    150.7236
   548.5000   2000.0000   2000.0000     10.0006    146.3396
   548.7500   2000.0000   2000.0000      9.8263    142.7706
   549.0000   2000.0000   2000.0000      9.7189    138.6936
   549.2500   2000.0000   2000.0000      9.6972    137.5716
   549.5000   2000.0000   2000.0000      9.7798    138.1981
   549.7500   2000.0000   2000.0000      9.9812    139.3915
   550.0000   2000.0000   2000.0000     10.3094    140.1708
   550.2500   2000.0000   2000.0000     10.7649    138.6146
   550.5000   2000.0000   2000.0000     11.3400    131.7185
   550.7500   2000.0000   2000.0000     12.0208    124.3910
   551.0000   2000.0000   2000.0000     12.7924    111.6362
   551.2500   2000.0000   2000.0000     13.6455    103.5484
   551.5000   2000.0000   2000.0000     14.5799     93.7893
   551.7500   2000.0000   2000.0000     15.6016     89.2007
   552.0000   2000.0000   2000.0000     16.7133     85.0906
   552.2500   2000.0000   2000.0000     17.9019     83.9369
   552.5000   2000.0000   2000.0000     19.1271     83.9622
   552.7500   2000.0000   2000.0000     20.3165     84.7852
   553.0000   2000.0000   2000.0000     21.3759     86.6221
   553.2500   2000.0000   2000.0000     22.2158     87.8056
   553.5000   2000.0000   2000.0000     22.7831     88.6089
   553.7500   2000.0000   2000.0000     23.0796     88.1294
   554.0000   2000.0000   2000.0000     23.1565     86.0714
   554.2500   2000.0000   2000.0000     23.0900     84.3641
   554.5000   2000.0000   2000.0000     22.9549     82.4611
   554.7500   2000.0000   2000.0000     22.8075     82.1558
   555.0000   2000.0000   2000.0000     22.6780     83.6096
   555.2500   2000.0000   2000.0000     22.5663     85.7685
   555.5000   2000.0000   2000.0000     22.4439     89.8369
   555.7500   2000.0000   2000.0000     22.2689     92.2270
   556.0000   2000.0000   2000.0000     22.0120     94.1117
   556.2500   2000.0000   2000.0000     21.6750     94.0674
   556.5000   2000.0000   2000.0000     21.2870     92.6297
   556.7500   2000.0000   2000.0000     20.8825     91.2462
   557.0000   2000.0000   2000.0000     20.4827     89.0418
   557.2500   2000.0000   2000.0000     20.0887     87.5747
   557.5000   2000.0000   2000.0000     19.6845     85.6074
   557.7500   2000.0000   2000.0000     19.2436     84.7814
   558.0000   2000.0000   2000.0000     18.7396     84.9817
   558.2500   2000.0000   2000.0000     18.1604     86.4991
   558.5000   2000.0000   2000.0000     17.5185     91.7181
   558.7500   2000.0000   2000.0000     16.8491     97.5917
   559.0000   2000.0000   2000.0000     16.1964    109.6003
   559.2500   2000.0000   2000.0000     15.5978    118.5007
   559.5000   2000.0000   2000.0000     15.0756    130.1546
   559.7500   2000.0000   2000.0000     14.6365    135.3667
   560.0000   2000.0000   2000.0000     14.2775    138.4274
   560.2500   2000.0000   2000.0000     13.9926    137.5691
   560.5000   2000.0000   2000.0000     13.7784    133.3382
   560.7500   2000.0000   2000.0000     13.6358    129.6904
   561.0000   2000.0000   2000.0000     13.5688    124.8951
   561.2500   2000.0000   2000.0000     13.5793    122.8928
   561.5000   2000.0000   2000.0000     13.6635    121.8869
   561.7500   2000.0000   2000.0000     13.8088    122.0713
   562.0000   2000.0000   2000.0000     13.9952    122.3633
   562.2500   2000.0000   2000.0000     14.1999    121.9944
   562.5000   2000.0000   2000.0000     14.4013    120.3578
   562.7500   2000.0000   2000.0000     14.5827    118.8003
   563.0000   2000.0000   2000.0000     14.7332    116.4116
   563.2500   2000.0000   2000.0000     14.8452    115.0141
   563.5000   2000.0000   2000.0000     14.9105    113.2097
   563.7500   2000.0000   2000.0000     14.9163    112.1550
   564.0000   2000.0000   2000.0000     14.8483    111.0963
   564.2500   2000.0000   2000.0000     14.6997    111.2029
   564.5000   2000.0000   2000.0000     14.4804    113.4902
   564.7500   2000.0000   2000.0000     14.2153    116.6274
   565.0000   2000.0000   2000.0000     13.9314    122.9182
   565.2500   2000.0000   2000.0000     13.6411    127.1557
   565.5000   2000.0000   2000.0000     13.3373    132.0139
   565.7500   2000.0000   2000.0000     13.0035    133.9267
   566.0000   2000.0000   2000.0000     12.6323    135.2361
   566.2500   2000.0000   2000.0000     12.2370    135.5684
   566.5000   2000.0000   2000.0000     11.8483    135.9515
   566.7500   2000.0000   2000.0000     11.5001    136.3140
   567.0000   2000.0000   2000.0000     11.2151    137.0599
   567.2500   2000.0000   2000.0000     10.9985    137.6560
   567.5000   2000.0000   2000.0000     10.8379    138.5730
   567.7500   2000.0000   2000.0000     10.7095    139.0441
   568.0000   2000.0000   2000.0000     10.5852    139.1312
   568.2500   2000.0000   2000.0000     10.4418    138.5537
   568.5000   2000.0000   2000.0000     10.2665    136.7195
   568.7500   2000.0000   2000.0000     10.0586    135.1635
   569.0000   2000.0000   2000.0000      9.8269    133.2122
   569.2500   2000.0000   2000.0000      9.5834    132.7188
   569.5000   2000.0000   2000.0000      9.3383    133.9059
   569.7500   2000.0000   2000.0000      9.0959    136.0474
   570.0000   2000.0000   2000.0000      8.8546    140.5315
   570.2500   2000.0000   2000.0000      8.6106    143.6586
   570.5000   2000.0000   2000.0000      8.3629    147.7460
   570.7500   2000.0000   2000.0000      8.1180    150.0336
   571.0000   2000.0000   2000.0000      7.8885    153.1175
   571.2500   2000.0000   2000.0000      7.6898    155.0447
   571.5000   2000.0000   2000.0000      7.5340    157.4672
   571.7500   2000.0000   2000.0000      7.4279    158.3365
   572.0000   2000.0000   2000.0000      7.3713    157.7250
   572.2500   2000.0000   2000.0000      7.3586    155.9173
   572.5000   2000.0000   2000.0000      7.3799    151.9033
   572.7500   2000.0000   2000.0000      7.4232    149.2625
   573.0000   2000.0000   2000.0000      7.4778    146.7923
   573.2500   2000.0000   2000.0000      7.5372    146.3949
   573.5000   2000.0000   2000.0000      7.6005    146.9434
   573.7500   2000.0000   2000.0000      7.6704    147.4855
   574.0000   2000.0000   2000.0000      7.7509    148.3855
   574.2500   2000.0000   2000.0000      7.8445    149.3597
   574.5000   2000.0000   2000.0000      7.9518    151.5448
   574.7500   2000.0000   2000.0000      8.0741    153.0728
