~Version Information
VERS.                      2.0: CWLS Log ASCII Standard - VERSION 2.0
WRAP.                       NO: One line per depth step
~Well Information Block
STRT.FT               240.0000: 
STOP.FT              1159.2500: 
STEP.FT                 0.2500: 
NULL.                -999.2500: 
COMP.          Pioneer Natural Resources: COMPANY
WELL.               Ryan 41-17: WELL
FLD.           Purgatoire River: FIELD
LOC.           822' FNL & 532' FEL--: LOCATION
CNTY.               Las Animas: COUNTY
SRVC.                Patterson: SERVICE COMPANY
DATE.          Thu Mar 16 16:50:09 2006: LOG DATE
UWI.           05 071 08719 00: UNIQUE WELL ID
STAT.                 Colorado: STATE
~Curve Information Block
DEPT.FT            0 000 00 00: Depth
SN.Ohm-m                      : IEL Short Normal
SP.mV                         : IEL Spontaneous Potential
DIR.Ohm-m                     : IEL Induction Resistivity
GR.GAPI                       : Gamma Ray
~Parameter Information Block
~A  Depth        SN          SP         DIR          GR     
   240.0000   2000.0000   2000.0000 100000.0000     77.0052
   240.2500   2000.0000   2000.0000 100000.0000     76.9791
   240.5000   2000.0000   2000.0000 100000.0000     76.6034
   240.7500   2000.0000   2000.0000 100000.0000     76.3567
   241.0000   2000.0000   2000.0000 100000.0000     76.6829
   241.2500   2000.0000   2000.0000 100000.0000     77.5539
   241.5000   2000.0000   2000.0000 100000.0000     79.5006
   241.7500   2000.0000   2000.0000 100000.0000     80.8155
   242.0000   2000.0000   2000.0000 100000.0000     82.2299
   242.2500   2000.0000   2000.0000 100000.0000     82.6546
   242.5000   2000.0000   2000.0000 100000.0000     82.6084
   242.7500   2000.0000   2000.0000 100000.0000     82.3452
   243.0000   2000.0000   2000.0000 100000.0000     82.1166
   243.2500   2000.0000   2000.0000 100000.0000     82.2456
   243.5000   2000.0000   2000.0000 100000.0000     82.6105
   243.7500   2000.0000   2000.0000 100000.0000     82.6143
   244.0000   2000.0000   2000.0000 100000.0000     81.9339
   244.2500   2000.0000   2000.0000 100000.0000     81.1514
   244.5000   2000.0000   2000.0000 100000.0000     79.8759
   244.7500   2000.0000   2000.0000 100000.0000     79.0609
   245.0000   2000.0000   2000.0000 100000.0000     77.9673
   245.2500   2000.0000   2000.0000 100000.0000     77.4406
   245.5000   2000.0000   2000.0000 100000.0000     77.1502
   245.7500   2000.0000   2000.0000 100000.0000     77.2421
   246.0000   2000.0000   2000.0000 100000.0000     77.3336
   246.2500   2000.0000   2000.0000 100000.0000     76.9404
   246.5000   2000.0000   2000.0000 100000.0000     75.0785
   246.7500   2000.0000   2000.0000 100000.0000     72.9930
   247.0000   2000.0000   2000.0000 100000.0000     69.3992
   247.2500   2000.0000   2000.0000 100000.0000     67.4092
   247.5000   2000.0000   2000.0000 100000.0000     65.8484
   247.7500   2000.0000   2000.0000 100000.0000     65.6581
   248.0000   2000.0000   2000.0000 100000.0000     65.7508
   248.2500   2000.0000   2000.0000 100000.0000     65.6249
   248.5000   2000.0000   2000.0000 100000.0000     65.0228
   248.7500   2000.0000   2000.0000 100000.0000     64.4027
   249.0000   2000.0000   2000.0000 100000.0000     63.0161
   249.2500   2000.0000   2000.0000 100000.0000     61.6684
   249.5000   2000.0000   2000.0000 100000.0000     59.1011
   249.7500   2000.0000   2000.0000 100000.0000     57.2851
   250.0000   2000.0000   2000.0000 100000.0000     55.0333
   250.2500   2000.0000   2000.0000 100000.0000     54.1629
   250.5000   2000.0000   2000.0000 100000.0000     53.9223
   250.7500   2000.0000   2000.0000 100000.0000     54.2715
   251.0000   2000.0000   2000.0000 100000.0000     55.1706
   251.2500   2000.0000   2000.0000 100000.0000     55.9951
   251.5000   2000.0000   2000.0000 100000.0000     57.8115
   251.7500   2000.0000   2000.0000 100000.0000     59.5268
   252.0000   2000.0000   2000.0000 100000.0000     62.9511
   252.2500   2000.0000   2000.0000 100000.0000     65.9031
   252.5000   2000.0000   2000.0000 100000.0000     71.4814
   252.7500   2000.0000   2000.0000 100000.0000     75.7329
   253.0000   2000.0000   2000.0000 100000.0000     81.7154
   253.2500   2000.0000   2000.0000 100000.0000     84.6789
   253.5000   2000.0000   2000.0000 100000.0000     87.2598
   253.7500   2000.0000   2000.0000 100000.0000     88.2728
   254.0000   2000.0000   2000.0000 100000.0000     90.1834
   254.2500   2000.0000   2000.0000 100000.0000     92.3889
   254.5000   2000.0000   2000.0000      8.3358     97.4254
   254.7500   2000.0000   2000.0000      4.5265    101.5544
   255.0000   2000.0000   2000.0000      3.9792    107.4878
   255.2500   2000.0000   2000.0000      4.7376    110.3937
   255.5000   2000.0000   2000.0000      7.7051    112.4425
   255.7500   2000.0000   2000.0000     22.4951    112.3761
   256.0000   2000.0000   2000.0000 100000.0000    110.6248
   256.2500   2000.0000   2000.0000 100000.0000    108.5225
   256.5000   2000.0000   2000.0000 100000.0000    104.1744
   256.7500   2000.0000   2000.0000 100000.0000    100.7955
   257.0000   2000.0000   2000.0000     78.8697     95.9395
   257.2500   2000.0000   2000.0000     18.5356     93.4556
   257.5000   2000.0000   2000.0000     11.3342     91.8686
   257.7500   2000.0000   2000.0000      9.0888     92.6985
   258.0000   2000.0000   2000.0000      8.4025     96.7692
   258.2500   2000.0000   2000.0000      8.4696    100.6410
   258.5000   2000.0000   2000.0000      9.0019    106.2828
   258.7500   2000.0000   2000.0000      9.8487    109.1249
   259.0000   2000.0000   2000.0000     10.8772    111.5176
   259.2500   2000.0000   2000.0000     11.9292    111.6193
   259.5000   2000.0000   2000.0000     12.8503    108.6052
   259.7500   2000.0000   2000.0000     13.6013    104.1208
   260.0000   2000.0000   2000.0000     14.3467     94.4686
   260.2500   2000.0000   2000.0000     15.4205     87.2701
   260.5000   2000.0000   2000.0000     17.2193     77.4701
   260.7500   2000.0000   2000.0000     20.0788     72.4987
   261.0000   2000.0000   2000.0000     23.9909     68.1958
   261.2500   2000.0000   2000.0000     28.0342     67.5051
   261.5000   2000.0000   2000.0000     30.3252     69.2209
   261.7500   2000.0000   2000.0000     29.8064     71.6198
   262.0000   2000.0000   2000.0000     27.5346     75.8553
   262.2500   2000.0000   2000.0000     25.1400     78.3578
   262.5000   2000.0000   2000.0000     23.4918     80.5908
   262.7500   2000.0000   2000.0000     22.8080     80.7583
   263.0000   2000.0000   2000.0000     23.0172     79.2610
   263.2500   2000.0000   2000.0000     23.8958     77.6891
   263.5000   2000.0000   2000.0000     25.0716     75.7994
   263.7500   2000.0000   2000.0000     26.0701     75.4442
   264.0000   2000.0000   2000.0000     26.4944     76.7874
   264.2500   2000.0000   2000.0000     26.2236     79.1215
   264.5000   2000.0000   2000.0000     25.4162     84.9258
   264.7500   2000.0000   2000.0000     24.3357     90.0723
   265.0000   2000.0000   2000.0000     23.1927     98.6228
   265.2500   2000.0000   2000.0000     22.0993    104.2157
   265.5000   2000.0000   2000.0000     21.0931    111.7627
   265.7500   2000.0000   2000.0000     20.1742    115.9226
   266.0000   2000.0000   2000.0000     19.3310    120.1142
   266.2500   2000.0000   2000.0000     18.5526    121.2532
   266.5000   2000.0000   2000.0000     17.8349    121.0026
   266.7500   2000.0000   2000.0000     17.1833    120.3665
   267.0000   2000.0000   2000.0000     16.6125    120.0355
   267.2500   2000.0000   2000.0000     16.1424    120.4615
   267.5000   2000.0000   2000.0000     15.7912    121.4192
   267.7500   2000.0000   2000.0000     15.5682    121.5852
   268.0000   2000.0000   2000.0000     15.4700    120.4122
   268.2500   2000.0000   2000.0000     15.4816    118.9241
   268.5000   2000.0000   2000.0000     15.5811    116.8284
   268.7500   2000.0000   2000.0000     15.7458    115.9848
   269.0000   2000.0000   2000.0000     15.9563    115.1990
   269.2500   2000.0000   2000.0000     16.1982    114.5144
   269.5000   2000.0000   2000.0000     16.4626    113.0674
   269.7500   2000.0000   2000.0000     16.7457    112.1542
   270.0000   2000.0000   2000.0000     17.0485    111.4545
   270.2500   2000.0000   2000.0000     17.3777    111.5411
   270.5000   2000.0000   2000.0000     17.7446    112.3396
   270.7500   2000.0000   2000.0000     18.1604    113.1028
   271.0000   2000.0000   2000.0000     18.6318    114.0718
   271.2500   2000.0000   2000.0000     19.1584    114.2594
   271.5000   2000.0000   2000.0000     19.7346    113.4350
   271.7500   2000.0000   2000.0000     20.3529    112.0981
   272.0000   2000.0000   2000.0000     21.0053    109.1037
   272.2500   2000.0000   2000.0000     21.6861    106.6490
   272.5000   2000.0000   2000.0000     22.3976    102.8397
   272.7500   2000.0000   2000.0000     23.1534    100.7185
   273.0000   2000.0000   2000.0000     23.9760     98.8825
   273.2500   2000.0000   2000.0000     24.8867     98.4825
