~Version Information
VERS.                      2.0: CWLS Log ASCII Standard - VERSION 2.0
WRAP.                       NO: One line per depth step
~Well Information Block
STRT.FT               520.0000: 
STOP.FT              2555.2500: 
STEP.FT                 0.2500: 
NULL.                -999.2500: 
COMP.          Pioneer Natural Resources: COMPANY
WELL.          Horsefeathers 24-34: WELL
FLD.           Purgatoire River: FIELD
LOC.           183' FSL & 1570' FWL--: LOCATION
CNTY.               Las Animas: COUNTY
SRVC.                Patterson: SERVICE COMPANY
DATE.          Sun Feb 05 17:35:59 2006: LOG DATE
UWI.           05 071 08675 00: UNIQUE WELL ID
STAT.                 Colorado: STATE
~Curve Information Block
DEPT.FT            0 000 00 00: Depth
SN.Ohm-m                      : IEL Short Normal
SP.mV                         : IEL Spontaneous Potential
DIR.Ohm-m                     : IEL Induction Resistivity
GR.GAPI                       : Gamma Ray
~Parameter Information Block
NPORSHIFT.              0.0000: NPORSHIFT
~A  Depth        SN          SP         DIR          GR     
# ...
   922.0000   2000.0000   1975.0000     23.5266     94.0703
   922.2500   2000.0000   1975.0000     24.0332     98.1243
   922.5000   2000.0000   1975.0000     24.4487    103.7118
   922.7500   2000.0000   1975.0000     24.7748    106.3137
   923.0000   2000.0000   1975.0000     25.0267    108.0636
   923.2500   2000.0000   1975.0000     25.2393    108.0556
   923.5000   2000.0000   1975.0000     25.4588    107.1102
   923.7500   2000.0000   1975.0000     25.7196    106.1313
   924.0000   2000.0000   1975.0000     26.0242    103.9935
   924.2500   2000.0000   1975.0000     26.3399    101.9696
   924.5000   2000.0000   1975.0000     26.6149     98.3444
   924.7500   2000.0000   1975.0000     26.7987     96.0702
   925.0000   2000.0000   1975.0000     26.8536     93.7487
   925.2500   2000.0000   1975.0000     26.7565     93.0798
   925.5000   2000.0000   1975.0000     26.4968     93.0461
   925.7500   2000.0000   1975.0000     26.0778     93.3895
   926.0000   2000.0000   1975.0000     25.5147     94.2622
   926.2500   2000.0000   1975.0000     24.8273     95.1876
   926.5000   2000.0000   1975.0000     24.0316     97.4948
   926.7500   2000.0000   1975.0000     23.1402     99.8437
   927.0000   2000.0000   1975.0000     22.1720    104.5101
   927.2500   2000.0000   1975.0000     21.1622    108.0707
   927.5000   2000.0000   1975.0000     20.1635    113.4711
   927.7500   2000.0000   1975.0000     19.2328    116.9051
   928.0000   2000.0000   1975.0000     18.4131    121.5870
   928.2500   2000.0000   1975.0000     17.7216    124.1478
   928.5000   2000.0000   1975.0000     17.1491    126.5160
   928.7500   2000.0000   1975.0000     16.6689    126.8176
   929.0000   2000.0000   1975.0000     16.2473    125.1874
   929.2500   2000.0000   1975.0000     15.8525    122.7850
   929.5000   2000.0000   1975.0000     15.4585    117.7148
   929.7500   2000.0000   1975.0000     15.0491    114.0170
   930.0000   2000.0000   1975.0000     14.6188    109.6663
   930.2500   2000.0000   1975.0000     14.1732    108.4601
   930.5000   2000.0000   1975.0000     13.7255    109.7129
   930.7500   2000.0000   1975.0000     13.2925    112.1630
   931.0000   2000.0000   1975.0000     12.8912    116.9028
   931.2500   2000.0000   1975.0000     12.5352    120.0245
   931.5000   2000.0000   1975.0000     12.2308    123.6367
   931.7500   2000.0000   1975.0000     11.9743    124.8745
   932.0000   2000.0000   1975.0000     11.7527    124.6654
   932.2500   2000.0000   1975.0000     11.5494    123.3834
   932.5000   2000.0000   1975.0000     11.3526    120.6957
   932.7500   2000.0000   1975.0000     11.1615    119.0029
   933.0000   2000.0000   1975.0000     10.9891    117.3060
   933.2500   2000.0000   1975.0000     10.8601    116.8316
   933.5000   2000.0000   1975.0000     10.8061    116.9787
   933.7500   2000.0000   1975.0000     10.8590    117.5780
   934.0000   2000.0000   1975.0000     11.0432    119.0042
   934.2500   2000.0000   1975.0000     11.3675    119.8949
   934.5000   2000.0000   1975.0000     11.8175    119.8694
   934.7500   2000.0000   1975.0000     12.3525    118.0953
   935.0000   2000.0000   1975.0000     12.9098    111.9679
   935.2500   2000.0000   1975.0000     13.4236    105.9130
   935.5000   2000.0000   1975.0000     13.8510     95.9178
   935.7500   2000.0000   1975.0000     14.1868     90.0982
   936.0000   2000.0000   1975.0000     14.4539     84.4988
   936.2500   2000.0000   1975.0000     14.6747     83.5553
   936.5000   2000.0000   1975.0000     14.8463     87.2754
   936.7500   2000.0000   1975.0000     14.9362     93.4122
   937.0000   2000.0000   1975.0000     14.8981    106.9086
   937.2500   2000.0000   1975.0000     14.6987    116.9975
   937.5000   2000.0000   1975.0000     14.3395    130.5192
   937.7500   2000.0000   1975.0000     13.8618    137.7527
   938.0000   2000.0000   1975.0000     13.3354    147.3636
   938.2500   2000.0000   1975.0000     12.8394    154.2772
   938.5000   2000.0000   1975.0000     12.4441    165.9551
   938.7500   2000.0000   1975.0000     12.1997    173.3890
   939.0000   2000.0000   1975.0000     12.1329    180.3439
   939.2500   2000.0000   1975.0000     12.2511    180.2303
   939.5000   2000.0000   1975.0000     12.5497    171.5541
   939.7500   2000.0000   1975.0000     13.0209    160.8041
   940.0000   2000.0000   1975.0000     13.6596    140.6437
   940.2500   2000.0000   1975.0000     14.4665    127.0220
   940.5000   2000.0000   1975.0000     15.4467    109.6157
   940.7500   2000.0000   1975.0000     16.6036    100.7173
   941.0000   2000.0000   1975.0000     17.9268     90.7501
   941.2500   2000.0000   1975.0000     19.3728     85.5559
   941.5000   2000.0000   1975.0000     20.8486     79.0988
   941.7500   2000.0000   1975.0000     22.2078     75.7603
   942.0000   2000.0000   1975.0000     23.2716     72.9407
   942.2500   2000.0000   1975.0000     23.8762     72.9396
   942.5000   2000.0000   1975.0000     23.9321     76.2099
   942.7500   2000.0000   1975.0000     23.4651     80.7958
   943.0000   2000.0000   1975.0000     22.6039     91.5753
   943.2500   2000.0000   1975.0000     21.5218    101.1017
   943.5000   2000.0000   1975.0000     20.3746    117.0453
   943.7500   2000.0000   1975.0000     19.2686    127.1247
   944.0000   2000.0000   1975.0000     18.2609    139.1245
   944.2500   2000.0000   1975.0000     17.3748    144.5792
   944.5000   2000.0000   1975.0000     16.6165    149.3439
   944.7500   2000.0000   1975.0000     15.9869    150.7258
   945.0000   2000.0000   1975.0000     15.4839    150.8315
   945.2500   2000.0000   1975.0000     15.1010    149.8338
   945.5000   2000.0000   1975.0000     14.8253    146.9095
   945.7500   2000.0000   1975.0000     14.6383    144.2216
   946.0000   2000.0000   1975.0000     14.5204    139.9328
   946.2500   2000.0000   1975.0000     14.4544    137.3885
   946.5000   2000.0000   1975.0000     14.4263    134.0881
   946.7500   2000.0000   1975.0000     14.4250    131.8934
   947.0000   2000.0000   1975.0000     14.4426    128.4866
   947.2500   2000.0000   1975.0000     14.4775    126.7028
   947.5000   2000.0000   1975.0000     14.5365    126.1498
   947.7500   2000.0000   1975.0000     14.6317    127.4657
   948.0000   2000.0000   1975.0000     14.7741    130.6955
   948.2500   2000.0000   1975.0000     14.9706    132.2855
   948.5000   2000.0000   1975.0000     15.2259    131.8024
   948.7500   2000.0000   1975.0000     15.5477    129.2677
   949.0000   2000.0000   1975.0000     15.9490    123.3432
   949.2500   2000.0000   1975.0000     16.4457    119.2194
   949.5000   2000.0000   1975.0000     17.0524    114.5758
   949.7500   2000.0000   1975.0000     17.7777    112.8541
   950.0000   2000.0000   1975.0000     18.6224    111.5091
   950.2500   2000.0000   1975.0000     19.5803    110.5494
   950.5000   2000.0000   1975.0000     20.6424    108.1107
   950.7500   2000.0000   1975.0000     21.7999    105.9262
   951.0000   2000.0000   1975.0000     23.0420    102.2826
   951.2500   2000.0000   1975.0000     24.3509     99.6290
   951.5000   2000.0000   1975.0000     25.7016     95.2229
   951.7500   2000.0000   1975.0000     27.0718     92.1590
   952.0000   2000.0000   1975.0000     28.4486     87.7312
   952.2500   2000.0000   1975.0000     29.8225     84.8778
   952.5000   2000.0000   1975.0000     31.1705     80.4654
   952.7500   2000.0000   1975.0000     32.4456     77.4236
   953.0000   2000.0000   1975.0000     33.5846     73.2461
   953.2500   2000.0000   1975.0000     34.5339     71.1841
   953.5000   2000.0000   1975.0000     35.2799     69.5835
   953.7500   2000.0000   1975.0000     35.8609     69.3562
   954.0000   2000.0000   1975.0000     36.3487     69.6319
   954.2500   2000.0000   1975.0000     36.8124     69.8302
   954.5000   2000.0000   1975.0000     37.2887     69.4960
   954.7500   2000.0000   1975.0000     37.7686     68.5373
   955.0000   2000.0000   1975.0000     38.1994     65.9293
   955.2500   2000.0000   1975.0000     38.4997     63.7365
