~Version Information
VERS.                      2.0: CWLS Log ASCII Standard - VERSION 2.0
WRAP.                       NO: One line per depth step
~Well Information Block
STRT.FT               695.5000: 
STOP.FT              1499.5000: 
STEP.FT                 0.2500: 
NULL.                -999.2500: 
COMP.          Pioneer Natural Resources: COMPANY
WELL.          Pallet Ranch 34-25 Tr: WELL
FLD.           Purgatoire River: FIELD
LOC.           465' FSL & 2138' FEL: LOCATION
PROV.                 Colorado: PROVINCE
CNTY.               Las Animas: COUNTRY
SRVC.                Patterson: SERVICE COMPANY
DATE.          Wed Jan 18 18:58:46 2006: LOG DATE
UWI.           05 071 08657 00: UNIQUE WELL ID
~Curve Information Block
DEPT.FT            0 000 00 00: Depth
SN.Ohm-m                      : IEL Short Normal
SP.mV                         : IEL Spontaneous Potential
DIR.Ohm-m                     : IEL Induction Resistivity
GR.GAPI                       : Gamma Ray
~Parameter Information Block
~A  Depth        SN          SP         DIR          GR     
# ...
  1265.0000     24.8596     37.3562     13.9930     86.3146
  1265.2500     27.3779     37.4030     15.1192     81.4743
  1265.5000     29.8014     37.4419     16.3808     75.0550
  1265.7500     32.1189     37.4668     17.7701     71.3822
  1266.0000     34.3682     37.4688     19.2736     66.8939
  1266.2500     36.5381     37.4385     20.8689     64.4789
  1266.5000     38.4509     37.3691     22.5086     61.1836
  1266.7500     40.0023     37.2621     24.0859     58.9901
  1267.0000     41.3051     37.1295     25.4129     55.9294
  1267.2500     42.4899     36.9907     26.2704     54.3320
  1267.5000     43.5798     36.8654     26.5315     52.8747
  1267.7500     44.4289     36.7646     26.2443     52.5411
  1268.0000     44.6752     36.6880     25.5830     52.9702
  1268.2500     44.0192     36.6285     24.7366     54.0016
  1268.5000     42.5520     36.5808     23.8508     57.4578
  1268.7500     40.5967     36.5462     23.0271     61.6951
  1269.0000     38.3256     36.5287     22.3293     71.5088
  1269.2500     35.7753     36.5288     21.7808     80.0186
  1269.5000     33.1447     36.5432     21.3703     94.3830
  1269.7500     30.7487     36.5697     21.0727    104.1760
  1270.0000     28.6798     36.6124     20.8687    117.8232
  1270.2500     26.7772     36.6815     20.7470    125.4256
  1270.5000     24.9620     36.7842     20.6889    133.5325
  1270.7500     23.3807     36.9138     20.6553    136.5699
  1271.0000     22.1937     37.0478     20.5900    137.9356
  1271.2500     21.4412     37.1590     20.4411    136.9676
  1271.5000     21.0919     37.2298     20.1881    132.8676
  1271.7500     21.0708     37.2596     19.8577    128.5057
  1272.0000     21.3257     37.2625     19.5151    120.5902
  1272.2500     21.8423     37.2591     19.2370    115.7551
  1272.5000     22.5180     37.2672     19.0782    111.9177
  1272.7500     23.1512     37.2952     19.0522    112.5044
  1273.0000     23.5711     37.3399     19.1316    117.2369
  1273.2500     23.7457     37.3875     19.2633    121.4352
  1273.5000     23.7743     37.4183     19.3857    126.4505
  1273.7500     23.6862     37.4113     19.4338    127.8992
  1274.0000     23.3586     37.3493     19.3390    127.4539
  1274.2500     22.7733     37.2252     19.0419    126.5318
  1274.5000     22.1147     37.0497     18.5223    126.0473
  1274.7500     21.5235     36.8500     17.8216    126.5768
  1275.0000     20.9848     36.6574     17.0252    128.1167
  1275.2500     20.4461     36.4950     16.2194    129.4672
  1275.5000     19.9081     36.3734     15.4585    132.1294
  1275.7500     19.3969     36.2960     14.7629    134.2438
  1276.0000     18.8655     36.2660     14.1344    137.2903
  1276.2500     18.1969     36.2877     13.5702    139.0500
  1276.5000     17.3211     36.3603     13.0654    141.8752
  1276.7500     16.2539     36.4727     12.6132    144.4822
  1277.0000     15.1292     36.6083     12.2057    150.0084
  1277.2500     14.2034     36.7526     11.8389    154.5553
  1277.5000     13.6276     36.8934     11.5155    161.3397
  1277.7500     13.3225     37.0165     11.2435    164.7879
  1278.0000     13.1846     37.1124     11.0315    167.3366
  1278.2500     13.1616     37.1870     10.8851    167.6498
  1278.5000     13.1814     37.2620     10.8073    167.4881
  1278.7500     13.2117     37.3603     10.8021    167.3616
  1279.0000     13.2800     37.4906     10.8772    166.5904
  1279.2500     13.4207     37.6437     11.0436    165.1375
  1279.5000     13.6670     37.7989     11.3118    161.0721
  1279.7500     14.0738     37.9354     11.6870    157.0982
  1280.0000     14.6846     38.0415     12.1685    149.2472
  1280.2500     15.4351     38.1189     12.7507    142.5765
  1280.5000     16.2597     38.1816     13.4262    129.8790
  1280.7500     17.2544     38.2501     14.1866    119.4973
  1281.0000     18.5115     38.3447     15.0219    101.9155
  1281.2500     20.0172     38.4779     15.9175     90.0488
  1281.5000     21.8494     38.6491     16.8520     74.5684
  1281.7500     24.1810     38.8457     17.7980     66.9764
  1282.0000     26.9200     39.0505     18.7284     60.4825
  1282.2500     29.4962     39.2497     19.6249     59.2133
  1282.5000     31.2502     39.4364     20.4850     61.0490
  1282.7500     31.9443     39.6089     21.3154     64.2363
  1283.0000     31.7366     39.7652     22.1127     71.0744
  1283.2500     30.8990     39.8989     22.8444     76.5715
  1283.5000     29.7032     39.9989     23.4436     85.6111
  1283.7500     28.3964     40.0557     23.8279     91.4899
  1284.0000     27.1912     40.0719     23.9321     97.9649
  1284.2500     26.2520     40.0709     23.7393     99.6383
  1284.5000     25.5932     40.0915     23.2943     98.5704
  1284.7500     25.0266     40.1673     22.6923     96.9855
  1285.0000     24.3973     40.3090     22.0500     96.0577
  1285.2500     23.8045     40.5035     21.4712     97.1937
  1285.5000     23.4046     40.7253     21.0227    101.1380
  1285.7500     23.1918     40.9455     20.7270    104.2366
  1286.0000     23.1041     41.1382     20.5704    107.3210
  1286.2500     23.1041     41.2870     20.5199    107.4097
  1286.5000     23.0898     41.3911     20.5398    104.6073
  1286.7500     22.9348     41.4648     20.6003    101.6197
  1287.0000     22.6844     41.5296     20.6779     97.2892
  1287.2500     22.6182     41.6053     20.7527     95.2244
  1287.5000     22.9864     41.7057     20.8091     93.6190
  1287.7500     23.6542     41.8396     20.8398     93.3416
  1288.0000     24.2448     42.0101     20.8523     93.7269
  1288.2500     24.6267     42.2109     20.8719     94.3285
  1288.5000     24.9513     42.4243     20.9364     95.3664
  1288.7500     25.3012     42.6247     21.0858     95.9830
  1289.0000     25.5825     42.7871     21.3527     96.8912
  1289.2500     25.7415     42.8963     21.7544     97.7861
  1289.5000     25.8728     42.9546     22.2852    100.1623
  1289.7500     26.0460     42.9828     22.9079    102.4844
  1290.0000     26.2315     43.0090     23.5476    106.1603
  1290.2500     26.3965     43.0529     24.1035    107.7932
  1290.5000     26.5768     43.1169     24.4832    107.6772
  1290.7500     26.8456     43.1907     24.6400    105.6914
  1291.0000     27.1621     43.2608     24.5831    100.5744
  1291.2500     27.3924     43.3163     24.3564     96.5740
  1291.5000     27.5792     43.3511     24.0093     91.2339
  1291.7500     27.8820     43.3646     23.5833     88.7814
  1292.0000     28.2091     43.3602     23.1156     87.3939
  1292.2500     28.2774     43.3425     22.6451     88.1725
  1292.5000     27.9335     43.3136     22.2094     92.0342
  1292.7500     27.2228     43.2732     21.8372     96.3335
  1293.0000     26.3104     43.2210     21.5422    104.7533
  1293.2500     25.3291     43.1589     21.3221    110.9567
  1293.5000     24.3158     43.0934     21.1608    119.5972
  1293.7500     23.3555     43.0381     21.0288    124.0622
  1294.0000     22.5743     43.0118     20.8864    127.5715
  1294.2500     22.0181     43.0284     20.6969    127.2541
  1294.5000     21.7469     43.0856     20.4483    122.7791
  1294.7500     21.8274     43.1653     20.1674    117.8816
  1295.0000     22.1294     43.2417     19.9093    109.8046
  1295.2500     22.4853     43.2941     19.7303    105.1096
  1295.5000     22.9743     43.3146     19.6673    100.2137
  1295.7500     23.6696     43.3094     19.7341     98.4378
  1296.0000     24.3611     43.2957     19.9285     97.3601
  1296.2500     24.7947     43.2927     20.2379     97.0802
  1296.5000     24.9284     43.3129     20.6411     96.3047
  1296.7500     24.8901     43.3563     21.1102     95.3441
  1297.0000     24.8029     43.4124     21.6156     93.9404
  1297.2500     24.7207     43.4674     22.1293     93.7654
  1297.5000     24.6862     43.5097     22.6237     95.2370
  1297.7500     24.7327     43.5332     23.0643     96.8213
  1298.0000     24.8707     43.5396     23.4056     97.8193
  1298.2500     25.0932     43.5434     23.5974     96.2101
