~Version Information
VERS.                      2.0: CWLS Log ASCII Standard - VERSION 2.0
WRAP.                       NO: One line per depth step
~Well Information Block
STRT.FT               597.2500: 
STOP.FT              1567.2500: 
STEP.FT                 0.2500: 
NULL.                -999.2500: 
COMP.          Pioneer Natural Resources: COMPANY
WELL.           Butch 33-10 Tr: WELL
FLD.           Purgatoire River: FIELD
LOC.           2309' FSL & 1337' FEL--: LOCATION
PROV.                 Colorado: PROVINCE
CNTY.               Las Animas: COUNTRY
SRVC.                Patterson: SERVICE COMPANY
DATE.          Sat Jan 14 05:18:29 2006: LOG DATE
UWI.           05 071 08649 00: UNIQUE WELL ID
~Curve Information Block
DEPT.FT            0 000 00 00: Depth
SN.Ohm-m                      : IEL Short Normal
SP.mV                         : IEL Spontaneous Potential
DIR.Ohm-m                     : IEL Induction Resistivity
GR.GAPI                       : Gamma Ray
~Parameter Information Block
~A  Depth        SN          SP         DIR          GR     
# ...
   932.2500     86.8036    -45.6648     49.5310     65.2690
   932.5000     83.6761    -46.1089     48.9545     62.6448
   932.7500     81.4210    -46.7172     48.4245     58.1535
   933.0000     80.5740    -47.3957     48.0053     50.0465
   933.2500     81.1091    -48.0444     47.7671     44.8979
   933.5000     82.2587    -48.5700     47.7174     38.2799
   933.7500     82.8351    -48.8977     47.7456     34.6887
   934.0000     81.8553    -48.9792     47.6116     31.0373
   934.2500     78.9687    -48.7961     47.0039     30.3516
   934.5000     74.4214    -48.3590     45.6588     32.8166
   934.7500     68.7346    -47.7032     43.4802     36.8634
   935.0000     62.4216    -46.8813     40.5827     45.9732
   935.2500     55.8941    -45.9544     37.2310     53.5736
   935.5000     49.4943    -44.9847     33.7344     66.2325
   935.7500     43.5268    -44.0283     30.3613     74.7538
   936.0000     38.2356    -43.1305     27.2990     86.5582
   936.2500     33.7579    -42.3234     24.6477     93.6658
   936.5000     30.1040    -41.6253     22.4315    103.8189
   936.7500     27.1842    -41.0417     20.6206    110.4869
   937.0000     24.8689    -40.5680     19.1572    119.6452
   937.2500     23.0455    -40.1926     17.9792    124.2963
   937.5000     21.6421    -39.9009     17.0361    127.8718
   937.7500     20.6125    -39.6776     16.2937    128.0696
   938.0000     19.9071    -39.5105     15.7313    126.7193
   938.2500     19.4538    -39.3916     15.3322    125.8683
   938.5000     19.1632    -39.3188     15.0746    125.4379
   938.7500     18.9474    -39.2956     14.9255    125.2922
   939.0000     18.7413    -39.3303     14.8422    124.0314
   939.2500     18.5174    -39.4328     14.7817    122.0276
   939.5000     18.2858    -39.6107     14.7148    117.5027
   939.7500     18.0804    -39.8637     14.6349    114.3082
   940.0000     17.9382    -40.1785     14.5551    111.4468
   940.2500     17.8839    -40.5258     14.4956    111.9147
   940.5000     17.9231    -40.8618     14.4713    116.4768
   940.7500     18.0389    -41.1335     14.4878    121.0629
   941.0000     18.1981    -41.2896     14.5466    127.1196
   941.2500     18.3707    -41.2930     14.6529    129.0661
   941.5000     18.5549    -41.1297     14.8201    128.7205
   941.7500     18.7800    -40.8134     15.0668    127.5802
   942.0000     19.0799    -40.3816     15.4116    126.4774
   942.2500     19.4566    -39.8845     15.8658    126.1321
   942.5000     19.8624    -39.3710     16.4276    124.8163
   942.7500     20.2127    -38.8757     17.0739    122.8446
   943.0000     20.4242    -38.4125     17.7526    118.4916
   943.2500     20.4560    -37.9759     18.3813    115.1910
   943.5000     20.3310    -37.5502     18.8577    110.4478
   943.7500     20.1225    -37.1222     19.0875    107.6838
   944.0000     19.9113    -36.6936     19.0166    104.3164
   944.2500     19.7402    -36.2854     18.6510    102.7493
   944.5000     19.5954    -35.9346     18.0494    102.2056
   944.7500     19.4252    -35.6822     17.2969    103.7049
   945.0000     19.1750    -35.5557     16.4774    109.2454
   945.2500     18.8149    -35.5555     15.6573    114.6677
   945.5000     18.3473    -35.6480     14.8807    123.6701
   945.7500     17.7996    -35.7700     14.1710    129.2639
   946.0000     17.2075    -35.8424     13.5365    135.9510
   946.2500     16.6032    -35.7886     12.9793    138.9766
   946.5000     16.0120    -35.5511     12.5015    141.3753
   946.7500     15.4532    -35.1035     12.1083    141.8684
   947.0000     14.9368    -34.4543     11.8054    141.6293
   947.2500     14.4596    -33.6460     11.5931    140.9445
   947.5000     14.0076    -32.7493     11.4624    139.0546
   947.7500     13.5658    -31.8543     11.3935    137.5287
   948.0000     13.1263    -31.0585     11.3597    135.9037
   948.2500     12.6970    -30.4519     11.3341    135.3834
   948.5000     12.3136    -30.1015     11.2968    134.1848
   948.7500     12.0400    -30.0380     11.2419    132.4062
   949.0000     11.9463    -30.2509     11.1782    128.8960
   949.2500     12.0742    -30.6933     11.1250    127.1015
   949.5000     12.4157    -31.2952     11.1025    126.3119
   949.7500     12.9200    -31.9822     11.1252    126.6668
   950.0000     13.5240    -32.6932     11.2015    127.0076
   950.2500     14.1904    -33.3907     11.3390    126.4965
   950.5000     14.9405    -34.0645     11.5504    124.7092
   950.7500     15.8540    -34.7273     11.8559    123.3995
   951.0000     17.0246    -35.4048     12.2811    122.2154
   951.2500     18.4973    -36.1258     12.8526    121.9369
   951.5000     20.2378    -36.9123     13.5933    120.8696
   951.7500     22.1681    -37.7728     14.5187    118.4473
   952.0000     24.2448    -38.6979     15.6354    110.7046
   952.2500     26.5124    -39.6601     16.9441    102.8541
   952.5000     29.0763    -40.6157     18.4446     88.7534
   952.7500     31.9971    -41.5099     20.1327     79.3280
   953.0000     35.1662    -42.2834     21.9805     67.8314
   953.2500     38.2528    -42.8804     23.9015     63.1556
   953.5000     40.7823    -43.2567     25.7226     61.5569
   953.7500     42.3127    -43.3851     27.1953     63.7493
   954.0000     42.5945    -43.2587     28.0649     69.9721
   954.2500     41.6272    -42.8918     28.1705     74.6785
   954.5000     39.6145    -42.3160     27.5141     81.1353
   954.7500     36.8702    -41.5757     26.2539     85.1821
   955.0000     33.7320    -40.7214     24.6333     92.1693
   955.2500     30.5122    -39.8041     22.8958     97.9352
   955.5000     27.4743    -38.8706     21.2283    107.5484
   955.7500     24.8042    -37.9599     19.7423    113.5415
   956.0000     22.5809    -37.1026     18.4810    120.5135
   956.2500     20.7832    -36.3205     17.4366    123.8466
   956.5000     19.3462    -35.6274     16.5726    128.0158
   956.7500     18.2198    -35.0300     15.8471    130.7343
   957.0000     17.3811    -34.5291     15.2306    134.1375
   957.2500     16.8101    -34.1207     14.7148    135.0532
   957.5000     16.4689    -33.7966     14.3089    133.5659
   957.7500     16.3061    -33.5463     14.0279    131.1797
   958.0000     16.2709    -33.3579     13.8820    127.5066
   958.2500     16.3193    -33.2194     13.8694    125.9408
   958.5000     16.4115    -33.1205     13.9740    124.9421
   958.7500     16.5110    -33.0532     14.1657    124.4806
   959.0000     16.5892    -33.0123     14.4037    123.5054
   959.2500     16.6321    -32.9953     14.6429    123.2424
   959.5000     16.6377    -33.0022     14.8428    124.7020
   959.7500     16.6105    -33.0341     14.9759    126.8094
   960.0000     16.5585    -33.0919     15.0292    130.2582
   960.2500     16.4898    -33.1751     15.0015    132.1599
   960.5000     16.4048    -33.2809     14.9004    134.5222
   960.7500     16.2906    -33.4030     14.7385    136.0022
   961.0000     16.1294    -33.5326     14.5300    137.8358
   961.2500     15.9154    -33.6591     14.2880    138.3562
   961.5000     15.6637    -33.7716     14.0230    137.5853
   961.7500     15.4033    -33.8606     13.7458    136.2411
   962.0000     15.1613    -33.9188     13.4671    134.1020
   962.2500     14.9499    -33.9417     13.1964    133.2642
   962.5000     14.7674    -33.9268     12.9396    133.1775
   962.7500     14.6095    -33.8736     12.6996    133.5345
   963.0000     14.4793    -33.7821     12.4797    133.9907
   963.2500     14.3875    -33.6525     12.2866    134.2041
   963.5000     14.3441    -33.4852     12.1294    134.8567
   963.7500     14.3499    -33.2810     12.0149    135.7261
   964.0000     14.3893    -33.0407     11.9421    137.5009
   964.2500     14.4258    -32.7653     11.8991    138.6213
   964.5000     14.4096    -32.4556     11.8644    139.3382
   964.7500     14.2977    -32.1122     11.8148    138.6863
   965.0000     14.0741    -31.7365     11.7355    135.7241
   965.2500     13.7527    -31.3311     11.6269    132.8141
   965.5000     13.3630    -30.9010     11.5034    128.4278
