~Version Information
VERS.                      2.0: CWLS Log ASCII Standard - VERSION 2.0
WRAP.                       NO: One line per depth step
~Well Information Block
STRT.FT               597.2500: 
STOP.FT              1567.2500: 
STEP.FT                 0.2500: 
NULL.                -999.2500: 
COMP.          Pioneer Natural Resources: COMPANY
WELL.           Butch 33-10 Tr: WELL
FLD.           Purgatoire River: FIELD
LOC.           2309' FSL & 1337' FEL--: LOCATION
PROV.                 Colorado: PROVINCE
CNTY.               Las Animas: COUNTRY
SRVC.                Patterson: SERVICE COMPANY
DATE.          Sat Jan 14 05:18:29 2006: LOG DATE
UWI.           05 071 08649 00: UNIQUE WELL ID
~Curve Information Block
DEPT.FT            0 000 00 00: Depth
SN.Ohm-m                      : IEL Short Normal
SP.mV                         : IEL Spontaneous Potential
DIR.Ohm-m                     : IEL Induction Resistivity
GR.GAPI                       : Gamma Ray
~Parameter Information Block
~A  Depth        SN          SP         DIR          GR     
# ...
  1166.7500     36.8294    -16.7591     33.1942     93.4381
  1167.0000     36.3936    -16.3566     33.1642     94.7829
  1167.2500     35.9561    -15.9362     33.1355     94.8469
  1167.5000     35.5895    -15.5114     33.1162     93.8285
  1167.7500     35.3378    -15.0977     33.1015     93.4190
  1168.0000     35.2017    -14.7111     33.0849     94.7495
  1168.2500     35.1481    -14.3662     33.0630     96.5854
  1168.5000     35.1334    -14.0735     33.0260     98.3406
  1168.7500     35.1271    -13.8371     32.9483     97.6441
  1169.0000     35.1183    -13.6544     32.7951     93.6526
  1169.2500     35.1059    -13.5159     32.5494     89.7387
  1169.5000     35.0791    -13.4081     32.2352     83.2132
  1169.7500     35.0132    -13.3160     31.9099     78.8373
  1170.0000     34.8824    -13.2268     31.6251     72.7914
  1170.2500     34.6794    -13.1317     31.3933     69.4703
  1170.5000     34.4258    -13.0271     31.1870     65.6992
  1170.7500     34.1646    -12.9137     30.9710     63.5281
  1171.0000     33.9397    -12.7953     30.7327     59.7521
  1171.2500     33.7733    -12.6764     30.4831     56.8841
  1171.5000     33.6564    -12.5616     30.2329     53.3092
  1171.7500     33.5606    -12.4541     29.9736     52.1487
  1172.0000     33.4603    -12.3561     29.6866     52.2345
  1172.2500     33.3453    -12.2694     29.3683     52.8687
  1172.5000     33.2170    -12.1960     29.0425     53.6175
  1172.7500     33.0813    -12.1382     28.7497     53.7793
  1173.0000     32.9479    -12.0987     28.5269     53.9276
  1173.2500     32.8381    -12.0804     28.3938     54.4575
  1173.5000     32.7850    -12.0856     28.3538     56.5777
  1173.7500     32.8224    -12.1163     28.3994     58.9021
  1174.0000     32.9712    -12.1748     28.5168     63.2101
  1174.2500     33.2344    -12.2635     28.6912     66.1213
  1174.5000     33.6007    -12.3858     28.9168     69.4149
  1174.7500     34.0524    -12.5452     29.2066     70.2115
  1175.0000     34.5733    -12.7441     29.5914     68.7201
  1175.2500     35.1537    -12.9822     30.1035     66.1125
  1175.5000     35.7889    -13.2544     30.7545     60.6776
  1175.7500     36.4753    -13.5502     31.5205     56.6394
  1176.0000     37.2086    -13.8543     32.3455     50.7966
  1176.2500     37.9823    -14.1483     33.1607     47.3306
  1176.5000     38.7853    -14.4142     33.9104     42.9956
  1176.7500     39.6006    -14.6377     34.5665     40.8025
  1177.0000     40.4074    -14.8115     35.1195     38.8461
  1177.2500     41.1796    -14.9373     35.5530     38.4968
  1177.5000     41.8847    -15.0260     35.8288     39.1148
  1177.7500     42.4882    -15.0966     35.8994     39.9732
  1178.0000     42.9660    -15.1732     35.7378     41.4606
  1178.2500     43.3142    -15.2816     35.3531     42.4102
  1178.5000     43.5463    -15.4443     34.7825     43.6192
  1178.7500     43.6863    -15.6757     34.0783     44.3307
  1179.0000     43.7603    -15.9777     33.3070     45.6574
  1179.2500     43.7843    -16.3358     32.5508     47.0524
  1179.5000     43.7410    -16.7176     31.8885     50.2537
  1179.7500     43.5555    -17.0740     31.3564     52.9329
  1180.0000     43.0885    -17.3446     30.9101     56.5953
  1180.2500     42.1693    -17.4664     30.4169     57.9300
  1180.5000     40.6705    -17.3843     29.6985     57.5545
  1180.7500     38.5927    -17.0617     28.6158     56.1575
  1181.0000     36.0959    -16.4886     27.1451     54.3202
  1181.2500     33.4430    -15.6847     25.3868     54.6555
  1181.5000     30.8871    -14.6973     23.5035     59.3381
  1181.7500     28.5848    -13.5942     21.6500     65.6802
  1182.0000     26.5836    -12.4533     19.9364     79.6308
  1182.2500     24.8683    -11.3515     18.4251     91.2226
  1182.5000     23.4153    -10.3552     17.1417    110.4275
  1182.7500     22.2151     -9.5133     16.0867    123.1377
  1183.0000     21.2641     -8.8545     15.2470    139.2119
  1183.2500     20.5439     -8.3882     14.6041    146.3174
  1183.5000     20.0032     -8.1082     14.1395    150.0901
  1183.7500     19.5591     -7.9978     13.8360    148.4223
  1184.0000     19.1255     -8.0350     13.6776    142.6455
  1184.2500     18.6566     -8.1969     13.6502    139.0705
  1184.5000     18.1769     -8.4612     13.7414    137.0294
  1184.7500     17.7801     -8.8071     13.9404    137.6664
  1185.0000     17.5962     -9.2140     14.2359    138.6319
  1185.2500     17.7338     -9.6597     14.6127    137.6274
  1185.5000     18.2180    -10.1190     15.0479    133.2317
  1185.7500     18.9578    -10.5628     15.5090    129.4211
  1186.0000     19.7665    -10.9582     15.9525    124.6177
  1186.2500     20.4271    -11.2706     16.3266    122.7354
  1186.5000     20.7676    -11.4664     16.5759    121.6858
  1186.7500     20.7126    -11.5173     16.6507    121.5049
  1187.0000     20.2884    -11.4046     16.5198    120.6297
  1187.2500     19.5884    -11.1231     16.1795    119.0514
  1187.5000     18.7283    -10.6825     15.6558    115.3294
  1187.7500     17.8151    -10.1066     14.9984    112.8608
  1188.0000     16.9372     -9.4298     14.2692    111.1432
  1188.2500     16.1600     -8.6912     13.5276    111.8236
  1188.5000     15.5153     -7.9292     12.8176    114.9340
  1188.7500     14.9902     -7.1766     12.1609    117.7222
  1189.0000     14.5342     -6.4578     11.5605    122.3371
  1189.2500     14.0886     -5.7886     11.0094    125.6866
  1189.5000     13.6189     -5.1773     10.5016    131.1933
  1189.7500     13.1283     -4.6275     10.0384    134.9635
  1190.0000     12.6465     -4.1401      9.6283    139.7662
  1190.2500     12.2077     -3.7158      9.2826    141.8531
  1190.5000     11.8333     -3.3550      9.0093    143.5426
  1190.7500     11.5311     -3.0584      8.8093    144.4781
  1191.0000     11.3062     -2.8252      8.6750    146.5452
  1191.2500     11.1691     -2.6530      8.5929    148.0651
  1191.5000     11.1270     -2.5363      8.5467    149.1618
  1191.7500     11.1665     -2.4675      8.5211    148.6522
  1192.0000     11.2481     -2.4372      8.5049    146.6524
  1192.2500     11.3223     -2.4356      8.4928    145.2460
  1192.5000     11.3556     -2.4538      8.4854    143.7475
  1192.7500     11.3457     -2.4852      8.4887    143.1170
  1193.0000     11.3133     -2.5262      8.5113    142.5468
  1193.2500     11.2828     -2.5767      8.5608    142.4937
  1193.5000     11.2647     -2.6396      8.6399    143.0515
  1193.7500     11.2556     -2.7196      8.7440    143.7015
  1194.0000     11.2507     -2.8216      8.8618    144.5787
  1194.2500     11.2585     -2.9484      8.9778    144.9178
  1194.5000     11.3035     -3.0990      9.0775    145.0847
  1194.7500     11.4137     -3.2686      9.1530    145.0204
  1195.0000     11.5999     -3.4493      9.2061    144.6537
  1195.2500     11.8394     -3.6334      9.2471    144.2150
  1195.5000     12.0806     -3.8157      9.2885    143.2427
  1195.7500     12.2686     -3.9955      9.3386    142.4558
  1196.0000     12.3763     -4.1767      9.3989    141.6914
  1196.2500     12.4129     -4.3652      9.4635    141.8949
  1196.5000     12.4037     -4.5644      9.5206    142.8734
  1196.7500     12.3630     -4.7708      9.5539    142.9318
  1197.0000     12.2863     -4.9719      9.5462    140.6479
  1197.2500     12.1626     -5.1465      9.4846    137.8016
  1197.5000     11.9919     -5.2699      9.3663    133.5757
  1197.7500     11.7909     -5.3212      9.2000    131.9753
  1198.0000     11.5831     -5.2914      9.0023    132.4189
  1198.2500     11.3813     -5.1878      8.7920    134.6319
  1198.5000     11.1783     -5.0335      8.5849    139.9477
  1198.7500     10.9543     -4.8610      8.3921    143.7664
  1199.0000     10.6977     -4.7014      8.2203    148.0167
  1199.2500     10.4225     -4.5740      8.0734    149.4126
  1199.5000     10.1664     -4.4793      7.9549    149.8089
  1199.7500      9.9697     -4.3987      7.8685    149.3499
  1200.0000      9.8478     -4.3006      7.8177    147.9201
