~Version Information
VERS.                      2.0: CWLS Log ASCII Standard - VERSION 2.0
WRAP.                       NO: One line per depth step
~Well Information Block
STRT.FT               595.7000: 
STOP.FT              1567.2000: 
STEP.FT                 0.1000: 
NULL.                -999.2500: 
COMP.          Pioneer Natural Resources: COMPANY
WELL.           Butch 33-10 Tr: WELL
FLD.           Purgatoire River: FIELD
LOC.           2309' FSL & 1337' FEL--: LOCATION
PROV.                 Colorado: PROVINCE
CNTY.               Las Animas: COUNTRY
SRVC.                Patterson: SERVICE COMPANY
DATE.          Mon Jan 16 07:34:05 2006: LOG DATE
UWI.           05 071 08649 00: UNIQUE WELL ID
~Curve Information Block
DEPT.FT            0 000 00 00: Depth
DCAL.in                       : CDL Caliper
RHOB.g/cc                     : CDL Bulk Density
RHOC.g/cc                     : CDL Density Correction
DPOR.pu                       : CDL Density Porosity
GR.GAPI                       : Gamma Ray
~Parameter Information Block
~A  Depth       DCAL        RHOB        RHOC        DPOR         GR     
# ...
  1536.5000      7.8191      2.5045      0.0679      8.8184    136.7960
  1536.6000      7.8191      2.5174      0.0918      8.0341    144.6495
  1536.7000      7.8191      2.5117      0.1166      8.3839    154.7276
  1536.8000      7.8002      2.4963      0.0467      9.3134    166.2294
  1536.9000      7.8002      2.4999      0.0969      9.0987    176.5854
  1537.0000      7.7932      2.5197      0.0955      7.8992    181.8716
  1537.1000      7.7932      2.5314      0.1030      7.1867    181.0186
  1537.2000      7.7932      2.5244      0.0949      7.6119    174.3307
  1537.3000      7.7962      2.5102      0.0607      8.4742    164.6072
  1537.4000      7.7962      2.5060      0.0700      8.7259    157.2771
  1537.5000      7.8022      2.5128      0.0868      8.3173    157.2570
  1537.6000      7.8022      2.5184      0.0741      7.9772    161.0615
  1537.7000      7.8022      2.5156      0.0452      8.1482    159.4274
  1537.8000      7.8054      2.5126      0.0485      8.3263    155.8077
  1537.9000      7.8054      2.5287      0.0356      7.3532    156.5101
  1538.0000      7.8061      2.5623      0.1258      5.3160    152.4814
  1538.1000      7.8061      2.5868      0.0951      3.8297    137.9888
  1538.2000      7.8061      2.5947      0.1049      3.3524    121.5344
  1538.3000      7.8086      2.5994      0.1156      3.0689    112.6115
  1538.4000      7.8086      2.6056      0.1265      2.6882    112.0223
  1538.5000      7.8116      2.6066      0.1199      2.6285    112.0528
  1538.6000      7.8116      2.5987      0.0928      3.1067    107.6968
  1538.7000      7.8116      2.5912      0.0788      3.5621    104.3361
  1538.8000      7.8122      2.5942      0.0858      3.3833    104.9039
  1538.9000      7.8122      2.6028      0.0881      2.8595    106.0813
  1539.0000      7.8103      2.6063      0.0761      2.6497    104.3591
  1539.1000      7.8103      2.6057      0.0915      2.6858     99.6141
  1539.2000      7.8103      2.6029      0.0745      2.8529     94.0482
  1539.3000      7.8098      2.5902      0.0675      3.6264     88.6023
  1539.4000      7.8098      2.5734      0.0119      4.6443     85.1957
  1539.5000      7.8095      2.5723      0.0251      4.7100     83.8081
  1539.6000      7.8095      2.5808      0.0390      4.1917     77.9099
  1539.7000      7.8095      2.5752      0.0761      4.5322     59.1979
  1539.8000      7.8106      2.5523      0.0300      5.9229     31.2951
  1539.9000      7.8106      2.5355      0.0072      6.9367     10.1679
  1540.0000      7.8128      2.5427      0.0605      6.5001      1.8859
  1540.1000      7.8128      2.5617      0.0336      5.3511      0.1919
  1540.2000      7.8128      2.5739      0.0352      4.6151      0.0103
  1540.3000      7.8065      2.5768      0.0588      4.4356      0.0000
  1540.4000      7.8065      2.5740      0.0688      4.6049   -999.2500
  1540.5000      7.7965      2.5692      0.0613      4.8988   -999.2500
  1540.6000      7.7965      2.5673      0.0669      5.0151   -999.2500
  1540.7000      7.7965      2.5697      0.0784      4.8688   -999.2500
  1540.8000      7.7899      2.5759      0.0469      4.4889   -999.2500
  1540.9000      7.7899      2.5817      0.0725      4.1369   -999.2500
  1541.0000      7.7851      2.5808      0.0713      4.1931   -999.2500
  1541.1000      7.7851      2.5805      0.0640      4.2149   -999.2500
  1541.2000      7.7851      2.5955      0.0485      3.3001   -999.2500
  1541.3000      7.7880      2.6210      0.0991      1.7603   -999.2500
  1541.4000      7.7880      2.6337      0.1085      0.9881   -999.2500
  1541.5000      7.7983      2.6274      0.0633      1.3695   -999.2500
  1541.6000      7.7983      2.6167      0.1210      2.0171   -999.2500
  1541.7000      7.7983      2.6138      0.0617      2.1951   -999.2500
  1541.8000      7.8014      2.6145      0.1274      2.1501   -999.2500
  1541.9000      7.8014      2.6009      0.0660      2.9751   -999.2500
  1542.0000      7.7934      2.5725      0.0737      4.6983   -999.2500
  1542.1000      7.7934      2.5510      0.0527      6.0029   -999.2500
  1542.2000      7.7934      2.5468      0.0559      6.2538   -999.2500
  1542.3000      7.7884      2.5465      0.0692      6.2742   -999.2500
  1542.4000      7.7884      2.5351      0.0664      6.9628   -999.2500
  1542.5000      7.7982      2.5177      0.0425      8.0200   -999.2500
  1542.6000      7.7982      2.5036      0.0497      8.8736   -999.2500
  1542.7000      7.7982      2.4926      0.0661      9.5398   -999.2500
  1542.8000      7.8153      2.4875      0.0608      9.8515   -999.2500
  1542.9000      7.8153      2.4915      0.0597      9.6031   -999.2500
  1543.0000      7.8299      2.4957      0.0600      9.3505   -999.2500
  1543.1000      7.8299      2.4948      0.0360      9.4031   -999.2500
  1543.2000      7.8299      2.4987      0.0663      9.1702   -999.2500
  1543.3000      7.8323      2.5096      0.0928      8.5066   -999.2500
  1543.4000      7.8323      2.5218      0.0802      7.7720   -999.2500
  1543.5000      7.8203      2.5381      0.0896      6.7807   -999.2500
  1543.6000      7.8203      2.5608      0.0924      5.4031   -999.2500
  1543.7000      7.8203      2.5766      0.1305      4.4466   -999.2500
  1543.8000      7.8031      2.5733      0.0907      4.6487   -999.2500
  1543.9000      7.8031      2.5551      0.1260      5.7528   -999.2500
  1544.0000      7.7901      2.5352      0.0447      6.9564   -999.2500
  1544.1000      7.7901      2.5224      0.0988      7.7304   -999.2500
  1544.2000      7.7901      2.5158      0.0452      8.1313   -999.2500
  1544.3000      7.7846      2.5161      0.0312      8.1174   -999.2500
  1544.4000      7.7846      2.5196      0.0840      7.9012   -999.2500
  1544.5000      7.7774      2.5137      0.0673      8.2603   -999.2500
  1544.6000      7.7774      2.4955      0.0395      9.3666   -999.2500
  1544.7000      7.7774      2.4815      0.0512     10.2111   -999.2500
  1544.8000      7.7658      2.4943      0.0245      9.4374   -999.2500
  1544.9000      7.7658      2.5369      0.0929      6.8576   -999.2500
  1545.0000      7.7646      2.5821      0.1251      4.1163   -999.2500
  1545.1000      7.7646      2.6034      0.1472      2.8221   -999.2500
  1545.2000      7.7646      2.6005      0.1251      3.0027   -999.2500
  1545.3000      7.7739      2.5884      0.1071      3.7318   -999.2500
  1545.4000      7.7739      2.5789      0.0741      4.3065   -999.2500
  1545.5000      7.7822      2.5699      0.1180      4.8553   -999.2500
  1545.6000      7.7822      2.5519      0.0781      5.9471   -999.2500
  1545.7000      7.7822      2.5266      0.0481      7.4769   -999.2500
  1545.8000      7.7854      2.5054      0.0216      8.7616   -999.2500
  1545.9000      7.7854      2.4940      0.0322      9.4531   -999.2500
  1546.0000      7.7848      2.4881      0.0202      9.8135   -999.2500
  1546.1000      7.7848      2.4850      0.0121     10.0000   -999.2500
  1546.2000      7.7848      2.4819      0.0755     10.1885   -999.2500
  1546.3000      7.7838      2.4719      0.0484     10.7960   -999.2500
  1546.4000      7.7838      2.4610      0.0402     11.4561   -999.2500
  1546.5000      7.7825      2.4625      0.0455     11.3651   -999.2500
  1546.6000      7.7825      2.4759      0.0681     10.5511   -999.2500
  1546.7000      7.7825      2.4861      0.0838      9.9338   -999.2500
  1546.8000      7.7752      2.4861      0.0633      9.9325   -999.2500
  1546.9000      7.7752      2.4911      0.0669      9.6278   -999.2500
  1547.0000      7.7543      2.5165      0.0878      8.0915   -999.2500
  1547.1000      7.7543      2.5577      0.1032      5.5967   -999.2500
  1547.2000      7.7543      2.5968      0.1101      3.2264   -999.2500
  1547.3000      7.7283      2.6201      0.1091      1.8145   -999.2500
  1547.4000      7.7283      2.6295      0.1318      1.2447   -999.2500
  1547.5000      7.7099      2.6319      0.1174      1.0993   -999.2500
  1547.6000      7.7099      2.6221      0.1220      1.6915   -999.2500
