~Version Information
 VERS.                                  2.0 : CWLS LAS VERSION
 WRAP.                                   NO : WRAPING MODE
 SWARE .                MController 2.5.0QA : SOFTWARE VERSION
~Well Information
 WELL.                            Ray 34-06 : WELL
 COMP.    Pioneer Natural Resources USA Inc : COMPANY
 FLD.                      Purgatoire River : FIELD
 LOC.                  SWSE Sec06 T34S R65W : LOCATION
 DATE.                             05/25/06 : DATE(S) LOGGED
 SRVC.       Blanco Geological Services LLC : SERVICE COMPANY
 STAT.                             Colorado : STATE
 CNTY.                           Las Animas : COUNTY
 CTRY.                                  USA : COUNTRY
 API.                       05-071-08695-00 : API NUMBER
 STRT.FT                             347.00 : START DEPTH
 STOP.FT                            1270.00 : STOP DEPTH
 STEP.FT                               1.00 : DEPTH INCREMENT
 NULL.                                -9999 : NULL VALUE
~Curve information
 DEPTH.FT                                   :
 ROP.MIN/FT                                 :
 GAS.UNITS                                  :
~ASCII Log data
# ...
      1147.0         0.38        710.0 
      1148.0         0.40        715.4 
      1149.0         0.50        712.4 
      1150.0         0.45        694.5 
      1151.0         0.57        689.2 
      1152.0         0.58        692.9 
      1153.0         0.58        697.9 
      1154.0         0.67        694.9 
      1155.0         0.58        722.2 
      1156.0         0.67        692.5 
      1157.0         0.67        700.9 
      1158.0         0.65        722.8 
      1159.0         0.70        799.0 
      1160.0         3.75       1043.6 
      1161.0         0.48       1045.3 
      1162.0         5.97       2027.0 
      1163.0         0.45       1170.9 
      1164.0         0.50       1098.2 
      1165.0         0.27       1033.1 
      1166.0         0.35        976.5 
      1167.0         0.37        953.6 
      1168.0         0.33        871.8 
      1169.0         0.37        812.8 
      1170.0         0.38        789.2 
      1171.0         0.43        750.1 
      1172.0         0.37        733.3 
      1173.0         0.42        719.8 
      1174.0         0.47        696.6 
      1175.0         0.33        679.0 
      1176.0         0.42        674.3 
      1177.0         0.50        658.2 
      1178.0         0.33        649.1 
      1179.0         0.42        642.3 
      1180.0         0.50        637.6 
      1181.0         0.33        624.1 
      1182.0         0.42        623.1 
      1183.0         0.42        616.7 
      1184.0         0.48        612.3 
      1185.0         0.42        596.8 
      1186.0         0.47        588.1 
      1187.0         0.55        567.2 
      1188.0         0.43        610.3 
      1189.0         0.57        674.7 
      1190.0         0.42        689.8 
      1191.0         0.50        673.3 
      1192.0         7.52       2097.5 
      1193.0         0.43        836.0 
      1194.0         0.42        828.0 
      1195.0         0.40        827.6 
      1196.0         0.33        800.7 
      1197.0         0.48        760.9 
      1198.0         0.43        740.0 
      1199.0         0.27        758.9 
      1200.0         0.35        754.8 
      1201.0         0.37        744.4 
      1202.0         0.43        728.2 
      1203.0         0.42        721.8 
      1204.0         0.37        680.7 
      1205.0         0.33        672.3 
      1206.0         0.37        679.4 
      1207.0         0.38        678.0 
      1208.0         0.47        685.4 
      1209.0         0.23        716.1 
      1210.0         0.35        750.1 
      1211.0         0.40        776.7 
      1212.0         0.37        772.0 
      1213.0         0.48        720.1 
      1214.0         0.67        692.5 
      1215.0         0.68        738.0 
      1216.0         0.27        719.1 
      1217.0         0.57        650.7 
      1218.0         0.58        506.2 
      1219.0         0.57         78.8 
      1220.0         0.55         78.8 
      1221.0         0.53         78.8 
      1222.0         0.20         78.8 
      1223.0         2.30       2276.0 
      1224.0         0.98       1220.8 
      1225.0         0.40       1214.7 
      1226.0         0.45       1187.1 
      1227.0         0.30       1180.7 
      1228.0         0.77       1094.5 
      1229.0         0.28        885.2 
      1230.0         0.23        846.5 
      1231.0         0.33        842.8 
      1232.0         0.30        822.2 
      1233.0         0.32        812.5 
      1234.0         0.30        784.2 
      1235.0         0.33        775.1 
      1236.0         0.30        750.8 
      1237.0         0.32        757.2 
      1238.0         0.37        757.9 
      1239.0         0.33        765.0 
      1240.0         0.27        765.0 
      1241.0         0.38        759.6 
      1242.0         0.27        767.3 
      1243.0         0.63        768.0 
      1244.0         0.32        767.0 
      1245.0         0.30        767.7 
      1246.0         0.33        752.5 
      1247.0         0.30        698.9 
      1248.0         0.32        629.9 
      1249.0         0.30        621.8 
      1250.0         0.33        746.8 
      1251.0         0.30        785.5 
      1252.0        13.42       2231.9 
      1253.0         0.55       1079.0 
      1254.0         0.95       1035.8 
      1255.0         0.98        947.6 
      1256.0         1.25        933.4 
      1257.0         0.47        695.9 
      1258.0         0.58        714.8 
      1259.0         0.53        715.1 
      1260.0         0.52        684.1 
      1261.0         0.53        716.8 
      1262.0         0.52        714.8 
      1263.0         0.60        699.6 
      1264.0         0.43        679.7 
      1265.0         0.52        668.3 
      1266.0         0.57        709.4 
      1267.0         0.52        694.9 
      1268.0         0.53        769.7 
      1269.0         0.52        951.9 
      1270.0         0.87        931.7 
