~Version Information
VERS.                      2.0: CWLS Log ASCII Standard - VERSION 2.0
WRAP.                       NO: One line per depth step
~Well Information Block
STRT.FT                -8.5000: 
STOP.FT              2591.0000: 
STEP.FT                 0.2500: 
NULL.                -999.2500: 
COMP.          Pioneer Natural Resources: COMPANY
WELL.             Aviator 12-4: WELL
FLD.           Purgatorie River: FIELD
LOC.           1969' FNL & 732' FWL--: LOCATION
CNTY.               Las Animas: COUNTY
SRVC.          Patterson Wireline: SERVICE COMPANY
DATE.          Wed Apr 19 09:09:26 2006: LOG DATE
UWI.           05 071 08714 00: UNIQUE WELL ID
STAT.                       CO: STATE
~Curve Information Block
DEPT.FT            0 000 00 00: Depth
CCL.                          : Casing Collar Locator
TT3.usec                      : CBL 3' Travel Time
AMP3.mV                       : CBL 3' Amplitude
GR.GAPI                       : Gamma Ray
~Parameter Information Block
~A  Depth       CCL         TT3         AMP3         GR     
# ...
   326.5000      0.0000    346.8186     14.7760     61.5049
   326.7500      0.0000    341.1703     15.5193     70.8155
   327.0000      0.0000    334.3585     16.2865     78.2572
   327.2500      0.0000    327.2261     16.9577     81.8132
   327.5000      0.0000    320.6391     17.5336     80.8573
   327.7500      0.0000    315.3846     18.0290     76.7422
   328.0000      0.0000    311.9865     18.3805     71.9873
   328.2500      0.0000    310.5019     18.5186     68.5442
   328.5000      0.0000    310.6483     18.4628     66.6936
   328.7500      0.0000    312.0828     18.3017     65.6441
   329.0000      0.0000    314.3398     18.1197     65.2635
   329.2500      0.0000    316.5253     17.9666     66.9675
   329.5000      0.0000    317.4860     17.8687     72.4035
   329.7500      0.0000    316.6443     17.8367     81.2809
   330.0000      0.0000    314.5421     17.8641     90.9102
   330.2500      0.0000    312.3687     17.9248     97.7713
   330.5000      0.0000    311.1136     17.9814     99.3046
   330.7500      0.0000    311.3425     17.9963     94.8864
   331.0000      0.0000    313.4886     17.9430     86.1343
   331.2500      0.0000    317.8680     17.8172     76.3507
   331.5000      0.0000    324.1555     17.6424     68.9075
   331.7500      0.0000    330.9762     17.4615     65.5796
   332.0000      0.0000    336.3042     17.3160     66.0309
   332.2500      0.0000    338.4575     17.2299     68.4915
   332.5000      0.0000    336.9403     17.2072     70.8037
   332.7500      0.0000    332.8119     17.2376     71.3426
   333.0000      0.0000    328.4819     17.2994     69.8643
   333.2500      0.0000    326.6114     17.3615     67.6339
   333.5000      0.0000    328.4596     17.3891     66.0367
   333.7500      0.0000    333.0856     17.3525     64.9836
   334.0000      0.0000    338.2846     17.2389     63.4896
   334.2500      0.0000    342.2890     17.0618     61.8876
   334.5000      0.0000    344.6123     16.8586     62.1713
   334.7500      0.0000    345.6752     16.6732     65.3814
   335.0000      0.0000    346.0670     16.5373     69.6054
   335.2500      0.0000    346.1658     16.4623     71.7337
   335.5000      0.0000    346.1358     16.4441     70.9892
   335.7500      0.0000    346.0433     16.4691     69.8010
   336.0000      0.0000    345.9326     16.5148     71.0256
   336.2500      0.0000    345.8495     16.5467     75.0038
   336.5000      0.0000    345.8301     16.5273     79.6547
   336.7500      0.0000    345.8849     16.4369     82.9811
   337.0000      0.0000    345.9909     16.2900     84.8885
   337.2500      0.0000    346.0982     16.1328     86.6752
   337.5000      0.0000    346.1479     16.0183     89.5757
   337.7500      0.0000    346.1384     15.9710     94.1538
   338.0000      0.0000    346.2065     15.9668    100.4382
   338.2500      0.0000    346.9952     15.9468    107.8615
   338.5000      0.0000    350.3455     15.8573    115.0260
   338.7500      0.0000    360.2246     15.6817    120.0083
   339.0000      0.0000    382.3586     15.4433    121.4799
   339.2500      0.0000    420.6828     15.1843    119.7954
   339.5000      0.0000    472.1449     14.9480    116.7789
   339.7500      0.0000    524.9968     14.7747    114.2287
   340.0000      0.0000    562.7641     14.6993    112.7979
   340.2500      0.0000    570.9274     14.7358    112.3905
   340.5000      0.0000    544.7808     14.8572    113.1284
   340.7500      0.0000    496.1670     14.9958    115.3248
   341.0000      0.0000    451.3494     15.0730    118.6838
   341.2500      0.0000    437.7837     15.0359    122.2899
   341.5000      0.0000    469.2734     14.8747    125.4662
   341.7500      0.0000    538.0339     14.6210    127.8780
   342.0000      0.0000    615.8761     14.3370    128.7828
   342.2500      0.0000    666.2544     14.0955    127.3762
   342.5000      0.0000    663.8555     13.9549    124.3688
   342.7500      0.0000    609.2893     13.9429    121.9832
   343.0000      0.0000    527.1154     14.0512    121.5003
   343.2500      0.0000    448.6635     14.2341    121.5884
   343.5000      0.0000    393.6041     14.4197    119.9342
   343.7500      0.0000    364.0857     14.5428    115.9944
   344.0000      0.0000    351.8971     14.5819    111.3866
   344.2500      0.0000    348.0775     14.5643    107.9738
   344.5000      0.0000    347.2515     14.5409    106.3236
   344.7500      0.0000    347.1770     14.5628    105.8773
   345.0000      0.0000    347.1256     14.6760    106.0616
   345.2500      0.0000    346.8748     14.9181    106.9338
   345.5000      0.0000    346.3710     15.3019    108.6927
   345.7500      0.0000    345.6952     15.7987    110.8758
   346.0000      0.0000    344.9999     16.3390    112.5935
   346.2500      0.0000    344.4185     16.8333    113.4187
   346.5000      0.0000    344.0078     17.1980    113.5051
   346.7500      0.0000    343.7693     17.3749    113.0258
   347.0000      0.0000    343.6940     17.3469    112.0423
   347.2500      0.0000    343.7707     17.1471    110.6381
   347.5000      0.0000    343.9692     16.8464    108.5282
   347.7500      0.0000    344.2412     16.5204    104.9242
   348.0000      0.0000    344.5453     16.2207     99.8022
   348.2500      0.0000    344.8624     15.9760     95.1475
   348.5000      0.0000    345.2063     15.8036     93.6840
   348.7500      0.0000    345.6748     15.7045     95.9524
   349.0000      0.0000    346.8177     15.6476     99.4932
   349.2500      0.0000    350.5974     15.5741    101.2945
   349.5000      0.0000    361.5930     15.4296    100.3017
   349.7500      0.0000    386.3831     15.2002     97.3218
   350.0000      0.0000    427.9789     14.9282     93.5208
   350.2500      0.0000    477.1994     14.6924     89.5602
   350.5000      0.0000    511.9071     14.5677     85.6553
   350.7500      0.0000    511.9510     14.5859     81.8499
   351.0000      0.0000    477.3718     14.7244     78.0738
   351.2500      0.0000    428.3360     14.9265     74.1101
   351.5000      0.0000    386.8983     15.1344     69.8022
   351.7500      0.0000    362.1742     15.3061     65.4434
   352.0000      0.0000    351.2092     15.4136     61.8027
   352.2500      0.0000    347.5669     15.4372     59.4716
   352.5000      0.0000    346.7696     15.3683     58.1957
   352.7500      0.0000    346.8296     15.2216     57.0299
   353.0000      0.0000    347.1027     15.0425     55.1161
   353.2500      0.0000    347.4987     14.8933     52.3517
   353.5000      0.0000    348.5720     14.8186     49.5654
   353.7500      0.0000    352.4623     14.8148     48.2470
   354.0000      0.0000    364.4081     14.8338     49.7889
   354.2500      0.0000    393.1014     14.8138     54.3556
   354.5000      0.0000    446.7014     14.7092     60.2907
   354.7500      0.0000    524.6241     14.5026     64.9898
   355.0000      0.0000    612.8215     14.2046     66.6140
   355.2500      0.0000    690.5543     13.8501     65.0913
   355.5000      0.0000    743.9241     13.4896     61.8358
   355.7500      0.0000    772.5234     13.1751     58.7208
   356.0000      0.0000    784.6176     12.9426     57.0437
   356.2500      0.0000    789.0198     12.7946     56.9725
   356.5000      0.0000    791.3522     12.6993     57.6401
   356.7500      0.0000    794.5019     12.6090     57.8257
   357.0000      0.0000    799.7892     12.4877     56.8630
   357.2500      0.0000    807.2197     12.3248     55.1463
   357.5000      0.0000    815.5066     12.1326     53.7748
   357.7500      0.0000    822.7893     11.9404     53.6479
   358.0000      0.0000    827.8417     11.7900     54.7833
   358.2500      0.0000    830.6235     11.7248     56.3169
   358.5000      0.0000    831.8488     11.7714     57.0037
   358.7500      0.0000    832.2803     11.9276     55.9733
   359.0000      0.0000    832.3996     12.1650     53.4966
   359.2500      0.0000    832.4374     12.4426     51.0390
   359.5000      0.0000    832.4826     12.7244     50.1511
   359.7500      0.0000    832.5086     12.9895     51.1884
