~Version Information
VERS.                      2.0: CWLS Log ASCII Standard - VERSION 2.0
WRAP.                       NO: One line per depth step
~Well Information Block
STRT.FT               400.0000: 
STOP.FT              2232.0000: 
STEP.FT                 0.2500: 
NULL.                -999.2500: 
COMP.          Evergreen Operating Corporation: COMPANY
WELL.                Croc 42-9: WELL
FLD.           Purgatorie River: FIELD
LOC.           2262' FNL & 238' FEL: LOCATION
STAT.                 Colorado: State
CNTY.               Las Animas: COUNTY
CTRY. USA : Country
SECT. 9 : Section
TOWN. 32S : Township
RANG. 66W : Range
SRVC.                Patterson: SERVICE COMPANY
DATE.          Wed Jul 21 23:25:54 2004: LOG DATE
API.           05 071 08106 00: UNIQUE WELL ID
~Curve Information Block
DEPT.FT            0 000 00 00: Depth
SN.Ohm-m                      : IEL Short Normal
SP.mV                         : IEL Spontaneous Potential
DIR.Ohm-m                     : IEL Induction Resistivity
GR.GAPI                       : Gamma Ray
~Parameter Information Block
~A  Depth        SN          SP         DIR          GR     
# ...
  2075.0000     27.9442    142.4644     20.9933     88.0900
  2075.2500     28.2321    142.4016     20.9826     86.1974
  2075.5000     28.3470    142.3047     20.8735     84.3910
  2075.7500     28.2908    142.1747     20.6562     84.2974
  2076.0000     28.0413    142.0230     20.3485     86.1719
  2076.2500     27.5908    141.8695     19.9883     88.6361
  2076.5000     26.9830    141.7337     19.6184     93.3020
  2076.7500     26.2991    141.6236     19.2724     96.2822
  2077.0000     25.6327    141.5315     18.9684     99.5067
  2077.2500     25.0649    141.4427     18.7081    100.8863
  2077.5000     24.6320    141.3520     18.4796    102.8635
  2077.7500     24.3222    141.2802     18.2640    104.4976
  2078.0000     24.1032    141.2793     18.0435    106.6128
  2078.2500     23.9570    141.4117     17.8092    106.9682
  2078.5000     23.9037    141.6976     17.5644    105.7523
  2078.7500     23.9760    142.0633     17.3229    104.7186
  2079.0000     24.1481    142.3529     17.1047    104.7278
  2079.2500     24.3026    142.4261     16.9305    106.0015
  2079.5000     24.2830    142.2628     16.8144    108.3206
  2079.7500     23.9974    141.9708     16.7573    108.9038
  2080.0000     23.5066    141.6969     16.7456    107.4559
  2080.2500     22.9902    141.5325     16.7556    105.6201
  2080.5000     22.6112    141.4855     16.7617    103.7908
  2080.7500     22.4212    141.5121     16.7428    104.0014
  2081.0000     22.3492    141.5645     16.6866    105.8134
  2081.2500     22.2720    141.6188     16.5889    106.8708
  2081.5000     22.1179    141.6710     16.4504    106.8460
  2081.7500     21.8922    141.7204     16.2719    105.8955
  2082.0000     21.6401    141.7632     16.0542    104.4027
  2082.2500     21.4096    141.7983     15.8027    104.0564
  2082.5000     21.2068    141.8277     15.5330    104.7599
  2082.7500     20.9981    141.8507     15.2709    105.7207
  2083.0000     20.7816    141.8589     15.0478    107.1566
  2083.2500     20.5904    141.8445     14.8916    107.8724
  2083.5000     20.4184    141.8127     14.8188    108.5495
  2083.7500     20.2270    141.7841     14.8317    108.7143
  2084.0000     20.0074    141.7815     14.9233    108.4023
  2084.2500     19.8003    141.8095     15.0869    108.0080
  2084.5000     19.6858    141.8462     15.3241    108.3424
  2084.7500     19.7353    141.8552     15.6452    110.0979
  2085.0000     19.9360    141.8084     16.0647    115.7873
  2085.2500     20.2074    141.6976     16.5919    121.0839
  2085.5000     20.4967    141.5257     17.2146    128.5677
  2085.7500     20.8089    141.2882     17.8773    131.2389
  2086.0000     21.1612    140.9659     18.4735    129.6490
  2086.2500     21.5596    140.5337     18.8816    125.0994
  2086.5000     22.0140    139.9754     19.0384    115.3507
  2086.7500     22.5463    139.3001     18.9815    108.4274
  2087.0000     23.1824    138.5587     18.8102     99.2676
  2087.2500     23.9187    137.8565     18.6087     94.6818
  2087.5000     24.6523    137.3426     18.4060     91.0396
  2087.7500     25.1757    137.1599     18.1864     91.0239
  2088.0000     25.2747    137.3706     17.9209     93.8746
  2088.2500     24.8536    137.9137     17.5914     96.6828
  2088.5000     24.0471    138.6375     17.2004    100.6746
  2088.7500     23.1792    139.3826     16.7714    102.8144
  2089.0000     22.5175    140.0456     16.3443    105.4586
  2089.2500     22.1279    140.5889     15.9640    107.2220
  2089.5000     21.9720    141.0142     15.6656    110.5483
  2089.7500     22.0187    141.3363     15.4624    113.4393
  2090.0000     22.2208    141.5708     15.3425    118.6907
  2090.2500     22.4745    141.7327     15.2795    122.5657
  2090.5000     22.6790    141.8326     15.2476    128.5458
  2090.7500     22.8075    141.8712     15.2304    132.4930
  2091.0000     22.8782    141.8359     15.2207    138.1105
  2091.2500     22.8986    141.7050     15.2170    141.3390
  2091.5000     22.8943    141.4605     15.2249    144.3739
  2091.7500     22.9744    141.1023     15.2573    144.4645
  2092.0000     23.3329    140.6618     15.3262    140.7559
  2092.2500     24.1448    140.2071     15.4329    135.4549
  2092.5000     25.3418    139.8333     15.5675    123.6581
  2092.7500     26.5040    139.6319     15.7193    114.4321
  2093.0000     27.1374    139.6543     15.8870    102.3914
  2093.2500     27.0489    139.8961     16.0754     97.8745
  2093.5000     26.3637    140.3148     16.2810     98.1892
  2093.7500     25.2880    140.8545     16.4784    102.5737
  2094.0000     24.0152    141.4524     16.6215    112.6654
  2094.2500     22.7845    142.0400     16.6676    119.8514
  2094.5000     21.8271    142.5609     16.6099    128.9082
  2094.7500     21.2310    142.9915     16.4855    133.3117
  2095.0000     20.9424    143.3364     16.3515    137.8042
  2095.2500     20.8702    143.6044     16.2509    139.6326
  2095.5000     20.9489    143.7912     16.1997    140.3914
  2095.7500     21.1409    143.8808     16.1953    139.1979
  2096.0000     21.4091    143.8573     16.2338    134.3164
  2096.2500     21.7168    143.7154     16.3218    128.8386
  2096.5000     22.1110    143.4683     16.4789    117.4136
  2096.7500     22.7933    143.1492     16.7319    108.3191
  2097.0000     24.0078    142.7999     17.1046     95.1784
  2097.2500     25.7659    142.4495     17.6085     88.7949
  2097.5000     27.7074    142.0980     18.2384     84.7781
  2097.7500     29.3126    141.7228     18.9748     85.2761
  2098.0000     30.2620    141.3077     19.7862     88.0418
  2098.2500     30.5862    140.8694     20.6286     89.9529
  2098.5000     30.5327    140.4544     21.4415     92.6890
  2098.7500     30.3433    140.1090     22.1512     94.8980
  2099.0000     30.1276    139.8549     22.6904     98.8235
  2099.2500     29.8778    139.6913     23.0272    101.1858
  2099.5000     29.5652    139.6106     23.1801    103.2896
  2099.7500     29.2241    139.6017     23.2043    103.7835
  2100.0000     28.9425    139.6453     23.1587    104.0908
  2100.2500     28.7754    139.7175     23.0855    104.4071
  2100.5000     28.7063    139.7997     23.0127    104.9233
  2100.7500     28.7149    139.8814     22.9694    105.0539
  2101.0000     28.8284    139.9523     22.9931    105.1607
  2101.2500     29.0738    139.9906     23.1217    105.8619
  2101.5000     29.4210    139.9586     23.3807    109.5061
  2101.7500     29.7980    139.8120     23.7759    114.3538
  2102.0000     30.1421    139.5230     24.2945    125.0095
  2102.2500     30.4435    139.1042     24.9098    133.3598
  2102.5000     30.7417    138.6125     25.5855    145.5890
  2102.7500     31.0821    138.1230     26.2751    152.7313
  2103.0000     31.4877    137.6840     26.9229    161.6068
  2103.2500     31.9521    137.2879     27.4732    166.2610
  2103.5000     32.4324    136.8870     27.8895    170.6335
  2103.7500     32.8637    136.4405     28.1743    171.1789
  2104.0000     33.2085    135.9551     28.3706    168.2555
  2104.2500     33.4781    135.4858     28.5414    164.5949
  2104.5000     33.6846    135.0956     28.7420    158.6706
  2104.7500     33.8130    134.8060     29.0057    155.2368
  2105.0000     33.8707    134.5832     29.3430    150.1690
  2105.2500     33.9006    134.3840     29.7477    145.4935
  2105.5000     33.9104    134.2225     30.1982    135.0026
  2105.7500     33.8644    134.1899     30.6562    126.4479
  2106.0000     33.7623    134.3971     31.0657    115.0209
  2106.2500     33.6575    134.8839     31.3622    110.4491
  2106.5000     33.5948    135.5751     31.4865    108.8481
  2106.7500     33.5578    136.3197     31.3982    109.5976
  2107.0000     33.4996    136.9713     31.0918    108.8895
  2107.2500     33.4161    137.4496     30.6203    105.3050
  2107.5000     33.3684    137.7518     30.1091     95.4273
  2107.7500     33.4354    137.9319     29.7275     87.6735
  2108.0000     33.6238    138.0694     29.6198     78.0592
  2108.2500     33.8281    138.2382     29.8369     74.2677
