~Version Information
VERS.                      2.0: CWLS Log ASCII Standard - VERSION 2.0
WRAP.                       NO: One line per depth step
~Well Information Block
STRT.FT               570.0000: 
STOP.FT              2094.0000: 
STEP.FT                 0.2500: 
NULL.                -999.2500: 
COMP.          XTO Energy Inc.: COMPANY
WELL.          Golden Eagle 19-10: WELL
FLD.           Purgatoire River: FIELD
LOC.           2684' FSL & 1825' FEL: LOCATION
CNTY.               Las Animas: COUNTY
CTRY.                      USA: COUNTRY
API.               05 071 08697:  
SRVC.                Patterson: SERVICE COMPANY
DATE.          Sun Mar 05 02:13:24 2006: LOG DATE
UWI.           05 071 08697 00: UNIQUE WELL ID
STAT.                 Colorado: STATE
~Curve Information Block
DEPT.FT            0 000 00 00: Depth
SP.mV                         : DIL Spontaneous Potential
RILD.Ohm-m                    : DIL Deep Resistivity
RILM.Ohm-m                    : DIL Medium Resistivity
RLL3.Ohm-m                    : DIL Shallow Resistivity
GR.GAPI                       : Gamma Ray
~Parameter Information Block
~A  Depth        SP         RILD        RILM        RLL3         GR     
# ...
  1354.0000   -999.2500     23.5327     25.8761   -999.2500     67.1787
  1354.2500   -999.2500     23.4555     25.9554   -999.2500     67.8563
  1354.5000   -999.2500     23.4949     26.0754   -999.2500     65.9144
  1354.7500   -999.2500     23.6598     26.2331   -999.2500     62.5480
  1355.0000   -999.2500     23.9342     26.4315   -999.2500     55.8033
  1355.2500   -999.2500     24.2780     26.6790   -999.2500     51.3962
  1355.5000   -999.2500     24.6411     26.9863   -999.2500     46.1797
  1355.7500   -999.2500     24.9839     27.3608   -999.2500     43.5564
  1356.0000   -999.2500     25.2894     27.8025   -999.2500     40.2815
  1356.2500   -999.2500     25.5573     28.3007   -999.2500     38.5076
  1356.5000   -999.2500     25.7854     28.8339   -999.2500     36.9835
  1356.7500   -999.2500     25.9586     29.3725   -999.2500     36.9306
  1357.0000   -999.2500     26.0588     29.8812   -999.2500     38.0751
  1357.2500   -999.2500     26.0836     30.3231   -999.2500     39.3839
  1357.5000   -999.2500     26.0526     30.6615   -999.2500     41.9825
  1357.7500   -999.2500     25.9893     30.8615   -999.2500     44.2612
  1358.0000   -999.2500     25.8967     30.8943   -999.2500     48.7779
  1358.2500   -999.2500     25.7526     30.7427   -999.2500     52.4528
  1358.5000   -999.2500     25.5326     30.4073   -999.2500     58.1654
  1358.7500   -999.2500     25.2373     29.9100   -999.2500     61.3798
  1359.0000   -999.2500     24.8989     29.2905   -999.2500     64.2980
  1359.2500   -999.2500     24.5647     28.5985   -999.2500     64.8724
  1359.5000   -999.2500     24.2783     27.8837   -999.2500     64.4366
  1359.7500   -999.2500     24.0705     27.1877   -999.2500     63.9672
  1360.0000   -999.2500     23.9512     26.5413   -999.2500     63.7865
  1360.2500   -999.2500     23.9009     25.9649   -999.2500     63.9796
  1360.5000   -999.2500     23.8693     25.4703   -999.2500     63.9517
  1360.7500   -999.2500     23.7990     25.0640   -999.2500     63.2578
  1361.0000   -999.2500     23.6639     24.7488   -999.2500     61.1828
  1361.2500   -999.2500     23.4900     24.5256   -999.2500     59.4875
  1361.5000   -999.2500     23.3360     24.3940   -999.2500     56.8925
  1361.7500   -999.2500     23.2522     24.3531   -999.2500     55.0382
  1362.0000   -999.2500     23.2538     24.4021   -999.2500     52.0699
  1362.2500   -999.2500     23.3249     24.5396   -999.2500     50.3761
  1362.5000   -999.2500     23.4418     24.7619   -999.2500     49.1014
  1362.7500   -999.2500     23.5904     25.0605   -999.2500     49.1662
  1363.0000   -999.2500     23.7617     25.4169   -999.2500     49.9671
  1363.2500   -999.2500     23.9326     25.8004   -999.2500     50.5043
  1363.5000   -999.2500     24.0567     26.1668   -999.2500     50.9488
  1363.7500   -999.2500     24.0790     26.4628   -999.2500     51.0705
  1364.0000   -999.2500     23.9666     26.6338   -999.2500     51.3204
  1364.2500   -999.2500     23.7310     26.6358   -999.2500     51.6778
  1364.5000   -999.2500     23.4209     26.4459   -999.2500     52.4810
  1364.7500   -999.2500     23.0959     26.0697   -999.2500     53.1030
  1365.0000   -999.2500     22.7989     25.5417   -999.2500     54.2025
  1365.2500   -999.2500     22.5449     24.9194   -999.2500     55.2205
  1365.5000   -999.2500     22.3272     24.2696   -999.2500     57.3273
  1365.7500   -999.2500     22.1314     23.6552   -999.2500     58.8639
  1366.0000   -999.2500     21.9463     23.1220   -999.2500     60.5111
  1366.2500   -999.2500     21.7655     22.6930   -999.2500     60.9166
  1366.5000   -999.2500     21.5818     22.3690   -999.2500     61.1381
  1366.7500   -999.2500     21.3805     22.1335   -999.2500     61.7336
  1367.0000   -999.2500     21.1423     21.9612   -999.2500     63.8588
  1367.2500   -999.2500     20.8550     21.8242   -999.2500     65.8685
  1367.5000   -999.2500     20.5251     21.6981   -999.2500     69.2906
  1367.7500   -999.2500     20.1758     21.5632   -999.2500     71.8938
  1368.0000   -999.2500     19.8342     21.4053   -999.2500     76.6094
  1368.2500   -999.2500     19.5174     21.2149   -999.2500     80.1724
  1368.5000   -999.2500     19.2292     20.9879   -999.2500     85.1503
  1368.7500   -999.2500     18.9665     20.7247   -999.2500     87.4995
  1369.0000   -999.2500     18.7284     20.4305   -999.2500     88.8795
  1369.2500   2000.0000     18.5207     20.1145   -999.2500     88.3999
  1369.5000   2000.0000     18.3513     19.7889   -999.2500     85.8821
  1369.7500   2000.0000     18.2218     19.4687   -999.2500     83.0696
  1370.0000   2000.0000     18.1239     19.1706   -999.2500     77.2069
  1370.2500   2000.0000     18.0473     18.9118   -999.2500     72.4443
  1370.5000   2000.0000     17.9906     18.7086   -999.2500     64.8726
  1370.7500   2000.0000     17.9644     18.5730   -999.2500     60.1049
  1371.0000   2000.0000     17.9815     18.5116   -999.2500     54.1140
  1371.2500   2000.0000     18.0454     18.5240   -999.2500     51.1342
  1371.5000   2000.0000     18.1454     18.6040   -999.2500     48.2917
  1371.7500   2000.0000     18.2604     18.7412   -999.2500     47.3924
  1372.0000   2000.0000     18.3675     18.9238   -999.2500     47.1591
  1372.2500   2000.0000     18.4518     19.1417   -999.2500     47.3877
  1372.5000   2000.0000     18.5129     19.3883   -999.2500     47.5245
  1372.7500   2000.0000     18.5671     19.6606   -999.2500     47.1509
  1373.0000   2000.0000     18.6417     19.9583   -999.2500     46.1280
  1373.2500   2000.0000     18.7669     20.2814   -999.2500     45.6936
  1373.5000   2000.0000     18.9642     20.6282   -999.2500     46.1296
  1373.7500   2000.0000     19.2344     20.9930   -999.2500     46.9956
  1374.0000   2000.0000     19.5522     21.3651   -999.2500     48.2628
  1374.2500   2000.0000     19.8735     21.7292   -999.2500     48.7092
  1374.5000   2000.0000     20.1559     22.0670   -999.2500     48.8120
  1374.7500   2000.0000     20.3783     22.3612   -999.2500     48.7364
  1375.0000   2000.0000     20.5447     22.5996   -999.2500     48.7493
  1375.2500   2000.0000     20.6688     22.7797   -999.2500     48.9830
  1375.5000   2000.0000     20.7572     22.9100   -999.2500     50.0423
  1375.7500   2000.0000     20.8101     23.0083   -999.2500     51.6030
  1376.0000   2000.0000     20.8365     23.0972   -999.2500     56.1848
  1376.2500   2000.0000     20.8672     23.1979   -999.2500     61.3790
  1376.5000   2000.0000     20.9486     23.3263   -999.2500     72.9096
  1376.7500   2000.0000     21.1178     23.4896   -999.2500     82.4213
  1377.0000   2000.0000     21.3748     23.6874   -999.2500     96.1234
  1377.2500   2000.0000     21.6770     23.9132   -999.2500    102.3763
  1377.5000   2000.0000     21.9614     24.1583   -999.2500    104.4973
  1377.7500   2000.0000     22.1843     24.4150   -999.2500    101.0001
  1378.0000   2000.0000     22.3461     24.6786   -999.2500     90.7296
  1378.2500   2000.0000     22.4824     24.9480   2000.0000     82.4674
  1378.5000   2000.0000     22.6364     25.2233   2000.0000     70.7667
  1378.7500   2000.0000     22.8372     25.5039   2000.0000     64.4127
  1379.0000   2000.0000     23.0949     25.7857   2000.0000     57.5746
  1379.2500   2000.0000     23.4067     26.0602   2000.0000     54.6208
  1379.5000   2000.0000     23.7627     26.3161   2000.0000     52.0377
  1379.7500   2000.0000     24.1462     26.5430   2000.0000     51.3829
  1380.0000   2000.0000     24.5321     26.7352   2000.0000     51.9603
  1380.2500   2000.0000     24.8825     26.8943   2000.0000     53.2476
  1380.5000   2000.0000     25.1490     27.0264   2000.0000     55.9463
  1380.7500   2000.0000     25.2835     27.1357   2000.0000     57.8084
  1381.0000   2000.0000     25.2563     27.2172   2000.0000     59.8940
  1381.2500   2000.0000     25.0694     27.2506   2000.0000     60.3976
  1381.5000   2000.0000     24.7548     27.2021   2000.0000     59.5496
  1381.7500   2000.0000     24.3586     27.0334   2000.0000     58.1779
