~Version Information
VERS.                      2.0: CWLS Log ASCII Standard - VERSION 2.0
WRAP.                       NO: One line per depth step
~Well Information Block
STRT.FT                 0.0000: 
STOP.FT               878.0000: 
STEP.FT                 0.2500: 
NULL.                -999.2500: 
COMP.          Pioneer Natural Resources: COMPANY
WELL.           Hartford 31-18: WELL
FLD.           Purgatorie River: FIELD
LOC.           375' FNL & 1660' FEL: LOCATION
PROV.                 Colorado: PROVINCE
CNTY.               Las Animas: COUNTRY
SRVC.                Patterson: SERVICE COMPANY
DATE.          Mon Nov 28 12:10:49 2005: LOG DATE
UWI.             05-071-08555             : UNIQUE WELL ID
~Curve Information Block
DEPT.FT            0 000 00 00: Depth
CCL.                          : Casing Collar Locator
TT3.usec                      : CBL 3' Travel Time
AMP3.mV                       : CBL 3' Amplitude
GR.GAPI                       : Gamma Ray
~Parameter Information Block
~A  Depth       CCL         TT3         AMP3         GR     
# ...
   670.0000      0.0000    694.6099      9.0342     59.8717
   670.2500      0.0000    695.9804      9.1177     62.4965
   670.5000      0.0000    695.8936      9.1578     65.5478
   670.7500      0.0000    694.4869      9.2092     67.1294
   671.0000      0.0000    689.1902      9.2628     66.0952
   671.2500      0.0000    683.8578      9.2541     62.9371
   671.5000      0.0000    686.4250      9.1642     59.4547
   671.7500      0.0000    699.7924      9.0678     57.3962
   672.0000      0.0000    718.5389      9.0604     57.3265
   672.2500      0.0000    733.5283      9.1690     58.5398
   672.5000      0.0000    739.2559      9.3296     59.6702
   672.7500      0.0000    734.9421      9.4290     59.4548
   673.0000      0.0000    723.5042      9.3979     57.4375
   673.2500      0.0000    713.9631      9.2969     54.2237
   673.5000      0.0000    715.3489      9.2554     50.9801
   673.7500      0.0000    722.7261      9.3093     48.5749
   674.0000      0.0000    722.2202      9.3742     47.0639
   674.2500      0.0000    713.5191      9.3808     45.9041
   674.5000      0.0000    711.3210      9.3646     44.6292
   674.7500      0.0000    722.7370      9.4043     43.3093
   675.0000      0.0000    738.3677      9.5081     42.3626
   675.2500      0.0000    747.3895      9.6033     42.0420
   675.5000      0.0000    749.7269      9.6280     42.1773
   675.7500      0.0000    749.1511      9.5858     42.3948
   676.0000      0.0000    744.7751      9.5129     42.5539
   676.2500      0.0000    736.3810      9.4361     42.9745
   676.5000      0.0000    729.3157      9.3728     44.1061
   676.7500      0.0000    729.4104      9.3293     45.8125
   677.0000      0.0000    737.5839      9.2813     47.0982
   677.2500      0.0000    748.3211      9.1902     46.8763
   677.5000      0.0000    751.9997      9.0644     45.0542
   677.7500      0.0000    741.8915      8.9535     42.5775
   678.0000      0.0000    720.5562      8.8248     40.4220
   678.2500      0.0000    698.1115      8.4950     38.9137
   678.5000      0.0000    680.8181      7.8573     37.9691
   678.7500      0.0000    662.7704      7.2170     37.4303
   679.0000      0.0000    641.5064      6.9966     36.9642
   679.2500      0.0000    639.4046      7.0151     36.1142
   679.5000      0.0000    675.6451      6.8047     34.7625
   679.7500      0.0000    725.6478      6.4726     33.3326
   680.0000      0.0000    752.0740      6.3737     32.3557
   680.2500      0.0000    752.7491      6.4681     32.0432
   680.5000      2.0000    752.0554      6.5228     32.3864
   680.7500     -2.0000    765.7063      6.4359     33.4079
   681.0000      0.0000    784.4304      6.2192     35.0988
   681.2500      0.0000    791.6464      5.9723     37.2192
   681.5000      0.0000    785.4705      5.9350     39.3191
   681.7500      0.0000    770.4225      6.2425     40.9919
   682.0000      0.0000    745.2144      6.5858     42.1087
   682.2500      0.0000    713.5446      6.7154     42.8176
   682.5000      0.0000    687.4872      6.9966     43.2637
   682.7500      0.0000    674.3502      7.6841     43.2749
   683.0000      0.0000    671.2603      8.4104     42.4913
   683.2500      0.0000    671.8416      8.8401     40.9072
   683.5000      0.0000    672.5163      9.0154     39.0637
   683.7500      0.0000    672.8933      9.0563     37.5829
   684.0000      0.0000    674.5960      9.0179     36.7193
   684.2500      0.0000    681.1837      8.9403     36.5434
   684.5000      0.0000    696.3762      8.8496     37.3086
   684.7500      0.0000    718.9123      8.7596     39.1735
   685.0000      0.0000    740.3900      8.6808     41.5331
   685.2500      0.0000    752.1269      8.6044     43.2242
   685.5000      0.0000    753.6636      8.5359     43.7225
   685.7500      0.0000    751.7402      8.5167     43.6602
   686.0000      0.0000    751.0710      8.5595     43.8001
   686.2500      0.0000    750.8784      8.6260     43.9700
   686.5000      0.0000    751.0698      8.6690     43.4215
   686.7500      0.0000    752.4598      8.6601     41.9655
   687.0000      0.0000    750.9150      8.6109     40.3885
   687.2500      0.0000    741.1819      8.5412     39.7077
   687.5000      0.0000    726.2956      8.4387     40.1273
   687.7500      0.0000    716.0754      8.3190     40.8511
   688.0000      0.0000    713.3326      8.2471     40.9995
   688.2500      0.0000    708.9593      8.2412     40.5245
   688.5000      0.0000    696.8185      8.2472     39.9780
   688.7500      0.0000    682.7789      8.2158     39.5657
   689.0000      0.0000    673.9556      8.1564     38.8424
   689.2500      0.0000    670.6180      8.1134     37.3605
   689.5000      0.0000    670.0134      8.1016     35.2958
   689.7500      0.0000    670.2776      8.1008     33.3269
   690.0000      0.0000    670.6788      8.1010     32.0620
   690.2500      0.0000    671.1300      8.1160     31.7015
   690.5000      0.0000    671.6964      8.1682     32.2488
   690.7500      0.0000    672.2288      8.2672     33.8116
   691.0000      0.0000    672.4705      8.4069     36.4539
   691.2500      0.0000    672.6084      8.5792     39.9902
   691.5000      0.0000    673.7856      8.7591     44.2666
   691.7500      0.0000    677.5979      8.9002     49.3026
   692.0000      0.0000    683.9989      8.9692     54.8214
   692.2500      0.0000    690.0687      8.9703     60.0127
   692.5000      0.0000    692.5074      8.9374     64.1019
   692.7500      0.0000    690.1491      8.9279     66.8922
   693.0000      0.0000    684.1801      9.0029     68.6284
   693.2500      0.0000    677.9644      9.1495     69.6086
   693.5000      0.0000    674.6129      9.2675     70.0043
   693.7500      0.0000    675.1149      9.2904     69.9223
   694.0000      0.0000    679.9769      9.2552     69.6269
   694.2500      0.0000    689.2305      9.2412     69.6667
   694.5000      0.0000    699.2627      9.2806     70.6706
   694.7500      0.0000    703.1324      9.3361     73.0167
   695.0000      0.0000    696.7942      9.3486     76.6895
   695.2500      0.0000    684.0823      9.2974     81.3891
   695.5000      0.0000    673.5853      9.2111     86.7044
   695.7500      0.0000    669.9120      9.1404     92.0595
   696.0000      0.0000    670.6080      9.1286     96.6756
   696.2500      0.0000    671.7390      9.1883    100.0717
   696.5000      0.0000    672.1104      9.3041    102.7756
   696.7500      0.0000    672.1834      9.4549    105.9909
   697.0000      0.0000    672.3289      9.6217    110.0527
   697.2500      0.0000    672.4720      9.7745    113.4182
   697.5000      0.0000    672.3683      9.8740    113.7355
   697.7500      0.0000    672.0110      9.9033    110.0072
   698.0000      0.0000    671.7107      9.8834    103.5160
   698.2500      0.0000    671.7425      9.8364     96.8386
   698.5000      0.0000    672.0817      9.7708     92.1322
   698.7500      0.0000    672.4586      9.7055     89.9259
   699.0000      0.0000    672.5964      9.6712     89.0420
   699.2500      0.0000    672.4682      9.6893     87.7548
   699.5000      0.0000    672.2870      9.7517     85.2996
   699.7500      0.0000    672.2453      9.8158     82.3476
   700.0000      0.0000    672.3517      9.8320     80.0454
   700.2500      0.0000    672.4751      9.7776     78.8382
   700.5000      0.0000    672.4853      9.6706     78.5344
   700.7500      0.0000    672.3656      9.5628     79.1937
   701.0000      0.0000    672.2329      9.4995     81.3029
   701.2500      0.0000    672.2656      9.4820     84.9684
   701.5000      0.0000    672.5564      9.4887     89.3006
   701.7500      0.0000    673.0220      9.5334     92.7263
   702.0000      0.0000    673.4881      9.6594     93.8988
   702.2500      0.0000    673.8317      9.8509     92.5265
   702.5000      0.0000    674.1741     10.0282     89.4734
   702.7500      0.0000    675.4807     10.1538     85.9043
   703.0000      0.0000    679.9297     10.2484     82.3253
   703.2500      0.0000    688.9434     10.3213     78.5620
