~Version Information
VERS.                      2.0: CWLS Log ASCII Standard - VERSION 2.0
WRAP.                       NO: One line per depth step
~Well Information Block
STRT.FT               390.0000: 
STOP.FT              1434.5000: 
STEP.FT                 0.1000: 
NULL.                -999.2500: 
COMP.          Pioneer Natural Resources: COMPANY
WELL.             John K 12-28: WELL
FLD.           Purgatoire River: FIELD
LOC.           1476' FNL & 465' FWL: LOCATION
CNTY.               Las Animas: COUNTY
SRVC.                Patterson: SERVICE COMPANY
DATE.          Mon Apr 10 06:53:47 2006: LOG DATE
UWI.           05 071 08723 00: UNIQUE WELL ID
STAT.                 Colorado: STATE
~Curve Information Block
DEPT.FT            0 000 00 00: Depth
DCAL.in                       : CDL Caliper
RHOB.g/cc                     : CDL Bulk Density
RHOC.g/cc                     : CDL Density Correction
DPOR.pu                       : CDL Density Porosity
GR.GAPI                       : Gamma Ray
NPOR.pu                       : Neutron Porosity
~Parameter Information Block
~A  Depth       DCAL        RHOB        RHOC        DPOR         GR         NPOR    
# ...
   524.4000      7.8047      2.7068      0.0121     -3.4433     91.3153     30.7212
   524.5000      7.8036      2.7028      0.0926     -3.1972     90.5651     29.9769
   524.6000      7.8036      2.7007      0.1103     -3.0719     92.4776     29.0704
   524.7000      7.8036      2.6847      0.0781     -2.1043     97.5680     28.3371
   524.8000      7.8035      2.6595      0.0579     -0.5780     99.4794     27.8616
   524.9000      7.8035      2.6445      0.0573      0.3363     96.0589     27.7813
   525.0000      7.8046      2.6386      0.0889      0.6937     91.9810     27.8522
   525.1000      7.8046      2.6157      0.0872      2.0782     92.3844     27.6936
   525.2000      7.8046      2.5704      0.0308      4.8217     95.2630     27.4601
   525.3000      7.8056      2.5331      0.0183      7.0851     97.3584     27.4367
   525.4000      7.8056      2.5228     -0.0022      7.7085    101.4831     27.6411
   525.5000      7.8085      2.5332      0.0068      7.0813    107.9821     27.6252
   525.6000      7.8085      2.5541      0.0596      5.8143    112.9072     27.1312
   525.7000      7.8085      2.5742      0.1289      4.5940    115.7818     26.6494
   525.8000      7.8116      2.5869      0.1107      3.8228    117.3829     26.5069
   525.9000      7.8116      2.5982      0.1209      3.1395    117.6475     26.4826
   526.0000      7.8082      2.6046      0.1713      2.7508    116.1275     26.4293
   526.1000      7.8082      2.5942      0.1214      3.3820    112.2286     26.4967
   526.2000      7.8082      2.5720      0.0869      4.7287    108.9614     26.6503
   526.3000      7.8039      2.5497      0.0671      6.0812    109.4283     26.7475
   526.4000      7.8039      2.5245      0.0858      7.6064    112.0855     26.7716
   526.5000      7.8025      2.4860      0.0690      9.9365    114.0145     27.0402
   526.6000      7.8025      2.4417     -0.0108     12.6223    113.6325     27.5658
   526.7000      7.8025      2.4127     -0.0173     14.3789    113.0690     27.9544
   526.8000      7.8019      2.4039     -0.0110     14.9168    115.6566     28.2982
   526.9000      7.8019      2.4032      0.0089     14.9564    118.8516     28.8495
   527.0000      7.8018      2.4036     -0.0013     14.9339    119.6419     29.5160
   527.1000      7.8018      2.4088      0.0005     14.6164    118.2844     30.0362
   527.2000      7.8018      2.4191      0.0224     13.9962    114.5779     30.3917
   527.3000      7.8023      2.4266     -0.0030     13.5372    110.4866     30.5377
   527.4000      7.8023      2.4346      0.0034     13.0558    107.9301     30.4682
   527.5000      7.8034      2.4540     -0.0057     11.8808    106.1874     30.4582
   527.6000      7.8034      2.4794      0.0478     10.3371    103.6374     30.2935
   527.7000      7.8034      2.4990      0.0150      9.1531    102.6170     29.6466
   527.8000      7.8042      2.5113      0.0269      8.4064    107.3105     28.9492
   527.9000      7.8042      2.5165      0.0076      8.0882    112.6671     28.7460
   528.0000      7.8035      2.5210     -0.0169      7.8175    111.7371     29.0159
   528.1000      7.8035      2.5275      0.0014      7.4256    110.0503     29.3359
   528.2000      7.8035      2.5198      0.0412      7.8932    114.8192     29.3183
   528.3000      7.8018      2.4900      0.0074      9.6986    121.2822     29.0882
   528.4000      7.8018      2.4577     -0.0173     11.6564    122.0536     28.9982
   528.5000      7.8005      2.4439     -0.0435     12.4929    119.2141     28.9704
   528.6000      7.8005      2.4473      0.0040     12.2857    118.6933     28.6034
   528.7000      7.8005      2.4554     -0.0103     11.7919    119.6103     27.9674
   528.8000      7.7996      2.4619      0.0066     11.3986    120.1854     27.6133
   528.9000      7.7996      2.4652      0.0120     11.2014    122.9768     27.7767
   529.0000      7.7989      2.4670      0.0017     11.0880    126.7636     28.4332
   529.1000      7.7989      2.4717      0.0096     10.8091    126.1787     29.2376
   529.2000      7.7989      2.4823     -0.0103     10.1628    119.9139     29.5514
   529.3000      7.7987      2.5033     -0.0011      8.8931    112.2049     29.3400
   529.4000      7.7987      2.5296      0.0278      7.2964    107.7932     29.2515
   529.5000      7.7991      2.5429      0.0266      6.4885    107.3939     29.3183
   529.6000      7.7991      2.5325      0.0214      7.1228    107.3023     29.1681
   529.7000      7.7991      2.5058     -0.0027      8.7396    106.7303     29.0523
   529.8000      7.7990      2.4859     -0.0541      9.9452    107.7595     29.0543
   529.9000      7.7990      2.4920     -0.0497      9.5738    108.6815     28.9617
   530.0000      7.7979      2.5116      0.0061      8.3894    110.4056     28.9789
   530.1000      7.7979      2.5205      0.0393      7.8468    114.3883     29.1125
   530.2000      7.7979      2.5226     -0.0147      7.7211    117.0487     29.1227
   530.3000      7.7958      2.5310      0.0357      7.2129    117.0833     29.1824
   530.4000      7.7958      2.5392      0.0167      6.7163    115.7773     29.3641
   530.5000      7.7907      2.5323      0.0414      7.1338    112.5173     29.2706
   530.6000      7.7907      2.5045      0.0300      8.8179    107.9422     28.9328
   530.7000      7.7907      2.4688     -0.0246     10.9841    104.1553     28.7289
   530.8000      7.7765      2.4484     -0.0421     12.2181    101.4233     28.6164
   530.9000      7.7765      2.4560     -0.0434     11.7586     99.3849     28.6247
   531.0000      7.7652      2.4760      0.0087     10.5458     98.8339     28.7396
   531.1000      7.7652      2.4915     -0.0460      9.6036     98.3698     28.5893
   531.2000      7.7652      2.5177     -0.0391      8.0197     93.4957     27.9595
   531.3000      7.7751      2.5579      0.0357      5.5794     82.8264     27.0503
   531.4000      7.7751      2.5878      0.0437      3.7701     72.5585     26.3474
   531.5000      7.7867      2.5949      0.0801      3.3423     68.0636     26.0762
   531.6000      7.7867      2.5902      0.0135      3.6241     67.1614     26.0299
   531.7000      7.7867      2.5945      0.0279      3.3608     65.8612     25.8402
   531.8000      7.7887      2.6144      0.0459      2.1576     63.0447     25.4973
   531.9000      7.7887      2.6340      0.0935      0.9704     58.9454     25.4564
   532.0000      7.7861      2.6352      0.0543      0.9000     54.6698     25.8593
   532.1000      7.7861      2.6189      0.0247      1.8852     51.4510     26.2494
   532.2000      7.7861      2.5968      0.0431      3.2250     48.3594     26.3078
   532.3000      7.7778      2.5814      0.0231      4.1606     45.0990     26.3940
   532.4000      7.7778      2.5880      0.0077      3.7570     43.3454     26.6834
   532.5000      7.7659      2.6153      0.0767      2.1019     43.7329     26.8025
   532.6000      7.7659      2.6446      0.0677      0.3269     43.6288     26.6908
   532.7000      7.7659      2.6686      0.1032     -1.1244     40.0658     26.6228
   532.8000      7.7565      2.6925      0.0904     -2.5731     36.8337     26.7371
   532.9000      7.7565      2.7213      0.1136     -4.3194     36.5870     26.7997
   533.0000      7.7517      2.7470      0.1815     -5.8817     34.8870     26.3294
   533.1000      7.7517      2.7617      0.0868     -6.7685     29.7977     25.3608
   533.2000      7.7517      2.7752      0.1112     -7.5878     24.9969     24.4763
   533.3000      7.7510      2.7911      0.0876     -8.5497     23.5143     23.8996
   533.4000      7.7510      2.7975      0.0758     -8.9417     23.7781     23.5960
   533.5000      7.7560      2.7880      0.0573     -8.3613     22.3280     23.8165
   533.6000      7.7560      2.7692      0.0337     -7.2243     19.3480     24.7016
   533.7000      7.7560      2.7582      0.0079     -6.5546     19.1730     26.0051
   533.8000      7.7682      2.7762      0.0075     -7.6477     24.1667     27.2762
   533.9000      7.7682      2.8255      0.0333    -10.6362     29.8722     27.9182
