~Version Information
VERS.                      2.0: CWLS Log ASCII Standard - VERSION 2.0
WRAP.                       NO: One line per depth step
~Well Information Block
STRT.FT               370.0000: 
STOP.FT              2832.5000: 
STEP.FT                 0.1000: 
NULL.                -999.2500: 
COMP.          Pioneer Natural Resources: COMPANY
WELL.          Black Cat 13-32: WELL
FLD.           Purgatoire River: FIELD
LOC.           1865' FSL & 1120' FWL--: LOCATION
PROV.                 Colorado: PROVINCE
CNTY.               Las Animas: COUNTRY
SRVC.                Patterson: SERVICE COMPANY
DATE.          Sun Jul 31 08:38:44 2005: LOG DATE
UWI.           05 071 08450 00: UNIQUE WELL ID
~Curve Information Block
DEPT.FT            0 000 00 00: Depth
DCAL.in                       : CDL Caliper
DPOR.pu                       : CDL Density Porosity
NPOR.pu                       : Neutron Porosity
RHOB.g/cc                     : CDL Bulk Density
RHOC.g/cc                     : CDL Density Correction
GR.GAPI                       : Gamma Ray
~Parameter Information Block
~A  Depth       DCAL        DPOR        NPOR        RHOB        RHOC         GR     
# ...
  1896.4000      8.0372      6.9860     27.3693      2.5347      0.0459    136.2504
  1896.5000      8.0366      6.3707     27.0258      2.5449      0.0468    142.1884
  1896.6000      8.0366      5.3338     26.7401      2.5620      0.0779    140.1724
  1896.7000      8.0366      4.8767     27.0379      2.5695      0.0935    135.7882
  1896.8000      8.0356      5.2521     27.8800      2.5633      0.0391    132.3175
  1896.9000      8.0356      5.9404     28.2794      2.5520      0.0476    141.5008
  1897.0000      8.0338      6.5075     27.8540      2.5426      0.0123    167.7061
  1897.1000      8.0338      6.9368     27.4726      2.5355      0.0582    187.1043
  1897.2000      8.0338      7.5689     27.5465      2.5251      0.0213    187.1832
  1897.3000      8.0321      8.2709     27.8714      2.5135      0.0689    189.9097
  1897.4000      8.0321      8.3171     28.2381      2.5128      0.0400    199.2498
  1897.5000      8.0330      7.8102     28.0947      2.5211      0.0685    199.6710
  1897.6000      8.0330      7.7718     27.2513      2.5218      0.0483    198.6376
  1897.7000      8.0330      8.0834     26.7072      2.5166      0.0342    200.7961
  1897.8000      8.0350      7.5971     26.9248      2.5246      0.0180    194.4321
  1897.9000      8.0350      6.2218     27.2674      2.5473      0.0715    183.9449
  1898.0000      8.0364      4.9032     27.4358      2.5691      0.0508    179.8072
  1898.1000      8.0364      4.4406     27.4585      2.5767      0.1013    170.2951
  1898.2000      8.0364      5.5069     27.0495      2.5591      0.0809    149.2653
  1898.3000      8.0354      7.5265     26.0048      2.5258      0.0253    135.9008
  1898.4000      8.0354      8.3801     24.7038      2.5117      0.0043    140.8314
  1898.5000      8.0343      6.8139     23.7278      2.5376      0.0320    152.1446
  1898.6000      8.0343      3.7886     23.3416      2.5875      0.0767    154.3461
  1898.7000      8.0343      1.2668     23.2188      2.6291      0.0656    142.0758
  1898.8000      8.0344      0.6632     22.7415      2.6391      0.1308    123.6925
  1898.9000      8.0344      1.7849     21.8422      2.6205      0.0535    112.4593
  1899.0000      8.0341      2.7800     21.1460      2.6041      0.0435    110.2119
  1899.1000      8.0341      2.6699     21.4307      2.6059      0.0564    106.0629
  1899.2000      8.0341      2.2053     22.4910      2.6136      0.0635     96.8137
  1899.3000      8.0328      2.1575     23.5453      2.6144      0.0449     91.3770
  1899.4000      8.0328      2.4716     24.2078      2.6092      0.0365     94.3347
  1899.5000      8.0333      3.1032     24.4135      2.5988      0.0660     99.7858
  1899.6000      8.0333      4.1857     24.3765      2.5809      0.0411    102.3325
  1899.7000      8.0333      5.2109     24.4066      2.5640      0.0062    105.9192
  1899.8000      8.0346      5.9629     24.9749      2.5516      0.0684    112.4327
  1899.9000      8.0346      6.7853     26.0257      2.5380      0.0087    118.5505
  1900.0000      8.0344      7.0975     26.7466      2.5329      0.0232    125.0551
  1900.1000      8.0344      6.7339     26.7558      2.5389      0.0626    131.5197
  1900.2000      8.0344      6.6883     26.5217      2.5396      0.0546    138.7289
  1900.3000      8.0332      7.2942     26.7481      2.5296      0.0682    152.1970
  1900.4000      8.0332      8.0815     27.3173      2.5167      0.0297    164.0066
  1900.5000      8.0339      8.7282     27.6002      2.5060      0.0323    160.7855
  1900.6000      8.0339      8.4831     27.6530      2.5100     -0.0534    148.7560
  1900.7000      8.0339      7.0007     27.9012      2.5345      0.0685    136.5612
  1900.8000      8.0350      5.8123     28.2284      2.5541      0.0808    123.2184
  1900.9000      8.0350      5.8417     28.4394      2.5536      0.0574    117.9304
  1901.0000      8.0346      6.3078     28.6479      2.5459      0.0475    135.9714
  1901.1000      8.0346      6.8923     28.8344      2.5363      0.0773    166.7875
  1901.2000      8.0346      7.9297     28.9148      2.5192      0.0217    183.6290
  1901.3000      8.0338      9.2161     28.9999      2.4979      0.0161    185.6358
  1901.4000      8.0338     10.4777     29.2981      2.4771      0.0347    185.1370
  1901.5000      8.0334     11.4808     29.7828      2.4606     -0.0047    184.8898
  1901.6000      8.0334     11.8368     30.2209      2.4547     -0.0042    181.0141
  1901.7000      8.0334     11.3459     30.5441      2.4628     -0.0091    172.1577
  1901.8000      8.0337     10.1439     30.6317      2.4826      0.0255    168.8251
  1901.9000      8.0337      8.7433     30.2333      2.5057      0.0519    171.4710
  1902.0000      8.0357      7.3985     29.4053      2.5279      0.0356    163.6353
  1902.1000      8.0357      6.2193     28.8088      2.5474      0.0700    145.0487
  1902.2000      8.0357      5.7764     29.2044      2.5547      0.1025    140.7815
  1902.3000      8.0367      6.0109     30.3039      2.5508      0.0807    158.4743
  1902.4000      8.0367      6.2700     31.0490      2.5465      0.1002    173.4292
  1902.5000      8.0350      6.9959     31.3421      2.5346      0.1077    171.4966
  1902.6000      8.0350      9.5694     32.0544      2.4921      0.0798    161.0344
  1902.7000      8.0350     14.9389     33.3409      2.4035      0.0617    151.8769
  1902.8000      8.0313     22.2233     34.0964      2.2833     -0.0164    147.7345
  1902.9000      8.0313     29.4830     33.4903      2.1635     -0.0555    148.5103
  1903.0000      8.0291     35.8548     32.4756      2.0584     -0.0993    144.8223
  1903.1000      8.0291     41.3588     32.3529      1.9676     -0.1209    134.8264
  1903.2000      8.0291     45.7625     33.1063      1.8949     -0.0928    128.7503
  1903.3000      8.0302     48.2494     33.9636      1.8539     -0.0967    128.3118
  1903.4000      8.0302     48.4455     34.2405      1.8506      0.0113    125.7948
  1903.5000      8.0312     46.8655     33.5984      1.8767     -0.0022    118.1644
  1903.6000      8.0312     43.9840     32.2768      1.9243      0.1063    107.9213
  1903.7000      8.0312     40.2588     31.0203      1.9857      0.1632    101.4787
  1903.8000      8.0301     36.0135     30.4513      2.0558      0.1939    105.1838
  1903.9000      8.0301     31.5101     30.5072      2.1301      0.2179    110.1910
  1904.0000      8.0282     27.5049     30.6789      2.1962      0.1804    111.2742
  1904.1000      8.0282     24.9855     30.4979      2.2377      0.1628    119.8084
  1904.2000      8.0282     24.2585     29.8819      2.2497      0.0753    133.9573
  1904.3000      8.0279     24.6182     29.2959      2.2438      0.0490    136.9749
  1904.4000      8.0279     25.1999     29.1188      2.2342      0.0272    130.2075
  1904.5000      8.0287     25.2556     29.2765      2.2333     -0.0692    126.8597
  1904.6000      8.0287     24.1940     29.4751      2.2508     -0.0271    129.6168
  1904.7000      8.0287     22.2218     29.3662      2.2833      0.0180    138.3012
  1904.8000      8.0309     19.7751     29.1511      2.3237      0.0167    152.7271
  1904.9000      8.0309     17.2427     29.2873      2.3655      0.1087    163.8318
  1905.0000      8.0334     15.2749     29.6967      2.3980      0.1085    161.0443
  1905.1000      8.0334     13.7928     29.9565      2.4224      0.1613    143.4721
  1905.2000      8.0334     12.0565     29.8223      2.4511      0.1506    126.5451
  1905.3000      8.0354      9.9111     29.4783      2.4865      0.1164    124.4352
  1905.4000      8.0354      8.1115     29.0528      2.5162      0.0913    135.5848
  1905.5000      8.0358      7.1066     28.3295      2.5327      0.0454    149.3296
  1905.6000      8.0358      6.2245     27.1590      2.5473      0.0647    152.0059
  1905.7000      8.0358      4.8840     26.2148      2.5694      0.0664    144.7800
  1905.8000      8.0344      3.7021     26.3141      2.5889      0.1013    141.3720
  1905.9000      8.0344      3.4649     27.0108      2.5928      0.0581    143.7947
