~Version Information
VERS.                      2.0: CWLS Log ASCII Standard - VERSION 2.0
WRAP.                       NO: One line per depth step
~Well Information Block
STRT.FT               745.0000: 
STOP.FT              1985.0000: 
STEP.FT                 0.1000: 
NULL.                -999.2500: 
COMP.          Pioneer Natural Resources: COMPANY
WELL.          Lorencito 15-36-33-67: WELL
FLD.           Purgatoire River: FIELD
LOC.           38' FSL & 1446' FEL: LOCATION
STAT.                 Colorado: State
CNTY.               Las Animas: COUNTY
CTRY. USA : Country
SECT. 36 : Section
TOWN. 33S : Township
RANG. 67W : Range
SRVC.                Patterson: SERVICE COMPANY
DATE.          Thu Oct 13 10:16:17 2005: LOG DATE
API.           05 071 08515 00: UNIQUE WELL ID
~Curve Information Block
DEPT.FT            0 000 00 00: Depth
DCAL.in                       : CDL Caliper
RHOB.g/cc                     : CDL Bulk Density
RHOC.g/cc                     : CDL Density Correction
DPOR.pu                       : CDL Density Porosity
GR.GAPI                       : Gamma Ray
NPOR.pu                       : Neutron Porosity
~Parameter Information Block
~A  Depth       DCAL        RHOB        RHOC        DPOR         GR         NPOR    
# ...
  1810.6000      7.9241      2.4951      0.0205      9.3901     87.7277     27.7464
  1810.7000      7.9241      2.4804      0.0145     10.2761     92.3955     27.7488
  1810.8000      7.9176      2.4666     -0.0087     11.1174    100.4142     27.8757
  1810.9000      7.9176      2.4598     -0.0217     11.5243    105.7662     27.1904
  1811.0000      7.9244      2.4679      0.0015     11.0339    109.5366     26.2401
  1811.1000      7.9244      2.4785      0.0901     10.3917    115.0224     26.2994
  1811.2000      7.9244      2.4745      0.0446     10.6353    120.9564     27.2985
  1811.3000      7.9122      2.4698      0.0413     10.9201    122.7035     27.9617
  1811.4000      7.9122      2.4839      0.0710     10.0679    118.2270     27.8944
  1811.5000      7.9133      2.5077      0.0771      8.6272    110.0091     27.6587
  1811.6000      7.9133      2.5238      0.0527      7.6455    100.8777     27.5162
  1811.7000      7.9133      2.5251      0.0624      7.5673     93.4387     27.4498
  1811.8000      7.9128      2.5135      0.0529      8.2701     89.2105     27.5927
  1811.9000      7.9128      2.5014      0.0650      9.0055     87.5283     28.0148
  1812.0000      7.9071      2.5020      0.0721      8.9671     90.7997     28.4236
  1812.1000      7.9071      2.5120      0.0798      8.3606     98.2312     28.4993
  1812.2000      7.9071      2.5127      0.0784      8.3205    100.7139     28.2555
  1812.3000      7.9114      2.4950      0.0560      9.3952     97.4662     27.8409
  1812.4000      7.9114      2.4707      0.0237     10.8653     98.9903     27.2692
  1812.5000      7.9053      2.4580      0.0206     11.6387    107.0289     26.8852
  1812.6000      7.9053      2.4632      0.0242     11.3205    112.9813     27.2142
  1812.7000      7.9053      2.4782      0.0539     10.4100    114.4896     27.8373
  1812.8000      7.8974      2.4905      0.0385      9.6645    116.1154     27.8368
  1812.9000      7.8974      2.4943      0.0637      9.4341    117.3075     27.4979
  1813.0000      7.9092      2.4941      0.0410      9.4507    116.2202     27.9794
  1813.1000      7.9092      2.4957      0.0663      9.3492    113.8978     29.1513
  1813.2000      7.9092      2.4973      0.0738      9.2542    111.1166     29.4017
  1813.3000      7.9137      2.4967      0.0417      9.2929    107.5688     28.4931
  1813.4000      7.9137      2.4947      0.0721      9.4138    103.3300     27.9384
  1813.5000      7.9239      2.4908      0.0428      9.6498    100.1964     28.4538
  1813.6000      7.9239      2.4857      0.0508      9.9560     98.8254     29.1891
  1813.7000      7.9239      2.4835      0.0299     10.0880     99.7597     29.5868
  1813.8000      7.9248      2.4851      0.0674      9.9957    101.3657     29.7448
  1813.9000      7.9248      2.4846      0.0400     10.0268    100.1671     29.5555
  1814.0000      7.9112      2.4835      0.0329     10.0934     98.7583     29.1341
  1814.1000      7.9112      2.4932      0.0252      9.5059    102.0215     28.5979
  1814.2000      7.9112      2.5118      0.0931      8.3742    105.8170     28.0438
  1814.3000      7.9089      2.5213      0.0609      7.7983    102.8759     27.5592
  1814.4000      7.9089      2.5158      0.0462      8.1341     94.7673     26.7819
  1814.5000      7.9143      2.5044      0.0334      8.8215     88.9893     25.7819
  1814.6000      7.9143      2.4976      0.0397      9.2360     89.5068     25.6226
  1814.7000      7.9143      2.5011      0.0751      9.0253     92.8482     26.7517
  1814.8000      7.9180      2.5114      0.0893      8.3983     95.3482     27.9229
  1814.9000      7.9180      2.5135      0.1098      8.2704     98.9043     28.1320
  1815.0000      7.9315      2.4979      0.0610      9.2155    104.0359     27.8268
  1815.1000      7.9315      2.4768      0.0530     10.4981    104.9089     27.6007
  1815.2000      7.9315      2.4621      0.0237     11.3870     96.7289     27.7977
  1815.3000      7.9332      2.4517      0.0205     12.0180     85.3114     28.2355
  1815.4000      7.9332      2.4459      0.0233     12.3671     82.0678     28.0979
  1815.5000      7.9335      2.4539     -0.0049     11.8867     90.3671     27.5282
  1815.6000      7.9335      2.4764      0.0538     10.5239    103.6265     27.2100
  1815.7000      7.9335      2.5009      0.0424      9.0370    110.4225     27.1785
  1815.8000      7.9410      2.5186      0.0462      7.9628    107.0267     27.2560
  1815.9000      7.9410      2.5265      0.0691      7.4824    103.4036     27.2796
  1816.0000      7.9342      2.5217      0.0618      7.7785    105.2084     27.2542
  1816.1000      7.9342      2.5095      0.0175      8.5174    106.4234     27.2420
  1816.2000      7.9342      2.5007      0.0519      9.0508    106.0157     27.2702
  1816.3000      7.9400      2.4932      0.0536      9.5035    107.6666     27.5364
  1816.4000      7.9400      2.4854      0.0097      9.9734    108.3296     28.1874
  1816.5000      7.9102      2.4894      0.0198      9.7315    105.7253     28.7779
  1816.6000      7.9102      2.5026      0.0617      8.9358    102.6750     28.9002
  1816.7000      7.9102      2.5042      0.0573      8.8386     99.1497     28.6358
  1816.8000      7.9051      2.4936      0.0039      9.4807     94.8114     27.8493
  1816.9000      7.9051      2.4886     -0.0118      9.7804     90.8178     26.8476
  1817.0000      7.9010      2.4905      0.0450      9.6653     86.8687     26.4371
  1817.1000      7.9010      2.4887      0.0501      9.7751     84.6438     26.4562
  1817.2000      7.9010      2.4903      0.0344      9.6800     85.8756     26.0276
  1817.3000      7.8615      2.5085      0.0811      8.5734     85.6942     25.2191
  1817.4000      7.8615      2.5416      0.0903      6.5695     81.6034     24.9063
  1817.5000      7.8847      2.5796      0.0855      4.2639     76.8254     25.2733
  1817.6000      7.8847      2.6110      0.1195      2.3655     72.1618     25.3954
  1817.7000      7.8847      2.6239      0.1594      1.5831     69.8077     24.7284
  1817.8000      7.8653      2.6206      0.1252      1.7796     71.6637     23.8669
  1817.9000      7.8653      2.6150      0.1395      2.1200     74.7506     23.2042
  1818.0000      7.8730      2.6101      0.1399      2.4174     74.8266     22.4451
  1818.1000      7.8730      2.6032      0.1327      2.8384     69.8930     21.6618
  1818.2000      7.8730      2.6027      0.0886      2.8663     62.9691     21.1012
  1818.3000      7.8719      2.6127      0.1619      2.2635     57.7331     19.9738
  1818.4000      7.8719      2.6130      0.1455      2.2450     52.8429     18.4345
  1818.5000      7.9181      2.5962      0.0189      3.2586     46.3404     18.2404
  1818.6000      7.9181      2.5804      0.0189      4.2188     41.0042     19.4527
  1818.7000      7.9181      2.5685      0.0826      4.9407     38.7270     20.5841
  1818.8000      7.8739      2.5510      0.0433      5.9993     37.2807     20.6593
  1818.9000      7.8739      2.5246      0.0835      7.6023     34.5705     19.8374
  1819.0000      7.8712      2.4873     -0.0073      9.8606     31.4007     19.4107
  1819.1000      7.8712      2.4495     -0.0062     12.1535     28.7071     20.3390
  1819.2000      7.8712      2.4207      0.0426     13.8978     27.4117     22.0867
  1819.3000      7.8619      2.4037      0.0102     14.9285     30.0884     23.5381
  1819.4000      7.8619      2.4049      0.0425     14.8531     35.6670     24.2396
  1819.5000      7.8286      2.4268      0.0339     13.5269     40.2436     24.2519
  1819.6000      7.8286      2.4640      0.0824     11.2727     43.3299     23.6509
  1819.7000      7.8286      2.4997      0.1157      9.1101     46.4919     23.0864
  1819.8000      7.8364      2.5089      0.1416      8.5488     49.4049     23.4302
  1819.9000      7.8364      2.4779      0.1528     10.4289     51.1452     24.5031
  1820.0000      7.8662      2.4097      0.1545     14.5649     53.1527     25.9098
  1820.1000      7.8662      2.3218      0.0887     19.8922     56.2217     27.3103
