~Version Information
VERS.                      2.0: CWLS Log ASCII Standard - VERSION 2.0
WRAP.                       NO: One line per depth step
~Well Information Block
STRT.FT               625.0000: 
STOP.FT              2053.7000: 
STEP.FT                 0.1000: 
NULL.                -999.2500: 
COMP.          Pioneer Natural Resources: COMPANY
WELL.            Zink 44-10 Tr: WELL
FLD.           Purgatoire River: FIELD
LOC.           486' FSL & 554' FEL--: LOCATION
PROV.                 Colorado: PROVINCE
CNTY.               Las Animas: COUNTRY
SRVC.                Patterson: SERVICE COMPANY
DATE.          Sun Jul 24 08:46:57 2005: LOG DATE
UWI.           05 071 08446 00: UNIQUE WELL ID
~Curve Information Block
DEPT.FT            0 000 00 00: Depth
DCAL.in                       : CDL Caliper
RHOB.g/cc                     : CDL Bulk Density
RHOC.g/cc                     : CDL Density Correction
DPOR.pu                       : CDL Density Porosity
NPOR.pu                       : Neutron Porosity
GR.GAPI                       : Gamma Ray
~Parameter Information Block
~A  Depth       DCAL        RHOB        RHOC        DPOR        NPOR         GR     
# ...
  1469.8000      7.7877      2.6488      0.1006      0.0725     24.1681    112.0400
  1469.9000      7.7877      2.6471      0.1136      0.1788     23.2754    105.7786
  1470.0000      7.8181      2.6530      0.0938     -0.1791     22.5685    103.9667
  1470.1000      7.8181      2.6626      0.0983     -0.7628     22.3227    113.4049
  1470.2000      7.8181      2.6679      0.1178     -1.0820     21.8269    120.8548
  1470.3000      7.8285      2.6702      0.0742     -1.2251     21.0130    113.6270
  1470.4000      7.8285      2.6813      0.0561     -1.8964     20.5492     99.4320
  1470.5000      7.8194      2.6923      0.1308     -2.5642     20.4303     89.3634
  1470.6000      7.8194      2.6840      0.0803     -2.0600     20.5868     85.4924
  1470.7000      7.8194      2.6679      0.0760     -1.0878     21.2416     82.4921
  1470.8000      7.8193      2.6536      0.0890     -0.2156     22.2249     74.2372
  1470.9000      7.8193      2.6191      0.0503      1.8730     23.0608     61.5440
  1471.0000      7.8307      2.5483      0.0272      6.1633     23.6218     50.7962
  1471.1000      7.8307      2.4554     -0.0186     11.7944     23.8129     46.9277
  1471.2000      7.8307      2.3696     -0.0644     16.9962     23.1878     49.1739
  1471.3000      7.8254      2.3126     -0.0634     20.4455     21.9664     52.6366
  1471.4000      7.8254      2.2959     -0.0269     21.4601     20.9160     53.6868
  1471.5000      7.8034      2.3185      0.0194     20.0939     20.2988     51.8311
  1471.6000      7.8034      2.3714      0.0644     16.8829     19.9808     47.2544
  1471.7000      7.8034      2.4486      0.1729     12.2067     19.8710     42.8256
  1471.8000      7.7919      2.5356      0.2281      6.9311     20.0341     42.9083
  1471.9000      7.7919      2.6005      0.2943      3.0012     20.3296     47.3848
  1472.0000      7.8010      2.6243      0.2552      1.5602     20.5969     51.8893
  1472.1000      7.8010      2.6341      0.1679      0.9658     21.0547     53.1815
  1472.2000      7.8010      2.6637      0.1577     -0.8282     21.6529     53.3969
  1472.3000      7.8313      2.6952      0.1516     -2.7400     21.8337     58.0012
  1472.4000      7.8313      2.6872      0.1193     -2.2538     21.6759     64.2596
  1472.5000      7.8750      2.6405      0.0352      0.5741     21.9137     64.0698
  1472.6000      7.8750      2.5956      0.0259      3.2988     22.7256     62.1357
  1472.7000      7.8750      2.5718      0.0232      4.7405     23.4890     68.5999
  1472.8000      7.9000      2.5549      0.0141      5.7617     23.8716     80.7652
  1472.9000      7.9000      2.5362     -0.0031      6.8977     24.3637     90.0029
  1473.0000      7.8949      2.5197      0.0225      7.8943     25.2247     96.1506
  1473.1000      7.8949      2.5024      0.0424      8.9466     26.0772    101.5511
  1473.2000      7.8949      2.4736      0.0521     10.6931     26.3350    104.9316
  1473.3000      7.8779      2.4294      0.0527     13.3691     26.1410    107.0058
  1473.4000      7.8779      2.3794      0.0281     16.4004     26.6684    108.3753
  1473.5000      7.8632      2.3436     -0.0075     18.5718     28.1293    108.6003
  1473.6000      7.8632      2.3305      0.0560     19.3642     28.9546    110.6965
  1473.7000      7.8632      2.3310      0.0157     19.3331     28.2698    116.4872
  1473.8000      7.8600      2.3405      0.0246     18.7557     27.4123    121.8824
  1473.9000      7.8600      2.3610      0.0619     17.5177     27.2625    123.7658
  1474.0000      7.8794      2.3915      0.0821     15.6639     27.1252    121.7051
  1474.1000      7.8794      2.4276      0.1266     13.4768     26.5586    116.0038
  1474.2000      7.8794      2.4631      0.1565     11.3279     25.8395    109.8763
  1474.3000      7.9144      2.4996      0.1116      9.1140     25.5658    108.5755
  1474.4000      7.9144      2.5436      0.1288      6.4494     26.0475    113.5235
  1474.5000      7.9366      2.5917      0.1376      3.5347     26.5482    117.9521
  1474.6000      7.9366      2.6330      0.1536      1.0273     26.1910    115.3928
  1474.7000      7.9366      2.6566      0.1617     -0.4011     25.3626    109.4016
  1474.8000      7.9376      2.6614      0.1395     -0.6935     24.9358    107.7138
  1474.9000      7.9376      2.6640      0.1076     -0.8500     24.9480    111.3422
  1475.0000      7.9336      2.6764      0.1283     -1.5973     24.5852    114.1207
  1475.1000      7.9336      2.6870      0.1282     -2.2447     23.7204    113.9598
  1475.2000      7.9336      2.6847      0.1071     -2.1051     23.4848    114.3986
  1475.3000      7.9349      2.6769      0.1043     -1.6318     23.9855    116.5737
  1475.4000      7.9349      2.6744      0.1008     -1.4796     24.1877    118.0875
  1475.5000      7.9460      2.6815      0.1246     -1.9119     23.8732    116.1531
  1475.6000      7.9460      2.6989      0.0909     -2.9655     23.5093    112.7821
  1475.7000      7.9460      2.7247      0.0836     -4.5245     23.6294    111.5651
  1475.8000      7.9605      2.7508      0.1040     -6.1082     24.3411    111.7196
  1475.9000      7.9605      2.7621      0.1436     -6.7946     25.1701    113.7549
  1476.0000      7.9637      2.7484      0.1292     -5.9643     25.4269    117.4377
  1476.1000      7.9637      2.7165      0.1105     -4.0286     24.8447    116.9651
  1476.2000      7.9637      2.6843      0.0956     -2.0780     23.8807    112.7519
  1476.3000      7.9608      2.6696      0.0431     -1.1890     23.2536    115.0564
  1476.4000      7.9608      2.6728      0.0761     -1.3835     23.5697    124.3485
  1476.5000      7.9596      2.6762      0.0755     -1.5880     24.4563    130.9633
  1476.6000      7.9596      2.6612      0.0927     -0.6760     24.8365    131.5495
  1476.7000      7.9596      2.6253      0.0468      1.4991     24.5469    128.2695
  1476.8000      7.9609      2.5926      0.0245      3.4784     24.2652    123.5920
  1476.9000      7.9609      2.5837      0.0536      4.0168     24.4907    122.3171
  1477.0000      7.9624      2.5907      0.0579      3.5930     25.0802    125.8710
  1477.1000      7.9624      2.5946      0.0714      3.3576     25.5088    131.6356
  1477.2000      7.9624      2.5875      0.0786      3.7850     25.5387    138.7290
  1477.3000      7.9623      2.5815      0.0494      4.1524     25.5889    145.3716
  1477.4000      7.9623      2.5835      0.0935      4.0304     25.8608    146.5028
  1477.5000      7.9651      2.5758      0.0998      4.4985     26.1779    138.8897
  1477.6000      7.9651      2.5466      0.0886      6.2670     26.8779    125.4758
  1477.7000      7.9651      2.5088      0.0735      8.5588     27.8895    115.5323
  1477.8000      7.9739      2.4810      0.0337     10.2400     27.9993    115.5096
  1477.9000      7.9739      2.4733      0.0234     10.7099     27.2080    125.6842
  1478.0000      7.9862      2.4791      0.0426     10.3595     27.1454    141.4637
  1478.1000      7.9862      2.4866      0.0300      9.9031     28.0947    150.8581
  1478.2000      7.9862      2.4910      0.0425      9.6364     28.8087    147.3240
  1478.3000      7.9888      2.4935      0.0601      9.4846     28.8001    139.1639
  1478.4000      7.9888      2.4991      0.1096      9.1465     28.7131    134.0558
  1478.5000      7.9736      2.5070      0.0910      8.6693     28.9627    132.9545
  1478.6000      7.9736      2.5127      0.1138      8.3229     28.9614    134.2102
  1478.7000      7.9736      2.5186      0.0656      7.9667     27.9713    135.1016
  1478.8000      7.9519      2.5273      0.1294      7.4367     26.7321    137.5732
  1478.9000      7.9519      2.5339      0.0944      7.0373     26.2350    141.0388
  1479.0000      7.9319      2.5343      0.1430      7.0094     26.2222    139.6812
  1479.1000      7.9319      2.5277      0.1223      7.4118     26.0857    134.6298
  1479.2000      7.9319      2.5227      0.0861      7.7174     25.7801    130.4576
  1479.3000      7.9180      2.5276      0.1150      7.4198     25.5640    125.9933
