~Version Information
VERS.                      2.0: CWLS Log ASCII Standard - VERSION 2.0
WRAP.                       NO: One line per depth step
~Well Information Block
STRT.FT               687.7500: 
STOP.FT              1252.7500: 
STEP.FT                 0.2500: 
NULL.                -999.2500: 
COMP.          Pioneer Natural Resources: COMPANY
WELL.          Rock Island 44-24 Tr: WELL
FLD.           Purgatoire River: FIELD
LOC.           814' FSL & 761' FEL--: LOCATION
CNTY.               Las Animas: COUNTY
SRVC.                Patterson: SERVICE COMPANY
DATE.          Wed Apr 19 21:31:44 2006: LOG DATE
UWI.           05 071 08680 00: UNIQUE WELL ID
STAT.                 Colorado: STATE
~Curve Information Block
DEPT.FT            0 000 00 00: Depth
DIR.Ohm-m                     : IEL Induction Resistivity
GR.GAPI                       : Gamma Ray
~Parameter Information Block
~A  Depth       DIR          GR     
# ...
  1133.7500     12.5955    110.0282
  1134.0000     12.3886    110.7401
  1134.2500     12.2689    112.6527
  1134.5000     12.1927    116.8393
  1134.7500     12.1132    119.8293
  1135.0000     11.9930    123.5062
  1135.2500     11.8125    125.1494
  1135.5000     11.5723    126.6009
  1135.7500     11.2880    127.0684
  1136.0000     10.9828    127.0888
  1136.2500     10.6808    126.7543
  1136.5000     10.4026    126.3966
  1136.7500     10.1640    126.7156
  1137.0000      9.9741    128.0834
  1137.2500      9.8345    129.0504
  1137.5000      9.7407    129.4442
  1137.7500      9.6857    128.7766
  1138.0000      9.6653    127.1791
  1138.2500      9.6838    126.5930
  1138.5000      9.7555    127.5381
  1138.7500      9.9012    129.2834
  1139.0000     10.1414    131.9385
  1139.2500     10.4872    132.3576
  1139.5000     10.9336    129.2163
  1139.7500     11.4569    124.4037
  1140.0000     12.0181    114.0448
  1140.2500     12.5739    106.1530
  1140.5000     13.0931     95.4491
  1140.7500     13.5654     90.5833
  1141.0000     13.9966     88.0374
  1141.2500     14.3909     89.2928
  1141.5000     14.7353     94.1755
  1141.7500     14.9953     98.4444
  1142.0000     15.1238    104.6959
  1142.2500     15.0775    107.8320
  1142.5000     14.8340    109.8709
  1142.7500     14.4062    109.4245
  1143.0000     13.8427    107.2807
  1143.2500     13.2122    105.9925
  1143.5000     12.5789    105.8051
  1143.7500     11.9844    107.2126
  1144.0000     11.4438    111.6121
  1144.2500     10.9535    115.8052
  1144.5000     10.5020    122.9625
  1144.7500     10.0795    127.4952
  1145.0000      9.6808    132.8558
  1145.2500      9.3070    135.2566
  1145.5000      8.9644    137.3205
  1145.7500      8.6631    138.0328
  1146.0000      8.4143    139.0275
  1146.2500      8.2268    140.1522
  1146.5000      8.1034    142.6013
  1146.7500      8.0387    144.0891
  1147.0000      8.0194    144.5893
  1147.2500      8.0267    143.3762
  1147.5000      8.0409    139.6427
  1147.7500      8.0469    136.2382
  1148.0000      8.0366    130.1851
  1148.2500      8.0092    126.0637
  1148.5000      7.9689    121.5658
  1148.7500      7.9200    120.6640
  1149.0000      7.8625    122.4296
  1149.2500      7.7898    124.6431
  1149.5000      7.6901    127.6557
  1149.7500      7.5529    129.1367
  1150.0000      7.3767    130.8774
  1150.2500      7.1727    131.6658
  1150.5000      6.9614    131.7626
  1150.7500      6.7661    131.1520
  1151.0000      6.6051    130.1568
  1151.2500      6.4898    129.8646
  1151.5000      6.4245    129.6302
  1151.7500      6.4097    129.0575
  1152.0000      6.4451    127.2433
  1152.2500      6.5306    125.8888
  1152.5000      6.6669    124.9279
  1152.7500      6.8544    125.2463
  1153.0000      7.0926    126.2395
  1153.2500      7.3810    126.5901
  1153.5000      7.7199    126.7363
  1153.7500      8.1113    127.1574
  1154.0000      8.5580    128.6114
  1154.2500      9.0602    129.6751
  1154.5000      9.6105    130.4792
  1154.7500     10.1880    130.2785
  1155.0000     10.7569    128.9120
  1155.2500     11.2743    127.3948
  1155.5000     11.7058    124.5372
  1155.7500     12.0386    122.4840
  1156.0000     12.2826    119.5148
  1156.2500     12.4580    117.7994
  1156.5000     12.5798    116.0307
  1156.7500     12.6486    115.5823
  1157.0000     12.6529    115.9447
  1157.2500     12.5822    116.5228
  1157.5000     12.4388    117.0500
  1157.7500     12.2414    116.9481
  1158.0000     12.0178    116.6006
  1158.2500     11.7925    116.7400
  1158.5000     11.5798    117.8871
  1158.7500     11.3800    119.1043
  1159.0000     11.1829    120.8890
  1159.2500     10.9756    121.4845
  1159.5000     10.7524    120.6645
  1159.7500     10.5220    118.8936
  1160.0000     10.3054    115.0971
  1160.2500     10.1267    112.5308
  1160.5000     10.0010    110.1235
  1160.7500      9.9261    110.1967
  1161.0000      9.8812    112.8698
  1161.2500      9.8334    115.5101
  1161.5000      9.7510    118.6695
  1161.7500      9.6165    119.4043
  1162.0000      9.4330    118.4273
  1162.2500      9.2190    117.0673
  1162.5000      8.9969    115.4038
  1162.7500      8.7822    115.0670
  1163.0000      8.5784    115.8359
  1163.2500      8.3800    116.9884
  1163.5000      8.1812    119.0936
  1163.7500      7.9832    120.2980
  1164.0000      7.7976    121.2193
  1164.2500      7.6424    121.3545
  1164.5000      7.5368    121.6629
  1164.7500      7.4966    122.2166
  1165.0000      7.5322    123.1489
  1165.2500      7.6485    123.4173
  1165.5000      7.8473    122.9382
  1165.7500      8.1287    121.9455
  1166.0000      8.4944    119.1630
  1166.2500      8.9493    116.3193
  1166.5000      9.5031    110.7670
  1166.7500     10.1700    106.5419
  1167.0000     10.9662    100.0167
  1167.2500     11.9055     95.7394
  1167.5000     12.9933     89.5109
  1167.7500     14.2214     85.5671
  1168.0000     15.5634     80.4710
  1168.2500     16.9708     77.9268
  1168.5000     18.3650     75.1691
  1168.7500     19.6326     73.5361
  1169.0000     20.6342     71.2182
  1169.2500     21.2395     70.5268
  1169.5000     21.3759     72.4708
  1169.7500     21.0575     75.9277
  1170.0000     20.3737     83.0056
  1170.2500     19.4482     88.1694
  1170.5000     18.3991     96.5360
  1170.7500     17.3168    102.9754
  1171.0000     16.2612    114.0434
  1171.2500     15.2711    121.7488
  1171.5000     14.3742    132.2042
  1171.7500     13.5913    137.6053
  1172.0000     12.9324    142.4187
  1172.2500     12.3927    143.3046
  1172.5000     11.9542    141.8322
  1172.7500     11.5911    139.7560
  1173.0000     11.2772    136.3066
  1173.2500     10.9907    134.3705
  1173.5000     10.7173    132.8175
  1173.7500     10.4509    132.9188
  1174.0000     10.1926    134.2988
  1174.2500      9.9488    135.3625
  1174.5000      9.7288    136.3206
  1174.7500      9.5443    136.5992
  1175.0000      9.4097    137.1703
  1175.2500      9.3429    137.8880
  1175.5000      9.3644    139.0437
  1175.7500      9.4953    139.2223
  1176.0000      9.7534    137.2368
  1176.2500     10.1521    133.6396
  1176.5000     10.7009    124.0659
  1176.7500     11.4104    115.1707
  1177.0000     12.2969     99.9503
  1177.2500     13.3838     89.9997
  1177.5000     14.6929     77.3054
  1177.7500     16.2261     70.9351
  1178.0000     17.9385     64.9070
  1178.2500     19.7158     63.1995
  1178.5000     21.3747     63.6731
  1178.7500     22.7053     65.6818
  1179.0000     23.5483     70.7997
  1179.2500     23.8599     75.3335
  1179.5000     23.7178     82.8483
  1179.7500     23.2689     87.5670
  1180.0000     22.6620     93.3929
  1180.2500     22.0092     96.5260
  1180.5000     21.3827    100.6569
  1180.7500     20.8267    103.1455
  1181.0000     20.3673    106.1759
  1181.2500     20.0142    107.5808
  1181.5000     19.7587    109.0132
  1181.7500     19.5728    109.7720
  1182.0000     19.4129    110.5671
  1182.2500     19.2342    110.5964
  1182.5000     19.0117    109.9023
  1182.7500     18.7581    109.5086
  1183.0000     18.5216    110.2000
  1183.2500     18.3659    111.6775
  1183.5000     18.3417    114.4221
  1183.7500     18.4678    115.6687
  1184.0000     18.7260    115.3470
  1184.2500     19.0729    113.2326
  1184.5000     19.4600    107.0261
  1184.7500     19.8534    101.2450
  1185.0000     20.2386     91.8555
  1185.2500     20.6111     86.4908
  1185.5000     20.9632     81.5939
  1185.7500     21.2771     80.7505
  1186.0000     21.5292     82.5489
  1186.2500     21.7006     85.1455
  1186.5000     21.7857     90.0090
  1186.7500     21.7924     93.3621
  1187.0000     21.7339     97.9082
  1187.2500     21.6175    100.3171
  1187.5000     21.4397    102.3991
  1187.7500     21.1866    102.4097
  1188.0000     20.8413    100.2868
  1188.2500     20.3945     97.9646
  1188.5000     19.8574     94.7534
  1188.7500     19.2668     93.7944
  1189.0000     18.6808     95.3040
  1189.2500     18.1647     98.4077
