~Version Information
VERS.                      2.0: CWLS Log ASCII Standard - VERSION 2.0
WRAP.                       NO: One line per depth step
~Well Information Block
STRT.FT                 0.0000: 
STOP.FT               968.2500: 
STEP.FT                 0.2500: 
NULL.                -999.2500: 
COMP.          Pioneer Natural Resources: COMPANY
WELL.              Atlas 32-18: WELL
FLD.           Purgatorie River: FIELD
LOC.           1892' FNL & 1456' FEL: LOCATION
PROV.                 Colorado: PROVINCE
CNTY.               Las Animas: COUNTRY
SRVC.                Patterson: SERVICE COMPANY
DATE.          Fri Dec 02 11:37:22 2005: LOG DATE
UWI.                          : UNIQUE WELL ID
~Curve Information Block
DEPT.FT            0 000 00 00: Depth
CCL.                          : Casing Collar Locator
TT3.usec                      : CBL 3' Travel Time
AMP3.mV                       : CBL 3' Amplitude
GR.GAPI                       : Gamma Ray
~Parameter Information Block
~A  Depth       CCL         TT3         AMP3         GR     
# ...
   871.0000      0.0000    646.5471     11.0577     48.3209
   871.2500      0.0000    598.8898     10.7232     44.4879
   871.5000      0.0000    528.4149     10.4882     42.6024
   871.7500      0.0000    457.0564     10.3875     44.0812
   872.0000      0.0000    407.8210     10.3789     49.0997
   872.2500      0.0000    385.2313     10.3821     56.3531
   872.5000      0.0000    378.7445     10.3486     63.5363
   872.7500      0.0000    377.9548     10.2808     68.3168
   873.0000      0.0000    378.5473     10.1879     69.3247
   873.2500      0.0000    381.2182     10.0537     66.6662
   873.5000      0.0000    392.8888      9.8629     61.7103
   873.7500      0.0000    427.4163      9.6373     56.2943
   874.0000      0.0000    491.9036      9.4257     51.8122
   874.2500      0.0000    566.7821      9.2653     48.6974
   874.5000      0.0000    619.4957      9.1591     46.5425
   874.7500      0.0000    640.5883      9.0898     44.7262
   875.0000      0.0000    644.3242      9.0482     43.0581
   875.2500      0.0000    644.0228      9.0355     41.9324
   875.5000      0.0000    643.9283      9.0553     41.8978
   875.7500      0.0000    644.3821      9.1114     43.0931
   876.0000      0.0000    645.1195      9.1966     45.0368
   876.2500      0.0000    645.7678      9.2913     46.8993
   876.5000      0.0000    646.0461      9.3787     48.0131
   876.7500      0.0000    645.9713      9.4489     48.2611
   877.0000      0.0000    645.7424      9.4972     48.0242
   877.2500      0.0000    645.4979      9.5343     47.6711
   877.5000      0.0000    645.2370      9.5781     47.1268
   877.7500      0.0000    644.9047      9.6392     46.1292
   878.0000      0.0000    644.4874      9.7186     44.8296
   878.2500      0.0000    644.0567      9.8015     43.7789
   878.5000      0.0000    643.7350      9.8564     43.2922
   878.7500      0.0000    643.6063      9.8581     43.2528
   879.0000      0.0000    643.6510      9.8088     43.6763
   879.2500      0.0000    643.7803      9.7219     45.0782
   879.5000      0.0000    643.9805      9.6048     47.9978
   879.7500      0.0000    644.3807      9.4757     52.2735
   880.0000      0.0000    645.0912      9.3842     56.8699
   880.2500      0.0000    646.0141      9.3784     60.3672
   880.5000      0.0000    646.8756      9.4499     61.7192
   880.7500      0.0000    647.4398      9.5507     60.8289
   881.0000      0.0000    647.6753      9.6527     58.6058
   881.2500      0.0000    647.6851      9.7576     56.3360
   881.5000      0.0000    647.5152      9.8766     54.7494
   881.7500      0.0000    647.1584     10.0202     53.6942
   882.0000      0.0000    646.6896     10.1894     52.8214
   882.2500      0.0000    646.0820     10.3618     52.4215
   882.5000      0.0000    643.9431     10.4978     53.2479
   882.7500      0.0000    634.3809     10.5736     55.4365
   883.0000      0.0000    605.2965     10.5956     57.8443
   883.2500      0.0000    548.5814     10.5728     58.6970
   883.5000      0.0000    477.6927     10.5076     57.0053
   883.7500      0.0000    420.8023     10.4151     53.4250
   884.0000      0.0000    391.4146     10.3244     49.7161
   884.2500      0.0000    381.5863     10.2768     47.3817
   884.5000      0.0000    379.4513     10.3201     46.8193
   884.7500      0.0000    379.1992     10.4550     47.4298
   885.0000      0.0000    379.2259     10.6206     48.2226
   885.2500      0.0000    379.2279     10.7637     48.4778
   885.5000      0.0000    379.4962     10.8745     48.1455
   885.7500      0.0000    381.9745     10.9521     47.7213
   886.0000      0.0000    393.5584     10.9949     47.7972
   886.2500      0.0000    427.8449     11.0067     48.7578
   886.5000      0.0000    492.8518     10.9830     50.7006
   886.7500      0.0000    570.5169     10.9088     53.2841
   887.0000      0.0000    626.7259     10.7810     55.5900
   887.2500      0.0000    648.4188     10.6243     56.4783
   887.5000      0.0000    649.8858     10.4699     55.3897
   887.7500      0.0000    647.2393     10.3227     52.7861
   888.0000      0.0000    645.9523     10.1799     49.7467
   888.2500      0.0000    646.4515     10.0631     47.2893
   888.5000      0.0000    649.2137      9.9986     46.0082
   888.7500      0.0000    653.9037      9.9637     45.9372
   889.0000      0.0000    657.5704      9.8733     46.6616
   889.2500      0.0000    657.3201      9.6490     47.8244
   889.5000      0.0000    655.3207      9.2913     49.4035
   889.7500      0.0000    658.2799      8.8053     51.2141
   890.0000      0.0000    666.5677      8.1243     52.4666
   890.2500      0.0000    667.7695      7.2776     52.3291
   890.5000      0.0000    657.3961      6.5567     50.7729
   890.7500      0.0000    655.8060      6.3042     48.5085
   891.0000      2.0000    676.1788      6.5156     46.3198
   891.2500      0.0000    696.5105      6.8582     44.7393
   891.5000     -2.0000    692.0599      7.0681     44.0364
   891.7500      0.0000    666.8192      7.0920     44.1490
   892.0000      0.0000    643.8801      6.9738     44.6765
   892.2500      0.0000    646.0436      6.8863     45.1298
   892.5000      0.0000    674.0864      7.0676     45.2906
   892.7500      0.0000    703.6863      7.4827     45.4706
   893.0000      0.0000    717.5531      7.9052     46.5538
   893.2500      0.0000    720.0579      8.3110     49.7419
   893.5000      0.0000    719.8051      8.7963     55.8939
   893.7500      0.0000    719.5030      9.3698     64.7307
   894.0000      0.0000    719.1512      9.9296     74.6245
   894.2500      0.0000    718.8571     10.3276     83.3653
   894.5000      0.0000    718.8574     10.5277     89.3806
   894.7500      0.0000    719.1262     10.6111     92.5786
   895.0000      0.0000    719.4323     10.6315     94.3309
   895.2500      0.0000    719.5377     10.5892     96.3756
   895.5000      0.0000    719.3472     10.4861     99.2388
   895.7500      0.0000    719.0159     10.3393    101.8086
   896.0000      0.0000    718.8349     10.1712    102.5771
   896.2500      0.0000    718.8756     10.0017    101.0090
   896.5000      0.0000    718.9644      9.8551     97.7359
   896.7500      0.0000    718.9730      9.7559     93.9423
   897.0000      0.0000    718.6854      9.6976     90.6522
   897.2500      0.0000    717.1734      9.6502     88.1862
   897.5000      0.0000    712.7100      9.5894     86.0046
   897.7500      0.0000    704.9085      9.4936     83.1893
   898.0000      0.0000    697.8392      9.3499     79.3329
   898.2500      0.0000    697.5157      9.1771     75.0976
   898.5000      0.0000    704.2968      9.0205     71.7951
   898.7500      0.0000    712.3636      8.9176     70.2679
   899.0000      0.0000    717.1550      8.8595     70.2116
   899.2500      0.0000    718.6230      8.8214     70.5677
   899.5000      0.0000    718.4567      8.8399     70.3107
   899.7500      0.0000    717.6319      8.9689     68.8880
   900.0000      0.0000    715.6983      9.1483     66.5097
   900.2500      0.0000    710.7874      9.2383     64.2936
   900.5000      0.0000    701.5211      9.1961     63.5957
   900.7500      0.0000    690.0544      9.1310     64.8423
   901.0000      0.0000    680.9543      9.1869     67.2332
   901.2500      0.0000    676.3710      9.3984     69.6295
   901.5000      0.0000    674.9660      9.6507     71.4134
   901.7500      0.0000    674.7706      9.7945     72.3911
   902.0000      0.0000    674.8477      9.7828     72.3045
   902.2500      0.0000    675.0075      9.6651     70.8408
   902.5000      0.0000    675.1910      9.5061     67.9806
   902.7500      0.0000    675.2736      9.3498     64.1729
   903.0000      0.0000    675.1880      9.2200     60.3576
   903.2500      0.0000    674.9639      9.1247     57.7732
   903.5000      0.0000    674.6330      9.0569     57.2139
   903.7500      0.0000    674.1816      9.0086     58.1743
   904.0000      0.0000    673.6736      8.9738     59.1048
   904.2500      0.0000    673.3657      8.9192     58.9261
