~Version Information
VERS.                      2.0: CWLS Log ASCII Standard - VERSION 2.0
WRAP.                       NO: One line per depth step
~Well Information Block
STRT.FT                -8.5000: 
STOP.FT              2823.2500: 
STEP.FT                 0.2500: 
NULL.                -999.2500: 
COMP.          Pioneer Natural Resources: COMPANY
WELL.                AMX 13-13: WELL
FLD.           Purgatorie River: FIELD
LOC.           2316' FSL & 865' FWL--: LOCATION
PROV.                       CO: PROVINCE
CNTY.               Las Animas: COUNTRY
SRVC.          Patterson Wireline: SERVICE COMPANY
DATE.          Tue Dec 27 10:40:58 2005: LOG DATE
UWI.           05 071 08630 00: UNIQUE WELL ID
~Curve Information Block
DEPT.FT            0 000 00 00: Depth
CCL.                          : Casing Collar Locator
TT3.usec                      : CBL 3' Travel Time
AMP3.mV                       : CBL 3' Amplitude
GR.GAPI                       : Gamma Ray
~Parameter Information Block
~A  Depth       CCL         TT3         AMP3         GR     
# ...
   561.0000      0.0000    693.0773      8.8763    144.8660
   561.2500      0.0000    693.0485      8.7353    148.1254
   561.5000      0.0000    693.1392      8.5792    150.6211
   561.7500      0.0000    693.2616      8.4470    152.1829
   562.0000      0.0000    693.3104      8.3532    152.6348
   562.2500      0.0000    693.2497      8.2942    152.7572
   562.5000      0.0000    693.1151      8.2668    153.8774
   562.7500      0.0000    692.9595      8.2811    156.2796
   563.0000      0.0000    692.8270      8.3509    158.7724
   563.2500      0.0000    692.7607      8.4670    159.9698
   563.5000      0.0000    692.8001      8.5864    159.4302
   563.7500      0.0000    692.9553      8.6570    157.4669
   564.0000      0.0000    693.1924      8.6588    154.1064
   564.2500      0.0000    693.5142      8.6155    148.5686
   564.5000      0.0000    694.1311      8.5661    140.2750
   564.7500      0.0000    695.5969      8.5282    130.5120
   565.0000      0.0000    698.5693      8.4929    122.3575
   565.2500      0.0000    702.9997      8.4452    118.4308
   565.5000      0.0000    707.3844      8.3860    118.8029
   565.7500      0.0000    709.3718      8.3305    121.1269
   566.0000      0.0000    707.7433      8.2925    122.6825
   566.2500      0.0000    703.6044      8.2747    122.4613
   566.5000      0.0000    699.2454      8.2746    121.4579
   566.7500      0.0000    696.1648      8.2914    121.1062
   567.0000      0.0000    694.4579      8.3240    121.8982
   567.2500      0.0000    693.5659      8.3626    123.6703
   567.5000      0.0000    693.0435      8.3894    126.3123
   567.7500      0.0000    692.7285      8.3929    129.3926
   568.0000      0.0000    692.5875      8.3791    131.7137
   568.2500      0.0000    692.5964      8.3694    132.2787
   568.5000      0.0000    692.7159      8.3831    131.4704
   568.7500      0.0000    692.9187      8.4232    130.6499
   569.0000      0.0000    693.1953      8.4760    130.7246
   569.2500      0.0000    693.5441      8.5244    131.5689
   569.5000      0.0000    694.0215      8.5595    132.6574
   569.7500      0.0000    694.9379      8.5855    133.7337
   570.0000      0.0000    697.1816      8.6160    134.8493
   570.2500      0.0000    702.3079      8.6641    136.2299
   570.5000      0.0000    711.7932      8.7302    138.3347
   570.7500      0.0000    725.5272      8.8007    142.0098
   571.0000      0.0000    740.9294      8.8595    148.1278
   571.2500      0.0000    754.0826      8.8989    156.2734
   571.5000      0.0000    762.0325      8.9172    163.7785
   571.7500      0.0000    764.1075      8.9099    167.2689
   572.0000      0.0000    761.6993      8.8700    165.7555
   572.2500      0.0000    757.3859      8.7978    161.3766
   572.5000      0.0000    753.4554      8.7084    156.7356
   572.7500      0.0000    749.9907      8.6295    152.6389
   573.0000      0.0000    744.6157      8.5860    148.8759
   573.2500      0.0000    735.1700      8.5822    145.7788
   573.5000      0.0000    722.5476      8.5978    143.8803
   573.7500      0.0000    710.2011      8.6025    142.8579
   574.0000      0.0000    701.1354      8.5742    141.8614
   574.2500      0.0000    695.9984      8.5065    140.4830
   574.5000      0.0000    693.6768      8.4069    138.7079
   574.7500      0.0000    692.8317      8.2949    136.2578
   575.0000      0.0000    692.7457      8.1960    132.3640
   575.2500      0.0000    693.3513      8.1317    125.9785
   575.5000      0.0000    694.8488      8.1139    116.4377
   575.7500      0.0000    697.1903      8.1464    104.6039
   576.0000      0.0000    699.7291      8.2263     93.1003
   576.2500      0.0000    701.5607      8.3439     84.5609
   576.5000      0.0000    702.3713      8.4839     79.5604
   576.7500      0.0000    702.6417      8.6275     76.7039
   577.0000      0.0000    702.7551      8.7512     74.6847
   577.2500      0.0000    702.3294      8.8273     73.7993
   577.5000      0.0000    700.8355      8.8335     75.2361
   577.7500      0.0000    698.4984      8.7664     79.2047
   578.0000      0.0000    696.1530      8.6441     84.2730
   578.2500      0.0000    694.4415      8.4958     88.6158
   578.5000      0.0000    693.4565      8.3505     91.4846
   578.7500      0.0000    692.9844      8.2315     93.1679
   579.0000      0.0000    692.8110      8.1549     93.7595
   579.2500      0.0000    692.8185      8.1265     92.6971
   579.5000      0.0000    692.9416      8.1386     89.7388
   579.7500      0.0000    693.1111      8.1718     85.6200
   580.0000      0.0000    693.2360      8.2030     81.1839
   580.2500      0.0000    693.2467      8.2161     76.5236
   580.5000      0.0000    693.1447      8.2054     71.6011
   580.7500      0.0000    692.9986      8.1720     67.1760
   581.0000      0.0000    692.8840      8.1183     64.4318
   581.2500      0.0000    692.8334      8.0500     63.7337
   581.5000      0.0000    692.8415      7.9818     64.0358
   581.7500      0.0000    692.9316      7.9355     63.6304
   582.0000      0.0000    693.2433      7.9247     61.5710
   582.2500      0.0000    694.0920      7.9405     58.3620
   582.5000      0.0000    695.8517      7.9600     55.3022
   582.7500      0.0000    698.5268      7.9697     53.4138
   583.0000      0.0000    701.3008      7.9763     52.9267
   583.2500      0.0000    702.8078      7.9922     53.3163
   583.5000      0.0000    702.2377      8.0193     53.7118
   583.7500      0.0000    700.1119      8.0485     53.6043
   584.0000      0.0000    697.7559      8.0711     53.2422
   584.2500      0.0000    696.1580      8.0875     53.1101
   584.5000      0.0000    695.4762      8.1062     53.0178
   584.7500      0.0000    695.3555      8.1351     52.0610
   585.0000      0.0000    695.4003      8.1725     49.7486
   585.2500      0.0000    695.3768      8.2055     46.9018
   585.5000      0.0000    695.1803      8.2178     45.0041
   585.7500      0.0000    694.7576      8.2004     44.6166
   586.0000      0.0000    694.0907      8.1575     44.7749
   586.2500      0.0000    693.2435      8.1030     44.0700
   586.5000      0.0000    692.3532      8.0529     41.9947
   586.7500      0.0000    691.5961      8.0211     39.1257
   587.0000      0.0000    691.0230      8.0159     36.5907
   587.2500      0.0000    690.2337      8.0377     35.7799
   587.5000      0.0000    687.8215      8.0799     37.9312
   587.7500      0.0000    681.4246      8.1347     43.0750
   588.0000      0.0000    669.9382      8.1991     49.3392
   588.2500      0.0000    656.7187      8.2758     54.0002
   588.5000      0.0000    648.6053      8.3731     55.6961
   588.7500      0.0000    648.7732      8.5056     55.3770
   589.0000      0.0000    652.0958      8.6798     54.8148
   589.2500      0.0000    651.3122      8.8558     54.6220
   589.5000      0.0000    646.7710      8.9244     54.2993
   589.7500      0.0000    645.8833      8.7653     53.8613
   590.0000      0.0000    653.0352      8.3645     54.6206
   590.2500      0.0000    664.2161      7.8559     58.1442
   590.5000      0.0000    672.8310      7.4142     64.7324
   590.7500      0.0000    677.5588      7.1180     73.1624
   591.0000      2.0000    682.6653      6.9312     81.5211
   591.2500      0.0000    692.3529      6.7853     87.5865
   591.5000      0.0000    706.1405      6.6493     88.8602
   591.7500      0.0000    719.1594      6.5386     83.7554
   592.0000      0.0000    725.8857      6.4846     73.2476
   592.2500      0.0000    723.9043      6.5072     60.7037
   592.5000      0.0000    715.3337      6.6171     49.8410
   592.7500      0.0000    704.9942      6.8334     42.8945
   593.0000      0.0000    696.9371      7.1670     40.1514
   593.2500      0.0000    692.4105      7.5753     40.4798
   593.5000      0.0000    690.5342      7.9614     42.2930
   593.7500      0.0000    689.9755      8.2378     44.5713
   594.0000      0.0000    689.8672      8.3826     47.3752
   594.2500      0.0000    689.8596      8.4337     51.2971
