~Version Information
VERS.                      2.0: CWLS Log ASCII Standard - VERSION 2.0
WRAP.                       NO: One line per depth step
~Well Information Block
STRT.FT                -6.5000: 
STOP.FT              1773.5000: 
STEP.FT                 0.2500: 
NULL.                -999.2500: 
COMP.          Pioneer Natural Resources: COMPANY
WELL.           Lynch 43-30 Tr: WELL
FLD.           Purgatorie River: FIELD
LOC.           1431' FSL & 296' FEL--: LOCATION
PROV.                       CO: PROVINCE
CNTY.               Las Animas: COUNTRY
SRVC.          Patterson Wireline: SERVICE COMPANY
DATE.          Tue Aug 02 09:28:21 2005: LOG DATE
UWI.           05 071 08447 00: UNIQUE WELL ID
~Curve Information Block
DEPT.FT            0 000 00 00: Depth
CCL.                          : Casing Collar Locator
TT3.usec                      : CBL 3' Travel Time
AMP3.mV                       : CBL 3' Amplitude
GR.GAPI                       : Gamma Ray
~Parameter Information Block
MINAMPL.mV              1.0000: Minimum Amplitude
~A  Depth       CCL         TT3         AMP3         GR     
# ...
   328.5000      0.0000    335.6023     26.4712     54.2258
   328.7500      0.0000    328.9493     26.7661     62.2298
   329.0000      0.0000    320.0942     27.0230     71.2539
   329.2500      0.0000    312.7614     27.2182     78.9189
   329.5000      0.0000    308.6008     27.3531     82.8231
   329.7500      0.0000    307.3828     27.4246     81.8828
   330.0000      0.0000    308.6193     27.4190     76.9532
   330.2500      0.0000    312.4148     27.3435     70.4648
   330.5000      0.0000    318.8124     27.2439     65.3689
   330.7500      0.0000    326.5104     27.1751     63.6661
   331.0000      0.0000    332.7248     27.1602     65.3272
   331.2500      0.0000    335.1519     27.1813     68.6226
   331.5000      0.0000    334.2048     27.2001     71.6070
   331.7500      0.0000    332.7340     27.1817     73.3281
   332.0000      0.0000    333.5013     27.1044     74.1390
   332.2500      0.0000    337.7914     26.9560     75.5046
   332.5000      0.0000    347.0580     26.7280     79.2457
   332.7500      0.0000    365.5934     26.4222     86.1034
   333.0000      0.0000    400.7220     26.0638     94.7290
   333.2500      0.0000    457.9966     25.6999    102.3820
   333.5000      0.0000    533.3685     25.3779    106.9177
   333.7500      0.0000    611.3203     25.1197    108.1031
   334.0000      0.0000    675.4139     24.9167    107.0214
   334.2500      0.0000    720.9886     24.7510    104.6248
   334.5000      0.0000    754.1597     24.6242    101.2808
   334.7500      0.0000    780.5509     24.5567     97.3616
   335.0000      0.0000    800.2745     24.5538     93.5539
   335.2500      0.0000    812.4858     24.5807     90.4195
   335.5000      0.0000    819.3649     24.5872     87.8690
   335.7500      0.0000    824.5835     24.5510     85.1011
   336.0000      0.0000    830.2741     24.4847     81.2063
   336.2500      0.0000    836.2714     24.4070     76.0105
   336.5000      0.0000    841.2781     24.3280     70.2768
   336.7500      0.0000    844.3859     24.2609     64.9853
   337.0000      0.0000    846.0284     24.2285     60.5224
   337.2500      0.0000    847.8052     24.2476     56.6826
   337.5000      0.0000    851.2182     24.3096     53.3174
   337.7500      0.0000    856.2758     24.3762     50.6283
   338.0000      0.0000    861.3890     24.3943     48.8434
   338.2500      0.0000    864.5790     24.3218     47.9933
   338.5000      0.0000    864.5648     24.1466     48.0727
   338.7500      0.0000    861.0677     23.8826     49.0114
   339.0000      0.0000    854.9467     23.5573     50.3064
   339.2500      0.0000    848.3329     23.2092     51.0873
   339.5000      0.0000    844.0454     22.8883     50.8239
   339.7500      0.0000    844.1099     22.6451     49.7767
   340.0000      0.0000    848.4320     22.5195     48.6599
   340.2500      0.0000    854.7440     22.5379     48.1070
   340.5000      0.0000    860.0438     22.6976     48.5232
   340.7500      0.0000    862.5937     22.9405     50.0200
   341.0000      0.0000    862.9216     23.1554     52.0367
   341.2500      0.0000    862.9515     23.2335     53.1967
   341.5000      0.0000    864.1443     23.1284     52.1965
   341.7500      0.0000    866.5494     22.8710     49.0574
   342.0000      0.0000    869.5438     22.5407     45.2168
   342.2500      0.0000    872.9575     22.2277     42.4805
   342.5000      0.0000    877.1194     21.9996     42.1227
   342.7500      0.0000    882.0479     21.8796     44.4354
   343.0000      0.0000    886.9524     21.8467     48.4682
   343.2500      0.0000    890.4847     21.8578     52.4805
   343.5000      0.0000    891.3354     21.8730     55.2732
   343.7500      0.0000    888.9361     21.8712     57.3424
   344.0000      0.0000    884.0530     21.8519     60.6159
   344.2500      0.0000    878.5782     21.8268     66.7026
   344.5000      0.0000    874.4193     21.8067     74.9787
   344.7500      0.0000    872.6024     21.7989     82.5483
   345.0000      0.0000    873.3232     21.8135     86.5486
   345.2500      0.0000    876.3632     21.8703     86.3370
   345.5000      0.0000    881.1567     21.9890     83.0948
   345.7500      0.0000    886.6909     22.1721     77.9329
   346.0000      0.0000    891.2117     22.3955     71.2356
   346.2500      0.0000    891.5698     22.6202     63.6292
   346.5000      0.0000    882.9075     22.8142     56.6116
   346.7500      0.0000    861.0074     22.9724     51.7738
   347.0000      0.0000    828.0476     23.1105     49.5627
   347.2500      0.0000    796.6182     23.2346     48.9583
   347.5000      0.0000    783.6923     23.3196     48.3738
   347.7500      0.0000    796.0858     23.3271     46.9279
   348.0000      0.0000    823.3115     23.2418     44.8684
   348.2500      0.0000    847.7183     23.0826     42.9376
   348.5000      0.0000    859.8007     22.8808     41.6042
   348.7500      0.0000    861.5887     22.6578     40.8440
   349.0000      0.0000    858.0381     22.4214     40.2449
   349.2500      0.0000    848.0275     22.1800     39.2678
   349.5000      0.0000    822.9535     21.9511     37.7292
   349.7500      0.0000    773.5928     21.7544     36.1180
   350.0000      0.0000    700.2132     21.5842     35.1737
   350.2500      0.0000    617.2119     21.3833     35.1179
   350.5000      0.0000    546.7538     21.0293     35.5061
   350.7500      0.0000    507.8173     20.3491     35.8415
   351.0000      0.0000    511.0665     19.1895     36.1127
   351.2500      0.0000    559.7570     17.5598     36.7753
   351.5000      0.0000    648.9252     15.7356     38.4279
   351.7500      0.0000    762.7581     14.1577     41.4701
   352.0000      0.0000    877.8409     13.1611     45.7578
   352.2500      0.0000    973.0703     12.7821     50.4162
   352.5000      0.0000   1037.3567     12.8088     54.0988
   352.7500      0.0000   1069.4268     12.9773     55.6928
   353.0000      0.0000   1073.3629     13.1149     54.9814
   353.2500     -2.0000   1055.1084     13.1679     52.6730
   353.5000     -2.0000   1020.5953     13.1801     49.9158
   353.7500      0.0000    973.7286     13.3109     47.8438
   354.0000      0.0000    916.2797     13.8500     47.2173
   354.2500      0.0000    852.4666     15.0775     48.0779
   354.5000      0.0000    793.8981     16.9634     49.7826
   354.7500      0.0000    755.7744     19.0337     51.4497
   355.0000      0.0000    744.3257     20.6749     52.2384
   355.2500      0.0000    749.5574     21.5879     51.4269
   355.5000      0.0000    753.6512     21.8938     48.7514
   355.7500      0.0000    746.7384     21.8864     44.8113
   356.0000      0.0000    734.3565     21.7932     40.8864
   356.2500      0.0000    730.5414     21.7188     38.2235
   356.5000      0.0000    743.5159     21.6891     37.4598
   356.7500      0.0000    768.1100     21.6964     38.5281
   357.0000      0.0000    791.8754     21.7175     40.8580
   357.2500      0.0000    806.1443     21.7222     43.6866
   357.5000      0.0000    810.1865     21.6798     46.3328
   357.7500      0.0000    807.6923     21.5717     48.3031
   358.0000      0.0000    802.4946     21.3948     49.4331
   358.2500      0.0000    797.1821     21.1579     50.0696
   358.5000      0.0000    793.5813     20.8783     50.7578
   358.7500      0.0000    793.0380     20.5789     51.4704
   359.0000      0.0000    795.9852     20.2838     51.5125
   359.2500      0.0000    801.3125     20.0152     50.5188
   359.5000      0.0000    806.4254     19.7928     49.1947
   359.7500      0.0000    808.4607     19.6347     48.7659
   360.0000      0.0000    806.1442     19.5548     50.0867
   360.2500      0.0000    800.6614     19.5505     53.5379
   360.5000      0.0000    794.5920     19.5904     59.1502
   360.7500      0.0000    789.9800     19.6238     66.2544
   361.0000      0.0000    787.3865     19.6191     73.4168
   361.2500      0.0000    786.3237     19.5955     79.3085
   361.5000      0.0000    786.0950     19.6166     83.5244
   361.7500      0.0000    786.2097     19.7506     86.2744
