~Version Information
VERS.                      2.0: CWLS Log ASCII Standard - VERSION 2.0
WRAP.                       NO: One line per depth step
~Well Information Block
STRT.FT               570.0000: 
STOP.FT              2094.0000: 
STEP.FT                 0.2500: 
NULL.                -999.2500: 
COMP.          XTO Energy Inc.: COMPANY
WELL.          Golden Eagle 19-10: WELL
FLD.           Purgatoire River: FIELD
LOC.           2684' FSL & 1825' FEL: LOCATION
CNTY.               Las Animas: COUNTY
CTRY.                      USA: COUNTRY
API.               05 071 08697:  
SRVC.                Patterson: SERVICE COMPANY
DATE.          Sun Mar 05 02:13:24 2006: LOG DATE
UWI.           05 071 08697 00: UNIQUE WELL ID
STAT.                 Colorado: STATE
~Curve Information Block
DEPT.FT            0 000 00 00: Depth
SP.mV                         : DIL Spontaneous Potential
RILD.Ohm-m                    : DIL Deep Resistivity
RILM.Ohm-m                    : DIL Medium Resistivity
RLL3.Ohm-m                    : DIL Shallow Resistivity
GR.GAPI                       : Gamma Ray
~Parameter Information Block
~A  Depth        SP         RILD        RILM        RLL3         GR     
# ...
  1158.0000   -999.2500     22.6683     21.1797   -999.2500     91.1594
  1158.2500   -999.2500     23.0855     21.2165   -999.2500     87.9201
  1158.5000   -999.2500     23.3962     21.3157   -999.2500     83.3014
  1158.7500   -999.2500     23.5803     21.4835   -999.2500     80.6108
  1159.0000   -999.2500     23.6516     21.7196   -999.2500     77.6649
  1159.2500   -999.2500     23.6417     22.0203   -999.2500     76.5580
  1159.5000   -999.2500     23.5791     22.3813   -999.2500     76.0324
  1159.7500   -999.2500     23.4861     22.8005   -999.2500     76.2580
  1160.0000   -999.2500     23.3922     23.2783   -999.2500     77.3086
  1160.2500   -999.2500     23.3405     23.8170   -999.2500     78.5694
  1160.5000   -999.2500     23.3712     24.4172   -999.2500     81.5664
  1160.7500   -999.2500     23.4959     25.0739   -999.2500     84.2934
  1161.0000   -999.2500     23.6877     25.7712   -999.2500     88.8842
  1161.2500   -999.2500     23.8988     26.4767   -999.2500     91.7127
  1161.5000   -999.2500     24.0925     27.1381   -999.2500     94.8574
  1161.7500   -999.2500     24.2601     27.6857   -999.2500     96.0418
  1162.0000   -999.2500     24.4163     28.0436   -999.2500     96.2148
  1162.2500   -999.2500     24.5820     28.1502   -999.2500     95.0609
  1162.5000   -999.2500     24.7708     27.9820   -999.2500     91.5029
  1162.7500   -999.2500     24.9862     27.5652   -999.2500     88.4670
  1163.0000   -999.2500     25.2270     26.9712   -999.2500     84.3309
  1163.2500   -999.2500     25.4916     26.2948   -999.2500     82.3901
  1163.5000   -999.2500     25.7673     25.6296   -999.2500     80.4823
  1163.7500   -999.2500     26.0118     25.0490   -999.2500     79.2583
  1164.0000   -999.2500     26.1482     24.5991   -999.2500     76.6086
  1164.2500   -999.2500     26.1057     24.2992   -999.2500     74.2591
  1164.5000   -999.2500     25.8811     24.1468   -999.2500     70.3515
  1164.7500   -999.2500     25.5557     24.1238   -999.2500     67.7714
  1165.0000   -999.2500     25.2425     24.2041   -999.2500     64.2539
  1165.2500   -999.2500     25.0189     24.3595   -999.2500     62.2992
  1165.5000   -999.2500     24.9018     24.5679   -999.2500     60.1316
  1165.7500   -999.2500     24.8718     24.8193   -999.2500     59.2232
  1166.0000   -999.2500     24.9111     25.1195   -999.2500     58.7650
  1166.2500   -999.2500     25.0227     25.4900   -999.2500     59.1801
  1166.5000   -999.2500     25.2267     25.9604   -999.2500     60.7696
  1166.7500   -999.2500     25.5405     26.5581   -999.2500     62.0162
  1167.0000   -999.2500     25.9596     27.2935   -999.2500     63.0533
  1167.2500   -999.2500     26.4456     28.1488   -999.2500     62.7990
  1167.5000   -999.2500     26.9280     29.0703   -999.2500     61.0906
  1167.7500   -999.2500     27.3221     29.9725   -999.2500     59.2783
  1168.0000   -999.2500     27.5579     30.7567   -999.2500     55.6570
  1168.2500   -999.2500     27.6045     31.3363   -999.2500     52.7289
  1168.5000   -999.2500     27.4744     31.6608   -999.2500     48.4355
  1168.7500   -999.2500     27.2085     31.7222   -999.2500     46.4971
  1169.0000   -999.2500     26.8550     31.5442   -999.2500     45.9745
  1169.2500   -999.2500     26.4548     31.1636   -999.2500     47.1630
  1169.5000   -999.2500     26.0332     30.6149   -999.2500     50.6682
  1169.7500   -999.2500     25.5981     29.9230   -999.2500     53.9888
  1170.0000   -999.2500     25.1451     29.1049   -999.2500     60.2658
  1170.2500   -999.2500     24.6717     28.1750   -999.2500     64.9516
  1170.5000   -999.2500     24.1910     27.1520   -999.2500     72.1223
  1170.7500   -999.2500     23.7273     26.0638   -999.2500     77.1923
  1171.0000   -999.2500     23.2941     24.9495   -999.2500     86.4187
  1171.2500   -999.2500     22.8764     23.8550   -999.2500     94.0829
  1171.5000   -999.2500     22.4394     22.8267   -999.2500    107.0586
  1171.7500   -999.2500     21.9601     21.9041   -999.2500    115.5541
  1172.0000   -999.2500     21.4521     21.1149   -999.2500    126.0899
  1172.2500   -999.2500     20.9584     20.4731   -999.2500    130.8448
  1172.5000   -999.2500     20.5227     19.9807   -999.2500    133.9249
  1172.7500   -999.2500     20.1644     19.6304   -999.2500    133.4052
  1173.0000   -999.2500     19.8748     19.4077   -999.2500    129.9334
  1173.2500   -999.2500     19.6296     19.2938   -999.2500    126.7914
  1173.5000   -999.2500     19.4085     19.2674   -999.2500    122.1989
  1173.7500   -999.2500     19.2069     19.3068   -999.2500    119.5121
  1174.0000   -999.2500     19.0345     19.3908   -999.2500    115.5516
  1174.2500   -999.2500     18.9052     19.5008   -999.2500    112.4229
  1174.5000   -999.2500     18.8266     19.6209   -999.2500    106.8567
  1174.7500   -999.2500     18.7956     19.7380   -999.2500    103.2762
  1175.0000   -999.2500     18.7983     19.8410   -999.2500     99.7582
  1175.2500   -999.2500     18.8128     19.9198   -999.2500     98.9831
  1175.5000   -999.2500     18.8167     19.9640   -999.2500     99.2495
  1175.7500   -999.2500     18.7952     19.9641   -999.2500     99.6608
  1176.0000   -999.2500     18.7461     19.9138   -999.2500    100.4221
  1176.2500   -999.2500     18.6796     19.8129   -999.2500    101.3595
  1176.5000   -999.2500     18.6133     19.6698   -999.2500    103.4450
  1176.7500   -999.2500     18.5656     19.5001   -999.2500    104.7563
  1177.0000   -999.2500     18.5470     19.3237   -999.2500    105.8162
  1177.2500   -999.2500     18.5507     19.1601   -999.2500    106.1348
  1177.5000   -999.2500     18.5526     19.0246   -999.2500    107.3329
  1177.7500   -999.2500     18.5241     18.9254   -999.2500    109.1547
  1178.0000   -999.2500     18.4497     18.8639   -999.2500    112.6747
  1178.2500   -999.2500     18.3380     18.8359   -999.2500    114.2390
  1178.5000   -999.2500     18.2156     18.8346   -999.2500    113.5952
  1178.7500   -999.2500     18.1123     18.8540   -999.2500    111.2904
  1179.0000   -999.2500     18.0476     18.8925   -999.2500    106.7383
  1179.2500   -999.2500     18.0283     18.9541   -999.2500    103.8582
  1179.5000   -999.2500     18.0538     19.0470   -999.2500    100.2163
  1179.7500   -999.2500     18.1227     19.1783   -999.2500     98.1307
  1180.0000   -999.2500     18.2320     19.3485   -999.2500     95.3654
  1180.2500   -999.2500     18.3709     19.5462   -999.2500     93.7863
  1180.5000   -999.2500     18.5172     19.7479   -999.2500     91.8408
  1180.7500   -999.2500     18.6413     19.9229   -999.2500     90.8023
  1181.0000   -999.2500     18.7168     20.0411   -999.2500     89.7528
  1181.2500   -999.2500     18.7282     20.0809   -999.2500     89.6008
  1181.5000   -999.2500     18.6724     20.0324   -999.2500     90.5178
  1181.7500   -999.2500     18.5533     19.8960   -999.2500     91.9757
  1182.0000   -999.2500     18.3737     19.6775   -999.2500     95.4587
  1182.2500   -999.2500     18.1276     19.3835   -999.2500     98.5274
  1182.5000   -999.2500     17.8007     19.0183   -999.2500    103.7183
  1182.7500   -999.2500     17.3804     18.5851   -999.2500    107.2960
  1183.0000   -999.2500     16.8702     18.0872   -999.2500    112.9524
  1183.2500   -999.2500     16.2948     17.5304   -999.2500    117.2077
  1183.5000   -999.2500     15.6893     16.9245   -999.2500    124.4309
  1183.7500   -999.2500     15.0826     16.2828   -999.2500    129.4716
  1184.0000   -999.2500     14.4904     15.6211   -999.2500    136.4608
  1184.2500   -999.2500     13.9196     14.9556   -999.2500    140.2560
  1184.5000   -999.2500     13.3744     14.3012   -999.2500    144.0523
  1184.7500   -999.2500     12.8567     13.6706   -999.2500    145.1133
  1185.0000   -999.2500     12.3651     13.0733   -999.2500    144.5153
  1185.2500   -999.2500     11.8964     12.5157   -999.2500    143.0103
  1185.5000   -999.2500     11.4494     12.0015   -999.2500    140.3687
  1185.7500   -999.2500     11.0275     11.5316   -999.2500    139.2491
