~Version Information
VERS.                      2.0: CWLS Log ASCII Standard - VERSION 2.0
WRAP.                       NO: One line per depth step
~Well Information Block
STRT.FT               460.0000: 
STOP.FT              2311.7000: 
STEP.FT                 0.1000: 
NULL.                -999.2500: 
COMP.          Pioneer Natural Resources: COMPANY
WELL.          McDonald 33-31 R: WELL
FLD.           Purgatoire River: FIELD
LOC.           1386' FSL & 1926' FEL: LOCATION
STAT.                 Colorado: State
CNTY.               Las Animas: COUNTY
CTRY.                      USA: Country
SECT.                       31: Section
TOWN.                      32S: Township
RANG.                      66W: Range
SRVC.                Patterson: SERVICE COMPANY
DATE.          Sat Sep 24 09:00:13 2005: LOG DATE
API.           05 071 08533 00: API
~Curve Information Block
DEPT.FT            0 000 00 00: Depth
DCAL.in                       : CDL Caliper
RHOB.g/cc                     : CDL Bulk Density
RHOC.g/cc                     : CDL Density Correction
DPOR.pu                       : CDL Density Porosity
NPOR.pu                       : Neutron Porosity
GR.GAPI                       : Gamma Ray
~Parameter Information Block
~A  Depth       DCAL        RHOB        RHOC        DPOR        NPOR         GR     
# ...
  1064.8000      7.9885      2.1734      0.0175     28.8832     16.1737    104.4025
  1064.9000      7.9885      2.1099      0.0077     32.7343     13.9989     98.3510
  1065.0000      7.9898      2.0341     -0.0425     37.3260     12.4292     94.7361
  1065.1000      7.9898      1.9805     -0.0517     40.5744     11.1512     94.9976
  1065.2000      7.9898      1.9894     -0.0165     40.0358      9.7975     94.0953
  1065.3000      7.9779      2.0607      0.0920     35.7181      8.4907     86.3448
  1065.4000      7.9779      2.1463      0.2322     30.5252      7.5159     77.2861
  1065.5000      7.9497      2.2009      0.2708     27.2200      6.9542     73.1877
  1065.6000      7.9497      2.2259      0.2175     25.7019      6.6888     71.2787
  1065.7000      7.9497      2.2456      0.2390     24.5081      6.4869     69.6904
  1065.8000      7.9310      2.2610      0.2313     23.5733      6.3232     69.9667
  1065.9000      7.9310      2.2640      0.1440     23.3945      6.2964     70.2251
  1066.0000      7.9310      2.2519      0.1677     24.1280      6.2813     68.5263
  1066.1000      7.9310      2.2068      0.1542     26.8593      6.0527     65.6030
  1066.2000      7.9310      2.1166      0.0409     32.3248      5.6871     61.9746
  1066.3000      7.9460      2.0127     -0.0641     38.6261      5.3403     57.8874
  1066.4000      7.9460      1.9380     -0.0363     43.1519      4.9134     56.2007
  1066.5000      7.9678      1.8955     -0.0009     45.7298      4.3648     56.6376
  1066.6000      7.9678      1.8595      0.0223     47.9072      3.8744     53.5797
  1066.7000      7.9678      1.8173     -0.0175     50.4666      3.5941     46.4251
  1066.8000      7.9788      1.7773     -0.0588     52.8897      3.4970     42.0762
  1066.9000      7.9788      1.7466     -0.0324     54.7510      3.4296     42.9262
  1067.0000      7.9746      1.7237      0.0105     56.1377      3.2846     43.7222
  1067.1000      7.9746      1.7188     -0.0193     56.4349      3.1072     40.4063
  1067.2000      7.9746      1.7556      0.0246     54.2033      2.9917     35.0448
  1067.3000      7.9646      1.8456      0.0748     48.7498      2.9815     31.5617
  1067.4000      7.9646      1.9822      0.1538     40.4741      3.0731     31.2935
  1067.5000      7.9567      2.1450      0.2418     30.6077      3.2048     34.2297
  1067.6000      7.9567      2.3026      0.2716     21.0541      3.3692     38.6233
  1067.7000      7.9567      2.4349      0.2883     13.0388      3.6999     41.5180
  1067.8000      7.9539      2.5409      0.3374      6.6117      4.3112     42.3406
  1067.9000      7.9539      2.6243      0.3289      1.5582      5.2168     43.2746
  1068.0000      7.9566      2.6835      0.3094     -2.0280      6.3771     46.6910
  1068.1000      7.9566      2.7135      0.2820     -3.8512      7.8110     50.0878
  1068.2000      7.9566      2.7256      0.1704     -4.5845      9.6374     49.2081
  1068.3000      7.9608      2.7428      0.1788     -5.6241     11.9100     47.7405
  1068.4000      7.9608      2.7600      0.1639     -6.6671     14.5022     50.9853
  1068.5000      7.9627      2.7589      0.0722     -6.5996     17.3380     54.8217
  1068.6000      7.9627      2.7439      0.0596     -5.6885     20.3674     54.8367
  1068.7000      7.9627      2.7202      0.0865     -4.2516     23.0367     54.4519
  1068.8000      7.9619      2.6892      0.0404     -2.3765     24.9810     55.7048
  1068.9000      7.9619      2.6697      0.0201     -1.1937     26.6251     57.3872
  1069.0000      7.9591      2.6704      0.0483     -1.2335     27.9630     59.0414
  1069.1000      7.9591      2.6723      0.0309     -1.3490     28.3733     58.8872
  1069.2000      7.9591      2.6636      0.0266     -0.8219     27.7232     56.3426
  1069.3000      7.9546      2.6494      0.0473      0.0361     26.8330     54.3725
  1069.4000      7.9546      2.6358      0.0232      0.8617     26.4018     55.5045
  1069.5000      7.9494      2.6279      0.0071      1.3385     26.0841     58.3624
  1069.6000      7.9494      2.6256      0.0614      1.4790     25.5512     60.1918
  1069.7000      7.9494      2.6248      0.0225      1.5270     25.0433     60.8858
  1069.8000      7.9437      2.6191      0.0649      1.8700     24.9788     61.2289
  1069.9000      7.9437      2.5999      0.0261      3.0383     25.3723     60.8571
  1070.0000      7.9391      2.5768     -0.0413      4.4390     25.6353     60.4299
  1070.1000      7.9391      2.5593      0.0492      5.4974     25.3112     59.3139
  1070.2000      7.9391      2.5392      0.0356      6.7174     24.6144     58.5770
  1070.3000      7.9381      2.5137      0.0394      8.2598     24.0637     61.1884
  1070.4000      7.9381      2.4845      0.0135     10.0295     23.5321     64.6197
  1070.5000      7.9478      2.4584     -0.0173     11.6141     22.7088     67.4315
  1070.6000      7.9478      2.4518      0.0211     12.0131     21.7070     74.0005
  1070.7000      7.9478      2.4628      0.0754     11.3449     20.8917     86.4819
  1070.8000      7.9778      2.4688      0.0650     10.9789     20.4854    100.6902
  1070.9000      7.9778      2.4630      0.0722     11.3350     20.4030    109.5747
  1071.0000      8.0169      2.4681      0.0311     11.0266     20.6816    109.7359
  1071.1000      8.0169      2.5091      0.1038      8.5394     21.3684    105.0103
  1071.2000      8.0169      2.5745      0.1313      4.5742     22.2353    102.2937
  1071.3000      8.0342      2.6227      0.1516      1.6553     23.2349    103.4390
  1071.4000      8.0342      2.6297      0.0760      1.2323     24.4995    105.1162
  1071.5000      8.0263      2.6150      0.0689      2.1185     25.8738    105.9762
  1071.6000      8.0263      2.6097      0.0394      2.4441     26.9691    108.0915
  1071.7000      8.0263      2.6194      0.0847      1.8524     27.5670    114.1742
  1071.8000      8.0132      2.6246      0.1033      1.5418     27.7433    121.5062
  1071.9000      8.0132      2.6103      0.0560      2.4080     27.4933    124.3310
  1072.0000      8.0024      2.5880      0.0128      3.7548     27.0676    124.2936
  1072.1000      8.0024      2.5732      0.0200      4.6568     26.8182    125.9085
  1072.2000      8.0024      2.5590      0.0413      5.5158     26.8915    126.9810
  1072.3000      7.9966      2.5348      0.0116      6.9825     27.3396    125.2041
  1072.4000      7.9966      2.5089      0.0132      8.5533     27.7517    123.2253
  1072.5000      7.9992      2.4995     -0.0324      9.1223     27.8921    124.3882
  1072.6000      7.9992      2.5134      0.0583      8.2802     27.9886    128.7868
  1072.7000      7.9992      2.5329      0.0831      7.0998     28.0998    133.2659
  1072.8000      8.0070      2.5402      0.0705      6.6541     28.2675    135.0148
  1072.9000      8.0070      2.5367      0.0620      6.8688     28.6094    133.8283
  1073.0000      8.0118      2.5298      0.0677      7.2829     29.0230    130.4207
  1073.1000      8.0118      2.5258      0.0664      7.5245     29.2218    125.5270
  1073.2000      8.0118      2.5264      0.0890      7.4921     29.0838    122.6002
  1073.3000      8.0122      2.5268      0.0696      7.4693     28.6893    124.4609
  1073.4000      8.0122      2.5236      0.1142      7.6636     28.4061    130.2274
  1073.5000      8.0113      2.5204      0.0945      7.8534     28.7202    135.9900
  1073.6000      8.0113      2.5227      0.1315      7.7139     29.3625    138.2743
  1073.7000      8.0113      2.5265      0.1046      7.4819     29.6375    136.6304
  1073.8000      8.0118      2.5270      0.1016      7.4543     29.4804    132.5435
  1073.9000      8.0118      2.5225      0.0975      7.7252     29.4177    130.6912
  1074.0000      8.0122      2.5165      0.0766      8.0937     29.6162    135.3699
  1074.1000      8.0122      2.5155      0.0734      8.1526     29.8268    140.2024
  1074.2000      8.0122      2.5175      0.0914      8.0288     30.0646    136.8949
  1074.3000      8.0124      2.5145      0.0909      8.2103     30.3263    129.3110
