~Version Information
VERS.                      2.0: CWLS Log ASCII Standard - VERSION 2.0
WRAP.                       NO: One line per depth step
~Well Information Block
STRT.FT               410.0000: 
STOP.FT              1253.0000: 
STEP.FT                 0.1000: 
NULL.                -999.2500: 
COMP.          Petrogulf Corporation: COMPANY
WELL.           Parsons 15-23R: WELL
FLD.           Purgatorie River: FIELD
LOC.           2244' FSL & 1932' FWL: LOCATION
PROV.                 Colorado: PROVINCE
CNTY.               Las Animas: COUNTRY
SRVC.                Patterson: SERVICE COMPANY
DATE.          Mon Sep 12 10:28:25 2005: LOG DATE
UWI.                          : UNIQUE WELL ID
~Curve Information Block
DEPT.FT            0 000 00 00: Depth
DCAL.in                       : CDL Caliper
RHOB.g/cc                     : CDL Bulk Density
RHOC.g/cc                     : CDL Density Correction
DPOR.pu                       : CDL Density Porosity
GR.GAPI                       : Gamma Ray
NPOR.pu                       : Neutron Porosity
~Parameter Information Block
~A  Depth       DCAL        RHOB        RHOC        DPOR         GR         NPOR    
# ...
   573.2000      8.2568      2.4096      0.0699     14.5700    168.5065     29.8235
   573.3000      8.2181      2.4203      0.0840     13.9220    169.5942     30.2511
   573.4000      8.2181      2.4351      0.0912     13.0213    169.4926     30.7393
   573.5000      8.2136      2.4517      0.0643     12.0206    168.8793     31.0219
   573.6000      8.2136      2.4721      0.1417     10.7805    167.1666     31.0229
   573.7000      8.2136      2.4988      0.0956      9.1612    163.7403     30.7755
   573.8000      8.1871      2.5271      0.1591      7.4488    160.4516     30.5528
   573.9000      8.1871      2.5491      0.1191      6.1173    159.2730     30.4671
   574.0000      8.1780      2.5648      0.1683      5.1640    158.4408     30.3755
   574.1000      8.1780      2.5740      0.1427      4.6042    155.7089     30.1502
   574.2000      8.1780      2.5758      0.1173      4.4966    153.0347     29.9116
   574.3000      8.1448      2.5755      0.1311      4.5152    151.7547     29.7052
   574.4000      8.1448      2.5770      0.1219      4.4223    149.2541     29.3216
   574.5000      8.0785      2.5734      0.1214      4.6429    143.5038     28.8186
   574.6000      8.0785      2.5566      0.0933      5.6620    137.2317     28.2417
   574.7000      8.0785      2.5243      0.0630      7.6152    133.3378     27.3572
   574.8000      8.0448      2.4769      0.0526     10.4915    131.7030     26.3231
   574.9000      8.0448      2.4289     -0.0445     13.3981    131.8008     25.5950
   575.0000      8.0121      2.4048     -0.0299     14.8611    133.7980     25.3687
   575.1000      8.0121      2.4047     -0.0120     14.8659    137.7384     25.3931
   575.2000      8.0121      2.4084     -0.0061     14.6431    141.8748     25.5146
   575.3000      8.0007      2.4016     -0.0373     15.0522    143.1577     26.0086
   575.4000      8.0007      2.3678      0.0780     17.1001    143.0916     26.9922
   575.5000      8.0603      2.2929      0.0494     21.6406    145.0928     28.1684
   575.6000      8.0603      2.1950      0.0526     27.5762    144.5020     29.1765
   575.7000      8.0603      2.0998      0.0511     33.3436    138.7097     29.8288
   575.8000      8.2076      2.0188     -0.0463     38.2566    134.8076     30.1789
   575.9000      8.2076      1.9557     -0.0263     42.0760    134.3230     30.5182
   576.0000      8.2419      1.9048     -0.0365     45.1656    133.6803     31.0651
   576.1000      8.2419      1.8562     -0.0127     48.1063    130.6081     31.5491
   576.2000      8.2419      1.8006      0.0406     51.4774    124.7350     31.7983
   576.3000      8.3017      1.7311      0.0395     55.6885    118.7693     31.9587
   576.4000      8.3017      1.6500      0.0306     60.6044    114.7603     32.1062
   576.5000      8.2447      1.5643     -0.0089     65.8021    112.3128     32.2593
   576.6000      8.2447      1.4888     -0.0575     70.3784    109.0214     32.4423
   576.7000      8.2447      1.4569     -0.1271     72.3104    103.1616     32.7345
   576.8000      8.2249      1.5000     -0.0871     69.6960     98.1683     33.0773
   576.9000      8.2249      1.6096      0.0408     63.0573     98.1416     33.3164
   577.0000      8.3999      1.7523      0.1138     54.4062    102.2380     33.5013
   577.1000      8.3999      1.9094      0.1928     44.8825    108.0623     33.6779
   577.2000      8.3999      2.0703      0.2534     35.1313    114.0223     33.6718
   577.3000      8.7460      2.2173      0.2898     26.2263    118.5946     33.4002
   577.4000      8.7460      2.3404      0.2860     18.7654    122.8747     32.9454
   577.5000      8.8014      2.4418      0.2602     12.6204    128.7372     32.3299
   577.6000      8.8014      2.5152      0.2204      8.1713    134.9981     31.5051
   577.7000      8.8014      2.5512      0.1397      5.9856    139.2765     30.4867
   577.8000      8.1688      2.5583      0.0867      5.5601    141.5085     29.4656
   577.9000      8.1688      2.5541      0.0449      5.8091    144.6373     28.5989
   578.0000      7.9726      2.5516      0.0203      5.9661    149.8382     27.6958
   578.1000      7.9726      2.5554      0.0197      5.7337    153.5916     26.5057
   578.2000      7.9726      2.5649      0.0318      5.1584    152.3834     25.3103
   578.3000      7.9567      2.5778      0.0376      4.3741    147.5999     24.5331
   578.4000      7.9567      2.5908      0.0586      3.5895    142.5663     24.1561
   578.5000      7.9578      2.5969      0.0515      3.2211    138.0596     23.8126
   578.6000      7.9578      2.5946      0.0292      3.3579    134.5073     23.3968
   578.7000      7.9578      2.5894      0.0227      3.6734    133.1996     23.1427
   578.8000      7.9522      2.5860      0.0061      3.8808    131.9364     22.8346
   578.9000      7.9522      2.5824      0.0226      4.0973    128.2532     22.1401
   579.0000      7.9537      2.5772     -0.0036      4.4116    125.3006     21.3717
   579.1000      7.9537      2.5786      0.0006      4.3246    126.6212     20.8818
   579.2000      7.9537      2.5852      0.0642      3.9269    130.2166     20.5661
   579.3000      7.9493      2.5800      0.0436      4.2450    131.2938     20.1416
   579.4000      7.9493      2.5609      0.0175      5.4005    129.7796     19.8515
   579.5000      7.9557      2.5448      0.0194      6.3763    128.6970     20.0634
   579.6000      7.9557      2.5412      0.0835      6.5924    129.3432     20.6388
   579.7000      7.9557      2.5452      0.0728      6.3503    133.1957     21.4499
   579.8000      7.9350      2.5551      0.0078      5.7512    139.9100     22.3867
   579.9000      7.9350      2.5753      0.0522      4.5268    143.3867     23.2152
   580.0000      7.9377      2.5981      0.1046      3.1474    140.7217     23.8677
   580.1000      7.9377      2.6123      0.0994      2.2862    136.8387     24.3646
   580.2000      7.9377      2.6196      0.1349      1.8421    135.5644     24.7034
   580.3000      7.9449      2.6265      0.1232      1.4223    134.7224     24.8262
   580.4000      7.9449      2.6322      0.1519      1.0792    131.4720     24.6866
   580.5000      7.9642      2.6271      0.0880      1.3896    125.4360     24.2599
   580.6000      7.9642      2.6114      0.0133      2.3380    116.1870     23.6135
   580.7000      7.9642      2.6016      0.0218      2.9308    105.7295     23.0105
   580.8000      7.9733      2.6095      0.0189      2.4568     98.9304     22.4445
   580.9000      7.9733      2.6338      0.0156      0.9797     97.0938     21.6138
   581.0000      7.9628      2.6686      0.0488     -1.1285     99.2578     20.6581
   581.1000      7.9628      2.7040      0.0670     -3.2733    103.2441     20.0859
   581.2000      7.9628      2.7359      0.0603     -5.2059    105.2009     20.0024
   581.3000      7.9583      2.7651      0.1123     -6.9760    106.8275     20.0710
   581.4000      7.9583      2.7785      0.1199     -7.7894    111.5010     20.1678
   581.5000      7.9503      2.7623      0.1038     -6.8072    116.2101     20.3760
   581.6000      7.9503      2.7254      0.0760     -4.5675    121.6871     20.6156
   581.7000      7.9503      2.6847      0.0675     -2.1001    132.1757     20.8998
   581.8000      7.9382      2.6504      0.0348     -0.0260    144.9944     21.2951
   581.9000      7.9382      2.6284      0.0678      1.3115    155.7420     21.5638
   582.0000      7.9425      2.6146      0.0829      2.1481    163.1576     21.6648
   582.1000      7.9425      2.6030      0.0822      2.8479    166.6105     21.8926
   582.2000      7.9425      2.5936      0.0492      3.4181    167.9061     22.1241
   582.3000      7.9806      2.5846      0.0444      3.9622    170.4530     22.0706
   582.4000      7.9806      2.5744      0.0500      4.5826    173.9918     22.1566
   582.5000      8.0049      2.5729      0.0317      4.6719    175.8681     22.7788
   582.6000      8.0049      2.5880      0.0603      3.7582    173.9774     23.4819
   582.7000      8.0049      2.6098      0.0605      2.4377    168.1642     23.6408
