~Version Information
VERS.                      2.0: CWLS Log ASCII Standard - VERSION 2.0
WRAP.                       NO: One line per depth step
~Well Information Block
STRT.FT                 5.0000: 
STOP.FT               880.0000: 
STEP.FT                 0.2500: 
NULL.                -999.2500: 
COMP.          Pioneer Natural Resources: COMPANY
WELL.          Bienville 31-28: WELL
FLD.           Purgatoire River: FIELD
LOC.           1212' FNL & 2271' FEL: LOCATION
PROV.                 Colorado: PROVINCE
CNTY.               Las Animas: COUNTRY
SRVC.                Patterson: SERVICE COMPANY
DATE.          Tue Jan 24 11:44:03 2006: LOG DATE
UWI.           05 071 08666 00: UNIQUE WELL ID
~Curve Information Block
DEPT.FT            0 000 00 00: Depth
GR.GAPI                       : Gamma Ray
CCL.                          : Casing Collar Locator
TT3.usec                      : CBL 3' Travel Time
AMP3.mV                       : CBL 3' Amplitude
~Parameter Information Block
~A  Depth        GR         CCL         TT3         AMP3    
# ...
   742.0000     82.7269      0.0000    735.1180     15.8981
   742.2500     83.7351      0.0000    730.9763     16.4337
   742.5000     84.5057      0.0000    727.4321     16.9672
   742.7500     84.9788      0.0000    725.1157     17.4621
   743.0000     84.9188      0.0000    725.3278     17.8774
   743.2500     83.9894      0.0000    728.3916     18.1806
   743.5000     81.9256      0.0000    732.4767     18.3548
   743.7500     78.7762      0.0000    734.8314     18.3954
   744.0000     75.0691      0.0000    734.8243     18.3077
   744.2500     71.6694      0.0000    735.3959     18.1184
   744.5000     69.2697      0.0000    740.4963     17.8938
   744.7500     67.8867      0.0000    750.5679     17.7379
   745.0000     66.9704      0.0000    760.4561     17.7558
   745.2500     66.1276      0.0000    761.6669     18.0022
   745.5000     65.6394      0.0000    746.3610     18.4568
   745.7500     66.1980      0.0000    709.5542     19.0452
   746.0000     68.1988      0.0000    650.0313     19.6836
   746.2500     71.1797      0.0000    572.8594     20.3071
   746.5000     73.8947      0.0000    491.2527     20.8715
   746.7500     75.1992      0.0000    421.8371     21.3465
   747.0000     74.9964      0.0000    375.0081     21.7168
   747.2500     74.2074      0.0000    350.1933     21.9812
   747.5000     73.9413      0.0000    340.0220     22.1377
   747.7500     74.7544      0.0000    337.3784     22.1653
   748.0000     76.3369      0.0000    339.3100     22.0222
   748.2500     77.6666      0.0000    347.8171     21.6633
   748.5000     77.7373      0.0000    369.1423     21.0596
   748.7500     76.3561      0.0000    410.7578     20.2191
   749.0000     74.1734      0.0000    475.4688     19.2072
   749.2500     71.9146      0.0000    556.5572     18.1504
   749.5000     69.7184      0.0000    639.3817     17.1968
   749.7500     67.2614      0.0000    709.0335     16.4535
   750.0000     64.3588      0.0000    757.4621     15.9536
   750.2500     61.3388      0.0000    785.0255     15.6755
   750.5000     59.0460      0.0000    797.0922     15.5826
   750.7500     58.6663      0.0000    799.4699     15.6409
   751.0000     61.2012      0.0000    795.8898     15.8042
   751.2500     66.4543      0.0000    788.0969     16.0021
   751.5000     72.4460      0.0000    777.0855     16.1614
   751.7500     76.5606      0.0000    764.4464     16.2513
   752.0000     77.7863      0.0000    753.5839     16.3044
   752.2500     77.5127      0.0000    749.4409     16.3828
   752.5000     77.8894      0.0000    755.2076     16.5156
   752.7500     79.8184      0.0000    768.8466     16.6627
   753.0000     82.7572      0.0000    784.2018     16.7366
   753.2500     85.8836      0.0000    795.8499     16.6600
   753.5000     88.8020      0.0000    802.1220     16.4111
   753.7500     91.2305      0.0000    804.0484     16.0254
   754.0000     92.6367      0.0000    802.9951     15.5590
   754.2500     92.5004      0.0000    799.7066     15.0516
   754.5000     90.8094      0.0000    794.6799     14.5190
   754.7500     88.2402      0.0000    788.5526     13.9718
   755.0000     85.8104      0.0000    782.0338     13.4307
   755.2500     84.0967      0.0000    775.7990     12.9238
   755.5000     82.5990      0.0000    770.5396     12.4800
   755.7500     80.0139      0.0000    766.8036     12.1334
   756.0000     75.3519      0.0000    764.6852     11.9259
   756.2500     68.8695      0.0000    763.8193     11.8869
   756.5000     61.9676      0.0000    763.6799     12.0023
   756.7500     56.3821      0.0000    763.8235     12.2085
   757.0000     53.4754      0.0000    763.9549     12.4245
   757.2500     53.9224      0.0000    763.8783     12.5983
   757.5000     57.6817      0.0000    763.4007     12.7312
   757.7500     64.0896      0.0000    762.0895     12.8699
   758.0000     71.8884      0.0000    758.9925     13.0708
   758.2500     79.2577      0.0000    752.6493     13.3462
   758.5000     84.3109      0.0000    741.8290     13.6126
   758.7500     86.1390      0.0000    727.1296     13.6772
   759.0000     85.5055      0.0000    712.5984     13.3223
   759.2500     84.2662      0.0000    704.9854     12.4900
   759.5000     83.8445      0.0000    709.3436     11.4132
   759.7500     84.1179      0.0000    724.2856     10.4948
   760.0000     83.6599      0.0000    742.6611     10.0031
   760.2500     80.9897      0.0000    757.9561      9.9073
   760.5000     75.7296      0.0000    770.2099      9.9941
   760.7500     68.9334     -2.5649    784.9280     10.0722
   761.0000     62.4272      0.0000    805.0372     10.0784
   761.2500     57.6099      0.0000    823.8578     10.1106
   761.5000     54.6939      0.0000    828.2356     10.4050
   761.7500     53.0004      0.0000    809.6866     11.1704
   762.0000     51.8701      0.0000    771.9420     12.3562
   762.2500     51.3489      0.0000    728.8203     13.6392
   762.5000     52.2619      0.0000    697.0950     14.6844
   762.7500     55.7165      0.0000    688.9984     15.3558
   763.0000     62.3783      0.0000    705.7116     15.6823
   763.2500     71.9507      0.0000    736.5305     15.7455
   763.5000     82.9875      0.0000    766.8928     15.6333
   763.7500     93.0731      0.0000    788.0004     15.4273
   764.0000     99.7216      0.0000    799.1424     15.1892
   764.2500    101.7534      0.0000    803.5350     14.9612
   764.5000     99.8912      0.0000    804.0600     14.7731
   764.7500     95.9988      0.0000    801.7740     14.6429
   765.0000     92.0169      0.0000    796.5424     14.5790
   765.2500     89.5169      0.0000    788.3160     14.5890
   765.5000     89.3469      0.0000    778.1106     14.6742
   765.7500     90.9860      0.0000    767.9447     14.8148
   766.0000     92.6021      0.0000    760.0352     14.9669
   766.2500     92.4007      0.0000    755.7193     15.0799
   766.5000     90.0111      0.0000    754.6270     15.1194
   766.7500     86.4067      0.0000    754.8683     15.0821
   767.0000     82.6430      0.0000    754.5979     15.0052
   767.2500     79.0348      0.0000    753.6486     14.9637
   767.5000     75.5569      0.0000    753.4150     15.0430
   767.7500     72.5363      0.0000    755.1395     15.2915
   768.0000     70.6115      0.0000    758.7289     15.6869
   768.2500     70.1972      0.0000    763.2604     16.1466
   768.5000     71.0668      0.0000    767.9577     16.5695
   768.7500     72.2743      0.0000    772.3878     16.8785
   769.0000     72.5028      0.0000    776.3781     17.0445
   769.2500     70.9078      0.0000    780.1758     17.0880
   769.5000     67.9233      0.0000    784.0531     17.0580
   769.7500     65.0350      0.0000    787.2470     16.9948
   770.0000     63.4393      0.0000    787.9268     16.9039
   770.2500     63.0097      0.0000    784.8882     16.7596
   770.5000     62.7428      0.0000    778.9673     16.5315
   770.7500     62.1592      0.0000    772.3284     16.2059
   771.0000     62.2550      0.0000    766.6328     15.7912
   771.2500     65.0148      0.0000    762.3278     15.3133
   771.5000     71.7396      0.0000    759.4097     14.8072
   771.7500     81.7940      0.0000    758.0833     14.3088
   772.0000     92.9226      0.0000    758.3984     13.8470
   772.2500    102.4788      0.0000    759.7394     13.4383
   772.5000    108.4608      0.0000    761.1521     13.0892
   772.7500    110.2569      0.0000    762.0738     12.8037
   773.0000    108.8689      0.0000    762.5358     12.5843
   773.2500    106.0381      0.0000    762.8137     12.4222
   773.5000    102.9915      0.0000    763.0755     12.2945
   773.7500    100.2259      0.0000    763.3107     12.1818
   774.0000     98.1599      0.0000    763.4324     12.0849
   774.2500     97.5082      0.0000    763.3830     12.0222
   774.5000     98.9969      0.0000    763.1896     12.0112
   774.7500    102.7623      0.0000    762.9609     12.0537
   775.0000    107.8241      0.0000    762.8397     12.1334
   775.2500    112.1121      0.0000    762.9254     12.2292
