~Version Information
VERS.                      2.0: CWLS Log ASCII Standard - VERSION 2.0
WRAP.                       NO: One line per depth step
~Well Information Block
STRT.FT                -7.0000: 
STOP.FT              1239.2500: 
STEP.FT                 0.2500: 
NULL.                -999.2500: 
COMP.          Pioneer Natural Resources: COMPANY
WELL.              Julie 11-30: WELL
FLD.           Purgatorie River: FIELD
LOC.           672' FNL & 1052' FWL--: LOCATION
CNTY.               Las Animas: COUNTY
SRVC.          Patterson Wireline: SERVICE COMPANY
DATE.          Tue Apr 18 11:12:35 2006: LOG DATE
UWI.           05 071 08724 00: UNIQUE WELL ID
STAT.                       CO: STATE
~Curve Information Block
DEPT.FT            0 000 00 00: Depth
CCL.                          : Casing Collar Locator
TT3.usec                      : CBL 3' Travel Time
AMP3.mV                       : CBL 3' Amplitude
GR.GAPI                       : Gamma Ray
~Parameter Information Block
~A  Depth       CCL         TT3         AMP3         GR     
# ...
  1132.0000      0.0000    526.5271      4.1589     70.2523
  1132.2500      0.0000    526.0478      4.1678     68.8405
  1132.5000      0.0000    525.0587      4.1632     67.9993
  1132.7500      0.0000    523.2109      4.1487     68.2905
  1133.0000      0.0000    520.4918      4.1289     70.6352
  1133.2500      0.0000    517.6337      4.1103     75.3515
  1133.5000      0.0000    515.7281      4.0997     81.6429
  1133.7500      0.0000    514.9719      4.1023     87.6238
  1134.0000      0.0000    513.9156      4.1222     90.9899
  1134.2500      0.0000    510.4456      4.1607     90.4669
  1134.5000      0.0000    503.7214      4.2124     86.9124
  1134.7500      0.0000    495.0756      4.2625     82.6289
  1135.0000      0.0000    486.9810      4.2947     79.4576
  1135.2500      0.0000    481.2264      4.3013     77.7876
  1135.5000      0.0000    478.0636      4.2872     77.1677
  1135.7500      0.0000    476.7436      4.2643     77.0704
  1136.0000      0.0000    476.4318      4.2433     76.7618
  1136.2500      0.0000    476.6090      4.2273     75.2007
  1136.5000      0.0000    476.9722      4.2142     71.8928
  1136.7500      0.0000    477.2653      4.2020     67.7639
  1137.0000      0.0000    477.2347      4.1937     64.7356
  1137.2500      0.0000    476.6308      4.1946     64.3085
  1137.5000      0.0000    475.1292      4.2080     66.6796
  1137.7500      0.0000    472.2792      4.2324     71.1419
  1138.0000      0.0000    467.8624      4.2645     77.0551
  1138.2500      0.0000    462.6018      4.3013     84.2213
  1138.5000      0.0000    458.2202      4.3412     92.4741
  1138.7500      0.0000    456.0482      4.3838    101.1038
  1139.0000      0.0000    455.3768      4.4315    108.9341
  1139.2500      0.0000    453.7824      4.4892    115.1197
  1139.5000      0.0000    449.4536      4.5597    119.5227
  1139.7500      0.0000    442.8979      4.6394    122.2425
  1140.0000      0.0000    436.2221      4.7206    123.4449
  1140.2500      0.0000    431.1878      4.7979    123.8686
  1140.5000      0.0000    428.2363      4.8693    124.7807
  1140.7500      0.0000    426.9137      4.9327    126.9121
  1141.0000      0.0000    426.5966      4.9830    129.6792
  1141.2500      0.0000    426.7852      5.0144    131.6967
  1141.5000      0.0000    427.1238      5.0241    131.7970
  1141.7500      0.0000    427.4212      5.0150    129.4232
  1142.0000      0.0000    427.6418      4.9968    124.4394
  1142.2500      0.0000    427.8099      4.9836    117.1341
  1142.5000      0.0000    427.9240      4.9882    108.6459
  1142.7500      0.0000    427.9429      5.0165    101.0439
  1143.0000      0.0000    427.8050      5.0670     96.5987
  1143.2500      0.0000    427.4418      5.1312     96.7374
  1143.5000      0.0000    426.7976      5.1948    101.5087
  1143.7500      0.0000    425.8628      5.2426    109.8335
  1144.0000      0.0000    424.6597      5.2660    120.1973
  1144.2500      0.0000    423.1566      5.2682    130.9650
  1144.5000      0.0000    421.1721      5.2605    139.9846
  1144.7500      0.0000    418.4379      5.2539    144.2837
  1145.0000      0.0000    414.9388      5.2525    141.0919
  1145.2500      0.0000    411.2413      5.2531    129.9757
  1145.5000      0.0000    408.2823      5.2518    113.9596
  1145.7500      0.0000    406.7360      5.2517     97.9935
  1146.0000      0.0000    406.7820      5.2662     86.0164
  1146.2500      0.0000    408.3914      5.3130     79.3375
  1146.5000      0.0000    411.3410      5.4032     77.3146
  1146.7500      0.0000    414.9405      5.5346     79.0777
  1147.0000      0.0000    418.2552      5.6921     84.4639
  1147.2500      0.0000    420.7233      5.8554     93.2821
  1147.5000      0.0000    422.3697      6.0059    104.0126
  1147.7500      0.0000    423.5005      6.1322    113.9321
  1148.0000      0.0000    424.3694      6.2331    120.6802
  1148.2500      0.0000    425.0882      6.3183    123.1203
  1148.5000      0.0000    425.6792      6.4034    120.9822
  1148.7500      0.0000    426.1387      6.5001    114.6684
  1149.0000      0.0000    426.4707      6.6104    105.5210
  1149.2500      0.0000    426.6920      6.7255     95.6171
  1149.5000      0.0000    426.8367      6.8283     87.1043
  1149.7500      0.0000    426.9552      6.8999     81.7957
  1150.0000      0.0000    427.0994      6.9271     80.9681
  1150.2500      0.0000    427.2860      6.9091     84.8893
  1150.5000      0.0000    427.4535      6.8579     92.3106
  1150.7500      0.0000    427.4238      6.7889    100.5582
  1151.0000      0.0000    426.8855      6.7091    106.4760
  1151.2500      0.0000    425.3831      6.6144    107.8420
  1151.5000      0.0000    422.3750      6.4976    104.4950
  1151.7500      0.0000    417.5685      6.3579     98.3461
  1152.0000      0.0000    411.5804      6.2037     92.0350
  1152.2500      0.0000    406.2477      6.0494     87.3288
  1152.5000      0.0000    403.7026      5.9119     84.7925
  1152.7500      0.0000    404.5605      5.8048     84.5624
  1153.0000      0.0000    407.0247      5.7298     86.8416
  1153.2500      0.0000    408.1413      5.6753     91.6157
  1153.5000      0.0000    406.1667      5.6270     98.1506
  1153.7500      0.0000    401.7495      5.5805    104.8587
  1154.0000      0.0000    396.9427      5.5440    109.8683
  1154.2500      0.0000    393.3470      5.5291    112.2085
  1154.5000      0.0000    391.2354      5.5411    112.6641
  1154.7500      0.0000    390.0102      5.5752    113.1622
  1155.0000      0.0000    389.0191      5.6210    115.0714
  1155.2500      0.0000    387.9306      5.6698    118.1180
  1155.5000      0.0000    386.6959      5.7193    120.8581
  1155.7500      0.0000    385.4059      5.7701    121.8984
  1156.0000      0.0000    384.1980      5.8173    120.7740
  1156.2500      0.0000    383.1953      5.8487    118.0439
  1156.5000      0.0000    382.4555      5.8542    114.6390
  1156.7500      0.0000    381.9477      5.8359    111.1014
  1157.0000      0.0000    381.6041      5.8072    107.6016
  1157.2500      0.0000    381.4435      5.7829    104.4398
  1157.5000      0.0000    381.6941      5.7723    102.1080
  1157.7500      0.0000    382.8319      5.7793    100.9063
  1158.0000      0.0000    385.4242      5.8036    100.8333
  1158.2500      0.0000    389.5950      5.8419    101.9281
  1158.5000      0.0000    394.3207      5.8882    104.5252
  1158.7500      0.0000    397.4867      5.9352    108.7843
  1159.0000      0.0000    397.3168      5.9722    113.7734
  1159.2500      0.0000    394.0346      5.9855    117.3459
  1159.5000      0.0000    389.9119      5.9537    117.6029
  1159.7500      0.0000    388.0721      5.8403    114.5352
  1160.0000      0.0000    392.0068      5.6013    109.7207
  1160.2500      0.0000    406.2973      5.2361    104.4556
  1160.5000      0.0000    436.1771      4.8392     98.7839
  1160.7500      0.0000    483.8017      4.5562     92.3359
  1161.0000      0.0000    543.2391      4.4473     85.4706
  1161.2500      0.0000    599.5159      4.4278     79.2773
  1161.5000      0.0000    634.3276      4.3854     74.7481
  1161.7500      0.0000    635.0428      4.3189     72.1719
  1162.0000      0.0000    601.7498      4.3104     71.2392
  1162.2500      0.0000    548.0609      4.4002     71.5494
  1162.5000      2.0000    493.6584      4.5424     72.9246
  1162.7500      0.0000    453.4623      4.6647     75.2476
  1163.0000      0.0000    433.1121      4.7410     78.1333
  1163.2500      0.0000    432.1262      4.8146     80.8869
  1163.5000      0.0000    446.2368      4.9519     82.9358
  1163.7500      0.0000    465.4716      5.1584     84.2564
  1164.0000      0.0000    475.6021      5.3596     85.1567
  1164.2500      0.0000    467.4860      5.4997     85.6831
  1164.5000      0.0000    444.6243      5.6322     85.5480
  1164.7500      0.0000    418.8854      5.8668     84.6748
  1165.0000      0.0000    399.8027      6.2374     83.5355
  1165.2500      0.0000    389.4709      6.6579     82.7769
