~Version Information
 VERS.                                  2.0 : CWLS LAS VERSION
 WRAP.                                   NO : WRAPING MODE
 SWARE .                 MController 2.5.0J : SOFTWARE VERSION
~Well Information
 WELL.                      Buffet 41-36 Tr : WELL
 COMP.    Pioneer Natural Resources USA Inc : COMPANY
 FLD.                      Purgatoire River : FIELD
 LOC.                NE/NE Sec 36 T32S R67W : LOCATION
 DATE.                             12/28/05 : DATE(S) LOGGED
 SRVC.       BLANCO Geological Services LLC : SERVICE COMPANY
 STAT.                                   CO : STATE
 CNTY.                           Las Animas : COUNTY
 CTRY.                                  USA : COUNTRY
 API.                       05-071-08627-00 : API NUMBER
 STRT.FT                             287.00 : START DEPTH
 STOP.FT                            1373.00 : STOP DEPTH
 STEP.FT                               1.00 : DEPTH INCREMENT
 NULL.                                -9999 : NULL VALUE
~Curve information
 DEPTH.FT                                   :
 ROP.MIN/FT                                 :
 GAS.UNITS                                  :
~ASCII Log data
       287.0     -9999.00          4.0 
       288.0         0.20          4.1 
       289.0         0.17          5.4 
       290.0         0.13          5.8 
       291.0         0.17          4.9 
       292.0         0.13          3.7 
       293.0         0.13          3.2 
       294.0         0.13          2.5 
       295.0         0.17          2.4 
       296.0         0.13          2.6 
       297.0         0.13          2.3 
       298.0         0.18          2.7 
       299.0         0.13          2.8 
       300.0         0.13          3.0 
       301.0         0.17          3.5 
       302.0         0.13          3.5 
       303.0         0.13          3.6 
       304.0         0.17          3.8 
       305.0         0.17          3.7 
       306.0         0.17          4.0 
       307.0         0.13          3.9 
       308.0         0.17          3.8 
       309.0         0.17          3.9 
       310.0         0.17          4.1 
       311.0         0.18          4.0 
       312.0         0.17          3.7 
       313.0         0.13          3.8 
       314.0         0.17          4.0 
       315.0         0.33          4.2 
       316.0         2.48          4.6 
       317.0         0.13          4.4 
       318.0         0.13          4.4 
       319.0         0.13          4.3 
       320.0         0.13          4.4 
       321.0         0.17          4.3 
       322.0         0.13          4.3 
       323.0         0.13          4.2 
       324.0         0.15          4.0 
       325.0         0.13          4.1 
       326.0         0.13          4.3 
       327.0         0.13          4.1 
       328.0         0.17          4.6 
       329.0         0.17          3.9 
       330.0         0.13          4.0 
       331.0         0.13          4.0 
       332.0         0.13          4.3 
       333.0         0.15          3.8 
       334.0         0.17          3.9 
       335.0         0.13          4.1 
       336.0         0.13          4.2 
       337.0         0.17          4.2 
       338.0         0.13          4.2 
       339.0         0.17          4.1 
       340.0         0.13          4.2 
       341.0         0.13          4.3 
       342.0         0.13          4.4 
       343.0         0.18          4.7 
       344.0         0.17          5.1 
       345.0         0.13          4.6 
       346.0         0.57          4.9 
       347.0         0.20          4.8 
       348.0         1.55          4.9 
       349.0         0.50          4.9 
       350.0         0.10          4.9 
       351.0         0.15          4.5 
       352.0         0.13          4.9 
       353.0         0.10          4.7 
       354.0         0.13          4.9 
       355.0         0.13          4.9 
       356.0         0.13          4.9 
       357.0         0.13          4.7 
       358.0         0.13          5.0 
       359.0         0.13          5.0 
       360.0         0.13          4.8 
       361.0         0.13          4.9 
       362.0         0.13          4.6 
       363.0         0.13          4.6 
       364.0         0.13          4.5 
       365.0         0.13          4.9 
       366.0         0.13          4.6 
       367.0         0.13          4.7 
       368.0         0.13          4.7 
       369.0         0.17          4.4 
       370.0         0.15          4.3 
       371.0         0.13          4.3 
       372.0         0.13          4.4 
       373.0         0.13          4.5 
       374.0         0.17          4.4 
       375.0         0.13          4.4 
       376.0         0.17          4.5 
       377.0         0.13          4.5 
       378.0         0.13          4.3 
       379.0         0.13          4.4 
       380.0         0.17          4.6 
       381.0         3.42          5.3 
       382.0         0.43          5.1 
       383.0         0.40          4.8 
       384.0         0.38          4.5 
       385.0         0.33          5.0 
       386.0         0.40          4.4 
       387.0         0.40          4.6 
       388.0         0.33          4.3 
       389.0         0.33          4.7 
       390.0         0.37          4.6 
       391.0         0.38          4.2 
       392.0         0.30          4.1 
       393.0         0.27          4.0 
       394.0         0.27          4.1 
       395.0         0.23          4.1 
       396.0         0.27          4.2 
       397.0         0.23          4.1 
       398.0         0.23          4.3 
       399.0         0.23          3.9 
       400.0         0.23          4.0 
       401.0         0.27          4.1 
       402.0         0.27          4.1 
       403.0         0.35          3.9 
       404.0         0.33          3.4 
       405.0         0.33          3.6 
       406.0         0.27          3.2 
       407.0         0.30          3.0 
       408.0         0.30          2.9 
       409.0         0.30          2.8 
       410.0         0.27          3.0 
       411.0         0.37          3.2 
       412.0         3.22          4.5 
       413.0         0.40          4.4 
       414.0         0.33          4.5 
       415.0         0.38          4.6 
       416.0         0.37          4.2 
       417.0         0.43          4.6 
       418.0         0.40          4.4 
       419.0         0.40          4.3 
       420.0         0.47          4.5 
       421.0         0.37          4.1 
       422.0         0.40          4.0 
       423.0         0.38         94.2 
       424.0         0.33         84.9 
       425.0         0.40         14.4 
       426.0         0.37          3.7 
       427.0         0.37          1.7 
       428.0         0.40          0.9 
       429.0         0.40          1.2 
       430.0         0.40          1.3 
       431.0         0.42          1.7 
       432.0         0.40          1.7 
       433.0         0.40          1.6 
       434.0         0.57          2.2 
       435.0         0.47          2.7 
       436.0         0.47          3.1 
       437.0         0.40          3.2 
       438.0         0.42          2.9 
       439.0         0.40          3.1 
       440.0         0.40          3.1 
       441.0         0.47          3.3 
       442.0         4.63          4.6 
       443.0         0.40          4.3 
       444.0         0.40          4.5 
       445.0         0.40          4.8 
       446.0         0.37          4.5 
       447.0         0.37          4.8 
       448.0         0.37          5.1 
       449.0         0.37          4.8 
       450.0         0.37          4.7 
       451.0         0.42          4.7 
       452.0         0.40          4.3 
       453.0         0.50          4.5 
       454.0         0.50          4.6 
       455.0         0.47          4.6 
       456.0         0.53          4.3 
       457.0         0.55          4.8 
       458.0         0.50          5.2 
       459.0         0.43          5.6 
       460.0         0.40          5.0 
       461.0         0.37          4.8 
       462.0         0.40          4.4 
       463.0         0.37          4.5 
       464.0         0.37          4.7 
       465.0         0.45          4.5 
       466.0         0.40          4.4 
       467.0         0.43          4.9 
       468.0         0.40          5.0 
       469.0         0.40          4.8 
       470.0         0.43          4.3 
       471.0         0.38          4.7 
       472.0         3.15          5.4 
       473.0         0.83          4.8 
       474.0         0.80          4.9 
       475.0         0.92          5.4 
       476.0         0.77          5.1 
       477.0         0.90          5.2 
       478.0         0.85          5.2 
       479.0         0.53          4.9 
       480.0         0.50          5.0 
       481.0         0.53          5.2 
       482.0         0.57          4.9 
       483.0         0.72          4.8 
       484.0         0.80          4.5 
       485.0         0.80          4.6 
       486.0         0.73          4.4 
