~Version Information
VERS.                      2.0: CWLS Log ASCII Standard - VERSION 2.0
WRAP.                       NO: One line per depth step
~Well Information Block
STRT.FT               680.0000: 
STOP.FT              1585.5000: 
STEP.FT                 0.1000: 
NULL.                -999.2500: 
COMP.          Pioneer Natural Resources: COMPANY
WELL.          Screamin' 12-29: WELL
FLD.           Purgatoire River: FIELD
LOC.           2038' FNL & 612' FWL: LOCATION
CNTY.               Las Animas: COUNTY
SRVC.                Patterson: SERVICE COMPANY
DATE.          Wed Mar 29 10:01:18 2006: LOG DATE
UWI.           05 071 08661 00: UNIQUE WELL ID
STAT.                 Colorado: STATE
~Curve Information Block
DEPT.FT            0 000 00 00: Depth
DCAL.in                       : CDL Caliper
RHOB.g/cc                     : CDL Bulk Density
RHOC.g/cc                     : CDL Density Correction
DPOR.pu                       : CDL Density Porosity
GR.GAPI                       : Gamma Ray
NPOR.pu                       : Neutron Porosity
~Parameter Information Block
~A  Depth       DCAL        RHOB        RHOC        DPOR         GR         NPOR    
# ...
  1332.8000      7.8729      2.5315      0.0454      7.1842     80.6384     23.1034
  1332.9000      7.8729      2.5161     -0.0109      8.1158     83.4942     23.8297
  1333.0000      7.8709      2.5031     -0.0265      8.9050     87.1692     24.6837
  1333.1000      7.8709      2.4881     -0.0350      9.8137     90.4541     24.9408
  1333.2000      7.8709      2.4701     -0.0617     10.9012     91.3636     24.8238
  1333.3000      7.8692      2.4703     -0.0783     10.8916     89.8586     24.5199
  1333.4000      7.8692      2.4964      0.0182      9.3089     87.0046     23.9272
  1333.5000      7.8706      2.5256      0.0504      7.5375     83.0194     23.0641
  1333.6000      7.8706      2.5478      0.0167      6.1944     80.1019     22.3896
  1333.7000      7.8706      2.5725      0.0422      4.6964     78.0339     22.5450
  1333.8000      7.8709      2.5898      0.0835      3.6500     73.0427     23.5885
  1333.9000      7.8709      2.5871      0.0475      3.8093     68.0324     24.7161
  1334.0000      7.8695      2.5784      0.0294      4.3366     69.6478     25.1147
  1334.1000      7.8695      2.5767      0.0521      4.4435     74.3579     24.8644
  1334.2000      7.8695      2.5780      0.0416      4.3635     73.9272     24.6089
  1334.3000      7.8698      2.5787      0.0280      4.3232     69.5550     24.5678
  1334.4000      7.8698      2.5780      0.0477      4.3665     66.6516     24.3928
  1334.5000      7.8711      2.5758      0.0249      4.4996     65.5591     23.9991
  1334.6000      7.8711      2.5754      0.0504      4.5199     66.3672     23.9560
  1334.7000      7.8711      2.5797      0.0407      4.2601     72.8428     24.4734
  1334.8000      7.8727      2.5877      0.0761      3.7761     83.1459     24.5537
  1334.9000      7.8727      2.5931      0.0409      3.4496     89.7983     23.6877
  1335.0000      7.8752      2.5914      0.0590      3.5504     91.2613     22.8420
  1335.1000      7.8752      2.5860      0.0672      3.8807     91.7881     22.8354
  1335.2000      7.8752      2.5835      0.0483      4.0275     94.0037     23.7488
  1335.3000      7.8774      2.5836      0.0757      4.0222     96.2926     25.1250
  1335.4000      7.8774      2.5833      0.0280      4.0449     93.7735     26.3368
  1335.5000      7.8764      2.5842      0.0764      3.9878     87.5413     27.0583
  1335.6000      7.8764      2.5830      0.0517      4.0636     83.9272     26.9659
  1335.7000      7.8764      2.5787      0.0570      4.3224     86.5900     26.3559
  1335.8000      7.8749      2.5761      0.0548      4.4778     94.6833     25.9098
  1335.9000      7.8749      2.5820      0.0145      4.1209    100.6476     25.7257
  1336.0000      7.8742      2.6000      0.0478      3.0322     97.7269     25.9274
  1336.1000      7.8742      2.6136      0.0829      2.2085     90.3528     26.4117
  1336.2000      7.8742      2.6104      0.0351      2.3981     86.2427     26.3613
  1336.3000      7.8736      2.6026      0.0694      2.8700     84.8430     25.3676
  1336.4000      7.8736      2.5983      0.0739      3.1311     79.9474     24.3190
  1336.5000      7.8735      2.5963      0.0282      3.2570     71.2157     24.0667
  1336.6000      7.8735      2.5986      0.0568      3.1151     67.1115     24.6038
  1336.7000      7.8735      2.6039      0.0370      2.7943     73.4043     25.3907
  1336.8000      7.8738      2.6062      0.0164      2.6525     84.7490     25.9428
  1336.9000      7.8738      2.5985      0.0414      3.1209     90.6928     26.2025
  1337.0000      7.8734      2.5809      0.0433      4.1879     88.1656     26.3777
  1337.1000      7.8734      2.5704      0.0261      4.8240     84.1632     26.2754
  1337.2000      7.8734      2.5758      0.0529      4.4948     83.6346     25.3436
  1337.3000      7.8731      2.5846      0.0512      3.9658     83.2619     23.7002
  1337.4000      7.8731      2.5903      0.0297      3.6178     79.3493     22.5054
  1337.5000      7.8732      2.5971      0.0475      3.2062     77.5718     22.7563
  1337.6000      7.8732      2.5996      0.0746      3.0569     84.1456     24.0778
  1337.7000      7.8732      2.5865      0.0549      3.8508     93.9857     25.3584
  1337.8000      7.8734      2.5608      0.0253      5.4073     96.2320     25.6058
  1337.9000      7.8734      2.5454     -0.0038      6.3403     89.2825     24.6747
  1338.0000      7.8738      2.5525      0.0309      5.9063     81.0302     23.7658
  1338.1000      7.8738      2.5649      0.0532      5.1561     77.2663     23.9366
  1338.2000      7.8738      2.5698      0.0127      4.8593     77.2180     24.8227
  1338.3000      7.8742      2.5711      0.0704      4.7803     77.3681     25.4693
  1338.4000      7.8742      2.5670      0.0673      5.0315     75.6679     25.6728
  1338.5000      7.8739      2.5600      0.0389      5.4522     72.1725     25.5708
  1338.6000      7.8739      2.5539      0.0706      5.8222     70.6242     24.9305
  1338.7000      7.8739      2.5387      0.0648      6.7481     74.0670     23.6680
  1338.8000      7.8720      2.5195      0.0246      7.9089     79.0104     22.7734
  1338.9000      7.8720      2.5179      0.0138      8.0032     81.3900     23.0847
  1339.0000      7.8699      2.5331      0.0475      7.0820     84.4398     24.3278
  1339.1000      7.8699      2.5509      0.0318      6.0042     89.1658     25.6401
  1339.2000      7.8699      2.5664      0.0516      5.0663     88.0564     25.9075
  1339.3000      7.8707      2.5780      0.0582      4.3658     79.4446     24.7002
  1339.4000      7.8707      2.5886      0.0438      3.7204     71.3576     23.3104
  1339.5000      7.8724      2.5991      0.0759      3.0873     67.2299     23.0123
  1339.6000      7.8724      2.6025      0.0622      2.8801     63.8633     23.2254
  1339.7000      7.8724      2.5959      0.0728      3.2812     60.8282     23.2844
  1339.8000      7.8729      2.5798      0.0226      4.2519     58.6949     23.4859
  1339.9000      7.8729      2.5624     -0.0012      5.3077     56.8583     23.8145
  1340.0000      7.8725      2.5545      0.0100      5.7888     56.2332     23.5994
  1340.1000      7.8725      2.5583      0.0133      5.5598     57.5194     22.6391
  1340.2000      7.8725      2.5647      0.0306      5.1697     59.5359     21.6157
  1340.3000      7.8723      2.5632      0.0249      5.2623     60.7717     21.1521
  1340.4000      7.8723      2.5569      0.0122      5.6402     59.9532     21.2717
  1340.5000      7.8731      2.5547      0.0050      5.7747     58.4521     21.3035
  1340.6000      7.8731      2.5536      0.0517      5.8396     56.3551     20.6110
  1340.7000      7.8731      2.5524      0.0263      5.9169     50.4995     19.6914
  1340.8000      7.8733      2.5641      0.0249      5.2034     43.9498     19.3388
  1340.9000      7.8733      2.5933      0.0478      3.4383     41.7691     19.5698
  1341.0000      7.8727      2.6237      0.0625      1.5953     41.8672     19.9888
  1341.1000      7.8727      2.6415      0.0961      0.5141     43.0484     20.5373
  1341.2000      7.8727      2.6439      0.1003      0.3684     47.9627     21.1318
  1341.3000      7.8724      2.6342      0.0406      0.9589     53.2877     21.4650
  1341.4000      7.8724      2.6173      0.0957      1.9835     53.4336     21.4937
  1341.5000      7.8726      2.5947      0.0766      3.3505     50.3198     21.6921
  1341.6000      7.8726      2.5772      0.0470      4.4146     48.8829     22.3011
  1341.7000      7.8726      2.5754      0.0616      4.5240     52.1723     22.8536
  1341.8000      7.8729      2.5800      0.0534      4.2422     59.7119     22.7835
  1341.9000      7.8729      2.5760      0.0407      4.4862     69.2923     22.3532
  1342.0000      7.8720      2.5624      0.0478      5.3080     77.2100     22.4116
  1342.1000      7.8720      2.5476      0.0383      6.2044     78.3427     23.1367
  1342.2000      7.8720      2.5366      0.0570      6.8735     75.9511     23.9123
  1342.3000      7.8713      2.5336      0.0158      7.0522     78.4583     24.7399
