~Version Information
VERS.                      2.0: CWLS Log ASCII Standard - VERSION 2.0
WRAP.                       NO: One line per depth step
~Well Information Block
STRT.FT               555.0000: 
STOP.FT              1159.0000: 
STEP.FT                 0.2500: 
NULL.                -999.2500: 
COMP.          Pioneer Natural Resources: COMPANY
WELL.              Draco 31-21: WELL
FLD.           Purgatoire River: FIELD
LOC.           491' FNL & 2446' FEL: LOCATION
CNTY.               Las Animas: COUNTY
SRVC.                Patterson: SERVICE COMPANY
DATE.          Tue Jan 31 17:48:38 2006: LOG DATE
UWI.           05 071 08672 00: UNIQUE WELL ID
STAT.                 Colorado: STATE
~Curve Information Block
DEPT.FT            0 000 00 00: Depth
SN.Ohm-m                      : IEL Short Normal
SP.mV                         : IEL Spontaneous Potential
DIR.Ohm-m                     : IEL Induction Resistivity
GR.GAPI                       : Gamma Ray
~Parameter Information Block
~A  Depth        SN          SP         DIR          GR     
# ...
   923.5000     18.4840     37.8285     14.1430     87.8029
   923.7500     18.2831     38.0977     14.0178     88.6837
   924.0000     18.1829     38.3182     13.9352     89.4955
   924.2500     18.1847     38.4799     13.9186     89.8048
   924.5000     18.2122     38.5747     13.9839     90.7264
   924.7500     18.1575     38.6013     14.1377     92.0410
   925.0000     18.0418     38.5667     14.3743     95.0137
   925.2500     17.9711     38.4834     14.6760     97.3312
   925.5000     17.9559     38.3681     15.0185    100.6430
   925.7500     17.9411     38.2396     15.3796    102.3374
   926.0000     17.9210     38.1187     15.7446    103.5032
   926.2500     17.9417     38.0228     16.1084    103.1834
   926.5000     18.0588     37.9583     16.4736    100.8941
   926.7500     18.3279     37.9152     16.8487     97.8971
   927.0000     18.8244     37.8734     17.2488     90.6356
   927.2500     19.6183     37.8159     17.6975     84.0965
   927.5000     20.7230     37.7379     18.2278     73.2993
   927.7500     22.0805     37.6442     18.8756     66.6601
   928.0000     23.5583     37.5448     19.6639     58.8484
   928.2500     24.9781     37.4525     20.5810     55.1443
   928.5000     26.1691     37.3825     21.5680     51.3405
   928.7500     27.0031     37.3501     22.5349     49.7211
   929.0000     27.4305     37.3652     23.4085     48.6204
   929.2500     27.5251     37.4269     24.1761     48.8250
   929.5000     27.4702     37.5223     24.8716     50.2848
   929.7500     27.4314     37.6286     25.5028     51.5895
   930.0000     27.4316     37.7176     25.9875     53.1735
   930.2500     27.3787     37.7644     26.1758     53.6622
   930.5000     27.1626     37.7571     25.9683     53.3740
   930.7500     26.7362     37.7027     25.4260     52.5322
   931.0000     26.1486     37.6226     24.7471     50.6684
   931.2500     25.5155     37.5413     24.1391     49.5323
   931.5000     24.9964     37.4768     23.7177     49.0685
   931.7500     24.6983     37.4360     23.4914     49.9075
   932.0000     24.5636     37.4144     23.4003     52.2714
   932.2500     24.4731     37.3987     23.3659     53.6719
   932.5000     24.3989     37.3723     23.3266     54.0781
   932.7500     24.3394     37.3223     23.2541     52.9952
   933.0000     24.2291     37.2421     23.1496     50.0338
   933.2500     24.0341     37.1278     23.0307     47.8211
   933.5000     23.8080     36.9710     22.9192     45.1201
   933.7500     23.5816     36.7562     22.8375     44.1428
   934.0000     23.3446     36.4693     22.8105     44.2460
   934.2500     23.1355     36.1074     22.8601     45.1777
   934.5000     23.0252     35.6810     22.9883     46.9378
   934.7500     23.0158     35.2079     23.1611     47.8211
   935.0000     23.0413     34.7056     23.3149     48.4683
   935.2500     23.0632     34.1866     23.3912     48.5860
   935.5000     23.0944     33.6601     23.3734     48.3861
   935.7500     23.1569     33.1343     23.2955     47.9659
   936.0000     23.2622     32.6165     23.2135     47.2443
   936.2500     23.4083     32.1131     23.1707     47.1920
   936.5000     23.5498     31.6315     23.1843     48.3540
   936.7500     23.5979     31.1835     23.2508     49.7693
   937.0000     23.5411     30.7848     23.3578     51.7845
   937.2500     23.4907     30.4491     23.4902     52.4218
   937.5000     23.5338     30.1807     23.6327     51.8214
   937.7500     23.6585     29.9682     23.7735     50.5137
   938.0000     23.8244     29.7855     23.9070     47.9784
   938.2500     23.9919     29.5996     24.0325     46.4683
   938.5000     24.0884     29.3822     24.1526     45.0706
   938.7500     24.0600     29.1187     24.2738     44.7405
   939.0000     23.9601     28.8134     24.4038     44.9542
   939.2500     23.8697     28.4872     24.5397     45.5194
   939.5000     23.7850     28.1700     24.6520     47.0257
   939.7500     23.6791     27.8899     24.6869     48.4382
   940.0000     23.5314     27.6658     24.5920     51.0222
   940.2500     23.2752     27.5042     24.3490     52.9905
   940.5000     22.8441     27.4005     23.9788     56.2911
   940.7500     22.2423     27.3434     23.5165     58.6239
   941.0000     21.5977     27.3196     22.9926     61.6175
   941.2500     21.1580     27.3160     22.4430     62.6093
   941.5000     21.0999     27.3187     21.9288     61.8730
   941.7500     21.3514     27.3137     21.5303     60.1947
   942.0000     21.6535     27.2880     21.3133     57.4526
   942.2500     21.7663     27.2296     21.2914     56.3969
   942.5000     21.6366     27.1282     21.4150     56.5442
   942.7500     21.3685     26.9810     21.5913     57.4213
   943.0000     21.0423     26.7984     21.7269     58.6201
   943.2500     20.6980     26.6063     21.7664     58.7165
   943.5000     20.4802     26.4379     21.7066     57.6093
   943.7500     20.5278     26.3208     21.5807     56.3736
   944.0000     20.7565     26.2686     21.4288     54.3789
   944.2500     20.9815     26.2814     21.2760     52.9977
   944.5000     21.1432     26.3492     21.1291     50.5906
   944.7500     21.2853     26.4494     20.9890     48.8428
   945.0000     21.4134     26.5451     20.8647     46.9056
   945.2500     21.4500     26.5991     20.7741     46.7194
   945.5000     21.3441     26.5980     20.7320     48.5431
   945.7500     21.1958     26.5621     20.7352     50.8389
   946.0000     21.1261     26.5282     20.7607     54.6533
   946.2500     21.0760     26.5231     20.7775     56.6391
   946.5000     20.9223     26.5540     20.7656     57.8822
   946.7500     20.6700     26.6152     20.7239     57.4727
   947.0000     20.3931     26.6948     20.6623     55.5655
   947.2500     20.1488     26.7742     20.5857     54.0112
   947.5000     19.9742     26.8296     20.4882     52.1865
   947.7500     19.8563     26.8406     20.3635     51.6420
   948.0000     19.7621     26.8032     20.2177     52.1968
   948.2500     19.7046     26.7347     20.0705     53.5918
   948.5000     19.6976     26.6659     19.9421     56.7289
   948.7500     19.6942     26.6245     19.8370     58.7177
   949.0000     19.6526     26.6219     19.7407     60.2658
   949.2500     19.6168     26.6515     19.6294     60.2718
   949.5000     19.6481     26.6981     19.4866     59.5952
   949.7500     19.7132     26.7487     19.3143     59.0619
   950.0000     19.7348     26.7982     19.1355     57.8632
   950.2500     19.7202     26.8501     18.9910     56.4937
   950.5000     19.7428     26.9119     18.9288     53.9018
   950.7500     19.8138     26.9870     18.9877     52.4777
   951.0000     19.8529     27.0656     19.1741     51.6731
   951.2500     19.8053     27.1247     19.4476     51.9768
   951.5000     19.7105     27.1408     19.7295     52.8959
   951.7500     19.6390     27.1063     19.9355     53.2908
   952.0000     19.6233     27.0364     20.0162     53.0794
   952.2500     19.6626     26.9619     19.9744     52.5440
   952.5000     19.7554     26.9155     19.8524     51.9964
   952.7500     19.8956     26.9179     19.7034     52.2753
   953.0000     20.0490     26.9695     19.5717     53.7417
   953.2500     20.1489     27.0521     19.4839     55.0460
   953.5000     20.1290     27.1386     19.4490     56.7066
   953.7500     19.9899     27.2043     19.4629     57.2988
   954.0000     19.8114     27.2345     19.5134     57.1188
   954.2500     19.6803     27.2273     19.5828     56.2260
   954.5000     19.6197     27.1908     19.6471     53.8957
   954.7500     19.5804     27.1373     19.6795     52.0246
   955.0000     19.5135     27.0802     19.6640     49.6897
   955.2500     19.4608     27.0301     19.6131     48.9868
   955.5000     19.5177     26.9904     19.5706     49.5677
   955.7500     19.7048     26.9547     19.5882     50.7825
   956.0000     19.9335     26.9114     19.6927     52.7948
   956.2500     20.1070     26.8512     19.8692     53.5955
   956.5000     20.2103     26.7743     20.0725     53.3151
   956.7500     20.3173     26.6925     20.2550     52.1566
