~Version Information
VERS.                      2.0: CWLS Log ASCII Standard - VERSION 2.0
WRAP.                       NO: One line per depth step
~Well Information Block
STRT.FT                -9.5000: 
STOP.FT              1401.5000: 
STEP.FT                 0.2500: 
NULL.                -999.2500: 
COMP.          Pioneer Natural Resources: COMPANY
WELL.             John K 12-28: WELL
FLD.           Purgatorie River: FIELD
LOC.           1476' FNL & 465' FWL--: LOCATION
CNTY.               Las Animas: COUNTY
SRVC.          Patterson Wireline: SERVICE COMPANY
DATE.          Fri Apr 28 08:36:46 2006: LOG DATE
UWI.           05 071 08723 00: UNIQUE WELL ID
STAT.                       CO: STATE
~Curve Information Block
DEPT.FT            0 000 00 00: Depth
CCL.                          : Casing Collar Locator
TT3.usec                      : CBL 3' Travel Time
AMP3.mV                       : CBL 3' Amplitude
GR.GAPI                       : Gamma Ray
~Parameter Information Block
~A  Depth       CCL         TT3         AMP3         GR     
# ...
  1096.0000      0.0000    674.0074      4.1374     82.9787
  1096.2500      0.0000    673.9091      4.1215     83.2794
  1096.5000      0.0000    674.4026      4.0971     86.1444
  1096.7500      0.0000    676.0031      4.0744     91.0596
  1097.0000      0.0000    678.9870      4.0624     96.0994
  1097.2500      0.0000    682.7372      4.0618     99.3529
  1097.5000      0.0000    685.6519      4.0650     99.7145
  1097.7500      0.0000    686.1755      4.0632     96.7666
  1098.0000      0.0000    684.1231      4.0531     90.6743
  1098.2500      0.0000    680.7798      4.0357     82.3873
  1098.5000      0.0000    677.7015      4.0113     73.4888
  1098.7500      0.0000    675.6506      3.9790     65.5720
  1099.0000      0.0000    674.5416      3.9417     59.9135
  1099.2500      0.0000    673.9507      3.9070     57.4771
  1099.5000      0.0000    673.5132      3.8827     58.4947
  1099.7500      0.0000    673.0499      3.8703     61.8217
  1100.0000      0.0000    672.5090      3.8665     65.2746
  1100.2500      0.0000    671.8080      3.8691     67.2794
  1100.5000      0.0000    670.6884      3.8781     68.2651
  1100.7500      0.0000    668.8076      3.8897     70.0817
  1101.0000      0.0000    666.1998      3.8924     74.0161
  1101.2500      0.0000    663.7292      3.8752     79.6141
  1101.5000      0.0000    662.7507      3.8394     85.4036
  1101.7500      0.0000    663.9406      3.8011     90.2637
  1102.0000      0.0000    666.5817      3.7799     93.7314
  1102.2500      0.0000    669.0925      3.7856     95.2666
  1102.5000      0.0000    669.9054      3.8165     93.8438
  1102.7500      0.0000    667.5820      3.8672     88.6287
  1103.0000      0.0000    660.9274      3.9353     80.0532
  1103.2500      0.0000    650.4395      4.0167     70.2293
  1103.5000      0.0000    639.9961      4.0974     62.2163
  1103.7500      0.0000    635.3837      4.1550     58.3771
  1104.0000      0.0000    639.4148      4.1717     59.0035
  1104.2500      0.0000    649.0568      4.1483     62.5179
  1104.5000      0.0000    658.5425      4.1062     66.9891
  1104.7500      0.0000    664.7435      4.0738     71.2001
  1105.0000      0.0000    668.8875      4.0709     74.3050
  1105.2500      0.0000    673.9405      4.1029     75.1917
  1105.5000      0.0000    681.3793      4.1649     73.1495
  1105.7500      0.0000    690.5700      4.2509     69.3191
  1106.0000      0.0000    700.4325      4.3551     66.8313
  1106.2500      0.0000    710.4258      4.4657     69.0087
  1106.5000      0.0000    719.7737      4.5619     77.3869
  1106.7500      0.0000    727.0396      4.6207     91.1251
  1107.0000      0.0000    731.3344      4.6293    107.4455
  1107.2500      0.0000    733.1026      4.5919    122.5236
  1107.5000      0.0000    733.1201      4.5277    133.1101
  1107.7500      0.0000    731.5367      4.4569    138.3303
  1108.0000      0.0000    728.4550      4.3878    139.8455
  1108.2500      0.0000    724.5063      4.3164    139.9795
  1108.5000      0.0000    720.3552      4.2412    139.8248
  1108.7500      0.0000    716.6986      4.1738    138.9744
  1109.0000      0.0000    715.1465      4.1324    136.4944
  1109.2500      0.0000    717.5155      4.1275    131.9144
  1109.5000      0.0000    723.5006      4.1545    125.6207
  1109.7500      0.0000    730.3705      4.1971    118.9679
  1110.0000      0.0000    735.6846      4.2374    114.1921
  1110.2500      0.0000    739.3066      4.2654    113.3318
  1110.5000      0.0000    742.3716      4.2814    116.2420
  1110.7500      0.0000    745.3687      4.2879    119.7907
  1111.0000      0.0000    747.8792      4.2806    119.8565
  1111.2500      0.0000    749.4712      4.2497    114.6260
  1111.5000      0.0000    750.1667      4.1922    105.9308
  1111.7500      0.0000    750.2336      4.1206     97.6277
  1112.0000      0.0000    749.8741      4.0583     93.0786
  1112.2500      0.0000    749.0645      4.0231     93.7084
  1112.5000      0.0000    747.4631      4.0165     98.7242
  1112.7500      0.0000    744.5979      4.0248    105.6086
  1113.0000      0.0000    740.5905      4.0328    111.4017
  1113.2500      0.0000    736.8586      4.0351    114.1946
  1113.5000      0.0000    735.3306      4.0357    113.8433
  1113.7500      0.0000    736.1367      4.0376    111.7075
  1114.0000      0.0000    736.4890      4.0378    109.7279
  1114.2500      0.0000    732.7947      4.0329    109.2075
  1114.5000      0.0000    723.8027      4.0273    110.0829
  1114.7500      0.0000    711.3544      4.0298    111.3961
  1115.0000      0.0000    698.7814      4.0421    112.4697
  1115.2500      0.0000    689.2264      4.0533    113.3996
  1115.5000      0.0000    684.6317      4.0477    114.2275
  1115.7500      0.0000    684.9297      4.0221    114.0024
  1116.0000      0.0000    687.8357      3.9974    111.3170
  1116.2500      0.0000    690.3929      4.0049    105.7531
  1116.5000      0.0000    692.1444      4.0435     98.2148
  1116.7500      0.0000    697.4192      4.0622     89.8846
  1117.0000      0.0000    713.6874      4.0134     81.4637
  1117.2500      0.0000    745.5980      3.9177     73.3853
  1117.5000      0.0000    788.7996      3.8461     66.1963
  1117.7500      0.0000    830.4697      3.8434     60.6490
  1118.0000      2.0000    858.8994      3.8923     57.4929
  1118.2500      0.0000    873.6810      3.9446     56.9405
  1118.5000      0.0000    884.6154      3.9696     58.4052
  1118.7500      0.0000    899.3198      3.9683     61.1725
  1119.0000      0.0000    912.8395      3.9477     65.3053
  1119.2500      0.0000    910.8449      3.8945     71.5015
  1119.5000      0.0000    883.3337      3.7964     80.0047
  1119.7500      0.0000    834.4467      3.6932     89.9014
  1120.0000      0.0000    779.0107      3.6737     99.5994
  1120.2500      0.0000    731.0709      3.7998    107.7187
  1120.5000      0.0000    695.7433      4.0451    113.3090
  1120.7500      0.0000    668.7936      4.3161    115.6362
  1121.0000      0.0000    641.1558      4.5226    114.4411
  1121.2500      0.0000    604.9183      4.6276    110.5464
  1121.5000      0.0000    558.7791      4.6490    105.9604
  1121.7500      0.0000    510.0804      4.6300    103.0647
  1122.0000      0.0000    470.9240      4.6064    103.1787
  1122.2500      0.0000    451.1946      4.5907    105.6629
  1122.5000      0.0000    454.5486      4.5782    108.7122
  1122.7500      0.0000    478.6757      4.5613    111.1481
  1123.0000      0.0000    516.1584      4.5400    112.9860
  1123.2500      0.0000    555.5048      4.5211    114.3091
  1123.5000      0.0000    585.6425      4.5106    114.5119
  1123.7500      0.0000    602.1769      4.5074    113.0456
  1124.0000      0.0000    608.8052      4.5068    110.2627
  1124.2500      0.0000    612.8057      4.5087    107.1168
  1124.5000      0.0000    620.4980      4.5201    104.5102
  1124.7500      0.0000    634.9213      4.5479    103.3771
  1125.0000      0.0000    652.9030      4.5908    105.0266
  1125.2500      0.0000    663.4844      4.6384    110.3983
  1125.5000      0.0000    653.6454      4.6786    118.6246
  1125.7500      0.0000    619.0565      4.7056    126.9972
  1126.0000      0.0000    568.9473      4.7212    132.7437
  1126.2500      0.0000    519.2800      4.7304    134.4871
  1126.5000      0.0000    481.1715      4.7373    132.1290
  1126.7500      0.0000    455.9106      4.7445    126.2926
  1127.0000      0.0000    438.9830      4.7538    118.3236
  1127.2500      0.0000    426.2902      4.7633    110.1913
  1127.5000      0.0000    416.5516      4.7630    103.6527
  1127.7500      0.0000    410.1233      4.7391     99.3552
  1128.0000      0.0000    407.2662      4.6863     96.7541
  1128.2500      0.0000    407.2960      4.6173     94.7975
  1128.5000      0.0000    408.5108      4.5562     92.7600
  1128.7500      0.0000    408.7464      4.5226     90.6416
  1129.0000      0.0000    406.2633      4.5208     88.7061
  1129.2500      0.0000    400.5141      4.5405     86.5176
