~Version Information
 VERS.                                  2.0 : CWLS LAS VERSION
 WRAP.                                   NO : WRAPING MODE
 SWARE .                 MController 2.5.0J : SOFTWARE VERSION
~Well Information
 WELL.                         Kraft 17-23R : WELL
 COMP.                Petrogulf Corporation : COMPANY
 FLD.                      Purgatoire River : FIELD
 LOC.                NE/SW Sec 17 T33S R67W : LOCATION
 DATE.                          10/10-11/05 : DATE(S) LOGGED
 SRVC.       BLANCO Geological Services LLC : SERVICE COMPANY
 STAT.                                   CO : STATE
 CNTY.                           Las Animas : COUNTY
 CTRY.                                  USA : COUNTRY
 API.                       05-071-08560-00 : API NUMBER
 STRT.FT                             101.00 : START DEPTH
 STOP.FT                            1920.00 : STOP DEPTH
 STEP.FT                               1.00 : DEPTH INCREMENT
 NULL.                                -9999 : NULL VALUE
~Curve information
 DEPTH.FT                                   :
 ROP.MIN/FT                                 :
 GAS.UNITS                                  :
~ASCII Log data
# ...
      1701.0         0.23        537.2 
      1702.0         0.23        536.5 
      1703.0         0.27        533.0 
      1704.0         0.27        532.4 
      1705.0         0.27        529.9 
      1706.0         0.27        529.2 
      1707.0         0.27        531.1 
      1708.0         0.23        533.0 
      1709.0         0.13        526.4 
      1710.0         0.17        517.2 
      1711.0         0.23        502.6 
      1712.0         1.88       1134.5 
      1713.0         0.50       1096.1 
      1714.0         0.30        979.9 
      1715.0         0.30        892.6 
      1716.0         0.30        814.6 
      1717.0         0.35        733.0 
      1718.0         0.30        634.9 
      1719.0         0.23        578.1 
      1720.0         0.47        649.5 
      1721.0         0.20        697.4 
      1722.0         0.23        733.0 
      1723.0         0.13        741.6 
      1724.0         0.17        746.6 
      1725.0         0.20        750.1 
      1726.0         0.23        749.8 
      1727.0         0.20        741.2 
      1728.0         0.23        732.0 
      1729.0         0.23        727.0 
      1730.0         0.10        727.9 
      1731.0         0.17        726.3 
      1732.0         0.18        724.7 
      1733.0         0.27        722.8 
      1734.0         0.27        721.9 
      1735.0         0.23        717.8 
      1736.0         0.20        710.8 
      1737.0         0.23        705.4 
      1738.0         0.17        697.8 
      1739.0         0.17        680.9 
      1740.0         0.20        637.1 
      1741.0         0.23        592.1 
      1742.0         2.55       1265.6 
      1743.0         0.40        943.4 
      1744.0         0.37        800.6 
      1745.0         0.30        672.4 
      1746.0         0.23        609.8 
      1747.0         0.27        583.8 
      1748.0         0.23        562.9 
      1749.0         0.28        556.5 
      1750.0         0.27        549.2 
      1751.0         0.27        546.7 
      1752.0         0.27        542.2 
      1753.0         0.20        538.8 
      1754.0         0.17        539.1 
      1755.0         0.23        541.0 
      1756.0         0.13        540.0 
      1757.0         0.20        539.1 
      1758.0         0.20        538.1 
      1759.0         0.13        537.2 
      1760.0         0.20        535.6 
      1761.0         0.27        533.4 
      1762.0         0.27        533.7 
      1763.0         0.27        536.8 
      1764.0         0.22        570.8 
      1765.0         0.23        628.9 
      1766.0         0.23        767.3 
      1767.0         0.20        867.9 
      1768.0         0.23        883.4 
      1769.0         0.20        840.3 
      1770.0         0.23        783.1 
      1771.0         0.20        762.5 
      1772.0         2.52       1717.5 
      1773.0         0.33       1253.5 
      1774.0         0.37       1115.4 
      1775.0         0.40        990.7 
      1776.0         0.33        905.3 
      1777.0         0.27        861.8 
      1778.0         0.27        841.2 
      1779.0         0.30        853.9 
      1780.0         0.25        861.8 
      1781.0         0.33        863.1 
      1782.0         0.23        855.8 
      1783.0         0.20        844.7 
      1784.0         0.23        836.1 
      1785.0         0.23        824.4 
      1786.0         0.27        814.9 
      1787.0         0.27        807.3 
      1788.0         0.37        798.4 
      1789.0         0.28        786.6 
      1790.0         0.30        780.0 
      1791.0         0.17        778.1 
      1792.0         0.23        773.9 
      1793.0         0.30        763.5 
      1794.0         0.27        746.6 
      1795.0         0.23        733.3 
      1796.0         0.30        721.6 
      1797.0         0.23        715.5 
      1798.0         0.23        713.0 
      1799.0         0.28        713.6 
      1800.0         0.20        688.2 
      1801.0         0.30        636.5 
      1802.0         1.90       1551.2 
      1803.0         0.20       1494.4 
      1804.0         0.37       1399.5 
      1805.0         0.35       1223.0 
      1806.0         0.30       1062.1 
      1807.0         0.27        952.3 
      1808.0         0.30        861.5 
      1809.0         0.30        795.5 
      1810.0         0.43        746.0 
      1811.0         0.30        724.1 
      1812.0         0.30        720.3 
      1813.0         0.30        716.8 
      1814.0         0.27        707.6 
      1815.0         0.28        699.3 
      1816.0         0.27        693.3 
      1817.0         0.27        688.6 
      1818.0         0.27        682.8 
      1819.0         0.23        680.0 
      1820.0         0.23        672.4 
      1821.0         0.23        670.8 
      1822.0         0.37        669.5 
      1823.0         0.30        662.8 
      1824.0         0.33        658.1 
      1825.0         0.30        658.4 
      1826.0         0.28        662.8 
      1827.0         0.27        662.8 
      1828.0         0.23        666.0 
      1829.0         0.23        664.4 
      1830.0         0.23        646.7 
      1831.0         0.27        597.1 
      1832.0         2.18       1478.5 
      1833.0         0.50       1347.1 
      1834.0         0.43       1110.7 
      1835.0         0.37        952.9 
      1836.0         0.30        851.4 
      1837.0         0.30        777.1 
      1838.0         0.33        735.2 
      1839.0         0.38        709.2 
      1840.0         0.37        686.3 
      1841.0         0.33        673.0 
      1842.0         0.30        670.8 
      1843.0         0.23        668.9 
      1844.0         0.27        667.0 
      1845.0         0.27        660.6 
      1846.0         0.23        661.9 
      1847.0         0.20        662.2 
      1848.0         0.27        667.6 
      1849.0         0.20        670.5 
      1850.0         0.20        675.9 
      1851.0         0.23        681.3 
      1852.0         0.25        687.3 
      1853.0         0.23        693.0 
      1854.0         0.23        702.5 
      1855.0         0.27        710.5 
      1856.0         0.23        712.7 
      1857.0         0.27        725.1 
      1858.0         0.27        730.8 
      1859.0         0.27        718.1 
      1860.0         0.27        650.2 
      1861.0         0.30        604.8 
      1862.0         2.35       1359.2 
      1863.0         0.47       1069.1 
      1864.0         0.37        938.3 
      1865.0         0.30        860.3 
      1866.0         0.27        804.4 
      1867.0         0.32        760.3 
      1868.0         0.33        717.4 
      1869.0         0.30        697.1 
      1870.0         0.30        681.3 
      1871.0         0.27        679.0 
      1872.0         0.23        676.5 
      1873.0         0.23        674.3 
      1874.0         0.23        668.9 
      1875.0         0.30        674.3 
      1876.0         0.33        681.6 
      1877.0         0.33        684.4 
      1878.0         0.32        688.9 
      1879.0         0.33        693.0 
      1880.0         0.30        699.0 
      1881.0         0.30        705.7 
      1882.0         0.23        716.8 
      1883.0         0.27        723.8 
      1884.0         0.30        729.5 
      1885.0         0.33        732.0 
      1886.0         0.27        730.8 
      1887.0         0.27        729.8 
      1888.0         0.27        727.0 
      1889.0         0.27        712.7 
      1890.0         0.32        656.5 
      1891.0         0.30        605.4 
      1892.0         1.40       1283.6 
      1893.0         0.40       1345.2 
      1894.0         0.33       1330.9 
      1895.0         0.23       1225.6 
      1896.0         0.20       1146.2 
      1897.0         0.38       1078.6 
      1898.0         0.63        955.2 
      1899.0         0.40        781.5 
      1900.0         0.33        759.3 
