~Version Information
VERS.                      2.0: CWLS Log ASCII Standard - VERSION 2.0
WRAP.                       NO: One line per depth step
~Well Information Block
STRT.FT                -1.5000: 
STOP.FT              2898.5000: 
STEP.FT                 0.2500: 
NULL.                -999.2500: 
COMP.          Pioneer Natural Resources: COMPANY
WELL.          Hanginstone 21-27: WELL
FLD.           Purgatoire River: FIELD
LOC.           1186' FNL & 1606' FWL--: LOCATION
PROV.                 Colorado: PROVINCE
CNTY.               Las Animas: COUNTRY
SRVC.                Patterson: SERVICE COMPANY
DATE.          Mon Jan 23 11:03:53 2006: LOG DATE
UWI.           05 071 08632 00: UNIQUE WELL ID
~Curve Information Block
DEPT.FT            0 000 00 00: Depth
CCL.                          : Casing Collar Locator
TT3.usec                      : CBL 3' Travel Time
AMP3.mV                       : CBL 3' Amplitude
GR.GAPI                       : Gamma Ray
~Parameter Information Block
~A  Depth       CCL         TT3         AMP3         GR     
# ...
   970.0000      0.0000    260.9299     70.8425    146.0913
   970.2500      0.0000    260.9048     70.9095    149.3015
   970.5000      0.0000    260.8821     71.0430    151.7746
   970.7500      0.0000    260.8714     71.1807    152.7401
   971.0000      0.0000    260.8754     71.2789    151.5168
   971.2500      0.0000    260.8900     71.3304    148.1879
   971.5000      0.0000    260.9074     71.3504    143.9322
   971.7500      0.0000    260.9203     71.3588    140.5665
   972.0000      0.0000    260.9249     71.3750    139.7350
   972.2500      0.0000    260.9226     71.4173    141.8959
   972.5000      0.0000    260.9188     71.4957    145.4519
   972.7500      0.0000    260.9190     71.6044    147.2479
   973.0000      0.0000    260.9266     71.7195    144.6834
   973.2500      0.0000    260.9402     71.8066    137.5975
   973.5000      0.0000    260.9532     71.8354    128.2594
   973.7500      0.0000    260.9572     71.7962    119.8095
   974.0000      0.0000    260.9483     71.7086    114.6414
   974.2500      0.0000    260.9324     71.6101    113.5676
   974.5000      0.0000    260.9200     71.5326    115.6084
   974.7500      0.0000    260.9163     71.4902    118.1278
   975.0000      0.0000    260.9173     71.4892    117.8960
   975.2500      0.0000    260.9157     71.5349    113.3760
   975.5000      0.0000    260.9068     71.6211    106.3734
   975.7500      0.0000    260.8922     71.7206    100.8426
   976.0000      0.0000    260.8767     71.7973     99.6149
   976.2500      0.0000    260.8629     71.8292    102.4225
   976.5000      0.0000    260.8482     71.8208    107.1612
   976.7500      0.0000    260.8310     71.7980    112.1792
   977.0000      0.0000    260.8177     71.7923    116.6899
   977.2500      0.0000    260.8173     71.8211    120.0787
   977.5000      0.0000    260.8314     71.8746    122.0671
   977.7500      0.0000    260.8537     71.9221    122.9947
   978.0000      0.0000    260.8764     71.9358    123.2763
   978.2500      0.0000    260.8941     71.9041    123.3042
   978.5000      0.0000    260.9044     71.8282    124.0369
   978.7500      0.0000    260.9081     71.7178    126.4313
   979.0000      0.0000    260.9107     71.5944    129.9025
   979.2500      0.0000    260.9181     71.4875    132.2262
   979.5000      0.0000    260.9312     71.4204    131.2874
   979.7500      0.0000    260.9428     71.4012    126.6841
   980.0000      0.0000    260.9435     71.4192    119.8094
   980.2500      0.0000    260.9313     71.4457    112.8436
   980.5000      0.0000    260.9138     71.4454    107.7555
   980.7500      0.0000    260.8990     71.3969    105.7221
   981.0000      0.0000    260.8892     71.2969    106.7776
   981.2500      0.0000    260.8847     71.1457    109.8693
   981.5000      0.0000    260.8903     70.9425    113.5651
   981.7500      0.0000    260.9122     70.7013    116.9590
   982.0000      0.0000    260.9500     70.4496    119.9834
   982.2500      0.0000    260.9945     70.2031    122.9447
   982.5000      0.0000    261.0334     69.9555    125.8277
   982.7500      0.0000    261.0575     69.6924    128.2398
   983.0000      0.0000    261.0654     69.3967    130.0896
   983.2500      0.0000    261.0655     69.0486    131.8670
   983.5000      0.0000    261.0678     68.6580    133.7610
   983.7500      0.0000    261.0711     68.3056    134.8942
   984.0000      0.0000    261.0636     68.1089    134.1499
   984.2500      0.0000    261.0406     68.1090    131.5147
   984.5000      0.0000    261.0159     68.2049    128.0533
   984.7500      0.0000    261.0104     68.2261    124.9775
   985.0000      0.0000    261.0323     68.0625    123.3491
   985.2500      0.0000    261.0717     67.7294    124.1812
   985.5000      0.0000    261.1114     67.3351    127.9500
   985.7500      0.0000    261.1411     66.9908    134.0612
   986.0000      0.0000    261.1650     66.7224    141.2054
   986.2500      0.0000    261.1963     66.4712    148.0807
   986.5000      0.0000    261.2396     66.2069    153.6339
   986.7500      0.0000    261.2775     66.0199    157.1604
   987.0000      0.0000    261.2833     66.0554    158.6130
   987.2500      0.0000    261.2485     66.3511    158.6544
   987.5000      0.0000    261.1916     66.7814    158.2710
   987.7500      0.0000    261.1380     67.1713    158.4855
   988.0000      0.0000    261.0987     67.4344    160.0684
   988.2500      0.0000    261.0697     67.6007    162.7115
   988.5000      0.0000    261.0450     67.7485    164.5861
   988.7500      0.0000    261.0231     67.9251    163.7933
   989.0000      0.0000    261.0064     68.1043    160.7425
   989.2500      0.0000    260.9987     68.1982    158.4652
   989.5000      0.0000    261.0031     68.1159    160.1473
   989.7500      0.0000    261.0203     67.8330    166.5832
   990.0000      0.0000    261.0454     67.4285    175.8587
   990.2500      0.0000    261.0691     67.0570    184.7145
   990.5000      0.0000    261.0846     66.8636    189.8726
   990.7500      0.0000    261.0926     66.9005    188.8188
   991.0000      0.0000    261.0973     67.1141    180.5831
   991.2500      0.0000    261.1021     67.4002    166.4327
   991.5000      0.0000    261.1095     67.6559    149.5058
   991.7500      0.0000    261.1229     67.7882    133.2023
   992.0000      0.0000    261.1449     67.7155    119.7250
   992.2500      0.0000    261.1731     67.4102    109.9790
   992.5000      0.0000    261.1992     66.9617    104.1451
   992.7500      0.0000    261.2130     66.5848    101.7740
   993.0000      0.0000    261.2069     66.5259    101.5841
   993.2500      0.0000    261.1777     66.9098    101.7090
   993.5000      0.0000    261.1276     67.6454    100.5883
   993.7500      0.0000    261.0656     68.4781     98.1134
   994.0000      0.0000    261.0044     69.1523     95.9923
   994.2500      0.0000    260.9545     69.5471     96.5352
   994.5000      0.0000    260.9194     69.6928    100.7079
   994.7500      0.0000    260.8961     69.6860    107.2784
   995.0000      0.0000    260.8795     69.6067    113.7166
   995.2500      0.0000    260.8659     69.5106    117.8442
   995.5000      0.0000    260.8535     69.4624    119.1037
   995.7500      0.0000    260.8446     69.5283    118.9119
   996.0000      0.0000    260.8428     69.7291    119.8922
   996.2500      0.0000    260.8472     70.0229    124.1175
   996.5000      0.0000    260.8507     70.3402    131.3376
   996.7500      0.0000    260.8495     70.6182    138.6990
   997.0000      0.0000    260.8504     70.8061    142.5281
   997.2500      0.0000    260.8639     70.8713    140.7760
   997.5000      0.0000    260.8882     70.8213    134.0189
   997.7500      0.0000    260.9084     70.7110    124.7206
   998.0000      0.0000    260.9133     70.6129    116.1099
   998.2500      0.0000    260.9090     70.5640    111.3381
   998.5000      0.0000    260.9117     70.5362    112.3875
   998.7500      0.0000    260.9313     70.4604    118.7635
   999.0000      0.0000    260.9628     70.2904    127.3395
   999.2500      0.0000    260.9911     70.0487    134.0361
   999.5000      0.0000    261.0022     69.8101    136.1265
   999.7500      0.0000    260.9934     69.6442    133.6317
  1000.0000      0.0000    260.9760     69.5793    129.1467
  1000.2500      0.0000    260.9646     69.6033    126.0483
  1000.5000      0.0000    260.9646     69.6749    126.1610
  1000.7500      0.0000    260.9725     69.7341    129.0609
  1001.0000      0.0000    260.9834     69.7235    133.4434
  1001.2500      0.0000    260.9954     69.6194    138.4135
  1001.5000      0.0000    261.0073     69.4447    143.3262
  1001.7500      0.0000    261.0176     69.2549    147.3891
  1002.0000      0.0000    261.0265     69.1078    150.1119
  1002.2500      0.0000    261.0391     69.0239    151.7930
  1002.5000      0.0000    261.0790     68.9257    153.1012
  1002.7500      0.0000    261.2140     68.5777    154.5051
  1003.0000      0.0000    261.6003     67.5988    156.4799
  1003.2500      0.0000    262.5110     65.6687    159.8934
