~Version Information
VERS.                      2.0: CWLS Log ASCII Standard - VERSION 2.0
WRAP.                       NO: One line per depth step
~Well Information Block
STRT.FT               440.0000: 
STOP.FT              1702.7500: 
STEP.FT                 0.2500: 
NULL.                -999.2500: 
COMP.          Pioneer Natural Resources: COMPANY
WELL.          Culver 14-12 Tr: WELL
FLD.           Purgatoire River: FIELD
LOC.           915' FSL & 1048' FWL--: LOCATION
STAT.                 Colorado: State
CNTY.               Las Animas: COUNTY
CTRY. USA : Country
SECT. 12 : Section
TOWN. 32S : Township
RANG. 66W : Range
SRVC.                Patterson: SERVICE COMPANY
DATE.          Tue Sep 27 23:38:23 2005: LOG DATE
API.           05 071 08520 00: UNIQUE WELL ID
~Curve Information Block
DEPT.FT            0 000 00 00: Depth
SN.Ohm-m                      : IEL Short Normal
SP.mV                         : IEL Spontaneous Potential
DIR.Ohm-m                     : IEL Induction Resistivity
GR.GAPI                       : Gamma Ray
~Parameter Information Block
~A  Depth        SN          SP         DIR          GR     
# ...
   775.0000   2000.0000   2014.0000     27.1005     72.7781
   775.2500   2000.0000   2014.0000     26.4372     76.4093
   775.5000   2000.0000   2014.0000     25.7880     81.3641
   775.7500   2000.0000   2014.0000     25.0879     83.2286
   776.0000   2000.0000   2014.0000     24.2654     82.9911
   776.2500   2000.0000   2014.0000     23.3007     81.2976
   776.5000   2000.0000   2014.0000     22.2377     78.7236
   776.7500   2000.0000   2014.0000     21.1479     78.5297
   777.0000   2000.0000   2014.0000     20.0879     82.4294
   777.2500   2000.0000   2014.0000     19.0789     88.1818
   777.5000   2000.0000   2014.0000     18.1136    100.5709
   777.7500   2000.0000   2014.0000     17.1744    109.8434
   778.0000   2000.0000   2014.0000     16.2522    121.9784
   778.2500   2000.0000   2014.0000     15.3564    127.4724
   778.5000   2000.0000   2014.0000     14.5148    131.5682
   778.7500   2000.0000   2014.0000     13.7635    132.4211
   779.0000   2000.0000   2014.0000     13.1340    132.5547
   779.2500   2000.0000   2014.0000     12.6427    132.3759
   779.5000   2000.0000   2014.0000     12.2876    131.9327
   779.7500   2000.0000   2014.0000     12.0518    131.5609
   780.0000   2000.0000   2014.0000     11.9112    130.9010
   780.2500   2000.0000   2014.0000     11.8449    130.3739
   780.5000   2000.0000   2014.0000     11.8431    129.4955
   780.7500   2000.0000   2014.0000     11.9094    128.9158
   781.0000   2000.0000   2014.0000     12.0566    128.1624
   781.2500   2000.0000   2014.0000     12.2984    127.7749
   781.5000   2000.0000   2014.0000     12.6412    127.1799
   781.7500   2000.0000   2014.0000     13.0798    126.4212
   782.0000   2000.0000   2014.0000     13.5981    123.9168
   782.2500   2000.0000   2014.0000     14.1742    120.9180
   782.5000   2000.0000   2014.0000     14.7861    114.1294
   782.7500   2000.0000   2014.0000     15.4196    108.4137
   783.0000   2000.0000   2014.0000     16.0748     99.7367
   783.2500   2000.0000   2014.0000     16.7674     95.1335
   783.5000   2000.0000   2014.0000     17.5226     91.4672
   783.7500   2000.0000   2014.0000     18.3617     91.3791
   784.0000   2000.0000   2014.0000     19.2854     94.3119
   784.2500   2000.0000   2014.0000     20.2626     97.7638
   784.5000   2000.0000   2014.0000     21.2275    103.6995
   784.7500   2000.0000   2014.0000     22.0918    106.9082
   785.0000   2000.0000   2014.0000     22.7669    108.5027
   785.2500   2000.0000   2014.0000     23.1888    107.0184
   785.5000   2000.0000   2014.0000     23.3338    102.5234
   785.7500   2000.0000   2014.0000     23.2227     99.7768
   786.0000   2000.0000   2014.0000     22.9149     98.5935
   786.2500   2000.0000   2014.0000     22.4918    100.1646
   786.5000   2000.0000   2014.0000     22.0303    104.7572
   786.7500   2000.0000   2014.0000     21.5782    108.0361
   787.0000   2000.0000   2014.0000     21.1406    111.7650
   787.2500   2000.0000   2014.0000     20.6852    113.3765
   787.5000   2000.0000   2014.0000     20.1642    115.2899
   787.7500   2000.0000   2014.0000     19.5434    116.7907
   788.0000   2000.0000   2014.0000     18.8227    120.0809
   788.2500   2000.0000   2014.0000     18.0379    123.1338
   788.5000   2000.0000   2014.0000     17.2449    128.4981
   788.7500   2000.0000   2014.0000     16.4990    131.8474
   789.0000   2000.0000   2014.0000     15.8389    135.5456
   789.2500   2000.0000   2014.0000     15.2824    137.3359
   789.5000   2000.0000   2014.0000     14.8284    140.2708
   789.7500   2000.0000   2014.0000     14.4646    142.7802
   790.0000   2000.0000   2014.0000     14.1752    146.5668
   790.2500   2000.0000   2014.0000     13.9482    148.1542
   790.5000   2000.0000   2014.0000     13.7796    148.0028
   790.7500   2000.0000   2014.0000     13.6736    146.2417
   791.0000   2000.0000   2014.0000     13.6399    142.0405
   791.2500   2000.0000   2014.0000     13.6890    138.7876
   791.5000   2000.0000   2014.0000     13.8296    133.6599
   791.7500   2000.0000   2014.0000     14.0679    130.0440
   792.0000   2000.0000   2014.0000     14.4095    124.4643
   792.2500   2000.0000   2014.0000     14.8597    121.0328
   792.5000   2000.0000   2014.0000     15.4197    116.9745
   792.7500   2000.0000   2014.0000     16.0772    114.9335
   793.0000   2000.0000   2014.0000     16.7978    111.9480
   793.2500   2000.0000   2014.0000     17.5232    109.3593
   793.5000   2000.0000   2014.0000     18.1847    104.1501
   793.7500   2000.0000   2014.0000     18.7254    100.2831
   794.0000   2000.0000   2014.0000     19.1194     95.8053
   794.2500   2000.0000   2014.0000     19.3764     94.8172
   794.5000   2000.0000   2014.0000     19.5302     97.0318
   794.7500   2000.0000   2014.0000     19.6214    100.4917
   795.0000   2000.0000   2014.0000     19.6805    106.8049
   795.2500   2000.0000   2014.0000     19.7167    110.5692
   795.5000   2000.0000   2014.0000     19.7140    114.1005
   795.7500   2000.0000   2014.0000     19.6365    114.7316
   796.0000   2000.0000   2014.0000     19.4489    113.4085
   796.2500   2000.0000   2014.0000     19.1440    111.6307
   796.5000   2000.0000   2014.0000     18.7609    109.3774
   796.7500   2000.0000   2014.0000     18.3756    109.2852
   797.0000   2000.0000   2014.0000     18.0707    112.1310
   797.2500   2000.0000   2014.0000     17.9052    115.4107
   797.5000   2000.0000   2014.0000     17.9001    120.1064
   797.7500   2000.0000   2014.0000     18.0393    121.8902
   798.0000   2000.0000   2014.0000     18.2813    121.7016
   798.2500   2000.0000   2014.0000     18.5750    119.8287
   798.5000   2000.0000   2014.0000     18.8759    115.2436
   798.7500   2000.0000   2014.0000     19.1590    111.5491
   799.0000   2000.0000   2014.0000     19.4226    105.9154
   799.2500   2000.0000   2014.0000     19.6788    102.6542
   799.5000   2000.0000   2014.0000     19.9362     99.6304
   799.7500   2000.0000   2014.0000     20.1813     99.4083
   800.0000   2000.0000   2014.0000     20.3710    101.8864
   800.2500   2000.0000   2014.0000     20.4430    104.8949
   800.5000   2000.0000   2014.0000     20.3401    110.0680
   800.7500   2000.0000   2014.0000     20.0363    113.3046
   801.0000   2000.0000   2014.0000     19.5477    117.3131
   801.2500   2000.0000   2014.0000     18.9248    119.3415
   801.5000   2000.0000   2014.0000     18.2330    121.4803
   801.7500   2000.0000   2014.0000     17.5358    122.4977
   802.0000   2000.0000   2014.0000     16.8872    124.0741
   802.2500   2000.0000   2014.0000     16.3322    125.6046
   802.5000   2000.0000   2014.0000     15.9094    128.9525
   802.7500   2000.0000   2014.0000     15.6492    131.5226
   803.0000   2000.0000   2014.0000     15.5695    134.2337
   803.2500   2000.0000   2014.0000     15.6729    134.1558
   803.5000   2000.0000   2014.0000     15.9483    130.2489
   803.7500   2000.0000   2014.0000     16.3769    125.4720
   804.0000   2000.0000   2014.0000     16.9418    116.7740
   804.2500   2000.0000   2014.0000     17.6392    111.0273
   804.5000   2000.0000   2014.0000     18.4830    103.6025
   804.7500   2000.0000   2014.0000     19.5008     99.6153
   805.0000   2000.0000   2014.0000     20.7184     94.8739
   805.2500   2000.0000   2014.0000     22.1414     92.2897
   805.5000   2000.0000   2014.0000     23.7413     88.8000
   805.7500   2000.0000   2014.0000     25.4535     86.5465
   806.0000   2000.0000   2014.0000     27.1883     83.2044
   806.2500   2000.0000   2014.0000     28.8531     81.0102
   806.5000   2000.0000   2014.0000     30.3792     77.7785
   806.7500   2000.0000   2014.0000     31.7474     75.7769
   807.0000   2000.0000   2014.0000     32.9999     73.4676
   807.2500   2000.0000   2014.0000     34.2230     72.6185
   807.5000   2000.0000   2014.0000     35.5058     72.2606
   807.7500   2000.0000   2014.0000     36.9010     72.2622
   808.0000   2000.0000   2014.0000     38.7146     71.9407
   808.2500   2000.0000   2014.0000     40.3425     71.3181
