~Version Information
VERS.                      2.0: CWLS Log ASCII Standard - VERSION 2.0
WRAP.                       NO: One line per depth step
~Well Information Block
STRT.FT               400.0000: 
STOP.FT              1577.5000: 
STEP.FT                 0.1000: 
NULL.                -999.2500: 
COMP.          Pioneer Natural Resources: COMPANY
WELL.          Lorencito 10-36-33-67: WELL
FLD.           Purgatoire River: FIELD
LOC.           2130' FSL & 2362' FEL: LOCATION
STAT.                 Colorado: State
CNTY.               Las Animas: COUNTY
CTRY. USA : Country
SECT. 36 : Section
TOWN. 33S : Township
RANG. 67W : Range
SRVC.                Patterson: SERVICE COMPANY
DATE.          Mon Aug 29 07:03:31 2005: LOG DATE
API.           05 071 08501 00: UNIQUE WELL ID
~Curve Information Block
DEPT.FT            0 000 00 00: Depth
DCAL.in                       : CDL Caliper
RHOB.g/cc                     : CDL Bulk Density
RHOC.g/cc                     : CDL Density Correction
DPOR.pu                       : CDL Density Porosity
GR.GAPI                       : Gamma Ray
NPOR.pu                       : Neutron Porosity
~Parameter Information Block
~A  Depth       DCAL        RHOB        RHOC        DPOR         GR         NPOR    
# ...
   937.6000      8.1245      2.5433     -0.0638      6.4694    114.0557     25.6973
   937.7000      8.1245      2.5526     -0.0029      5.9043    113.1670     26.2149
   937.8000      8.1372      2.5610      0.0582      5.3949    111.5951     26.5234
   937.9000      8.1372      2.5523     -0.0030      5.9211    111.2407     26.3161
   938.0000      8.1214      2.5428      0.0382      6.4977    115.8663     26.0282
   938.1000      8.1214      2.5429     -0.0038      6.4893    120.5223     25.8871
   938.2000      8.1214      2.5429      0.0521      6.4899    118.2564     25.5944
   938.3000      8.1257      2.5269      0.0460      7.4620    115.1631     25.1232
   938.4000      8.1257      2.4916      0.0190      9.6025    118.9677     24.8927
   938.5000      8.1418      2.4540     -0.0693     11.8762    125.6973     24.9069
   938.6000      8.1418      2.4323     -0.0154     13.1910    128.4838     24.8442
   938.7000      8.1418      2.4273     -0.0555     13.4964    128.4660     24.8237
   938.8000      8.1261      2.4409     -0.0874     12.6708    129.3541     25.0573
   938.9000      8.1261      2.4738     -0.0370     10.6802    130.9892     25.3320
   939.0000      8.1066      2.5098      0.0106      8.4945    134.1542     25.3910
   939.1000      8.1066      2.5332      0.0210      7.0764    139.4260     25.2466
   939.2000      8.1066      2.5372      0.0543      6.8355    142.8300     24.9500
   939.3000      8.0739      2.5268      0.0327      7.4687    141.5740     24.6899
   939.4000      8.0739      2.5211      0.0216      7.8131    134.7482     24.8376
   939.5000      8.0945      2.5240      0.1060      7.6393    124.7190     25.2714
   939.6000      8.0945      2.5213      0.0019      7.7999    119.1183     25.4147
   939.7000      8.0945      2.5145     -0.0026      8.2109    119.4276     25.1378
   939.8000      8.1062      2.5079     -0.0158      8.6101    118.2450     24.9615
   939.9000      8.1062      2.4934     -0.0004      9.4884    113.0702     24.9969
   940.0000      8.0945      2.4713     -0.0325     10.8300    109.8946     24.7897
   940.1000      8.0945      2.4597     -0.0312     11.5349    112.1365     24.2997
   940.2000      8.0945      2.4734     -0.0110     10.7031    115.8280     23.7857
   940.3000      8.0931      2.5098      0.0101      8.4965    118.9683     23.3975
   940.4000      8.0931      2.5472      0.1102      6.2307    123.2276     23.3911
   940.5000      8.0717      2.5613      0.0570      5.3751    128.0985     23.7387
   940.6000      8.0717      2.5555      0.0443      5.7243    132.2620     23.9646
   940.7000      8.0717      2.5456      0.0726      6.3292    134.6467     23.8554
   940.8000      8.0633      2.5339      0.0206      7.0391    132.1244     23.6013
   940.9000      8.0633      2.5144      0.0233      8.2156    124.4002     23.4665
   941.0000      8.0632      2.4902      0.0048      9.6872    115.7980     23.5275
   941.1000      8.0632      2.4812     -0.0333     10.2317    109.0888     23.5138
   941.2000      8.0632      2.4935      0.0196      9.4858    104.1568     23.3184
   941.3000      8.0913      2.5060      0.0155      8.7265    101.4887     23.1832
   941.4000      8.0913      2.5083      0.0323      8.5849    101.8096     23.2794
   941.5000      8.1180      2.5165      0.0241      8.0924    102.2633     23.5705
   941.6000      8.1180      2.5454      0.0788      6.3419    100.4957     23.7873
   941.7000      8.1180      2.5838      0.0531      4.0097     99.9598     23.6416
   941.8000      8.0923      2.6104      0.0916      2.4003    101.4422     23.3432
   941.9000      8.0923      2.6136      0.0890      2.2049    101.9769     23.4210
   942.0000      8.0768      2.5884      0.1327      3.7320    101.5256     23.7874
   942.1000      8.0768      2.5460     -0.0088      6.3040    101.0976     23.9463
   942.2000      8.0768      2.5182      0.0415      7.9876     99.4249     23.8391
   942.3000      8.0380      2.5151      0.0265      8.1741     93.2562     23.4166
   942.4000      8.0380      2.5195     -0.0046      7.9118     82.9660     22.5474
   942.5000      8.0554      2.5193     -0.0024      7.9212     74.9255     21.5071
   942.6000      8.0554      2.5188     -0.0161      7.9507     72.9124     20.6746
   942.7000      8.0554      2.5202      0.0327      7.8653     72.7086     20.3212
   942.8000      8.0934      2.5165      0.0122      8.0890     68.9407     20.4798
   942.9000      8.0934      2.5085     -0.0034      8.5765     63.2271     20.6301
   943.0000      8.0587      2.5098      0.0082      8.4994     58.9299     20.1613
   943.1000      8.0587      2.5279      0.0211      7.4022     54.2852     19.2441
   943.2000      8.0587      2.5418      0.0514      6.5606     49.5804     18.5345
   943.3000      8.0368      2.5316      0.0298      7.1749     46.7505     18.3183
   943.4000      8.0368      2.5151     -0.0032      8.1771     44.5189     18.2251
   943.5000      8.0307      2.5059      0.0556      8.7350     41.7311     17.8993
   943.6000      8.0307      2.4957     -0.0032      9.3533     38.1791     17.4701
   943.7000      8.0307      2.4872      0.0223      9.8663     34.5076     17.0955
   943.8000      8.0226      2.4868     -0.0113      9.8893     32.6907     16.7992
   943.9000      8.0226      2.4950     -0.0018      9.3930     32.7761     16.6169
   944.0000      8.0258      2.5068      0.0582      8.6769     32.1836     16.5634
   944.1000      8.0258      2.5069      0.0863      8.6697     31.0899     16.6740
   944.2000      8.0258      2.4878      0.0622      9.8276     30.4607     16.7966
   944.3000      8.0388      2.4661      0.0145     11.1445     30.3598     16.6831
   944.4000      8.0388      2.4606      0.0098     11.4760     32.1859     16.5015
   944.5000      8.0288      2.4718      0.0220     10.8003     34.3982     16.5377
   944.6000      8.0288      2.4880      0.0601      9.8193     35.1357     16.7934
   944.7000      8.0288      2.4952      0.0615      9.3816     37.1180     16.9691
   944.8000      8.0131      2.4918      0.0423      9.5865     40.1855     17.0351
   944.9000      8.0131      2.4883      0.0483      9.7971     41.9108     17.3190
   945.0000      8.0206      2.4903      0.0387      9.6790     43.7712     17.5323
   945.1000      8.0206      2.4956      0.0184      9.3563     45.9665     17.2839
   945.2000      8.0206      2.4936      0.0202      9.4779     46.4645     16.8939
   945.3000      8.0313      2.4832      0.0486     10.1104     46.4572     16.6058
   945.4000      8.0313      2.4783      0.0347     10.4077     46.8045     16.5206
   945.5000      8.0452      2.4822      0.0627     10.1683     45.2385     16.7772
   945.6000      8.0452      2.4888      0.0184      9.7688     41.1985     17.2954
   945.7000      8.0452      2.4942      0.0380      9.4397     38.0044     17.8080
   945.8000      8.0482      2.4971      0.0345      9.2696     39.6740     17.8674
   945.9000      8.0482      2.5056      0.0517      8.7524     45.2498     17.3661
   946.0000      8.0282      2.5214      0.0702      7.7926     48.1035     16.8647
   946.1000      8.0282      2.5290      0.0981      7.3307     46.3349     16.5808
   946.2000      8.0282      2.5253      0.0522      7.5584     45.7797     16.2754
   946.3000      8.0313      2.5234      0.0781      7.6741     47.3909     16.1499
   946.4000      8.0313      2.5219      0.0543      7.7629     47.4979     16.4698
   946.5000      8.0430      2.5072      0.0712      8.6516     46.3988     17.0296
   946.6000      8.0430      2.4783      0.0371     10.4073     44.1287     17.4814
   946.7000      8.0430      2.4528      0.0365     11.9520     39.6192     17.6636
   946.8000      8.0345      2.4487      0.0322     12.2019     36.8513     17.6236
   946.9000      8.0345      2.4636      0.0643     11.2963     39.0299     17.4351
   947.0000      8.0427      2.4820      0.0391     10.1833     43.3931     16.9327
   947.1000      8.0427      2.4963      0.0295      9.3154     47.2214     16.3110
