~Version Information
VERS.                      2.0: CWLS Log ASCII Standard - VERSION 2.0
WRAP.                       NO: One line per depth step
~Well Information Block
STRT.FT                -9.2500: 
STOP.FT              1854.7500: 
STEP.FT                 0.2500: 
NULL.                -999.2500: 
COMP.          Pioneer Natural Resources: COMPANY
WELL.          State Wildlife 32-16 Tr: WELL
FLD.           Purgatoire River: FIELD
LOC.           1838' FNL & 1850' FEL--: LOCATION
STAT.                       CO: State
CNTY.               Las Animas: COUNTY
CTRY. USA : Country
SECT. 16 : Section
TOWN. 32S : Township
RANG. 66W : Range
SRVC.          Patterson Wireline: SERVICE COMPANY
DATE.          Tue Nov 22 10:17:13 2005: LOG DATE
API.           05 071 08568 00: UNIQUE WELL ID
~Curve Information Block
DEPT.FT            0 000 00 00: Depth
CCL.                          : Casing Collar Locator
TT3.usec                      : CBL 3' Travel Time
AMP3.mV                       : CBL 3' Amplitude
GR.GAPI                       : Gamma Ray
~Parameter Information Block
~A  Depth       CCL         TT3         AMP3         GR     
# ...
  1464.7500      0.0000    734.0291      9.0309    142.8598
  1465.0000      0.0000    734.1754      9.1682    147.6034
  1465.2500      0.0000    734.2980      9.2393    153.4693
  1465.5000      0.0000    734.4442      9.2310    156.9399
  1465.7500      0.0000    734.6356      9.1758    155.6992
  1466.0000      0.0000    734.8531      9.1225    150.4616
  1466.2500      0.0000    735.0547      9.0971    143.8018
  1466.5000      0.0000    735.1954      9.0899    137.9075
  1466.7500      0.0000    735.2428      9.0762    133.5007
  1467.0000      0.0000    735.2009      9.0425    130.1021
  1467.2500      0.0000    735.1277      8.9915    127.0563
  1467.5000      0.0000    735.1188      8.9255    124.7333
  1467.7500      0.0000    735.2592      8.8380    124.7835
  1468.0000      0.0000    735.6132      8.7232    128.7529
  1468.2500      0.0000    736.3054      8.5867    136.0524
  1468.5000      0.0000    737.6721      8.4404    143.4767
  1468.7500      0.0000    740.2696      8.2935    147.2513
  1469.0000      0.0000    744.3847      8.1525    145.9481
  1469.2500      0.0000    749.1769      8.0296    141.3037
  1469.5000      0.0000    752.5375      7.9433    136.2172
  1469.7500      0.0000    752.4998      7.9063    132.4670
  1470.0000      0.0000    749.0245      7.9100    130.3738
  1470.2500      0.0000    744.0386      7.9284    129.6602
  1470.5000      0.0000    739.6946      7.9392    129.8620
  1470.7500      0.0000    736.9358      7.9409    130.2926
  1471.0000      0.0000    735.6066      7.9451    130.3159
  1471.2500      0.0000    735.3259      7.9595    129.8020
  1471.5000      0.0000    736.0565      7.9814    129.1292
  1471.7500      0.0000    738.0663      8.0064    128.7407
  1472.0000      0.0000    741.4673      8.0335    128.9437
  1472.2500      0.0000    745.6317      8.0604    130.0910
  1472.5000      0.0000    749.0168      8.0783    132.2561
  1472.7500      0.0000    749.7532      8.0734    134.2922
  1473.0000      0.0000    746.7469      8.0361    134.1151
  1473.2500      0.0000    740.6275      7.9649    131.0309
  1473.5000      0.0000    733.7628      7.8641    127.3377
  1473.7500      0.0000    728.9243      7.7396    126.3635
  1474.0000      0.0000    727.4256      7.6011    128.8569
  1474.2500      0.0000    728.4145      7.4630    132.1543
  1474.5000      0.0000    729.8116      7.3415    133.0188
  1474.7500      0.0000    729.5446      7.2472    130.6721
  1475.0000      0.0000    725.9913      7.1874    126.7411
  1475.2500      0.0000    718.2461      7.1731    122.7244
  1475.5000      0.0000    706.9694      7.2167    118.3477
  1475.7500      0.0000    694.8159      7.3147    112.7185
  1476.0000      0.0000    685.2286      7.4354    106.4129
  1476.2500      0.0000    680.4907      7.5318    101.4961
  1476.5000      0.0000    681.0195      7.5727     99.5333
  1476.7500      0.0000    685.9975      7.5628    100.2915
  1477.0000      0.0000    694.1211      7.5372    102.3983
  1477.2500      0.0000    703.9565      7.5360    104.5725
  1477.5000      0.0000    714.0052      7.5805    106.0817
  1477.7500      0.0000    722.7646      7.6702    106.7186
  1478.0000      0.0000    729.1670      7.7951    106.9832
  1478.2500      0.0000    733.0759      7.9472    108.0816
  1478.5000      0.0000    735.1807      8.1135    111.0986
  1478.7500      0.0000    736.4592      8.2654    115.8666
  1479.0000      0.0000    737.9105      8.3655    120.8243
  1479.2500      0.0000    740.5729      8.3880    124.2257
  1479.5000      0.0000    745.1972      8.3359    125.5786
  1479.7500      0.0000    751.3193      8.2371    125.9164
  1480.0000      0.0000    756.6388      8.1272    126.8290
  1480.2500      0.0000    757.9095      8.0313    129.1711
  1480.5000      0.0000    753.1249      7.9563    132.4242
  1480.7500      0.0000    743.1550      7.8928    135.2253
  1481.0000      0.0000    731.3359      7.8257    136.6645
  1481.2500      0.0000    721.4097      7.7475    137.0858
  1481.5000      0.0000    715.3840      7.6612    137.5991
  1481.7500      0.0000    712.8148      7.5672    138.7741
  1482.0000      0.0000    711.7744      7.4465    139.7029
  1482.2500      0.0000    710.4761      7.2555    138.5482
  1482.5000      0.0000    708.3550      6.9378    134.3639
  1482.7500      0.0000    706.3831      6.4579    128.1903
  1483.0000      0.0000    706.7460      5.8446    122.2775
  1483.2500      0.0000    711.6172      5.2077    118.5804
  1483.5000      0.0000    721.2274      4.6975    117.8412
  1483.7500      0.0000    732.7293      4.4262    119.3217
  1484.0000      0.0000    741.5310      4.4110    121.2604
  1484.2500      0.0000    744.0898      4.5875    122.0339
  1484.5000      0.0000    739.3030      4.8849    121.0424
  1484.7500      0.0000    728.1584      5.2723    118.4212
  1485.0000      0.0000    712.9914      5.7314    114.5464
  1485.2500      0.0000    696.1727      6.2141    110.5539
  1485.5000     -2.0000    679.0372      6.6513    108.9747
  1485.7500      2.0000    664.2051      6.9932    112.6167
  1486.0000      0.0000    658.3248      7.2467    122.0428
  1486.2500      0.0000    667.8419      7.4800    134.3795
  1486.5000      0.0000    690.9914      7.7564    145.0815
  1486.7500      0.0000    717.6900      8.0379    151.0770
  1487.0000      0.0000    737.9581      8.2131    152.2881
  1487.2500      0.0000    748.1517      8.2600    150.4254
  1487.5000      0.0000    750.1480      8.3065    146.8918
  1487.7500      0.0000    748.0474      8.4799    142.1443
  1488.0000      0.0000    746.1269      8.7756    136.6297
  1488.2500      0.0000    747.4573      9.1116    131.6180
  1488.5000      0.0000    752.7285      9.4269    128.8269
  1488.7500      0.0000    760.2435      9.6809    129.3230
  1489.0000      0.0000    767.3131      9.8249    132.7086
  1489.2500      0.0000    771.9540      9.8242    137.0693
  1489.5000      0.0000    773.4291      9.6891    139.9378
  1489.7500      0.0000    771.6527      9.4664    140.0876
  1490.0000      0.0000    766.6831      9.2089    138.7236
  1490.2500      0.0000    759.0925      8.9560    138.3838
  1490.5000      0.0000    750.4410      8.7423    140.2437
  1490.7500      0.0000    742.7671      8.6180    142.7896
  1491.0000      0.0000    737.4097      8.6363    143.2048
  1491.2500      0.0000    734.4418      8.7968    139.6651
  1491.5000      0.0000    733.1164      8.9991    132.3292
  1491.7500      0.0000    732.6009      9.0778    122.7375
  1492.0000      0.0000    732.3557      8.9027    112.5924
  1492.2500      0.0000    732.1490      8.4610    102.8988
  1492.5000      0.0000    731.9465      7.8597     93.8686
  1492.7500      0.0000    731.8771      7.2572     85.3951
  1493.0000      0.0000    732.3498      6.7829     77.5196
  1493.2500      0.0000    734.0916      6.4959     70.5032
  1493.5000      0.0000    737.7209      6.3886     64.5142
  1493.7500      0.0000    743.0639      6.4148     59.2742
  1494.0000      0.0000    749.3300      6.5182     54.1710
  1494.2500      0.0000    756.4783      6.6553     48.9849
  1494.5000      0.0000    765.6326      6.8078     44.4668
  1494.7500      0.0000    776.6904      6.9786     41.8531
  1495.0000      0.0000    785.9988      7.1757     41.6747
  1495.2500      0.0000    788.6319      7.3993     43.3014
  1495.5000      0.0000    783.4447      7.6386     45.7411
  1495.7500      0.0000    774.2225      7.8828     48.5195
  1496.0000      0.0000    765.5368      8.1386     51.5193
  1496.2500      0.0000    759.0124      8.4230     54.2605
  1496.5000      0.0000    753.8008      8.7215     55.9291
  1496.7500      0.0000    749.0516      8.9725     56.2269
  1497.0000      0.0000    745.0901      9.1236     55.7557
  1497.2500      0.0000    742.7078      9.2045     55.2934
  1497.5000      0.0000    741.8255      9.3147     55.0851
  1497.7500      0.0000    741.1619      9.5309     55.1176
  1498.0000      0.0000    739.1671      9.8402     55.6121
