~Version Information
VERS.                      2.0: CWLS Log ASCII Standard - VERSION 2.0
WRAP.                       NO: One line per depth step
~Well Information Block
STRT.FT                 0.0000: 
STOP.FT               988.7500: 
STEP.FT                 0.2500: 
NULL.                -999.2500: 
COMP.          Pioneer Natural Resources: COMPANY
WELL.             Quartz 13-22: WELL
FLD.           Purgatoire River: FIELD
LOC.           1933' FSL & 675' FWL --------: LOCATION
PROV.                 Colorado: PROVINCE
CNTY.               Las Animas: COUNTRY
SRVC.                         : SERVICE COMPANY
DATE.          Thu Dec 22 09:29:32 2005: LOG DATE
UWI.                          : UNIQUE WELL ID
~Curve Information Block
DEPT.FT            0 000 00 00: Depth
CCL.                          : Casing Collar Locator
TT3.usec                      : CBL 3' Travel Time
AMP3.mV                       : CBL 3' Amplitude
AMP5.mV                       : CBL 5' Amplitude
GR.GAPI                       : Gamma Ray
~Parameter Information Block
~A  Depth       CCL         TT3         AMP3        AMP5         GR     
# ...
   196.0000      0.0000    304.0952     24.4372      7.1079    113.6661
   196.2500      0.0000    303.9095     24.5610      6.8553    113.8707
   196.5000      0.0000    303.7622     24.7178      6.4935    113.9131
   196.7500      0.0000    303.6035     24.9211      6.1192    114.9027
   197.0000      0.0000    303.5026     25.1223      5.8120    115.7551
   197.2500      0.0000    303.5396     25.2212      5.5957    114.2272
   197.5000      0.0000    303.8005     25.0833      5.4629    109.5950
   197.7500      0.0000    304.4663     24.5884      5.4096    103.6279
   198.0000      0.0000    305.9810     23.7028      5.4370     98.9166
   198.2500      0.0000    309.1291     22.5032      5.5291     96.7351
   198.5000      0.0000    314.6973     21.1276      5.6214     96.6344
   198.7500      0.0000    322.7624     19.7256      5.6007     97.6966
   199.0000      0.0000    332.4250     18.4458      5.3644     99.6913
   199.2500      0.0000    342.7782     17.4127      4.9012    102.7766
   199.5000      0.0000    354.2810     16.6755      4.3234    106.3159
   199.7500      0.0000    368.4740     16.1828      3.8175    108.5474
   200.0000      0.0000    385.5520     15.8198      3.5356    107.7410
   200.2500      0.0000    402.2325     15.4784      3.4969    103.5476
   200.5000      0.0000    412.7341     15.1096      3.5788     97.1426
   200.7500      0.0000    412.5462     14.7345      3.6112     90.4471
   201.0000      0.0000    401.7643     14.4125      3.4940     85.2623
   201.2500      0.0000    385.1912     14.1931      3.2482     82.4657
   201.5000      0.0000    369.1953     14.0852      2.9859     81.5475
   201.7500      0.0000    358.0096     14.0562      2.8292     81.2028
   202.0000      0.0000    352.4428     14.0490      2.8302     80.6615
   202.2500      0.0000    351.3230     14.0072      2.9416     80.2640
   202.5000      0.0000    353.4196     13.9023      3.0487     80.6606
   202.7500      0.0000    357.8512     13.7444      3.0416     81.8160
   203.0000      0.0000    363.1601     13.5648      2.8817     83.0725
   203.2500      0.0000    366.9165     13.3871      2.6253     84.0588
   203.5000      0.0000    367.0938     13.2172      2.3902     85.2014
   203.7500      0.0000    363.9695     13.0523      2.2854     87.0649
   204.0000      0.0000    360.0501     12.8902      2.3488     89.2544
   204.2500      0.0000    357.7336     12.7345      2.5251     90.3814
   204.5000      0.0000    357.2594     12.5977      2.6982     89.2251
   204.7500      0.0000    357.0560     12.4995      2.7568     85.7417
   205.0000      0.0000    355.7502     12.4567      2.6513     81.0256
   205.2500      0.0000    353.4379     12.4706      2.4228     76.6753
   205.5000      0.0000    351.1112     12.5237      2.1889     74.0636
   205.7500      0.0000    349.4464     12.5821      2.0758     73.6471
   206.0000      0.0000    348.4246     12.6085      2.1361     74.6424
   206.2500      0.0000    347.7482     12.5849      2.3314     75.4686
   206.5000      0.0000    347.2348     12.5256      2.5935     74.7868
   206.7500      0.0000    346.8645     12.4637      2.8746     72.4012
   207.0000      0.0000    346.6689     12.4246      3.1309     69.3670
   207.2500      0.0000    346.6360     12.4112      3.2933     67.3039
   207.5000      0.0000    346.6779     12.4090      3.2961     67.4157
   207.7500      0.0000    346.6832     12.3966      3.1428     69.7284
   208.0000      0.0000    346.6003     12.3584      2.9154     73.0018
   208.2500      0.0000    346.4689     12.2968      2.6990     75.4947
   208.5000      0.0000    346.3656     12.2317      2.5111     76.0848
   208.7500      0.0000    346.3347     12.1860      2.3264     74.9151
   209.0000      0.0000    346.3813     12.1697      2.1559     73.0371
   209.2500      0.0000    346.5174     12.1773      2.0709     71.2536
   209.5000      0.0000    346.8884     12.1951      2.1387     69.2210
   209.7500      0.0000    347.9879     12.2096      2.3450     65.9474
   210.0000      0.0000    350.8749     12.2200      2.5831     61.2029
   210.2500      0.0000    356.8695     12.2468      2.7164     56.1187
   210.5000      0.0000    366.1371     12.3196      2.6652     52.5309
   210.7500      0.0000    376.0008     12.4450      2.4608     52.1266
   211.0000      0.0000    381.6096     12.5928      2.2345     55.8057
   211.2500      0.0000    379.8379     12.7209      2.1389     62.9934
   211.5000      0.0000    372.6161     12.8061      2.2491     71.5847
   211.7500      0.0000    365.6128     12.8448      2.5107     79.1105
   212.0000      0.0000    364.0197     12.8399      2.7685     84.1034
   212.2500      0.0000    370.2775     12.8060      2.8585     86.3093
   212.5000      0.0000    385.3666     12.7754      2.7070     86.1681
   212.7500      0.0000    410.5124     12.7728      2.3731     84.6181
   213.0000      0.0000    445.9027     12.7758      2.0050     82.9349
   213.2500      0.0000    488.0529     12.7151      1.7397     81.9314
   213.5000      0.0000    530.4349     12.5452      1.6207     81.1914
   213.7500      0.0000    567.4197     12.3166      1.5911     79.4359
   214.0000      0.0000    597.1063     12.1465      1.5609     75.6645
   214.2500      0.0000    621.8932     12.1011      1.4855     69.7301
   214.5000      0.0000    646.9042     12.1526      1.3920     62.0665
   214.7500      0.0000    674.6537     12.2750      1.3357     53.4641
   215.0000      0.0000    700.2997     12.5205      1.3318     45.2121
   215.2500      0.0000    714.3563     12.9613      1.3452     38.9944
   215.5000      0.0000    708.9291     13.6019      1.3523     36.2168
   215.7500      2.0000    679.9084     14.3693      1.3819     37.1434
   216.0000      0.0000    627.3633     15.1505      1.4733     40.5243
   216.2500      0.0000    558.0399     15.8489      1.6199     44.1773
   216.5000      0.0000    485.4652     16.4698      1.7819     46.3326
   216.7500      0.0000    423.5676     17.1599      1.9344     46.6171
   217.0000      0.0000    379.4372     18.0970      2.0697     45.7981
   217.2500      0.0000    352.0956     19.3057      2.1734     44.7777
   217.5000      0.0000    336.2989     20.6149      2.2485     43.9273
   217.7500      0.0000    327.1783     21.7664      2.3617     43.1745
   218.0000      0.0000    323.4201     22.5204      2.6230     42.5008
   218.2500      0.0000    328.3966     22.7268      3.1131     42.2965
   218.5000      0.0000    348.0281     22.3890      3.8351     43.1611
   218.7500      0.0000    385.2170     21.6537      4.6898     45.3238
   219.0000      0.0000    433.9491     20.7186      5.4732     48.3482
   219.2500      0.0000    479.5442     19.7571      5.9583     51.4179
   219.5000      0.0000    508.1391     18.8923      6.0425     53.8063
   219.7500      0.0000    517.9719     18.1959      5.8106     55.0572
   220.0000      0.0000    519.5120     17.6967      5.4391     54.8891
   220.2500      0.0000    521.7594     17.3991      5.0751     53.2021
   220.5000      0.0000    519.9254     17.2822      4.8138     50.3059
   220.7500      0.0000    501.4039     17.2888      4.7109     46.9665
   221.0000      0.0000    463.4052     17.3373      4.7511     44.0226
   221.2500      0.0000    419.0412     17.3581      4.8318     42.1120
   221.5000      0.0000    386.0651     17.3207      4.8405     41.9751
   221.7500      0.0000    375.7285     17.2293      4.7531     44.5637
   222.0000      0.0000    392.7249     17.1039      4.6281     50.2459
   222.2500      0.0000    438.1184     16.9615      4.5161     58.0794
   222.5000      0.0000    506.2146     16.8082      4.4110     66.3609
   222.7500      0.0000    580.8006     16.6416      4.2899     73.9508
   223.0000      0.0000    640.2270     16.4637      4.1676     80.8864
   223.2500      0.0000    669.0577     16.2928      4.1041     87.7355
   223.5000      0.0000    665.7428     16.1614      4.1593     94.5155
   223.7500      0.0000    642.0204     16.0979      4.3379    100.2645
