~Version Information
VERS.                      2.0: CWLS Log ASCII Standard - VERSION 2.0
WRAP.                       NO: One line per depth step
~Well Information Block
STRT.FT               -10.2500: 
STOP.FT              2437.2500: 
STEP.FT                 0.2500: 
NULL.                -999.2500: 
COMP.          Pioneer Natural Resources: COMPANY
WELL.          Hellzonfire 32-31: WELL
FLD.           Purgatorie River: FIELD
LOC.           1993' FNL & 2265' FEL------: LOCATION
STAT.                       CO: State
CNTY.               Las Animas: COUNTY
CTRY. USA : Country
SECT. 31 : Section
TOWN. 32S : Township
RANG. 66W : Range
SRVC.          Patterson Wireline: SERVICE COMPANY
DATE.          Thu Sep 08 11:10:17 2005: LOG DATE
API.           05 071 08483 00: UNIQUE WELL ID
~Curve Information Block
DEPT.FT            0 000 00 00: Depth
CCL.                          : Casing Collar Locator
TT3.usec                      : CBL 3' Travel Time
AMP3.mV                       : CBL 3' Amplitude
GR.GAPI                       : Gamma Ray
~Parameter Information Block
~A  Depth       CCL         TT3         AMP3         GR     
# ...
  1128.7500      0.0000    716.2503     12.2626     99.1430
  1129.0000      0.0000    716.1781     12.4713     95.5736
  1129.2500      0.0000    716.3421     12.6979     89.3809
  1129.5000      0.0000    716.6752     12.8994     80.7526
  1129.7500      0.0000    717.0425     13.0523     71.1455
  1130.0000      0.0000    717.2816     13.1560     62.9302
  1130.2500      0.0000    717.3059     13.2200     57.8778
  1130.5000      0.0000    717.1915     13.2531     56.0039
  1130.7500      0.0000    717.1113     13.2659     56.1739
  1131.0000      0.0000    717.1085     13.2760     57.7171
  1131.2500      0.0000    716.6579     13.3058     61.1394
  1131.5000      0.0000    713.9399     13.3703     67.4160
  1131.7500      0.0000    704.8339     13.4641     76.9403
  1132.0000      0.0000    682.7527     13.5594     89.0358
  1132.2500      0.0000    641.6186     13.6185    102.0746
  1132.5000      0.0000    581.9885     13.6161    113.9134
  1132.7500      0.0000    514.6002     13.5575    122.5370
  1133.0000      0.0000    455.2839     13.4756    126.6403
  1133.2500      0.0000    414.7576     13.4097    125.7178
  1133.5000      0.0000    393.8361     13.3838    119.9570
  1133.7500      0.0000    387.8453     13.4041    110.5444
  1134.0000      0.0000    394.0942     13.4682     99.7649
  1134.2500      0.0000    415.1979     13.5692     90.0296
  1134.5000      0.0000    455.7542     13.6913     82.6892
  1134.7500      0.0000    514.8890     13.8101     77.8981
  1135.0000      0.0000    581.8737     13.9018     75.0855
  1135.2500      0.0000    640.9409     13.9537     73.1237
  1135.5000      0.0000    681.4896     13.9651     70.6199
  1135.7500      0.0000    703.1357     13.9357     66.7914
  1136.0000      0.0000    712.0750     13.8538     62.2217
  1136.2500      0.0000    714.8613     13.6927     58.5901
  1136.5000      0.0000    715.4291     13.4240     57.4532
  1136.7500      0.0000    715.3995     13.0402     59.1116
  1137.0000      0.0000    715.2739     12.5711     62.6250
  1137.2500      0.0000    715.2176     12.0827     66.9689
  1137.5000      0.0000    715.4456     11.6549     71.8967
  1137.7500      0.0000    716.4171     11.3457     77.3649
  1138.0000      0.0000    718.9815     11.1686     82.4537
  1138.2500      0.0000    724.1700     11.0991     85.6044
  1138.5000      0.0000    732.3436     11.1021     86.0366
  1138.7500      0.0000    742.5104     11.1519     84.4879
  1139.0000      0.0000    753.3643     11.2325     82.5190
  1139.2500      0.0000    765.2928     11.3280     81.3025
  1139.5000      0.0000    779.8709     11.4170     80.9201
  1139.7500      0.0000    796.3969     11.4796     80.5418
  1140.0000      0.0000    810.1132     11.5137     79.3006
  1140.2500      0.0000    814.8410     11.5400     77.1003
  1140.5000      0.0000    807.1298     11.5894     74.5429
  1140.7500      0.0000    788.4800     11.6838     72.1521
  1141.0000      0.0000    764.7521     11.8256     69.9322
  1141.2500      0.0000    743.0502     11.9950     67.7966
  1141.5000      0.0000    727.8964     12.1538     66.2659
  1141.7500      0.0000    719.6845     12.2637     66.5047
  1142.0000      0.0000    716.2306     12.3129     69.3626
  1142.2500      0.0000    715.1356     12.3242     74.3259
  1142.5000      0.0000    714.9277     12.3370     79.7248
  1142.7500      0.0000    715.0003     12.3819     84.1440
  1143.0000      0.0000    715.1871     12.4672     87.5417
  1143.2500      0.0000    715.4597     12.5821     90.9572
  1143.5000      0.0000    715.7875     12.7113     95.1893
  1143.7500      0.0000    716.0692     12.8414     99.7859
  1144.0000      0.0000    715.9813     12.9404    103.3375
  1144.2500      0.0000    714.7589     12.9213    104.6401
  1144.5000      0.0000    711.2713     12.6419    103.5831
  1144.7500      0.0000    705.0811     11.9947    101.2874
  1145.0000      0.0000    698.6376     11.0604     99.5322
  1145.2500      0.0000    698.4583     10.1477     99.6289
  1145.5000      0.0000    711.8373      9.5817    101.3599
  1145.7500      0.0000    739.8610      9.4314    102.9383
  1146.0000      0.0000    774.0979      9.5093    102.2275
  1146.2500      0.0000    802.2664      9.6133     98.3684
  1146.5000      0.0000    817.0964      9.6775     92.4230
  1146.7500      0.0000    818.8843      9.7186     86.6619
  1147.0000      2.0000    811.0613      9.7502     83.3456
  1147.2500      0.0000    795.5606      9.7786     83.6610
  1147.5000      0.0000    771.6611      9.8496     86.9806
  1147.7500      0.0000    737.9985     10.0731     91.1472
  1148.0000      0.0000    697.4066     10.5534     94.1018
  1148.2500      0.0000    660.8939     11.2398     95.4611
  1148.5000      0.0000    643.0029     11.8822     96.3677
  1148.7500      0.0000    649.4381     12.2205     97.7399
  1149.0000      0.0000    671.6077     12.2011     98.7228
  1149.2500      0.0000    696.2906     11.9609     97.0821
  1149.5000      0.0000    717.4527     11.6573     91.4393
  1149.7500      0.0000    735.6025     11.3700     83.0117
  1150.0000      0.0000    750.1618     11.1143     74.7733
  1150.2500      0.0000    758.2728     10.8766     69.1201
  1150.5000      0.0000    759.5702     10.6369     66.6218
  1150.7500      0.0000    757.4034     10.3847     66.4905
  1151.0000      0.0000    755.4442     10.1280     67.4936
  1151.2500      0.0000    756.1871      9.8911     68.3953
  1151.5000      0.0000    761.9371      9.7019     68.0457
  1151.7500      0.0000    773.9457      9.5762     65.6709
  1152.0000      0.0000    790.0702      9.5070     61.4709
  1152.2500      0.0000    805.3080      9.4678     56.7889
  1152.5000      0.0000    814.9903      9.4300     53.3195
  1152.7500      0.0000    816.5474      9.3809     52.0881
  1153.0000      0.0000    809.5621      9.3267     53.2303
  1153.2500      0.0000    796.7450      9.2824     56.3053
  1153.5000      0.0000    784.6108      9.2599     60.4858
  1153.7500      0.0000    780.3597      9.2674     64.7917
  1154.0000      0.0000    786.5545      9.3118     68.4716
  1154.2500      0.0000    799.3916      9.3919     71.1205
  1154.5000      0.0000    812.4605      9.4879     72.5777
  1154.7500      0.0000    821.9910      9.5636     72.9225
  1155.0000      0.0000    828.9991      9.5872     72.3117
  1155.2500      0.0000    836.6918      9.5525     70.5999
  1155.5000      0.0000    845.5856      9.4802     67.4797
  1155.7500      0.0000    851.9107      9.3972     63.2337
  1156.0000      0.0000    851.8279      9.3182     58.9998
  1156.2500      0.0000    846.1800      9.2486     56.0949
  1156.5000      0.0000    839.3734      9.1998     55.3320
  1156.7500      0.0000    834.4690      9.1904     56.9852
  1157.0000      0.0000    831.1770      9.2296     61.0141
  1157.2500      0.0000    827.8909      9.3052     67.0473
  1157.5000      0.0000    823.6044      9.3957     74.2931
  1157.7500      0.0000    817.9312      9.4930     81.7076
  1158.0000      0.0000    811.1966      9.6117     88.5007
  1158.2500      0.0000    805.2606      9.7779     94.7857
  1158.5000      0.0000    802.9855     10.0074    101.5394
  1158.7500      0.0000    805.7402     10.2897    109.1740
  1159.0000      0.0000    811.6032     10.5879    116.0072
  1159.2500      0.0000    815.9510     10.8578    118.9781
  1159.5000      0.0000    813.5121     11.0722    116.3577
  1159.7500      0.0000    800.9585     11.2276    109.2890
  1160.0000      0.0000    779.4688     11.3338    100.5687
  1160.2500      0.0000    755.0256     11.4032     92.8306
  1160.5000      0.0000    734.7821     11.4460     88.2396
  1160.7500      0.0000    722.3832     11.4659     88.7829
  1161.0000      0.0000    716.8259     11.4631     95.4550
  1161.2500      0.0000    715.0425     11.4417    106.7782
  1161.5000      0.0000    714.5604     11.4132    118.6500
  1161.7500      0.0000    714.1843     11.3927    126.6534
  1162.0000      0.0000    713.4588     11.3941    129.4018
