~Version Information
VERS.                      2.0: CWLS Log ASCII Standard - VERSION 2.0
WRAP.                       NO: One line per depth step
~Well Information Block
STRT.FT               795.0000: 
STOP.FT              2279.7500: 
STEP.FT                 0.2500: 
NULL.                -999.2500: 
COMP.          Pioneer Natural Resources: COMPANY
WELL.            Wildcard 31-5: WELL
FLD.           Purgatoire River: FIELD
LOC.           624' FNL & 1852' FEL--: LOCATION
CNTY.               Las Animas: COUNTY
SRVC.                Patterson: SERVICE COMPANY
DATE.          Tue Mar 07 07:02:36 2006: LOG DATE
UWI.           05 071 08707 00: UNIQUE WELL ID
STAT.                 Colorado: STATE
~Curve Information Block
DEPT.FT            0 000 00 00: Depth
DIR.Ohm-m                     : IEL Induction Resistivity
SN.Ohm-m                      : IEL Short Normal
SP.mV                         : IEL Spontaneous Potential
GR.GAPI                       : Gamma Ray
~Parameter Information Block
~A  Depth       DIR          SN          SP          GR     
# ...
  1163.5000     85.0550   2000.0000   1968.0000     52.3876
  1163.7500     80.0616   2000.0000   1968.0000     51.5517
  1164.0000     74.3519   2000.0000   1968.0000     51.0316
  1164.2500     68.2109   2000.0000   1968.0000     51.0864
  1164.5000     62.2639   2000.0000   1968.0000     51.3924
  1164.7500     57.1060   2000.0000   1968.0000     51.6003
  1165.0000     53.0782   2000.0000   1968.0000     51.9165
  1165.2500     50.2492   2000.0000   1968.0000     52.2321
  1165.5000     48.5067   2000.0000   1968.0000     53.0212
  1165.7500     47.6393   2000.0000   1968.0000     53.6914
  1166.0000     47.3543   2000.0000   1968.0000     54.4979
  1166.2500     47.2476   2000.0000   1968.0000     54.7199
  1166.5000     46.8090   2000.0000   1968.0000     54.8028
  1166.7500     45.5578   2000.0000   1968.0000     55.1118
  1167.0000     43.2897   2000.0000   1968.0000     56.8097
  1167.2500     40.2181   2000.0000   1968.0000     59.1757
  1167.5000     36.8344   2000.0000   1968.0000     64.9549
  1167.7500     33.6323   2000.0000   1968.0000     70.2826
  1168.0000     30.9397   2000.0000   1968.0000     80.0561
  1168.2500     28.9038   2000.0000   1968.0000     87.2489
  1168.5000     27.5348   2000.0000   1968.0000     97.7630
  1168.7500     26.7371   2000.0000   1968.0000    103.8288
  1169.0000     26.3237   2000.0000   1968.0000    110.7661
  1169.2500     26.0442   2000.0000   1968.0000    113.7503
  1169.5000     25.6612   2000.0000   1968.0000    115.1333
  1169.7500     25.0574   2000.0000   1968.0000    113.5802
  1170.0000     24.2898   2000.0000   1968.0000    107.9565
  1170.2500     23.5382   2000.0000   1968.0000    103.0929
  1170.5000     22.9968   2000.0000   1968.0000     96.1504
  1170.7500     22.7945   2000.0000   1968.0000     92.3334
  1171.0000     22.9645   2000.0000   1968.0000     87.8495
  1171.2500     23.4397   2000.0000   1968.0000     85.6078
  1171.5000     24.0577   2000.0000   1968.0000     83.3216
  1171.7500     24.5851   2000.0000   1968.0000     82.2691
  1172.0000     24.7855   2000.0000   1968.0000     80.5725
  1172.2500     24.5257   2000.0000   1968.0000     79.1876
  1172.5000     23.8546   2000.0000   1968.0000     77.5817
  1172.7500     22.9775   2000.0000   1968.0000     77.4770
  1173.0000     22.1407   2000.0000   1968.0000     78.7189
  1173.2500     21.5230   2000.0000   1968.0000     79.7295
  1173.5000     21.1880   2000.0000   1968.0000     80.2374
  1173.7500     21.0887   2000.0000   1968.0000     79.6581
  1174.0000     21.0996   2000.0000   1968.0000     77.7080
  1174.2500     21.0713   2000.0000   1968.0000     76.0032
  1174.5000     20.9079   2000.0000   1968.0000     73.4277
  1174.7500     20.6297   2000.0000   1968.0000     71.9689
  1175.0000     20.3738   2000.0000   1968.0000     70.0995
  1175.2500     20.3329   2000.0000   1968.0000     68.7346
  1175.5000     20.6850   2000.0000   1968.0000     66.2251
  1175.7500     21.5527   2000.0000   1968.0000     64.5720
  1176.0000     22.9817   2000.0000   1968.0000     63.0428
  1176.2500     24.9186   2000.0000   1968.0000     62.8880
  1176.5000     27.1821   2000.0000   1968.0000     63.5913
  1176.7500     29.4579   2000.0000   1968.0000     64.3081
  1177.0000     31.3594   2000.0000   1968.0000     65.1933
  1177.2500     32.5655   2000.0000   1968.0000     65.4006
  1177.5000     32.9664   2000.0000   1968.0000     64.8780
  1177.7500     32.7058   2000.0000   1968.0000     63.9738
  1178.0000     32.0856   2000.0000   1968.0000     62.0055
  1178.2500     31.4129   2000.0000   1968.0000     60.5291
  1178.5000     30.8971   2000.0000   1968.0000     58.7162
  1178.7500     30.6301   2000.0000   1968.0000     58.2014
  1179.0000     30.6203   2000.0000   1968.0000     58.7623
  1179.2500     30.8401   2000.0000   1968.0000     59.7001
  1179.5000     31.2562   2000.0000   1968.0000     60.8580
  1179.7500     31.8272   2000.0000   1968.0000     60.9975
  1180.0000     32.4794   2000.0000   1968.0000     60.2882
  1180.2500     33.0917   2000.0000   1968.0000     59.5568
  1180.5000     33.5205   2000.0000   1968.0000     58.7311
  1180.7500     33.6631   2000.0000   1968.0000     58.5850
  1181.0000     33.5166   2000.0000   1968.0000     58.8217
  1181.2500     33.1801   2000.0000   1968.0000     58.8772
  1181.5000     32.7978   2000.0000   1968.0000     58.0789
  1181.7500     32.4920   2000.0000   1968.0000     56.9208
  1182.0000     32.3283   2000.0000   1968.0000     55.0718
  1182.2500     32.3163   2000.0000   1968.0000     54.4368
  1182.5000     32.4274   2000.0000   1968.0000     54.8908
  1182.7500     32.6167   2000.0000   1968.0000     55.7994
  1183.0000     32.8447   2000.0000   1968.0000     56.9391
  1183.2500     33.0935   2000.0000   1968.0000     57.0971
  1183.5000     33.3655   2000.0000   1968.0000     56.5215
  1183.7500     33.6624   2000.0000   1968.0000     55.9730
  1184.0000     33.9634   2000.0000   1968.0000     55.4365
  1184.2500     34.2270   2000.0000   1968.0000     55.2832
  1184.5000     34.4144   2000.0000   1968.0000     54.9539
  1184.7500     34.5073   2000.0000   1968.0000     54.4429
  1185.0000     34.5051   2000.0000   1968.0000     53.3317
  1185.2500     34.4132   2000.0000   1968.0000     52.6636
  1185.5000     34.2398   2000.0000   1968.0000     52.2198
  1185.7500     34.0046   2000.0000   1968.0000     52.3539
  1186.0000     33.7445   2000.0000   1968.0000     53.1241
  1186.2500     33.5083   2000.0000   1968.0000     53.9878
  1186.5000     33.3416   2000.0000   1968.0000     55.6251
  1186.7500     33.2672   2000.0000   1968.0000     56.6183
  1187.0000     33.2732   2000.0000   1968.0000     57.2154
  1187.2500     33.3164   2000.0000   1968.0000     56.7902
  1187.5000     33.3438   2000.0000   1968.0000     55.2345
  1187.7500     33.3195   2000.0000   1968.0000     54.0557
  1188.0000     33.2381   2000.0000   1968.0000     52.7672
  1188.2500     33.1177   2000.0000   1968.0000     52.3225
  1188.5000     32.9814   2000.0000   1968.0000     51.9291
  1188.7500     32.8478   2000.0000   1968.0000     51.5941
  1189.0000     32.7357   2000.0000   1968.0000     50.9570
  1189.2500     32.6735   2000.0000   1968.0000     50.6978
  1189.5000     32.6966   2000.0000   1968.0000     51.0177
  1189.7500     32.8312   2000.0000   1968.0000     51.7290
  1190.0000     33.0838   2000.0000   1968.0000     53.1936
  1190.2500     33.4497   2000.0000   1968.0000     54.2381
  1190.5000     33.9394   2000.0000   1968.0000     55.8098
  1190.7500     34.6043   2000.0000   1968.0000     56.7999
  1191.0000     35.5432   2000.0000   1968.0000     57.8015
  1191.2500     36.8814   2000.0000   1968.0000     57.8903
  1191.5000     38.7261   2000.0000   1968.0000     57.1234
  1191.7500     41.1016   2000.0000   1968.0000     56.2147
  1192.0000     43.8848   2000.0000   1968.0000     54.6293
  1192.2500     46.7822   2000.0000   1968.0000     53.6341
  1192.5000     49.4014   2000.0000   1968.0000     52.7208
  1192.7500     51.4111   2000.0000   1968.0000     52.7205
  1193.0000     52.6860   2000.0000   1968.0000     53.4049
  1193.2500     53.3381   2000.0000   1968.0000     53.8144
  1193.5000     53.6578   2000.0000   1968.0000     53.5305
  1193.7500     54.0298   2000.0000   1968.0000     52.7037
  1194.0000     54.8485   2000.0000   1968.0000     51.2642
  1194.2500     56.4168   2000.0000   1968.0000     50.6488
  1194.5000     58.8231   2000.0000   1968.0000     50.3060
  1194.7500     61.8090   2000.0000   1968.0000     50.1516
  1195.0000     64.7222   2000.0000   1968.0000     49.7725
  1195.2500     66.7341   2000.0000   1968.0000     49.6168
  1195.5000     67.3529   2000.0000   1968.0000     49.8936
  1195.7500     66.7887   2000.0000   1968.0000     50.3641
  1196.0000     65.7453   2000.0000   1968.0000     51.1269
  1196.2500     64.9015   2000.0000   1968.0000     51.5235
  1196.5000     64.5917   2000.0000   1968.0000     51.8664
  1196.7500     64.7843   2000.0000   1968.0000     51.8986
