~Version Information
VERS.                      2.0: CWLS Log ASCII Standard - VERSION 2.0
WRAP.                       NO: One line per depth step
~Well Information Block
STRT.FT               555.0000: 
STOP.FT              2286.5000: 
STEP.FT                 0.1000: 
NULL.                -999.2500: 
COMP.          Pioneer Natural Resources: COMPANY
WELL.          Roadster 41-33 Kv: WELL
FLD.           Purgatoire River: FIELD
LOC.           903' FNL & 248' FEL: LOCATION
PROV.                 Colorado: PROVINCE
CNTY.               Las Animas: COUNTRY
SRVC.                Patterson: SERVICE COMPANY
DATE.          Thu Dec 15 10:28:25 2005: LOG DATE
UWI.           05 071 08615 00: UNIQUE WELL ID
~Curve Information Block
DEPT.FT            0 000 00 00: Depth
DCAL.in                       : CDL Caliper
RHOB.g/cc                     : CDL Bulk Density
RHOC.g/cc                     : CDL Density Correction
DPOR.pu                       : CDL Density Porosity
GR.GAPI                       : Gamma Ray
NPOR.pu                       : Neutron Porosity
~Parameter Information Block
~A  Depth       DCAL        RHOB        RHOC        DPOR         GR         NPOR    
# ...
  1131.0000      8.0309      2.5686      0.1899      4.9305    157.1308     28.4133
  1131.1000      8.0309      2.5675      0.2232      4.9980    154.7624     29.0531
  1131.2000      8.0309      2.5524      0.1391      5.9140    158.2391     29.5352
  1131.3000      8.0301      2.5358      0.1407      6.9201    162.6530     29.1054
  1131.4000      8.0301      2.5296      0.0830      7.2957    167.5011     28.3448
  1131.5000      8.0301      2.5331      0.0982      7.0869    171.9900     27.6675
  1131.6000      8.0301      2.5298      0.1105      7.2848    169.5281     27.1710
  1131.7000      8.0301      2.5141      0.0840      8.2346    161.8211     26.9268
  1131.8000      8.0275      2.4922      0.1410      9.5636    157.1814     27.1857
  1131.9000      8.0275      2.4640      0.0812     11.2709    155.7122     28.0703
  1132.0000      8.0292      2.4442      0.0463     12.4734    151.0273     28.6901
  1132.1000      8.0292      2.4469      0.1077     12.3116    143.2394     28.5170
  1132.2000      8.0292      2.4523      0.1318     11.9789    138.5225     27.9454
  1132.3000      8.0297      2.4322      0.1577     13.2030    137.1300     27.2721
  1132.4000      8.0297      2.3805      0.1403     16.3327    135.1422     27.0687
  1132.5000      8.0310      2.3179      0.0887     20.1280    132.3040     27.7875
  1132.6000      8.0310      2.2749      0.0704     22.7332    129.2447     29.1051
  1132.7000      8.0310      2.2628      0.1258     23.4678    124.4623     30.0765
  1132.8000      8.0313      2.2720      0.0867     22.9094    117.7512     29.9589
  1132.9000      8.0313      2.2944      0.1367     21.5521    110.7771     28.9834
  1133.0000      8.0431      2.3219      0.1808     19.8832    103.6589     27.7375
  1133.1000      8.0431      2.3464      0.1565     18.3984     93.8956     26.3301
  1133.2000      8.0431      2.3600      0.1818     17.5766     80.9980     25.1433
  1133.3000      8.0311      2.3511      0.1608     18.1182     68.1050     25.3420
  1133.4000      8.0311      2.3184      0.1229     20.0950     55.4239     26.8619
  1133.5000      8.0300      2.2777      0.0103     22.5618     44.9148     27.8106
  1133.6000      8.0300      2.2490     -0.0409     24.3001     42.2542     27.3667
  1133.7000      8.0300      2.2412     -0.0532     24.7747     46.0815     26.3840
  1133.8000      8.0312      2.2501     -0.0094     24.2390     48.7805     25.5017
  1133.9000      8.0312      2.2690      0.0169     23.0885     49.4715     24.8842
  1134.0000      8.0291      2.3045      0.0237     20.9386     52.0753     24.9598
  1134.1000      8.0291      2.3654      0.0977     17.2486     54.0985     26.0869
  1134.2000      8.0291      2.4432      0.1095     12.5345     52.3380     27.4826
  1134.3000      8.0290      2.5225      0.0985      7.7272     49.8779     27.9691
  1134.4000      8.0290      2.5966      0.1206      3.2338     47.8108     27.4021
  1134.5000      8.0288      2.6577      0.1386     -0.4693     43.5637     26.5297
  1134.6000      8.0288      2.6945      0.1200     -2.6971     39.6759     26.0563
  1134.7000      8.0288      2.7080      0.1249     -3.5130     40.4959     26.3026
  1134.8000      8.0306      2.7073      0.1499     -3.4739     42.8832     26.9308
  1134.9000      8.0306      2.6929      0.1184     -2.5976     43.1630     27.3934
  1135.0000      8.0252      2.6594      0.1444     -0.5698     44.2696     27.7715
  1135.1000      8.0252      2.6115      0.1061      2.3333     46.4339     28.0780
  1135.2000      8.0252      2.5596      0.0877      5.4798     45.7997     27.8278
  1135.3000      8.0263      2.5031      0.0675      8.9034     43.5716     27.0034
  1135.4000      8.0263      2.4423      0.0136     12.5908     46.2371     26.4182
  1135.5000      8.0276      2.3888      0.0322     15.8290     55.8937     26.5209
  1135.6000      8.0276      2.3469      0.0563     18.3676     64.6220     26.8482
  1135.7000      8.0276      2.3131      0.0261     20.4191     64.2034     27.3274
  1135.8000      8.0285      2.2882      0.0579     21.9255     60.1431     28.3935
  1135.9000      8.0285      2.2661      0.0681     23.2684     63.0937     29.6681
  1136.0000      8.0283      2.2338      0.1110     25.2262     74.8353     30.4223
  1136.1000      8.0283      2.1979      0.0769     27.3970     86.8792     30.6694
  1136.2000      8.0283      2.1815      0.1098     28.3963     93.9694     30.9136
  1136.3000      8.0298      2.1945      0.1024     27.6057    102.8757     31.1589
  1136.4000      8.0298      2.2318      0.0807     25.3434    116.1026     30.9779
  1136.5000      8.0305      2.2810      0.0978     22.3629    126.1692     30.4094
  1136.6000      8.0305      2.3304      0.1013     19.3697    131.3504     29.8963
  1136.7000      8.0305      2.3730      0.1097     16.7897    133.4204     29.2794
  1136.8000      8.0299      2.4045      0.0874     14.8764    133.5952     28.0350
  1136.9000      8.0299      2.4286      0.1055     13.4187    134.4147     26.8548
  1137.0000      8.0292      2.4541      0.0709     11.8737    132.9245     27.0297
  1137.1000      8.0292      2.4821      0.0654     10.1780    126.1580     28.3117
  1137.2000      8.0292      2.5026      0.0708      8.9336    118.2468     29.4067
  1137.3000      8.0288      2.5089      0.0627      8.5495    115.3355     29.7450
  1137.4000      8.0288      2.5040      0.0525      8.8500    117.9533     29.6781
  1137.5000      8.0265      2.4985      0.0664      9.1837    122.5424     29.7749
  1137.6000      8.0265      2.5081      0.0509      8.6005    129.2286     30.2169
  1137.7000      8.0265      2.5464      0.0702      6.2758    137.0026     30.8217
  1137.8000      8.0269      2.6125      0.1049      2.2744    139.6097     31.2934
  1137.9000      8.0269      2.6983      0.1044     -2.9255    133.6197     31.3883
  1138.0000      8.0278      2.8002      0.1203     -9.1042    124.3761     30.7142
  1138.1000      8.0278      2.9053      0.1912    -15.4709    117.1349     29.4052
  1138.2000      8.0278      2.9842      0.2559    -20.2538    110.8115     28.8346
  1138.3000      8.0272      3.0151      0.1911    -22.1288    102.8945     29.4081
  1138.4000      8.0272      2.9986      0.1723    -21.1274     92.8085     29.9180
  1138.5000      8.0273      2.9441      0.0601    -17.8270     84.4788     29.4366
  1138.6000      8.0273      2.8605     -0.0313    -12.7594     81.1191     27.8880
  1138.7000      8.0273      2.7429     -0.0875     -5.6308     80.5033     26.3421
  1138.8000      8.0371      2.5810     -0.1988      4.1802     80.8027     26.2492
  1138.9000      8.0371      2.3951     -0.3053     15.4506     82.1037     27.3125
  1139.0000      8.0490      2.2174     -0.3188     26.2208     85.6074     28.4423
  1139.1000      8.0490      2.0603     -0.3249     35.7414     91.8603     29.3612
  1139.2000      8.0490      1.9373     -0.2856     43.1944     99.1097     29.8173
  1139.3000      8.0490      1.8681     -0.2040     47.3878    104.0754     29.3341
  1139.4000      8.0490      1.8638     -0.1629     47.6456    103.5986     28.2500
  1139.5000      8.0528      1.9230     -0.0419     44.0613     97.2327     27.8781
  1139.6000      8.0528      2.0243      0.0847     37.9189     89.4735     28.8697
  1139.7000      8.0528      2.1409      0.2229     30.8540     85.7174     30.3051
  1139.8000      8.0660      2.2643      0.2716     23.3751     87.3071     30.8575
  1139.9000      8.0660      2.3883      0.3300     15.8596     93.3788     30.3990
  1140.0000      8.0751      2.4900      0.2557      9.6976    100.6901     29.9119
  1140.1000      8.0751      2.5566      0.1557      5.6627    101.1998     29.3507
  1140.2000      8.0751      2.5879      0.1324      3.7638     95.1190     28.1454
  1140.3000      8.0658      2.5878      0.0514      3.7720     91.9377     26.9264
  1140.4000      8.0658      2.5791      0.0278      4.2983     94.7475     26.5189
  1140.5000      8.0783      2.5836      0.0411      4.0239     99.9959     26.7969
