~Version Information
VERS.                      2.0: CWLS Log ASCII Standard - VERSION 2.0
WRAP.                       NO: One line per depth step
~Well Information Block
STRT.FT                14.0000: 
STOP.FT              1631.0000: 
STEP.FT                 0.1000: 
NULL.                -999.2500: 
COMP.          Pioneer Natural Resources: COMPANY
WELL.            Bluesky 44-17: WELL
FLD.           Purgatorie River: FIELD
LOC.           39' FSL & 288' FEL: LOCATION
STAT.                 Colorado: State
CNTY.               Las Animas: COUNTY
CTRY. USA : Country
SECT. 17 : Section
TOWN. 33S : Township
RANG. 66W : Range
SRVC.                Patterson: SERVICE COMPANY
DATE.          Thu Sep 08 07:30:20 2005: LOG DATE
API. 05-071-08511                         : UNIQUE WELL ID
~Curve Information Block
DEPT.FT            0 000 00 00: Depth
DCAL.in                       : CDL Caliper
RHOB.g/cc                     : CDL Bulk Density
RHOC.g/cc                     : CDL Density Correction
DPOR.pu                       : CDL Density Porosity
GR.GAPI                       : Gamma Ray
NPOR.pu                       : Neutron Porosity
~Parameter Information Block
~A  Depth       DCAL        RHOB        RHOC        DPOR         GR         NPOR    
# ...
  1492.4000      7.7314      2.5321      0.0756      7.1463    117.8759     25.8743
  1492.5000      7.7515      2.5277      0.0631      7.4107    122.3453     25.6993
  1492.6000      7.7515      2.5310      0.0890      7.2094    124.2030     25.9564
  1492.7000      7.7515      2.5372      0.0840      6.8362    120.6453     26.1333
  1492.8000      7.7406      2.5446      0.0607      6.3855    113.0091     25.9055
  1492.9000      7.7406      2.5535      0.0782      5.8461    107.6493     25.4621
  1493.0000      7.7603      2.5594      0.0198      5.4933    110.2721     25.0268
  1493.1000      7.7603      2.5632      0.0406      5.2588    118.5666     24.6150
  1493.2000      7.7603      2.5640      0.0490      5.2117    123.6971     24.2581
  1493.3000      7.7650      2.5533      0.0649      5.8594    121.0895     24.0518
  1493.4000      7.7650      2.5343      0.0143      7.0126    114.8202     23.9050
  1493.5000      7.7652      2.5254      0.0129      7.5519    110.1887     23.4782
  1493.6000      7.7652      2.5356     -0.0021      6.9334    108.3666     22.7541
  1493.7000      7.7652      2.5527     -0.0123      5.8946    109.0113     22.0994
  1493.8000      7.7781      2.5615     -0.0057      5.3636    110.6750     21.6839
  1493.9000      7.7781      2.5585      0.0322      5.5460    110.4086     21.4122
  1494.0000      7.7701      2.5514      0.0045      5.9756    109.7220     21.2466
  1494.1000      7.7701      2.5511     -0.0029      5.9968    111.9365     21.4111
  1494.2000      7.7701      2.5629      0.0021      5.2794    115.5665     21.9420
  1494.3000      7.7643      2.5713      0.0517      4.7714    117.2127     22.4584
  1494.4000      7.7643      2.5610      0.0034      5.3947    114.6408     22.6085
  1494.5000      7.7681      2.5499      0.0126      6.0676    109.8680     22.3719
  1494.6000      7.7681      2.5535      0.0125      5.8468    106.5400     21.9310
  1494.7000      7.7681      2.5620      0.0112      5.3314    105.2284     21.4866
  1494.8000      7.7642      2.5651      0.0092      5.1439    106.2839     21.2521
  1494.9000      7.7642      2.5635      0.0269      5.2435    109.9279     21.3150
  1495.0000      7.7668      2.5638      0.0099      5.2241    112.4088     21.6765
  1495.1000      7.7668      2.5690      0.0493      4.9095    110.6372     22.1955
  1495.2000      7.7668      2.5723      0.0397      4.7062    106.6715     22.5795
  1495.3000      7.7618      2.5763      0.0169      4.4663    102.8602     22.6205
  1495.4000      7.7618      2.5887      0.0688      3.7125    101.8364     22.4298
  1495.5000      7.7660      2.5996      0.0546      3.0560    104.7895     22.3645
  1495.6000      7.7660      2.5991      0.0124      3.0857    106.1788     22.5760
  1495.7000      7.7660      2.5868      0.0399      3.8324    104.7893     22.7874
  1495.8000      7.7672      2.5569      0.0216      5.6425    105.1245     22.6859
  1495.9000      7.7672      2.5221     -0.0553      7.7524    106.4898     22.3889
  1496.0000      7.7772      2.5081     -0.0256      8.5985    105.6868     22.1121
  1496.1000      7.7772      2.5160     -0.0247      8.1241    104.8398     21.8769
  1496.2000      7.7772      2.5322      0.0247      7.1413    106.8161     21.7391
  1496.3000      7.7704      2.5473      0.0371      6.2243    109.2780     21.6717
  1496.4000      7.7704      2.5559      0.0156      5.7000    108.5853     21.5120
  1496.5000      7.7764      2.5564      0.0250      5.6709    105.7999     21.0954
  1496.6000      7.7764      2.5523      0.0284      5.9203    104.7097     20.6150
  1496.7000      7.7764      2.5550     -0.0211      5.7561    105.0824     20.6108
  1496.8000      7.7757      2.5643      0.0521      5.1943    106.6365     21.1845
  1496.9000      7.7757      2.5636      0.0466      5.2349    110.7638     21.8353
  1497.0000      7.7634      2.5477      0.0587      6.2008    114.0266     22.0897
  1497.1000      7.7634      2.5242      0.0194      7.6219    112.9075     21.8709
  1497.2000      7.7634      2.5050      0.0058      8.7896    107.8510     21.4806
  1497.3000      7.7635      2.5013      0.0187      9.0128    100.6797     21.4448
  1497.4000      7.7635      2.5210     -0.0071      7.8168     96.8923     21.7448
  1497.5000      7.7664      2.5590      0.0362      5.5153    100.6132     21.7984
  1497.6000      7.7664      2.5908      0.1061      3.5863    107.5379     21.5617
  1497.7000      7.7664      2.6019      0.0691      2.9175    110.3005     21.4861
  1497.8000      7.7462      2.5988      0.1153      3.1030    108.8498     21.7217
  1497.9000      7.7462      2.5881      0.0732      3.7485    107.9481     22.1286
  1498.0000      7.7188      2.5685      0.1019      4.9398    107.9449     22.2213
  1498.1000      7.7188      2.5400      0.0635      6.6667    106.8485     21.8379
  1498.2000      7.7188      2.5191      0.0413      7.9320    106.2957     21.5693
  1498.3000      7.7175      2.5220      0.0551      7.7550    108.2138     21.6589
  1498.4000      7.7175      2.5436      0.0605      6.4479    110.7069     21.8913
  1498.5000      7.7416      2.5684      0.0563      4.9464    111.9384     22.2201
  1498.6000      7.7416      2.5832      0.1185      4.0455    114.1591     22.4488
  1498.7000      7.7416      2.5830      0.0804      4.0576    117.8302     22.3803
  1498.8000      7.7546      2.5791      0.0378      4.2984    119.9514     22.3280
  1498.9000      7.7546      2.5823      0.1030      4.1029    119.2308     22.4154
  1499.0000      7.7452      2.5875      0.0797      3.7882    115.9859     22.4401
  1499.1000      7.7452      2.5908      0.0799      3.5885    111.4503     22.4053
  1499.2000      7.7452      2.5938      0.1072      3.4032    108.1348     22.2107
  1499.3000      7.7483      2.5995      0.0581      3.0629    107.9821     21.7150
  1499.4000      7.7483      2.6139      0.0862      2.1888    109.5674     21.1400
  1499.5000      7.7617      2.6341      0.0565      0.9661    109.0890     20.6638
  1499.6000      7.7617      2.6395      0.1032      0.6380    105.5442     20.3378
  1499.7000      7.7617      2.6170      0.0599      2.0023    101.9639     20.2536
  1499.8000      7.7742      2.5827      0.0471      4.0806    101.7917     20.2390
  1499.9000      7.7742      2.5555      0.0411      5.7299    105.6996     20.2148
  1500.0000      7.7647      2.5370      0.0311      6.8509    109.4868     20.3253
  1500.1000      7.7647      2.5286      0.0247      7.3570    110.1402     20.5365
  1500.2000      7.7647      2.5371      0.0536      6.8429    109.9674     20.8091
  1500.3000      7.7657      2.5634      0.0283      5.2483    109.4198     21.1233
  1500.4000      7.7657      2.5920      0.0808      3.5147    107.2120     21.3377
  1500.5000      7.7687      2.6021      0.0895      2.9017    104.9322     21.4359
  1500.6000      7.7687      2.5984      0.0802      3.1297    103.2270     21.4127
  1500.7000      7.7687      2.5960      0.1075      3.2708    100.7385     21.1465
  1500.8000      7.7668      2.5947      0.0808      3.3492     97.3876     20.8088
  1500.9000      7.7668      2.5941      0.0751      3.3864     94.1040     20.7913
  1501.0000      7.7726      2.5943      0.0872      3.3776     91.3123     21.3352
  1501.1000      7.7726      2.5905      0.0528      3.6033     89.8770     22.0790
  1501.2000      7.7726      2.5860      0.0755      3.8781     89.8530     22.2534
  1501.3000      7.7725      2.5878      0.0378      3.7724     88.7870     21.9227
  1501.4000      7.7725      2.5948      0.0623      3.3448     85.9026     21.6927
  1501.5000      7.7640      2.6010      0.0625      2.9678     83.9368     21.3870
  1501.6000      7.7640      2.6024      0.0999      2.8821     83.7384     20.6057
  1501.7000      7.7640      2.5945      0.0707      3.3646     83.3693     19.8417
  1501.8000      7.7558      2.5801      0.0150      4.2341     82.7446     19.7611
  1501.9000      7.7558      2.5641      0.0339      5.2077     84.6343     19.9984
