~Version Information
VERS.                      2.0: CWLS Log ASCII Standard - VERSION 2.0
WRAP.                       NO: One line per depth step
~Well Information Block
STRT.FT                -8.7500: 
STOP.FT              2331.5000: 
STEP.FT                 0.2500: 
NULL.                -999.2500: 
COMP.          Pioneer Natural Resources: COMPANY
WELL.          Sparrowhawk 22-12: WELL
FLD.           Purgatorie River: FIELD
LOC.           2049' FNL & 2060' FWL--: LOCATION
CNTY.               Las Animas: COUNTY
SRVC.          Patterson Wireline: SERVICE COMPANY
DATE.          Wed Apr 12 08:53:41 2006: LOG DATE
UWI.           05 071 08484 00: UNIQUE WELL ID
STAT.                       CO: STATE
~Curve Information Block
DEPT.FT            0 000 00 00: Depth
CCL.                          : Casing Collar Locator
TT3.usec                      : CBL 3' Travel Time
AMP3.mV                       : CBL 3' Amplitude
GR.GAPI                       : Gamma Ray
~Parameter Information Block
MAXAMPL.mV              0.0000: Maximum Amplitude
~A  Depth       CCL         TT3         AMP3         GR     
# ...
   460.2500      0.0000    265.0745     76.8526     57.2092
   460.5000      0.0000    265.6492     72.9465     61.1563
   460.7500      0.0000    266.5867     68.1853     66.5760
   461.0000      0.0000    267.8073     63.6758     73.4737
   461.2500      0.0000    269.0936     60.3063     81.1079
   461.5000      0.0000    270.2012     58.2675     87.5368
   461.7500      0.0000    270.9841     57.2306     90.4585
   462.0000      0.0000    271.4392     56.7484     88.7785
   462.2500      0.0000    271.6582     56.4771     83.3567
   462.5000      0.0000    271.7474     56.2542     76.4490
   462.7500      2.0000    271.7766     56.0835     70.5826
   463.0000      0.0000    271.7576     56.0856     67.5111
   463.2500      0.0000    271.6242     56.5009     67.4764
   463.5000      0.0000    271.2280     57.6581     69.1517
   463.7500      0.0000    270.4128     59.7709     70.6133
   464.0000      0.0000    269.1699     62.7439     70.7464
   464.2500      0.0000    267.7241     66.2820     69.8994
   464.5000      0.0000    266.4171     70.0578     69.3668
   464.7500      0.0000    265.4826     73.6441     70.2669
   465.0000      0.0000    264.9426     76.5118     72.5684
   465.2500      0.0000    264.6808     78.3395     75.0182
   465.5000      0.0000    264.5657     79.2382     76.1908
   465.7500      0.0000    264.5129     79.5841     75.5993
   466.0000      0.0000    264.4876     79.7110     73.6553
   466.2500      0.0000    264.4812     79.7784     70.9757
   466.5000      0.0000    264.4897     79.8179     68.2213
   466.7500      0.0000    264.5042     79.8132     66.2159
   467.0000      0.0000    264.5164     79.7652     65.4946
   467.2500      0.0000    264.5245     79.7205     65.6905
   467.5000      0.0000    264.5317     79.7490     65.6981
   467.7500      0.0000    264.5391     79.8855     64.5652
   468.0000      0.0000    264.5453     80.0974     62.2523
   468.2500      0.0000    264.5484     80.3159     59.6506
   468.5000      0.0000    264.5472     80.4850     57.9163
   468.7500      0.0000    264.5424     80.5731     57.6675
   469.0000      0.0000    264.5383     80.5614     58.7252
   469.2500      0.0000    264.5417     80.4486     60.5484
   469.5000      0.0000    264.5569     80.2615     62.7923
   469.7500      0.0000    264.5809     80.0500     65.3556
   470.0000      0.0000    264.6053     79.8701     68.0248
   470.2500      0.0000    264.6228     79.7681     70.2475
   470.5000      0.0000    264.6325     79.7689     71.4200
   470.7500      0.0000    264.6378     79.8761     71.5726
   471.0000      0.0000    264.6402     80.0809     71.5677
   471.2500      0.0000    264.6360     80.3558     72.2952
   471.5000      0.0000    264.6218     80.6353     73.8137
   471.7500      0.0000    264.5991     80.8318     75.3975
   472.0000      0.0000    264.5751     80.8958     76.0318
   472.2500      0.0000    264.5562     80.8601     74.7367
   472.5000      0.0000    264.5434     80.8090     71.0079
   472.7500      0.0000    264.5328     80.8023     65.4382
   473.0000      0.0000    264.5211     80.8305     59.7168
   473.2500      0.0000    264.5097     80.8415     55.7389
   473.5000      0.0000    264.5040     80.8027     54.6401
   473.7500      0.0000    264.5077     80.7302     56.4106
   474.0000      0.0000    264.5194     80.6574     60.0123
   474.2500      0.0000    264.5351     80.5900     63.8912
   474.5000      0.0000    264.5497     80.5080     66.7551
   474.7500      0.0000    264.5582     80.4046     68.0331
   475.0000      0.0000    264.5574     80.3090     67.6962
   475.2500      0.0000    264.5474     80.2674     66.1107
   475.5000      0.0000    264.5316     80.3046     64.2865
   475.7500      0.0000    264.5156     80.3951     63.6349
   476.0000      0.0000    264.5061     80.4726     64.8513
   476.2500      0.0000    264.5069     80.4776     67.3289
   476.5000      0.0000    264.5160     80.4069     69.8937
   476.7500      0.0000    264.5259     80.3130     71.6516
   477.0000      0.0000    264.5305     80.2506     72.1608
   477.2500      0.0000    264.5290     80.2273     71.5799
   477.5000      0.0000    264.5259     80.2112     70.7011
   477.7500      0.0000    264.5252     80.1814     70.2652
   478.0000      0.0000    264.5275     80.1550     70.3034
   478.2500      0.0000    264.5296     80.1569     70.4795
   478.5000      0.0000    264.5271     80.1874     70.6553
   478.7500      0.0000    264.5184     80.2406     70.7803
   479.0000      0.0000    264.5061     80.3328     70.6600
   479.2500      0.0000    264.4954     80.4809     70.1869
   479.5000      0.0000    264.4896     80.6593     69.5075
   479.7500      0.0000    264.4892     80.7985     68.7567
   480.0000      0.0000    264.4929     80.8264     67.8110
   480.2500      0.0000    264.4983     80.7147     66.4529
   480.5000      0.0000    264.5021     80.4998     64.5978
   480.7500      0.0000    264.5022     80.2652     62.2807
   481.0000      0.0000    264.5002     80.0904     59.6303
   481.2500      0.0000    264.4989     80.0031     56.9526
   481.5000      0.0000    264.4984     79.9779     54.6372
   481.7500      0.0000    264.4968     79.9749     52.9377
   482.0000      0.0000    264.4952     79.9755     51.9296
   482.2500      0.0000    264.4982     79.9826     51.4742
   482.5000      0.0000    264.5086     79.9993     51.0891
   482.7500      0.0000    264.5240     80.0157     50.1476
   483.0000      0.0000    264.5376     80.0149     48.4345
   483.2500      0.0000    264.5424     79.9917     46.4681
   483.5000      0.0000    264.5366     79.9688     45.2098
   483.7500      0.0000    264.5260     79.9867     45.3514
   484.0000      0.0000    264.5200     80.0621     46.7605
   484.2500      0.0000    264.5228     80.1595     48.6292
   484.5000      0.0000    264.5283     80.2230     50.3102
   484.7500      0.0000    264.5254     80.2390     52.0140
   485.0000      0.0000    264.5101     80.2530     54.5059
   485.2500      0.0000    264.4890     80.3107     58.1779
   485.5000      0.0000    264.4717     80.3931     62.7516
   485.7500      0.0000    264.4601     80.4288     67.9254
   486.0000      0.0000    264.4486     80.3659     73.7843
   486.2500      0.0000    264.4331     80.2154     80.2557
   486.5000      0.0000    264.4167     80.0284     86.5182
   486.7500      0.0000    264.4051     79.8530     91.3081
   487.0000      0.0000    264.3999     79.7159     93.8974
   487.2500      0.0000    264.3969     79.6246     94.9171
   487.5000      0.0000    264.3916     79.5722     96.1057
   487.7500      0.0000    264.3826     79.5429     98.8722
   488.0000      0.0000    264.3722     79.5228    102.9090
   488.2500      0.0000    264.3641     79.5179    106.2889
   488.5000      0.0000    264.3606     79.5543    107.0705
   488.7500      0.0000    264.3614     79.6457    105.0731
   489.0000      0.0000    264.3646     79.7632    102.3201
   489.2500      0.0000    264.3690     79.8501    101.7040
   489.5000      0.0000    264.3732     79.8749    104.6895
   489.7500      0.0000    264.3747     79.8645    109.9412
   490.0000      0.0000    264.3723     79.8840    114.3576
   490.2500      0.0000    264.3687     79.9845    115.8126
   490.5000      0.0000    264.3690     80.1657    114.9309
   490.7500      0.0000    264.3754     80.3745    114.0754
   491.0000      0.0000    264.3847     80.5376    114.7369
   491.2500      0.0000    264.3921     80.6144    116.2767
   491.5000      0.0000    264.3972     80.6263    117.1468
   491.7500      0.0000    264.4044     80.6253    116.7780
   492.0000      0.0000    264.4181     80.6346    115.9521
   492.2500      0.0000    264.4372     80.6350    115.7099
   492.5000      0.0000    264.4537     80.6051    116.2583
   492.7500      0.0000    264.4577     80.5529    116.8469
   493.0000      0.0000    264.4442     80.5050    116.4847
   493.2500      0.0000    264.4176     80.4754    114.8469
   493.5000      0.0000    264.3883     80.4515    112.5842
