~Version Information
 VERS.                                  2.0 : CWLS LAS VERSION
 WRAP.                                   NO : WRAPING MODE
 SWARE .                 MController 2.5.3A : SOFTWARE VERSION
~Well Information
 WELL.                          Darren 11-7 : WELL
 COMP.  Pioneer Natural Resources USA, Inc. : COMPANY
 FLD.                      Purgatoire River : FIELD
 LOC.              NW/NW Sec. 7, T33S, R65W : LOCATION
 DATE.                           03/19/2006 : DATE(S) LOGGED
 SRVC.                  Entrada GeoSciences : SERVICE COMPANY
 STAT.                             Colorado : STATE
 CNTY.                           Las Animas : COUNTY
 CTRY.                        United States : COUNTRY
 API.                       05-071-08720-00 : API NUMBER
 STRT.FT                             250.00 : START DEPTH
 STOP.FT                            1450.00 : STOP DEPTH
 STEP.FT                               1.00 : DEPTH INCREMENT
 NULL.                                -9999 : NULL VALUE
~Curve information
 DEPTH.FT                                   :
 ROP.MIN/FT                                 :
 GAS.UNITS                                  :
~ASCII Log data
# ...
      650.00         0.27         11.2 
      651.00         0.13          9.5 
      652.00         0.23          8.8 
      653.00         0.20          8.5 
      654.00         0.20          8.4 
      655.00         0.20          8.6 
      656.00         0.50         20.4 
      657.00         0.20         20.4 
      658.00         0.27         29.3 
      659.00         0.30         40.6 
      660.00         0.20         52.7 
      661.00         0.27         45.2 
      662.00         0.27         41.7 
      663.00         0.27         22.0 
      664.00         0.27         20.6 
      665.00         0.20         14.9 
      666.00         0.07         12.6 
      667.00         0.27         11.5 
      668.00         0.25         11.4 
      669.00         0.30         11.1 
      670.00         0.03          9.6 
      671.00         0.27          8.8 
      672.00         0.13          7.3 
      673.00         0.27          7.9 
      674.00         0.23          6.9 
      675.00         0.23          6.8 
      676.00         0.23          6.9 
      677.00         0.23          6.3 
      678.00         0.23          7.0 
      679.00         0.20          7.3 
      680.00         0.23          7.1 
      681.00         0.23          8.2 
      682.00         0.37         31.1 
      683.00         0.22         27.6 
      684.00         0.23         26.5 
      685.00         0.47         26.2 
      686.00     -9999.00         26.0 
      687.00         0.23         24.8 
      688.00         0.23         23.6 
      689.00         0.32         22.6 
      690.00         0.20         21.0 
      691.00         0.20         20.3 
      692.00         0.13         20.3 
      693.00         0.33         20.9 
      694.00         0.27         34.1 
      695.00         0.47         70.8 
      696.00         0.37         92.4 
      697.00         0.53         73.4 
      698.00         0.27         36.3 
      699.00         0.55         26.8 
      700.00         0.27         17.1 
      701.00         0.27         15.0 
      702.00         0.27         13.8 
      703.00         0.27         12.8 
      704.00         0.47         11.9 
      705.00         0.27         11.1 
      706.00         0.27         10.5 
      707.00         0.37         10.4 
      708.00         0.53         10.8 
      709.00         0.27         10.4 
      710.00         0.32         10.6 
      711.00         0.17         49.6 
      712.00         0.20         23.8 
      713.00         0.17         20.0 
      714.00         0.17         19.3 
      715.00         0.27         15.4 
      716.00         0.23         14.3 
      717.00         0.27         12.0 
      718.00         0.17         10.8 
      719.00         0.22         10.7 
      720.00         0.17         11.4 
      721.00         0.23         11.1 
      722.00         0.27         11.0 
      723.00         0.27         10.2 
      724.00         0.20         11.2 
      725.00         0.23         11.6 
      726.00         0.20         11.7 
      727.00         0.20         11.0 
      728.00         0.23         11.1 
      729.00         0.23         10.4 
      730.00         0.23          9.7 
      731.00         0.23         10.3 
      732.00         0.20         11.6 
      733.00         0.20         12.8 
      734.00         0.20         13.7 
      735.00         0.25         15.1 
      736.00         0.20         16.3 
      737.00         0.20         16.6 
      738.00         0.20         15.9 
      739.00         0.20         15.6 
      740.00         0.23         16.3 
      741.00         0.20         37.4 
      742.00         0.20         54.5 
      743.00         0.20         49.2 
      744.00         0.20         49.2 
      745.00         0.30         47.4 
      746.00         0.07         35.1 
      747.00         0.40         21.4 
      748.00         0.27         17.2 
      749.00         0.27         15.8 
      750.00         0.30         13.2 
      751.00         0.27         12.4 
      752.00         0.27         10.7 
      753.00         0.23         10.1 
      754.00         0.30          9.6 
      755.00         0.42          9.6 
      756.00         0.27          8.6 
      757.00         0.17          8.7 
      758.00         0.17          8.9 
      759.00         0.17          7.9 
      760.00         0.13          9.5 
      761.00         0.20          8.3 
      762.00         0.13          8.3 
      763.00         0.20          9.3 
      764.00         0.20          9.3 
      765.00         0.17         14.8 
      766.00         0.27         36.5 
      767.00         0.20         41.4 
      768.00         0.13         42.3 
      769.00         0.23         41.7 
      770.00         0.17         40.3 
      771.00         0.17         37.8 
      772.00         0.22         34.3 
      773.00         0.20         33.6 
      774.00         0.20         41.1 
      775.00         0.27         47.5 
      776.00         0.40         74.9 
      777.00         0.27        100.1 
      778.00         0.37         89.8 
      779.00         0.17         55.1 
      780.00         0.20         46.3 
      781.00         0.23         41.8 
      782.00         0.25         32.2 
      783.00         0.27         26.1 
      784.00         0.13         22.5 
      785.00         0.17         21.2 
      786.00         0.30         18.3 
      787.00         0.07         18.3 
      788.00         0.17         17.4 
      789.00         0.30         17.1 
      790.00         0.27         16.0 
      791.00         0.27         15.8 
      792.00         0.20         14.6 
      793.00         0.27         14.0 
      794.00         0.27         13.5 
      795.00         0.13         13.6 
      796.00         0.13         13.6 
      797.00         0.28         13.9 
      798.00         0.27         13.3 
      799.00         0.27         13.4 
      800.00         0.23         13.3 
      801.00         0.23         13.2 
      802.00         0.30         13.3 
      803.00         0.37         15.5 
      804.00         0.23         15.5 
      805.00         0.30         26.9 
      806.00         0.27         41.2 
      807.00         0.10         64.2 
      808.00         0.27         69.7 
      809.00         0.10         59.9 
      810.00         0.27         57.7 
      811.00         0.10         41.5 
      812.00         0.20         39.7 
      813.00         0.23         30.5 
      814.00         0.13         25.0 
      815.00         0.32         20.7 
      816.00         0.30         17.0 
      817.00         0.27         15.2 
      818.00         0.23         13.9 
      819.00         0.27         13.2 
      820.00         0.27         12.6 
      821.00         0.23         12.8 
      822.00         0.23         13.2 
      823.00         0.23         13.2 
      824.00         0.22         13.2 
      825.00         0.23         13.5 
      826.00         0.20         13.5 
      827.00         0.20         13.5 
      828.00         0.23         12.6 
      829.00         0.27         12.0 
      830.00         0.23         11.2 
      831.00         0.33         10.5 
      832.00         0.17         74.1 
      833.00         0.20         55.0 
      834.00         0.23         47.3 
      835.00         0.20         35.9 
      836.00         0.30         33.3 
      837.00         0.33         26.4 
      838.00         0.13         17.7 
      839.00         0.10         17.7 
      840.00         0.17         17.2 
      841.00         0.07         17.2 
      842.00         0.27         17.9 
      843.00         0.27         17.1 
      844.00         0.23         16.2 
      845.00         0.23         14.7 
      846.00         0.27         13.3 
      847.00         0.23         12.8 
      848.00         0.23         12.2 
      849.00         0.27         11.9 
