~Version Information
VERS.                      2.0: CWLS Log ASCII Standard - VERSION 2.0
WRAP.                       NO: One line per depth step
~Well Information Block
STRT.FT               233.8000: 
STOP.FT              1692.5000: 
STEP.FT                 0.1000: 
NULL.                -999.2500: 
COMP.          Pioneer Natural Resources: COMPANY
WELL.            Relay 12-7 Tr: WELL
FLD.           Purgatoire River: FIELD
LOC.           2025' FNL & 790' FWL: LOCATION
PROV.                 Colorado: PROVINCE
CNTY.               Las Animas: COUNTRY
SRVC.                Patterson: SERVICE COMPANY
DATE.          Mon Jan 16 13:23:17 2006: LOG DATE
UWI.           05 071 08603 00: UNIQUE WELL ID
~Curve Information Block
DEPT.FT            0 000 00 00: Depth
DCAL.in                       : CDL Caliper
RHOB.g/cc                     : CDL Bulk Density
RHOC.g/cc                     : CDL Density Correction
DPOR.pu                       : CDL Density Porosity
GR.GAPI                       : Gamma Ray
~Parameter Information Block
~A  Depth       DCAL        RHOB        RHOC        DPOR         GR     
# ...
   345.8000      8.2843      2.4715     -0.0393     10.8190    130.9773
   345.9000      8.2843      2.4700      0.0856     10.9116    132.6227
   346.0000      8.2887      2.4672     -0.0131     11.0763    130.8020
   346.1000      8.2887      2.4838     -0.0160     10.0710    129.1114
   346.2000      8.2887      2.5186      0.0803      7.9651    128.5842
   346.3000      8.2945      2.5301      0.0677      7.2683    128.4862
   346.4000      8.2945      2.5067      0.0538      8.6852    129.8488
   346.5000      8.2825      2.4790     -0.0018     10.3631    134.6308
   346.6000      8.2825      2.4648      0.0255     11.2241    139.0965
   346.7000      8.2825      2.4539      0.0022     11.8824    138.3687
   346.8000      8.2725      2.4464     -0.0425     12.3405    132.6553
   346.9000      8.2725      2.4543     -0.0153     11.8590    126.0489
   347.0000      8.2707      2.4699      0.0082     10.9126    123.3040
   347.1000      8.2707      2.4687      0.0869     10.9850    125.9406
   347.2000      8.2707      2.4439      0.0481     12.4883    132.3662
   347.3000      8.2785      2.4196      0.0215     13.9629    138.3803
   347.4000      8.2785      2.4254     -0.0204     13.6099    139.2982
   347.5000      8.2678      2.4637      0.0254     11.2881    135.4137
   347.6000      8.2678      2.5043      0.0845      8.8331    132.1262
   347.7000      8.2678      2.5208      0.0490      7.8306    134.0775
   347.8000      8.2353      2.5171      0.0758      8.0545    138.9854
   347.9000      8.2353      2.5078      0.0472      8.6190    138.8208
   348.0000      8.2396      2.5036      0.0310      8.8738    134.1955
   348.1000      8.2396      2.5065      0.0619      8.6975    132.4724
   348.2000      8.2396      2.5036      0.0913      8.8701    131.4540
   348.3000      8.2748      2.4856      0.0194      9.9626    126.2595
   348.4000      8.2748      2.4593      0.0011     11.5548    119.9984
   348.5000      8.2404      2.4327      0.0096     13.1694    115.3643
   348.6000      8.2404      2.4148     -0.0377     14.2520    110.9644
   348.7000      8.2404      2.4118     -0.0370     14.4374    107.9061
   348.8000      8.2049      2.4155     -0.0470     14.2120    108.5057
   348.9000      8.2049      2.4222     -0.0647     13.8078    108.9275
   349.0000      8.1924      2.4352      0.0153     13.0168    103.3081
   349.1000      8.1924      2.4526     -0.0294     11.9648     94.8935
   349.2000      8.1924      2.4702      0.0313     10.8989     91.8105
   349.3000      8.1919      2.4813      0.0407     10.2271     93.9575
   349.4000      8.1919      2.4845      0.0340     10.0287     96.4040
   349.5000      8.1926      2.4914     -0.0226      9.6144     96.7063
   349.6000      8.1926      2.5018      0.0787      8.9846     92.6463
   349.7000      8.1926      2.4988      0.0224      9.1623     86.1633
   349.8000      8.2167      2.4818      0.0218     10.1910     83.2909
   349.9000      8.2167      2.4600      0.0161     11.5122     83.5148
   350.0000      8.2661      2.4406     -0.0407     12.6914     83.1980
   350.1000      8.2661      2.4365     -0.0289     12.9424     82.3966
   350.2000      8.2661      2.4487      0.0210     12.2028     82.2901
   350.3000      8.2800      2.4626      0.0042     11.3553     84.1350
   350.4000      8.2800      2.4625      0.0545     11.3666     86.3127
   350.5000      8.2979      2.4387      0.0517     12.8035     85.1664
   350.6000      8.2979      2.4074     -0.0075     14.7032     81.3296
   350.7000      8.2979      2.3908      0.0110     15.7077     79.0409
   350.8000      8.2960      2.3857      0.0427     16.0174     80.1860
   350.9000      8.2960      2.3770      0.0381     16.5456     81.1762
   351.0000      8.2937      2.3587      0.0386     17.6569     79.0480
   351.1000      8.2937      2.3402     -0.0154     18.7780     76.1641
   351.2000      8.2937      2.3326      0.0261     19.2392     76.1231
   351.3000      8.3056      2.3320      0.0553     19.2748     78.6597
   351.4000      8.3056      2.3352      0.0434     19.0813     78.8254
   351.5000      8.3137      2.3443      0.0366     18.5273     75.2396
   351.6000      8.3137      2.3506      0.0360     18.1449     71.8772
   351.7000      8.3137      2.3450      0.0295     18.4862     68.6079
   351.8000      8.3109      2.3349     -0.0185     19.0963     63.8923
   351.9000      8.3109      2.3344     -0.0069     19.1271     59.8992
   352.0000      8.3173      2.3435      0.0532     18.5771     58.6423
   352.1000      8.3173      2.3517      0.0617     18.0763     59.9972
   352.2000      8.3173      2.3555      0.0629     17.8513     62.8392
   352.3000      8.3107      2.3572      0.0448     17.7434     66.9477
   352.4000      8.3107      2.3603      0.0100     17.5549     72.8787
   352.5000      8.2887      2.3689      0.0408     17.0356     79.4519
   352.6000      8.2887      2.3852      0.0144     16.0458     84.1903
   352.7000      8.2887      2.4041      0.0709     14.9045     87.1769
   352.8000      8.2826      2.4165      0.0196     14.1508     91.7761
   352.9000      8.2826      2.4226      0.0471     13.7848     98.0162
   353.0000      8.2790      2.4207      0.0693     13.8973    103.7108
   353.1000      8.2790      2.4135     -0.0086     14.3339    110.1572
   353.2000      8.2790      2.4207     -0.0124     13.8973    117.8659
   353.3000      8.2755      2.4489      0.0458     12.1859    123.1823
   353.4000      8.2755      2.4779      0.0935     10.4309    124.1218
   353.5000      8.2722      2.4879      0.0656      9.8248    124.3216
   353.6000      8.2722      2.4794      0.0069     10.3387    125.6521
   353.7000      8.2722      2.4689      0.0358     10.9744    123.3647
   353.8000      8.2597      2.4679      0.0275     11.0343    114.9392
   353.9000      8.2597      2.4674      0.0689     11.0659    107.0552
   354.0000      8.2424      2.4553      0.0162     11.8026    106.8166
   354.1000      8.2424      2.4419      0.0460     12.6093    110.1423
   354.2000      8.2424      2.4445      0.0201     12.4556    109.4315
   354.3000      8.1873      2.4642      0.0123     11.2616    105.1782
   354.4000      8.1873      2.4850      0.0521      9.9983    102.9693
   354.5000      8.0943      2.4888      0.0839      9.7690    104.4841
   354.6000      8.0943      2.4750      0.0711     10.6074    108.3348
   354.7000      8.0943      2.4590      0.0477     11.5762    112.0355
   354.8000      8.0588      2.4462      0.0249     12.3529    111.8737
   354.9000      8.0588      2.4292      0.0015     13.3835    107.3731
   355.0000      8.0636      2.4090      0.0081     14.6053    102.5622
   355.1000      8.0636      2.3918     -0.0037     15.6459    100.8376
   355.2000      8.0636      2.3810      0.0135     16.3028    102.5238
   355.3000      8.0950      2.3737      0.0670     16.7483    104.2368
   355.4000      8.0950      2.3662      0.0234     17.1994    102.1641
   355.5000      8.1183      2.3652      0.0326     17.2607     95.3801
   355.6000      8.1183      2.3775      0.0516     16.5163     86.7262
   355.7000      8.1183      2.3983      0.0662     15.2516     83.4163
   355.8000      8.1457      2.4153      0.0896     14.2272     89.1144
   355.9000      8.1457      2.4211      0.0527     13.8728     99.0774
   356.0000      8.1822      2.4232      0.0331     13.7428    104.8945
   356.1000      8.1822      2.4347      0.0374     13.0474    103.4687
   356.2000      8.1822      2.4508      0.0825     12.0705     99.9301
   356.3000      8.1789      2.4492      0.0919     12.1708     99.8206
   356.4000      8.1789      2.4297      0.0382     13.3512    101.9079
   356.5000      8.1495      2.4161     -0.0168     14.1766     99.5688
   356.6000      8.1495      2.4056      0.0646     14.8099     91.2208
   356.7000      8.1495      2.3755      0.0188     16.6367     84.2857
   356.8000      8.1352      2.3337     -0.0412     19.1696     84.3763
   356.9000      8.1352      2.3053     -0.0691     20.8894     86.7740
