~Version Information
VERS.                      2.0: CWLS Log ASCII Standard - VERSION 2.0
WRAP.                       NO: One line per depth step
~Well Information Block
STRT.FT               -10.0000: 
STOP.FT              1935.0000: 
STEP.FT                 0.2500: 
NULL.                -999.2500: 
COMP.          Pioneer Natural Resources: COMPANY
WELL.           Willys 32-8 Tr: WELL
FLD.           Purgatorie River: FIELD
LOC.           1843' FNL & 2355' FEL--: LOCATION
CNTY.               Las Animas: COUNTY
SRVC.          Patterson Wireline: SERVICE COMPANY
DATE.          Wed Feb 15 13:29:41 2006: LOG DATE
UWI.           05 071 08688 00: UNIQUE WELL ID
STAT.                       CO: STATE
~Curve Information Block
DEPT.FT            0 000 00 00: Depth
CCL.                          : Casing Collar Locator
TT3.usec                      : CBL 3' Travel Time
AMP3.mV                       : CBL 3' Amplitude
GR.GAPI                       : Gamma Ray
~Parameter Information Block
~A  Depth       CCL         TT3         AMP3         GR     
# ...
  1263.0000      0.0000    539.3103     12.2795     49.6624
  1263.2500      0.0000    577.3330     12.2922     48.8731
  1263.5000      0.0000    607.8796     12.3433     49.1484
  1263.7500      0.0000    635.6295     12.4059     50.4021
  1264.0000      0.0000    662.2360     12.4765     52.2429
  1264.2500      0.0000    684.7316     12.5593     54.0488
  1264.5000      0.0000    700.0155     12.6394     55.2174
  1264.7500      0.0000    707.6918     12.6845     55.5846
  1265.0000      0.0000    709.4891     12.6717     55.4080
  1265.2500      0.0000    707.9052     12.6040     55.2129
  1265.5000      0.0000    705.2999     12.5023     56.1734
  1265.7500      0.0000    703.2993     12.3874     60.1796
  1266.0000      0.0000    702.4629     12.2671     68.5078
  1266.2500      0.0000    702.2638     12.1359     80.3431
  1266.5000      0.0000    701.5043     11.9840     93.1547
  1266.7500      0.0000    699.0129     11.8081    104.4930
  1267.0000      0.0000    693.7268     11.6159    113.0557
  1267.2500      0.0000    683.7999     11.4256    118.4236
  1267.5000      0.0000    666.1938     11.2603    120.6920
  1267.7500      0.0000    639.2723     11.1374    120.7175
  1268.0000      0.0000    607.7551     11.0616    120.0842
  1268.2500      0.0000    583.1945     11.0264    120.0222
  1268.5000      0.0000    575.5571     11.0209    120.4381
  1268.7500      0.0000    584.5124     11.0340    120.5355
  1269.0000      0.0000    602.2935     11.0540    120.1703
  1269.2500      0.0000    623.2067     11.0685    119.9874
  1269.5000      0.0000    645.5810     11.0712    120.3916
  1269.7500      0.0000    666.9521     11.0669    120.9316
  1270.0000      0.0000    683.5424     11.0695    120.5816
  1270.2500      0.0000    694.0758     11.0917    118.4414
  1270.5000      0.0000    700.3145     11.1356    114.5195
  1270.7500      0.0000    703.8979     11.1913    109.9296
  1271.0000      0.0000    704.1755     11.2481    106.0242
  1271.2500      0.0000    697.7933     11.3092    103.5245
  1271.5000      0.0000    678.8809     11.3947    102.6832
  1271.7500      0.0000    641.7120     11.5277    103.6894
  1272.0000      0.0000    586.9597     11.7151    106.3141
  1272.2500      0.0000    525.7839     11.9436    109.4203
  1272.5000      0.0000    474.8319     12.1953    111.3978
  1272.7500      0.0000    445.5265     12.4646    111.3544
  1273.0000      0.0000    438.7847     12.7566    109.9591
  1273.2500      0.0000    449.1796     13.0680    109.0086
  1273.5000      0.0000    471.1216     13.3768    109.9716
  1273.7500      0.0000    499.4721     13.6548    112.8291
  1274.0000      0.0000    526.1232     13.8897    116.1713
  1274.2500      0.0000    540.1472     14.0887    118.4075
  1274.5000      0.0000    534.5457     14.2619    119.1042
  1274.7500      0.0000    512.4903     14.4035    119.2221
  1275.0000      0.0000    484.8487     14.4908    119.9344
  1275.2500      0.0000    461.3454     14.5009    121.3166
  1275.5000      0.0000    444.8556     14.4343    122.4372
  1275.7500      0.0000    432.9149     14.3215    122.4982
  1276.0000      0.0000    422.7564     14.1997    121.4785
  1276.2500      0.0000    414.9796     14.0848    119.8657
  1276.5000      0.0000    414.0833     13.9712    118.4423
  1276.7500      0.0000    426.1102     13.8543    118.2543
  1277.0000      0.0000    453.4007     13.7414    119.9044
  1277.2500      0.0000    488.5657     13.6388    122.4932
  1277.5000      0.0000    514.8445     13.5414    123.9829
  1277.7500      0.0000    517.7208     13.4418    123.1842
  1278.0000      0.0000    498.2666     13.3479    120.9874
  1278.2500      0.0000    472.4945     13.2881    119.2814
  1278.5000      0.0000    457.5681     13.2975    118.9924
  1278.7500      0.0000    460.8565     13.3956    119.4153
  1279.0000      0.0000    478.9924     13.5721    119.0563
  1279.2500      0.0000    500.7506     13.7934    116.8903
  1279.5000      0.0000    511.0602     14.0210    113.1367
  1279.7500      0.0000    499.3495     14.2258    109.2613
  1280.0000      0.0000    468.2105     14.3905    107.2423
  1280.2500      0.0000    432.4267     14.5056    108.4022
  1280.5000      0.0000    408.5959     14.5589    112.5077
  1280.7500      0.0000    405.7177     14.5164    117.8117
  1281.0000      0.0000    422.5755     14.3085    121.9641
  1281.2500      0.0000    450.4497     13.8504    123.1109
  1281.5000      0.0000    479.0743     13.1223    120.8168
  1281.7500      0.0000    503.0867     12.2573    116.3201
  1282.0000      0.0000    523.6260     11.4986    111.4409
  1282.2500      0.0000    543.2760     11.0006    106.9086
  1282.5000      0.0000    559.5647     10.7033    102.0479
  1282.7500      0.0000    563.5980     10.4608     96.0936
  1283.0000      0.0000    546.8886     10.2397     89.4441
  1283.2500      0.0000    511.6062     10.1171     83.6869
  1283.5000      0.0000    472.5507     10.1419     80.5768
  1283.7500      2.0000    447.3951     10.2811     80.9266
  1284.0000      0.0000    445.4806     10.4757     84.4044
  1284.2500      0.0000    463.2791     10.7174     90.2522
  1284.5000      0.0000    486.2188     11.0814     97.7421
  1284.7500      0.0000    496.9448     11.6655    105.7689
  1285.0000      0.0000    488.6965     12.4508    112.5126
  1285.2500      0.0000    471.8369     13.2465    116.1616
  1285.5000      0.0000    463.1692     13.8363    116.1592
  1285.7500      0.0000    468.5400     14.1485    113.6571
  1286.0000      0.0000    479.0477     14.2458    110.7109
  1286.2500      0.0000    483.7736     14.2111    109.0661
  1286.5000      0.0000    481.9616     14.0924    109.4672
  1286.7500      0.0000    481.8497     13.9135    111.6087
  1287.0000      0.0000    491.5168     13.6901    114.4940
  1287.2500      0.0000    513.1699     13.4380    117.2062
  1287.5000      0.0000    543.8196     13.1784    119.8495
  1287.7500      0.0000    578.9317     12.9379    123.6425
  1288.0000      0.0000    615.3733     12.7417    129.5525
  1288.2500      0.0000    651.3612     12.6034    136.8040
  1288.5000      0.0000    684.4802     12.5145    143.2362
  1288.7500      0.0000    711.3959     12.4502    147.2145
  1289.0000      0.0000    730.0165     12.3924    148.7258
  1289.2500      0.0000    741.0369     12.3420    148.6177
  1289.5000      0.0000    747.0526     12.3095    147.4367
  1289.7500      0.0000    750.2625     12.2995    145.3174
  1290.0000      0.0000    750.9586     12.3106    142.6186
  1290.2500      0.0000    748.1591     12.3433    140.1877
  1290.5000      0.0000    741.3036     12.3997    138.8743
  1290.7500      0.0000    730.6954     12.4773    138.9169
  1291.0000      0.0000    715.5909     12.5672    139.7981
  1291.2500      0.0000    692.2186     12.6600    140.5059
  1291.5000      0.0000    655.5069     12.7508    139.9021
  1291.7500      0.0000    604.9109     12.8375    137.2578
  1292.0000      0.0000    548.4739     12.9172    133.0216
  1292.2500      0.0000    499.3323     12.9829    128.9447
  1292.5000      0.0000    467.8038     13.0219    126.8483
  1292.7500      0.0000    458.0583     13.0169    127.1735
  1293.0000      0.0000    471.2464     12.9530    128.9581
  1293.2500      0.0000    507.5746     12.8296    130.7534
  1293.5000      0.0000    562.4341     12.6667    131.1334
  1293.7500      0.0000    622.3635     12.4921    129.1199
  1294.0000      0.0000    669.1797     12.3186    125.0801
  1294.2500      0.0000    689.8921     12.1402    120.9546
  1294.5000      0.0000    681.8941     11.9525    118.9300
  1294.7500      0.0000    650.0695     11.7722    119.7063
  1295.0000      0.0000    602.5939     11.6277    122.2823
  1295.2500      0.0000    549.8562     11.5326    125.3072
  1295.5000      0.0000    502.9495     11.4733    128.0942
  1295.7500      0.0000    469.3755     11.4230    130.1110
  1296.0000      0.0000    450.0244     11.3652    130.2726
  1296.2500      0.0000    440.8543     11.3042    127.6654
