~Version Information
VERS.                      2.0: CWLS Log ASCII Standard - VERSION 2.0
WRAP.                       NO: One line per depth step
~Well Information Block
STRT.FT               239.2000: 
STOP.FT              1618.0000: 
STEP.FT                 0.1000: 
NULL.                -999.2500: 
COMP.          Pioneer Natural Resources: COMPANY
WELL.          Daytona 31-14 Tr: WELL
FLD.           Purgatoire River: FIELD
LOC.           683' FNL & 1943' FEL: LOCATION
CNTY.               Las Animas: COUNTY
SRVC.                         : SERVICE COMPANY
DATE.          Fri Jan 27 14:32:28 2006: LOG DATE
UWI.           05 071 08681 00: UNIQUE WELL ID
STAT.                 Colorado: STATE
~Curve Information Block
DEPT.FT            0 000 00 00: Depth
DCAL.in                       : CDL Caliper
RHOB.g/cc                     : CDL Bulk Density
RHOC.g/cc                     : CDL Density Correction
DPOR.pu                       : CDL Density Porosity
GR.GAPI                       : Gamma Ray
~Parameter Information Block
~A  Depth       DCAL        RHOB        RHOC        DPOR         GR     
# ...
   519.2000      8.0237      2.1973      0.1886     27.4366    152.3635
   519.3000      8.0068      2.3203      0.3311     19.9837    156.2162
   519.4000      8.0068      2.4198      0.3198     13.9516    154.4455
   519.5000      8.0255      2.4883      0.2633      9.7976    153.4126
   519.6000      8.0255      2.5299      0.2331      7.2771    158.0002
   519.7000      8.0255      2.5487      0.1739      6.1414    160.8911
   519.8000      8.0126      2.5567      0.1551      5.6525    159.0562
   519.9000      8.0126      2.5604      0.1889      5.4289    159.8648
   520.0000      8.0101      2.5585      0.1487      5.5446    162.1961
   520.1000      8.0101      2.5576      0.1448      5.6018    160.2684
   520.2000      8.0101      2.5609      0.1148      5.3988    157.3908
   520.3000      8.0073      2.5643      0.1223      5.1960    156.4711
   520.4000      8.0073      2.5632      0.1257      5.2588    154.9069
   520.5000      7.9867      2.5563      0.1322      5.6808    153.4327
   520.6000      7.9867      2.5453      0.0852      6.3485    156.0528
   520.7000      7.9867      2.5374      0.0783      6.8257    161.6279
   520.8000      7.9835      2.5410      0.0677      6.6038    165.1473
   520.9000      7.9835      2.5534      0.0983      5.8556    164.4998
   521.0000      7.9789      2.5644      0.0734      5.1853    162.6291
   521.1000      7.9789      2.5698      0.1250      4.8629    160.7588
   521.2000      7.9789      2.5686      0.1133      4.9310    157.5983
   521.3000      7.9802      2.5656      0.1287      5.1176    157.0482
   521.4000      7.9802      2.5682      0.1312      4.9595    161.2332
   521.5000      7.9790      2.5816      0.1507      4.1428    163.8429
   521.6000      7.9790      2.5997      0.1498      3.0472    162.6794
   521.7000      7.9790      2.6101      0.1375      2.4160    161.3798
   521.8000      7.9792      2.6146      0.1084      2.1475    159.3625
   521.9000      7.9792      2.6212      0.1113      1.7447    154.9006
   522.0000      7.9795      2.6209      0.1491      1.7635    151.3820
   522.1000      7.9795      2.5981      0.1406      3.1479    152.0973
   522.2000      7.9795      2.5561      0.1030      5.6915    154.8608
   522.3000      7.9772      2.5125      0.0897      8.3335    157.2923
   522.4000      7.9772      2.4818      0.0302     10.1955    159.6400
   522.5000      7.9773      2.4730      0.0039     10.7288    160.7673
   522.6000      7.9773      2.4899      0.0277      9.7010    159.7718
   522.7000      7.9773      2.5232      0.0801      7.6837    156.4148
   522.8000      7.9763      2.5458      0.1116      6.3125    151.5513
   522.9000      7.9763      2.5450      0.0366      6.3649    144.7525
   523.0000      7.9795      2.5389      0.0518      6.7327    137.0278
   523.1000      7.9795      2.5398      0.0596      6.6812    130.2742
   523.2000      7.9795      2.5383      0.0642      6.7684    124.0299
   523.3000      7.9779      2.5274      0.0486      7.4309    119.0872
   523.4000      7.9779      2.5134      0.0696      8.2804    116.1311
   523.5000      7.9773      2.5086      0.0433      8.5675    112.8027
   523.6000      7.9773      2.5208      0.0500      7.8296    109.2013
   523.7000      7.9773      2.5521      0.0631      5.9335    107.5422
   523.8000      7.9709      2.5931      0.1210      3.4468    108.4984
   523.9000      7.9709      2.6243      0.1332      1.5600    110.2850
   524.0000      7.9511      2.6392      0.1918      0.6519    109.0880
   524.1000      7.9511      2.6400      0.2143      0.6067    104.6235
   524.2000      7.9511      2.6265      0.1984      1.4232    100.5211
   524.3000      7.9157      2.6101      0.1456      2.4188    100.0069
   524.4000      7.9157      2.6014      0.1392      2.9439    105.7458
   524.5000      7.9855      2.5917      0.1313      3.5340    114.5420
   524.6000      7.9855      2.5811      0.0593      4.1752    119.8939
   524.7000      7.9855      2.5922      0.0449      3.5049    122.2255
   524.8000      7.9969      2.6226      0.1146      1.6577    122.8883
   524.9000      7.9969      2.6449      0.1289      0.3107    122.5090
   525.0000      7.9963      2.6532      0.1047     -0.1963    124.5331
   525.1000      7.9963      2.6495      0.1306      0.0333    125.7861
   525.2000      7.9963      2.6222      0.1305      1.6838    120.3447
   525.3000      7.9948      2.5849      0.0430      3.9434    112.3968
   525.4000      7.9948      2.5620      0.0857      5.3357    106.6112
   525.5000      7.9952      2.5451      0.0646      6.3563    102.3974
   525.6000      7.9952      2.5171      0.0124      8.0564     98.1804
   525.7000      7.9952      2.4767     -0.0003     10.5012     94.5986
   525.8000      7.9934      2.4299     -0.0026     13.3420     92.6730
   525.9000      7.9934      2.3881     -0.0468     15.8741     92.0176
   526.0000      7.9918      2.3685     -0.0088     17.0582     92.2297
   526.1000      7.9918      2.3771      0.0091     16.5382     91.7027
   526.2000      7.9918      2.4006      0.0288     15.1135     89.5608
   526.3000      7.9882      2.4220      0.0755     13.8185     88.2635
   526.4000      7.9882      2.4488      0.0056     12.1920     88.5083
   526.5000      7.9793      2.4996      0.1035      9.1165     87.7527
   526.6000      7.9793      2.5606      0.1815      5.4178     86.7013
   526.7000      7.9793      2.6026      0.2716      2.8733     87.5774
   526.8000      7.9483      2.6160      0.2453      2.0619     89.6900
   526.9000      7.9483      2.6072      0.2282      2.5919     93.9416
   527.0000      7.9211      2.5831      0.2253      4.0532    100.9052
   527.1000      7.9211      2.5461      0.1980      6.2955    106.3138
   527.2000      7.9211      2.4986      0.1625      9.1763    109.2647
   527.3000      7.9644      2.4445      0.1480     12.4533    112.1165
   527.4000      7.9644      2.3833      0.0931     16.1619    115.6325
   527.5000      8.0409      2.3212      0.0222     19.9256    121.2497
   527.6000      8.0409      2.2787      0.0050     22.5058    128.2068
   527.7000      8.0409      2.2634      0.0242     23.4285    137.4184
   527.8000      8.0756      2.2574      0.0524     23.7924    149.7798
   527.9000      8.0756      2.2598      0.0360     23.6509    161.4536
   528.0000      8.0945      2.3057      0.1115     20.8650    170.2733
   528.1000      8.0945      2.4003      0.2954     15.1315    175.0319
   528.2000      8.0945      2.5003      0.3580      9.0738    175.8322
   528.3000      8.1163      2.5684      0.4210      4.9478    176.3777
   528.4000      8.1163      2.5908      0.4397      3.5886    177.6264
   528.5000      8.1083      2.5761      0.3293      4.4760    176.0354
   528.6000      8.1083      2.5558      0.2695      5.7079    173.5412
   528.7000      8.1083      2.5558      0.2523      5.7120    175.0999
   528.8000      8.1110      2.5652      0.3184      5.1387    183.6816
   528.9000      8.1110      2.5530      0.2741      5.8782    197.0652
   529.0000      8.1348      2.5098      0.1866      8.4956    203.2387
   529.1000      8.1348      2.4522      0.1575     11.9853    194.9288
   529.2000      8.1348      2.3937      0.1455     15.5322    182.1068
   529.3000      8.1454      2.3392      0.1500     18.8382    173.7930
   529.4000      8.1454      2.3005      0.0736     21.1826    169.3105
   529.5000      8.1458      2.2895      0.0724     21.8470    171.1257
   529.6000      8.1458      2.3035      0.0714     21.0018    181.3220
   529.7000      8.1458      2.3295      0.1170     19.4251    189.0676
   529.8000      8.1421      2.3568      0.1025     17.7717    183.6038
   529.9000      8.1421      2.3828      0.1737     16.1912    172.8092
   530.0000      8.1154      2.4109      0.2017     14.4910    167.8177
   530.1000      8.1154      2.4386      0.2955     12.8095    169.2073
   530.2000      8.1154      2.4479      0.3458     12.2494    173.0734
   530.3000      8.0970      2.4359      0.2109     12.9776    175.1989
