~Version Information
VERS.                      2.0: CWLS Log ASCII Standard - VERSION 2.0
WRAP.                       NO: One line per depth step
~Well Information Block
STRT.FT                -8.2500: 
STOP.FT              1580.5000: 
STEP.FT                 0.2500: 
NULL.                -999.2500: 
COMP.          Pioneer Natural Resources: COMPANY
WELL.          Daytona 31-14 Tr: WELL
FLD.           Purgatorie River: FIELD
LOC.           683' FNL & 1943' FEL--: LOCATION
CNTY.               Las Animas: COUNTY
SRVC.          Patterson Wireline: SERVICE COMPANY
DATE.          Thu Feb 02 08:47:22 2006: LOG DATE
UWI.           05 071 08681 00: UNIQUE WELL ID
STAT.                       CO: STATE
~Curve Information Block
DEPT.FT            0 000 00 00: Depth
CCL.                          : Casing Collar Locator
TT3.usec                      : CBL 3' Travel Time
AMP3.mV                       : CBL 3' Amplitude
GR.GAPI                       : Gamma Ray
~Parameter Information Block
~A  Depth       CCL         TT3         AMP3         GR     
# ...
   393.7500      0.0000    687.0297      8.5506     35.2496
   394.0000      0.0000    687.1953      8.6786     33.7663
   394.2500      0.0000    687.3758      8.7845     32.4243
   394.5000      0.0000    687.5052      8.8813     30.9239
   394.7500      0.0000    687.5703      8.9898     29.4803
   395.0000      0.0000    687.6126      9.1276     28.8813
   395.2500      0.0000    687.6713      9.2936     29.9220
   395.5000      0.0000    687.7410      9.4613     32.6071
   395.7500      0.0000    687.7984      9.5987     35.9377
   396.0000      0.0000    687.8517      9.6965     38.6131
   396.2500      0.0000    687.9440      9.7727     39.9170
   396.5000      0.0000    688.1117      9.8439     39.8766
   396.7500      0.0000    688.3478      9.8982     38.9816
   397.0000      0.0000    688.6060      9.9021     38.1893
   397.2500      0.0000    688.8337      9.8350     38.9661
   397.5000      0.0000    689.0005      9.7129     42.8105
   397.7500      0.0000    689.1069      9.5759     50.6030
   398.0000      0.0000    689.1842      9.4584     62.2215
   398.2500      0.0000    689.2906      9.3725     76.2894
   398.5000      0.0000    689.5131      9.3124     90.2611
   398.7500      0.0000    690.0089      9.2638    101.3598
   399.0000      0.0000    691.0874      9.1976    108.1827
   399.2500      0.0000    693.1309      9.0565    111.8110
   399.5000      0.0000    696.0407      8.7630    115.2234
   399.7500      0.0000    698.5514      8.2706    121.0087
   400.0000      0.0000    698.8868      7.6326    129.1076
   400.2500      0.0000    697.4747      7.0090    136.7099
   400.5000      0.0000    699.2229      6.5623    140.5901
   400.7500      0.0000    711.1002      6.3354    139.7913
   401.0000      0.0000    735.6079      6.2595    136.1620
   401.2500      0.0000    767.0797      6.2645    132.5477
   401.5000      0.0000    795.8667      6.3355    130.7543
   401.7500      0.0000    815.9213      6.4714    130.9503
   402.0000      0.0000    827.5176      6.6406    132.3223
   402.2500      2.0000    833.6686      6.7961    134.1542
   402.5000      0.0000    835.4234      6.9309    136.4011
   402.7500      0.0000    830.3261      7.1113    139.0711
   403.0000      0.0000    814.4731      7.4251    141.4134
   403.2500      0.0000    785.6869      7.8718    142.5691
   403.5000      0.0000    744.6066      8.3404    142.9150
   403.7500      0.0000    694.1476      8.7306    143.9030
   404.0000      0.0000    640.9198      9.0489    146.6431
   404.2500      0.0000    597.2941      9.3495    151.1124
   404.5000      0.0000    577.2958      9.6335    156.3040
   404.7500      0.0000    586.1611      9.8514    160.6299
   405.0000      0.0000    614.8193      9.9703    162.5774
   405.2500      0.0000    646.8333     10.0035    161.5701
   405.5000      0.0000    670.3126      9.9833    158.4163
   405.7500      0.0000    682.7950      9.9299    154.9202
   406.0000      0.0000    687.6484      9.8507    152.8058
   406.2500      0.0000    688.8508      9.7590    152.4958
   406.5000      0.0000    688.7924      9.6786    152.5088
   406.7500      0.0000    688.5062      9.6256    150.0534
   407.0000      0.0000    688.3438      9.5919    143.0386
   407.2500      0.0000    688.3538      9.5538    132.5777
   407.5000      0.0000    688.4715      9.4987    123.4286
   407.7500      0.0000    688.6729      9.4440    120.8839
   408.0000      0.0000    689.0829      9.4302    126.7320
   408.2500      0.0000    690.0536      9.4962    138.3772
   408.5000      0.0000    692.1456      9.6559    151.3943
   408.7500      0.0000    695.8076      9.8919    162.0991
   409.0000      0.0000    700.8408     10.1671    168.0183
   409.2500      0.0000    706.1667     10.4454    167.6338
   409.5000      0.0000    710.2125     10.7009    161.1070
   409.7500      0.0000    711.6464     10.9182    150.9830
   410.0000      0.0000    710.2204     11.0969    140.9805
   410.2500      0.0000    707.2799     11.2577    133.4444
   410.5000      0.0000    705.0567     11.4271    127.9394
   410.7500      0.0000    704.8436     11.6024    122.1571
   411.0000      0.0000    705.8756     11.7351    114.0462
   411.2500      0.0000    706.1667     11.7565    103.3310
   411.5000      0.0000    704.2905     11.6228     91.5991
   411.7500      0.0000    700.3848     11.3419     81.1833
   412.0000      0.0000    695.8239     10.9658     73.6521
   412.2500      0.0000    692.1738     10.5664     69.0904
   412.5000      0.0000    690.3983     10.2120     66.7587
   412.7500      0.0000    690.7512      9.9556     66.1482
   413.0000      0.0000    692.9005      9.8287     67.1117
   413.2500      0.0000    695.9781      9.8302     69.2878
   413.5000      0.0000    698.9408      9.9192     72.0100
   413.7500      0.0000    701.2706     10.0274     74.9360
   414.0000      0.0000    703.0909     10.0920     78.5487
   414.2500      0.0000    704.3927     10.0849     83.8078
   414.5000      0.0000    704.5552     10.0181     91.2167
   414.7500      0.0000    702.9362      9.9272    100.3269
   415.0000      0.0000    699.7509      9.8451    110.1843
   415.2500      0.0000    696.1230      9.7841    119.8102
   415.5000      0.0000    693.2461      9.7319    128.0155
   415.7500      0.0000    691.5870      9.6645    133.4786
   416.0000      0.0000    690.8625      9.5621    135.9156
   416.2500      0.0000    690.5580      9.4200    136.7680
   416.5000      0.0000    690.3525      9.2521    137.8675
   416.7500      0.0000    690.1662      9.0862    139.7468
   417.0000      0.0000    689.9950      8.9481    141.8160
   417.2500      0.0000    689.7805      8.8510    143.6804
   417.5000      0.0000    689.4114      8.8000    145.8064
   417.7500      0.0000    688.6095      8.8007    149.1743
   418.0000      0.0000    686.5823      8.8554    154.3052
   418.2500      0.0000    681.4633      8.9539    160.1033
   418.5000      0.0000    670.5547      9.0764    163.7507
   418.7500      0.0000    652.1109      9.2079    162.5382
   419.0000      0.0000    627.5544      9.3456    156.1361
   419.2500      0.0000    600.8995      9.4938    146.8894
   419.5000      0.0000    574.9715      9.6576    138.1092
   419.7500      0.0000    549.3008      9.8377    132.2690
   420.0000      0.0000    524.1122     10.0253    129.9928
   420.2500      0.0000    506.6243     10.1999    129.6871
   420.5000      0.0000    509.6191     10.3403    128.4093
   420.7500      0.0000    539.0530     10.4394    124.1768
   421.0000      0.0000    582.5656     10.5121    117.7227
   421.2500      0.0000    613.5994     10.5853    111.8482
   421.5000      0.0000    609.8336     10.6777    109.3306
   421.7500      0.0000    569.9383     10.7832    111.4068
   422.0000      0.0000    515.5507     10.8732    117.4930
   422.2500      0.0000    477.5832     10.9190    125.8043
   422.5000      0.0000    476.6406     10.9108    134.4267
   422.7500      0.0000    510.1678     10.8577    142.1163
   423.0000      0.0000    554.8004     10.7726    148.3714
   423.2500      0.0000    583.4432     10.6611    153.0543
   423.5000      0.0000    585.4249     10.5227    156.0039
   423.7500      0.0000    571.0744     10.3615    157.0654
   424.0000      0.0000    555.4959     10.1969    156.8284
   424.2500      0.0000    541.2589     10.0618    157.2886
   424.5000      0.0000    522.0275      9.9812    160.9217
   424.7500      0.0000    499.3521      9.9480    168.4207
   425.0000      0.0000    486.6458      9.9213    177.4686
   425.2500      0.0000    495.6271      9.8527    184.1644
   425.5000      0.0000    525.4507      9.7202    185.8486
   425.7500      0.0000    566.2260      9.5375    182.5346
   426.0000      0.0000    607.5002      9.3362    175.6205
   426.2500      0.0000    641.8358      9.1406    165.8553
   426.5000      0.0000    665.3812      8.9546    153.4912
   426.7500      0.0000    678.3690      8.7640    140.0110
   427.0000      0.0000    684.1102      8.5541    128.0983
