~Version Information
VERS.                      2.0: CWLS Log ASCII Standard - VERSION 2.0
WRAP.                       NO: One line per depth step
~Well Information Block
STRT.FT               491.0000: 
STOP.FT              1909.5000: 
STEP.FT                 0.1000: 
NULL.                -999.2500: 
COMP.          Pioneer Natural Resources: COMPANY
WELL.            Corazon 13-10: WELL
FLD.           Purgatoire River: FIELD
LOC.           2510' FSL & 439' FWL: LOCATION
PROV.                 Colorado: PROVINCE
CNTY.               Las Animas: COUNTRY
SRVC.                Patterson: SERVICE COMPANY
DATE.          Thu Dec 01 07:28:46 2005: LOG DATE
UWI.           05 071 08613 00: UNIQUE WELL ID
~Curve Information Block
DEPT.FT            0 000 00 00: Depth
DCAL.in                       : CDL Caliper
RHOB.g/cc                     : CDL Bulk Density
RHOC.g/cc                     : CDL Density Correction
DPOR.pu                       : CDL Density Porosity
GR.GAPI                       : Gamma Ray
NPOR.pu                       : Neutron Porosity
~Parameter Information Block
~A  Depth       DCAL        RHOB        RHOC        DPOR         GR         NPOR    
# ...
  1422.2000      8.3236      2.4802      0.0396     10.2925    125.3638     23.3356
  1422.3000      8.3448      2.4758      0.0691     10.5604    125.3447     23.1184
  1422.4000      8.3448      2.4650      0.0423     11.2120    119.6956     23.2942
  1422.5000      8.4014      2.4528      0.0111     11.9512    109.1916     23.6387
  1422.6000      8.4014      2.4407     -0.0071     12.6867    100.4831     23.5368
  1422.7000      8.4014      2.4306     -0.0062     13.2976     99.6840     22.2236
  1422.8000      8.3472      2.4260      0.0131     13.5780    104.6690     20.4847
  1422.9000      8.3472      2.4328      0.0026     13.1629    105.9281     19.3265
  1423.0000      8.3441      2.4509      0.0246     12.0697    100.7021     18.5893
  1423.1000      8.3441      2.4680      0.0705     11.0297     93.5942     18.3320
  1423.2000      8.3441      2.4809      0.0440     10.2500     90.0935     18.6704
  1423.3000      8.3760      2.4971      0.0900      9.2678     91.4007     18.9193
  1423.4000      8.3760      2.5128      0.1045      8.3143     91.4857     18.1575
  1423.5000      8.3693      2.5182      0.1105      7.9885     86.3806     16.7278
  1423.6000      8.3693      2.5196      0.0849      7.9009     80.1083     15.7076
  1423.7000      8.3693      2.5253      0.1552      7.5597     74.9909     15.0381
  1423.8000      8.3408      2.5176      0.1402      8.0244     69.4103     14.3832
  1423.9000      8.3408      2.4877      0.0487      9.8365     64.6995     14.0994
  1424.0000      8.3385      2.4657     -0.0007     11.1668     63.3985     14.4621
  1424.1000      8.3385      2.4717      0.0649     10.8085     65.7619     15.0823
  1424.2000      8.3385      2.4868      0.0680      9.8892     69.0778     15.4232
  1424.3000      8.3445      2.4908      0.0385      9.6509     71.2851     15.6746
  1424.4000      8.3445      2.4814      0.0366     10.2163     73.2065     16.0157
  1424.5000      8.1805      2.4718      0.0162     10.8017     74.7533     16.1718
  1424.6000      8.1805      2.4800     -0.0012     10.3026     74.7191     16.2017
  1424.7000      8.1805      2.5089      0.0173      8.5537     73.0238     16.3523
  1424.8000      8.1119      2.5291      0.0866      7.3262     72.7037     16.4244
  1424.9000      8.1119      2.5155     -0.0059      8.1500     74.9297     16.0203
  1425.0000      8.1170      2.4870     -0.0177      9.8803     75.9461     15.4825
  1425.1000      8.1170      2.4715     -0.0472     10.8198     75.1673     15.6173
  1425.2000      8.1170      2.4752     -0.0116     10.5963     74.0348     16.6149
  1425.3000      8.1385      2.4874      0.0093      9.8523     71.1409     18.2006
  1425.4000      8.1385      2.4935      0.0240      9.4829     66.6104     19.5576
  1425.5000      8.1809      2.4847      0.0036     10.0198     64.6628     19.6834
  1425.6000      8.1809      2.4546      0.0037     11.8454     68.1528     19.4513
  1425.7000      8.1809      2.3917      0.0366     15.6559     73.1965     20.4249
  1425.8000      8.1898      2.2993     -0.0490     21.2552     75.2300     22.3001
  1425.9000      8.1898      2.2152     -0.1000     26.3507     76.1324     23.8071
  1426.0000      8.1778      2.1677     -0.0299     29.2282     77.1093     24.7253
  1426.1000      8.1778      2.1462     -0.0812     30.5307     77.6031     25.3955
  1426.2000      8.1778      2.1456     -0.1265     30.5725     81.6784     26.1504
  1426.3000      8.1471      2.1752     -0.0559     28.7765     94.1692     26.9978
  1426.4000      8.1471      2.2264     -0.0003     25.6703    111.1957     27.7430
  1426.5000      8.1629      2.2871      0.0210     21.9960    122.4736     28.3250
  1426.6000      8.1629      2.3625      0.1516     17.4230    124.5957     28.3116
  1426.7000      8.1629      2.4605      0.1749     11.4821    119.4920     27.7258
  1426.8000      8.1919      2.5534      0.2486      5.8526    107.3992     27.0492
  1426.9000      8.1919      2.5870      0.1706      3.8188     95.1903     26.3199
  1427.0000      8.2239      2.5643      0.0079      5.1958     91.2355     25.0874
  1427.1000      8.2239      2.5411      0.0023      6.5973     92.0661     23.3889
  1427.2000      8.2239      2.5394      0.0390      6.7028     88.4834     22.0537
  1427.3000      8.1944      2.5442      0.0179      6.4119     80.8612     21.4214
  1427.4000      8.1944      2.5416      0.0466      6.5701     76.2622     20.7517
  1427.5000      8.1731      2.5245      0.0298      7.6045     76.1466     19.8730
  1427.6000      8.1731      2.5031     -0.0163      8.9017     79.1795     19.6733
  1427.7000      8.1731      2.4949     -0.0027      9.3983     83.5013     20.3541
  1427.8000      8.1864      2.4990      0.0287      9.1545     84.7559     21.0413
  1427.9000      8.1864      2.5078      0.0157      8.6177     81.7474     20.9074
  1428.0000      8.1695      2.5261      0.0321      7.5112     78.0732     20.3122
  1428.1000      8.1695      2.5532      0.0606      5.8670     76.6129     19.9637
  1428.2000      8.1695      2.5774      0.0781      4.4002     76.8592     19.6019
  1428.3000      8.1366      2.5829      0.0574      4.0665     76.5101     19.4780
  1428.4000      8.1366      2.5603      0.0801      5.4360     76.4630     20.0224
  1428.5000      8.1005      2.5276      0.0244      7.4205     79.6739     20.4174
  1428.6000      8.1005      2.5179      0.0810      8.0069     84.4200     20.2827
  1428.7000      8.1005      2.5271      0.1338      7.4470     85.7300     20.2634
  1428.8000      8.1022      2.5300      0.1109      7.2753     86.2127     20.3510
  1428.9000      8.1022      2.5290      0.0647      7.3321     94.5982     20.0560
  1429.0000      8.1311      2.5348      0.0613      6.9837    106.0898     19.6714
  1429.1000      8.1311      2.5400      0.0901      6.6689    109.8391     19.9462
  1429.2000      8.1311      2.5442      0.0446      6.4106    110.8369     20.8445
  1429.3000      8.1424      2.5607      0.1032      5.4124    116.0214     22.0100
  1429.4000      8.1424      2.5785      0.1215      4.3332    122.3366     23.2873
  1429.5000      8.1785      2.5761      0.0809      4.4807    129.1320     24.6045
  1429.6000      8.1785      2.5536      0.0841      5.8450    137.3425     25.9405
  1429.7000      8.1785      2.5249      0.0467      7.5847    140.5184     26.9774
  1429.8000      8.2175      2.5074      0.0154      8.6420    132.2564     27.2598
  1429.9000      8.2175      2.5003      0.0443      9.0751    119.8485     27.0096
  1430.0000      8.2230      2.4849      0.0882     10.0086    118.2886     26.7902
  1430.1000      8.2230      2.4622      0.0109     11.3824    127.5666     26.9056
  1430.2000      8.2230      2.4514      0.0421     12.0388    131.8781     27.1200
  1430.3000      8.2252      2.4615      0.0481     11.4248    125.4109     27.3429
  1430.4000      8.2252      2.4890      0.0576      9.7553    118.8713     27.6268
  1430.5000      8.2219      2.5206      0.0702      7.8430    120.1287     27.7330
  1430.6000      8.2219      2.5336      0.1445      7.0525    122.8148     27.7654
  1430.7000      8.2219      2.5229      0.0946      7.7009    120.3529     27.8371
  1430.8000      8.2246      2.5122      0.1308      8.3534    118.8045     27.7051
  1430.9000      8.2246      2.5123      0.1575      8.3452    126.2629     27.3054
  1431.0000      8.1975      2.5145      0.1261      8.2147    138.2856     27.0057
  1431.1000      8.1975      2.5197      0.0880      7.8967    146.2651     27.1161
  1431.2000      8.1975      2.5356      0.0920      6.9346    149.3585     27.4902
  1431.3000      8.1846      2.5641      0.1016      5.2052    149.6897     27.6960
  1431.4000      8.1846      2.5994      0.1771      3.0677    148.1555     27.3955
  1431.5000      8.1812      2.6293      0.1991      1.2557    143.8010     27.3737
  1431.6000      8.1812      2.6387      0.2484      0.6828    138.0732     28.0935
  1431.7000      8.1812      2.6118      0.2654      2.3125    136.7088     28.4318
