~Version Information
VERS.                      2.0: CWLS Log ASCII Standard - VERSION 2.0
WRAP.                       NO: One line per depth step
~Well Information Block
STRT.FT               460.0000: 
STOP.FT              1498.0000: 
STEP.FT                 0.1000: 
NULL.                -999.2500: 
COMP.          Pioneer Natural Resources: COMPANY
WELL.           Amore 32-09 Tr: WELL
FLD.           Purgatoire River: FIELD
LOC.           1941' FNL & 2297' FEL: LOCATION
PROV.                 Colorado: PROVINCE
CNTY.               Las Animas: COUNTRY
SRVC.                Patterson: SERVICE COMPANY
DATE.          Mon Nov 14 13:24:57 2005: LOG DATE
UWI.           05 071 08584 00: UNIQUE WELL ID
~Curve Information Block
DEPT.FT            0 000 00 00: Depth
DCAL.in                       : CDL Caliper
RHOB.g/cc                     : CDL Bulk Density
RHOC.g/cc                     : CDL Density Correction
DPOR.pu                       : CDL Density Porosity
GR.GAPI                       : Gamma Ray
NPOR.pu                       : Neutron Porosity
~Parameter Information Block
~A  Depth       DCAL        RHOB        RHOC        DPOR         GR         NPOR    
# ...
  1007.2000      7.9715      2.6562      0.0875     -0.3763     92.1516     21.6688
  1007.3000      7.9711      2.6773      0.1124     -1.6521     87.0656     20.7889
  1007.4000      7.9711      2.6843      0.0663     -2.0772     84.3150     19.7698
  1007.5000      7.9710      2.6940      0.0407     -2.6637     79.6042     19.1766
  1007.6000      7.9710      2.7095      0.0893     -3.6065     76.5110     19.3147
  1007.7000      7.9710      2.7207      0.0528     -4.2875     76.4863     19.3909
  1007.8000      7.9708      2.7271      0.0567     -4.6757     79.2305     18.6321
  1007.9000      7.9708      2.7267      0.0303     -4.6459     84.1706     17.8079
  1008.0000      7.9707      2.7166     -0.0029     -4.0359     90.7702     18.0435
  1008.1000      7.9707      2.7056     -0.0367     -3.3716     98.0463     18.7476
  1008.2000      7.9707      2.6923     -0.0271     -2.5633    103.0947     18.4241
  1008.3000      7.9709      2.6639     -0.0665     -0.8395    102.0230     16.8833
  1008.4000      7.9709      2.6319     -0.0532      1.0959     96.2914     15.4855
  1008.5000      7.9712      2.6197      0.0123      1.8393     91.5676     15.3767
  1008.6000      7.9712      2.6178      0.0852      1.9519     91.5695     16.1973
  1008.7000      7.9712      2.6105      0.0287      2.3938     96.5529     17.3471
  1008.8000      7.9713      2.6164      0.0476      2.0352    101.7862     18.5945
  1008.9000      7.9713      2.6408      0.1599      0.5571    102.0541     19.6879
  1009.0000      7.9716      2.6557      0.1304     -0.3442     98.9889     20.4561
  1009.1000      7.9716      2.6536      0.1091     -0.2162     99.5773     20.6101
  1009.2000      7.9716      2.6451      0.1191      0.2952    104.0772     20.1553
  1009.3000      7.9720      2.6367      0.0875      0.8055    102.8841     20.1296
  1009.4000      7.9720      2.6446      0.0496      0.3293     91.7377     20.7872
  1009.5000      7.9721      2.6781      0.0791     -1.7017     79.5753     21.1862
  1009.6000      7.9721      2.7107      0.1183     -3.6764     75.7373     21.1975
  1009.7000      7.9721      2.7192      0.0395     -4.1955     79.3676     21.2077
  1009.8000      7.9720      2.7136      0.0639     -3.8550     81.4998     21.1056
  1009.9000      7.9720      2.7011      0.0446     -3.0968     74.4610     20.9007
  1010.0000      7.9714      2.6902     -0.0241     -2.4339     63.6305     20.3141
  1010.1000      7.9714      2.6972      0.0451     -2.8598     60.4320     19.3633
  1010.2000      7.9714      2.7148      0.0634     -3.9259     65.1412     18.5390
  1010.3000      7.9707      2.7242      0.0718     -4.4955     70.0158     17.8923
  1010.4000      7.9707      2.7188      0.0590     -4.1673     73.2425     17.3512
  1010.5000      7.9704      2.6995      0.0517     -2.9992     76.2853     17.0026
  1010.6000      7.9704      2.6697      0.0555     -1.1955     79.5022     17.0428
  1010.7000      7.9704      2.6422     -0.0040      0.4747     85.5233     17.2900
  1010.8000      7.9704      2.6280      0.0118      1.3358     93.7050     17.1048
  1010.9000      7.9704      2.6166      0.0540      2.0267    100.3804     16.5347
  1011.0000      7.9709      2.6028     -0.0003      2.8634    107.3882     16.6537
  1011.1000      7.9709      2.6028      0.0314      2.8598    115.7669     17.9370
  1011.2000      7.9709      2.6209      0.0427      1.7666    121.7416     19.5816
  1011.3000      7.9712      2.6464      0.0578      0.2210    122.1104     20.9104
  1011.4000      7.9712      2.6696      0.0706     -1.1899    118.4448     22.0137
  1011.5000      7.9709      2.6789      0.0993     -1.7492    118.0578     22.8752
  1011.6000      7.9709      2.6712      0.0920     -1.2836    126.4443     23.7435
  1011.7000      7.9709      2.6573      0.0824     -0.4452    139.9308     24.8882
  1011.8000      7.9709      2.6404      0.1280      0.5803    150.0772     25.3790
  1011.9000      7.9709      2.6213      0.0363      1.7364    154.0780     24.6092
  1012.0000      7.9719      2.6121      0.0408      2.2957    154.9831     23.5624
  1012.1000      7.9719      2.6133      0.0029      2.2252    152.7393     23.0052
  1012.2000      7.9719      2.6131      0.0154      2.2387    147.7284     22.8881
  1012.3000      7.9748      2.6088      0.0421      2.4952    141.6907     23.3085
  1012.4000      7.9748      2.6065      0.0492      2.6364    132.6391     23.9719
  1012.5000      7.9771      2.6038      0.0665      2.7985    123.5649     23.9991
  1012.6000      7.9771      2.5995      0.0454      3.0622    120.6887     23.3587
  1012.7000      7.9771      2.6029      0.0566      2.8569    121.2673     23.3008
  1012.8000      7.9747      2.6078      0.0840      2.5555    118.6179     24.5145
  1012.9000      7.9747      2.6034      0.0430      2.8252    115.2714     25.8615
  1013.0000      7.9712      2.5987      0.0214      3.1095    117.6755     26.0733
  1013.1000      7.9712      2.6004      0.0373      3.0058    122.0482     25.0836
  1013.2000      7.9712      2.6039      0.0304      2.7960    120.4820     23.4529
  1013.3000      7.9701      2.6075      0.0106      2.5727    115.4193     22.2934
  1013.4000      7.9701      2.6149      0.0059      2.1262    112.6080     22.1754
  1013.5000      7.9705      2.6294      0.0299      1.2485    111.9433     22.3512
  1013.6000      7.9705      2.6531      0.0110     -0.1858    112.4027     22.2427
  1013.7000      7.9705      2.6781      0.0875     -1.7029    113.4415     21.8399
  1013.8000      7.9709      2.6828      0.0766     -1.9863    113.4876     21.5704
  1013.9000      7.9709      2.6638      0.0540     -0.8366    114.2919     21.7009
  1014.0000      7.9709      2.6438      0.0385      0.3788    115.3395     21.6490
  1014.1000      7.9709      2.6348      0.0840      0.9229    113.4560     21.3000
  1014.2000      7.9709      2.6329      0.0680      1.0353    109.5195     20.8824
  1014.3000      7.9707      2.6447      0.0118      0.3233    105.9596     20.1846
  1014.4000      7.9707      2.6800      0.0654     -1.8182    103.3406     19.6628
  1014.5000      7.9687      2.7230      0.0768     -4.4234    101.1784     20.1257
  1014.6000      7.9687      2.7481      0.0776     -5.9474     98.1021     20.9160
  1014.7000      7.9687      2.7497      0.1350     -6.0428     94.6559     20.6451
  1014.8000      7.9661      2.7404      0.1047     -5.4758     94.0153     19.6190
  1014.9000      7.9661      2.7330      0.0821     -5.0330     95.8277     19.2846
  1015.0000      7.9660      2.7271      0.0351     -4.6736     98.0655     19.8366
  1015.1000      7.9660      2.7123      0.0794     -3.7746    103.3638     20.2092
  1015.2000      7.9660      2.6793      0.0681     -1.7776    111.6421     19.7996
  1015.3000      7.9674      2.6361     -0.0110      0.8416    115.0152     19.2379
  1015.4000      7.9674      2.6000     -0.0252      3.0312    111.6655     19.1966
  1015.5000      7.9673      2.5797      0.0564      4.2607    108.2922     19.9241
  1015.6000      7.9673      2.5747      0.0461      4.5610    105.9721     20.9229
  1015.7000      7.9673      2.5790      0.0820      4.3032    103.6226     21.2183
  1015.8000      7.9658      2.5848      0.0652      3.9543    103.7614     21.2867
  1015.9000      7.9658      2.5849      0.1058      3.9454    105.9646     22.0447
  1016.0000      7.9657      2.5813      0.0588      4.1639    107.2876     23.0705
  1016.1000      7.9657      2.5842      0.0850      3.9884    106.0143     23.8360
  1016.2000      7.9657      2.5899      0.0841      3.6445    101.8304     24.1941
  1016.3000      7.9672      2.5813      0.1077      4.1664     99.8213     23.8438
  1016.4000      7.9672      2.5452      0.0985      6.3536    106.3847     23.1284
  1016.5000      7.9684      2.4883      0.0540      9.8028    117.7624     23.0197
  1016.6000      7.9684      2.4388      0.0461     12.8025    129.0296     23.6558
  1016.7000      7.9684      2.4242      0.0032     13.6826    138.8101     24.3907
