~Version Information
VERS.                      2.0: CWLS Log ASCII Standard - VERSION 2.0
WRAP.                       NO: One line per depth step
~Well Information Block
STRT.FT                15.0000: 
STOP.FT              1532.0000: 
STEP.FT                 0.2500: 
NULL.                -999.2500: 
COMP.          Pioneer Natural Resources: COMPANY
WELL.           Bobsy 34-11 Tr: WELL
FLD.           Purgatoire River: FIELD
LOC.           514' FSL & 1784' FEL: LOCATION
PROV.                 Colorado: PROVINCE
CNTY.               Las Animas: COUNTRY
SRVC.                Patterson: SERVICE COMPANY
DATE.          Fri Jul 22 12:22:14 2005: LOG DATE
UWI.           05 071 08438 00: UNIQUE WELL ID
~Curve Information Block
DEPT.FT            0 000 00 00: Depth
GR.GAPI                       : Gamma Ray
CCL.                          : Casing Collar Locator
TT3.usec                      : CBL 3' Travel Time
AMP3.mV                       : CBL 3' Amplitude
~Parameter Information Block
~A  Depth        GR         CCL         TT3         AMP3    
# ...
  1489.0000    140.5717      0.0000    720.3409      7.8152
  1489.2500    141.7129      0.0000    719.3327      7.8319
  1489.5000    142.3118      0.0000    712.9782      7.8212
  1489.7500    142.5845      0.0000    703.6895      7.7798
  1490.0000    142.8707      0.0000    696.1036      7.7080
  1490.2500    142.7025      0.0000    694.1739      7.6178
  1490.5000    140.8867      0.0000    698.8285      7.5325
  1490.7500    136.6046      0.0000    707.9680      7.4767
  1491.0000    130.2153      0.0000    718.6072      7.4656
  1491.2500    122.9815      0.0000    728.9056      7.4993
  1491.5000    116.2106      0.0000    738.0981      7.5623
  1491.7500    110.6155      0.0000    745.2175      7.6306
  1492.0000    106.2593      0.0000    748.9199      7.6855
  1492.2500    102.9893      0.0000    748.5623      7.7231
  1492.5000    100.8338      0.0000    744.9038      7.7534
  1492.7500     99.7882      0.0000    739.6788      7.7894
  1493.0000     99.2845      0.0000    734.6539      7.8321
  1493.2500     98.2948      0.0000    730.8681      7.8656
  1493.5000     96.2404      0.0000    728.2708      7.8728
  1493.7500     93.6993      0.0000    725.9193      7.8513
  1494.0000     91.9649      0.0000    722.8278      7.8092
  1494.2500     91.8214      0.0000    718.6401      7.7567
  1494.5000     92.8829      0.0000    713.3434      7.7082
  1494.7500     94.2207      0.0000    706.7555      7.6862
  1495.0000     95.2643      0.0000    698.9055      7.7150
  1495.2500     95.7432      0.0000    690.7301      7.7980
  1495.5000     95.1762      0.0000    683.7640      7.8955
  1495.7500     93.1281      0.0000    679.0077      7.9377
  1496.0000     90.0554      0.0000    676.4093      7.8830
  1496.2500     87.3498      0.0000    675.4047      7.7620
  1496.5000     86.0777      0.0000    675.6277      7.6501
  1496.7500     85.7558      0.0000    677.0299      7.6000
  1497.0000     84.8128      0.0000    679.4838      7.6111
  1497.2500     82.3553      0.0000    682.4245      7.6528
  1497.5000     79.0738      0.0000    685.0178      7.6972
  1497.7500     76.3158      0.0000    686.7372      7.7315
  1498.0000     74.8665      0.0000    687.6244      7.7538
  1498.2500     74.8968      0.0000    687.9711      7.7628
  1498.5000     76.3617      0.0000    687.9634      7.7522
  1498.7500     78.7919      0.0000    687.5383      7.7174
  1499.0000     81.0893      0.0000    686.4067      7.6673
  1499.2500     82.2395      0.0000    684.4172      7.6244
  1499.5000     82.2545      0.0000    681.9520      7.6092
  1499.7500     82.1585      0.0000    679.6993      7.6243
  1500.0000     83.0978      0.0000    678.0618      7.6516
  1500.2500     85.5439      0.0000    676.9885      7.6648
  1500.5000     89.1710      0.0000    676.2794      7.6478
  1500.7500     93.2265      0.0000    675.8297      7.6061
  1501.0000     96.8661      0.0000    675.6190      7.5653
  1501.2500     99.2189      0.0000    675.6251      7.5533
  1501.5000     99.5448      0.0000    675.7851      7.5838
  1501.7500     97.6438      0.0000    676.0027      7.6544
  1502.0000     93.9756      0.0000    676.1891      7.7571
  1502.2500     89.2336      0.0000    676.2975      7.8821
  1502.5000     83.9716      0.0000    676.3178      8.0113
  1502.7500     78.7781      0.0000    676.2807      8.1132
  1503.0000     74.6971      0.0000    676.3204      8.1584
  1503.2500     73.2790      0.0000    676.7332      8.1411
  1503.5000     75.9261      0.0000    677.8582      8.0856
  1503.7500     82.7937      0.0000    679.6980      8.0280
  1504.0000     92.1014      0.0000    681.5809      7.9901
  1504.2500    100.5705      0.0000    682.4548      7.9682
  1504.5000    104.8430      0.0000    681.7980      7.9445
  1504.7500    103.1150      0.0000    680.1305      7.9088
  1505.0000     96.1602      0.0000    678.4446      7.8692
  1505.2500     87.1688      0.0000    677.3130      7.8421
  1505.5000     80.3433      0.0000    676.6952      7.8313
  1505.7500     78.8071      0.0000    676.3420      7.8205
  1506.0000     83.0017      0.0000    676.1111      7.7872
  1506.2500     90.7366      0.0000    675.9658      7.7224
  1506.5000     98.7055      0.0000    675.7875      7.6315
  1506.7500    104.0399      0.0000    675.1553      7.5149
  1507.0000    105.1097      0.0000    673.0789      7.3504
  1507.2500    101.9887      0.0000    668.0159      7.1140
  1507.5000     96.6294      0.0000    658.5251      6.8373
  1507.7500     92.0190      0.0000    644.5668      6.6222
  1508.0000     90.3533      0.0000    628.6404      6.5523
  1508.2500     91.6333      0.0000    615.6605      6.5957
  1508.5000     93.8701      0.0000    610.6578      6.6480
  1508.7500     94.6585      0.0000    615.2170      6.6550
  1509.0000     92.7902      0.0000    626.2081      6.6426
  1509.2500     88.7112      0.0000    639.0129      6.6483
  1509.5000     83.8901     -1.7967    651.3788      6.6836
  1509.7500     79.9501      0.0000    663.0070      6.7534
  1510.0000     77.9766      0.0000    672.8215      6.8761
  1510.2500     77.9541      0.0000    678.8884      7.0835
  1510.5000     78.6345      0.0000    680.6481      7.3971
  1510.7500     78.2471      0.0000    679.6500      7.7854
  1511.0000     75.7248      0.0000    677.9838      8.1523
  1511.2500     71.4567      0.0000    676.7929      8.4083
  1511.5000     66.9243      0.0000    676.1866      8.5456
  1511.7500     63.5713      0.0000    675.9100      8.6170
  1512.0000     61.8064      0.0000    675.7720      8.6681
  1512.2500     60.9309      0.0000    675.7060      8.7258
  1512.5000     60.0380      0.0000    675.6913      8.8215
  1512.7500     59.0430      0.0000    675.7368      8.9800
  1513.0000     58.9213      0.0000    675.8521      9.1875
  1513.2500     61.1578      0.0000    675.9951      9.3907
  1513.5000     66.9868      0.0000    676.0547      9.5328
  1513.7500     76.7615      0.0000    675.9270      9.5866
  1514.0000     89.5450      0.0000    675.5424      9.5602
  1514.2500    103.1598      0.0000    674.6628      9.4865
  1514.5000    114.8947      0.0000    672.4777      9.4068
  1514.7500    122.5953      0.0000    667.4517      9.3513
  1515.0000    125.5076      0.0000    658.1208      9.3210
  1515.2500    124.3153      0.0000    644.7531      9.2933
  1515.5000    120.3324      0.0000    630.3829      9.2528
  1515.7500    114.5197      0.0000    619.5225      9.2139
  1516.0000    107.1298      0.0000    615.1733      9.2049
  1516.2500     98.1134      0.0000    616.9468      9.2324
  1516.5000     87.7637      0.0000    622.1432      9.2679
  1516.7500     77.0018      0.0000    627.8641      9.2666
  1517.0000     67.1199      0.0000    630.5353      9.1820
  1517.2500     59.2518      0.0000    622.1426      8.9344
  1517.5000     53.9818      0.0000    588.2537      8.3675
  1517.7500     51.2784      0.0000    514.5759      7.2986
  1518.0000     50.6138      0.0000    400.8939      5.7006
  1518.2500     51.1016      0.0000    268.8369      3.8429
  1518.5000     51.8209      0.0000    151.0150      2.1713
  1518.7500     52.4626      0.0000     69.6345      1.0064
  1519.0000     53.7407      0.0000     25.9756      0.3770
  1519.2500     57.0366      0.0000      7.7554      0.1129
  1519.5000     63.5662      0.0000      1.8371      0.0268
  1519.7500     73.5882      0.0000      0.3400      0.0050
  1520.0000     85.9661      0.0000      0.0452      0.0007
  1520.2500     98.5496      0.0000   -999.2500   -999.2500
  1520.5000    109.4843      0.0000   -999.2500   -999.2500
  1520.7500    118.4467      0.0000   -999.2500   -999.2500
  1521.0000    126.4824      0.0000   -999.2500   -999.2500
  1521.2500    134.3677      0.0000   -999.2500   -999.2500
  1521.5000    141.0830      0.0000   -999.2500   -999.2500
  1521.7500    144.3045      0.0000   -999.2500   -999.2500
  1522.0000    142.8420      0.0000   -999.2500   -999.2500
  1522.2500    138.3467      0.0000   -999.2500   -999.2500
