~Version Information
VERS.                      2.0: CWLS Log ASCII Standard - VERSION 2.0
WRAP.                       NO: One line per depth step
~Well Information Block
STRT.FT                 0.0000: 
STOP.FT              2086.0000: 
STEP.FT                 0.2500: 
NULL.                -999.2500: 
COMP.          Petrogulf Corporation: COMPANY
WELL.               YWAM 7-32R: WELL
FLD.           Purgatorie River: FIELD
LOC.           2355' FNL & 2376' FEL: LOCATION
STAT.                 Colorado: State
CNTY.               Las Animas: COUNTY
CTRY. USA : Country
SECT. 7 : Section
TOWN. 33S : Township
RANG. 67W : Range
SRVC.                Patterson: SERVICE COMPANY
DATE.          Wed Nov 09 16:33:59 2005: LOG DATE
API. 05-071-08518                         : UNIQUE WELL ID
~Curve Information Block
DEPT.FT            0 000 00 00: Depth
CCL.                          : Casing Collar Locator
TT3.usec                      : CBL 3' Travel Time
AMP3.mV                       : CBL 3' Amplitude
GR.GAPI                       : Gamma Ray
~Parameter Information Block
~A  Depth       CCL         TT3         AMP3         GR     
# ...
  1239.5000      0.0000    657.7188      5.1425     96.8288
  1239.7500      0.0000    641.2510      5.0444     94.8808
  1240.0000      0.0000    631.7277      4.9973     92.9000
  1240.2500      0.0000    626.4705      5.0392     91.8038
  1240.5000      0.0000    624.6605      5.1768     91.8537
  1240.7500      0.0000    623.1714      5.3474     92.3835
  1241.0000      0.0000    616.0373      5.4720     92.4178
  1241.2500      0.0000    604.5731      5.5393     91.5026
  1241.5000      0.0000    598.9324      5.5870     89.9508
  1241.7500      0.0000    606.4133      5.6310     88.4520
  1242.0000      0.0000    623.9150      5.6714     87.4333
  1242.2500      0.0000    641.8415      5.7288     86.7009
  1242.5000      0.0000    652.7567      5.8041     85.7138
  1242.7500      0.0000    654.6978      5.8597     84.1509
  1243.0000      0.0000    647.8235      5.8829     82.1590
  1243.2500      0.0000    634.1647      5.8950     80.3331
  1243.5000      0.0000    622.2780      5.9093     79.7189
  1243.7500      0.0000    622.8133      5.9517     81.5262
  1244.0000      0.0000    634.9651      6.1031     86.0892
  1244.2500      0.0000    646.1714      6.4373     91.7720
  1244.5000      0.0000    645.4125      6.8859     95.4855
  1244.7500      0.0000    628.7821      7.3234     95.2533
  1245.0000      0.0000    597.3601      7.8692     92.3711
  1245.2500      0.0000    561.9614      8.7391     90.2763
  1245.5000      0.0000    547.5084      9.7421     91.0327
  1245.7500      0.0000    569.8644     10.5039     93.4348
  1246.0000      0.0000    608.0609     10.9734     94.6912
  1246.2500      0.0000    629.0747     11.2123     93.5241
  1246.5000      0.0000    632.8176     11.2019     91.4293
  1246.7500     -2.0000    644.4027     11.0119     91.0974
  1247.0000      2.0000    672.8671     10.7661     93.8066
  1247.2500      0.0000    700.0961     10.4076     98.4692
  1247.5000      0.0000    702.1642      9.7468    102.9638
  1247.7500      0.0000    671.7435      8.9273    105.8184
  1248.0000      0.0000    625.1404      8.4031    106.6810
  1248.2500      0.0000    590.4718      8.1920    106.0588
  1248.5000      0.0000    583.8896      7.9236    105.0201
  1248.7500      0.0000    598.0241      7.5431    104.5418
  1249.0000      0.0000    617.0668      7.1460    104.7256
  1249.2500      0.0000    632.3789      6.6759    104.9284
  1249.5000      0.0000    643.4953      6.1710    104.6653
  1249.7500      0.0000    653.4329      5.7971    103.9263
  1250.0000      0.0000    664.7868      5.6223    102.7323
  1250.2500      0.0000    681.1398      5.5701    100.8490
  1250.5000      0.0000    704.2766      5.5384     97.8243
  1250.7500      0.0000    724.0778      5.5025     93.0766
  1251.0000      0.0000    724.5476      5.5108     86.2714
  1251.2500      0.0000    706.1994      5.6075     77.9128
  1251.5000      0.0000    687.3871      5.7700     69.2753
  1251.7500      0.0000    681.5491      5.9300     61.4620
  1252.0000      0.0000    684.1790      6.0552     54.7809
  1252.2500      0.0000    682.0468      6.1902     49.2132
  1252.5000      0.0000    673.7316      6.4049     45.2059
  1252.7500      0.0000    672.8184      6.7246     43.7260
  1253.0000      0.0000    684.8919      7.1004     45.5316
  1253.2500      0.0000    695.8745      7.4254     50.5236
  1253.5000      0.0000    689.2945      7.6179     57.9295
  1253.7500      0.0000    668.0855      7.7046     66.9155
  1254.0000      0.0000    651.4751      7.7787     76.6546
  1254.2500      0.0000    650.1129      7.8870     85.9932
  1254.5000      0.0000    656.4483      8.0105     93.7436
  1254.7500      0.0000    660.4558      8.1657     99.4121
  1255.0000      0.0000    661.4309      8.4832    103.0526
  1255.2500      0.0000    658.7610      9.1260    104.4309
  1255.5000      0.0000    635.2681     10.1041    103.1847
  1255.7500      0.0000    569.3337     11.1905    100.0694
  1256.0000      0.0000    474.4407     12.0569     97.2853
  1256.2500      0.0000    395.5225     12.5231     97.0191
  1256.5000      0.0000    356.6241     12.6927     99.7578
  1256.7500      0.0000    344.8712     12.8185    103.9429
  1257.0000      0.0000    342.9681     13.0152    106.9148
  1257.2500      0.0000    352.7355     13.1243    106.4271
  1257.5000      0.0000    388.5080     12.9094    102.0575
  1257.7500      0.0000    452.6237     12.3585     95.6155
  1258.0000      0.0000    518.5134     11.6544     89.9859
  1258.2500      0.0000    557.8445     10.8859     87.2606
  1258.5000      0.0000    581.0731     10.0107     87.7373
  1258.7500      0.0000    613.6335      9.0601     90.3694
  1259.0000      0.0000    652.3156      8.1826     93.9189
  1259.2500      0.0000    682.0443      7.4992     97.8090
  1259.5000      0.0000    702.3684      7.0100    102.1218
  1259.7500      0.0000    718.5590      6.6294    106.7994
  1260.0000      0.0000    727.8994      6.2711    111.0860
  1260.2500      0.0000    722.1497      5.9182    114.2597
  1260.5000      0.0000    701.5733      5.6092    116.7087
  1260.7500      0.0000    676.7870      5.3506    119.5149
  1261.0000      0.0000    654.3458      5.1246    123.0034
  1261.2500      0.0000    634.3965      4.9696    126.3800
  1261.5000      0.0000    620.8054      4.9383    128.6830
  1261.7500      0.0000    620.1884      4.9957    129.3885
  1262.0000      0.0000    634.0739      5.0546    128.2538
  1262.2500      0.0000    659.7560      5.0826    125.5755
  1262.5000      0.0000    690.6750      5.0953    122.9442
  1262.7500      0.0000    714.7684      5.0902    122.8460
  1263.0000      0.0000    723.7008      5.0645    126.7193
  1263.2500      0.0000    718.9979      5.0588    133.4838
  1263.5000      0.0000    705.3787      5.1086    140.2146
  1263.7500      0.0000    687.1926      5.1897    144.1122
  1264.0000      0.0000    669.8333      5.2597    143.9307
  1264.2500      0.0000    657.6970      5.3116    140.1321
  1264.5000      0.0000    652.9547      5.3474    134.2703
  1264.7500      0.0000    655.0932      5.3564    128.2852
  1265.0000      0.0000    659.9853      5.3606    123.8131
  1265.2500      0.0000    663.5376      5.4240    121.4288
  1265.5000      0.0000    664.9930      5.6018    120.3818
  1265.7500      0.0000    665.0089      5.9180    119.4422
  1266.0000      0.0000    663.0409      6.3645    118.1452
  1266.2500      0.0000    657.5653      6.8866    116.9915
  1266.5000      0.0000    649.7841      7.4112    116.5470
  1266.7500      0.0000    645.8751      7.9092    116.8492
  1267.0000      0.0000    650.0919      8.3808    117.8253
  1267.2500      0.0000    658.2484      8.7796    119.7613
  1267.5000      0.0000    663.7161      9.0207    122.8067
  1267.7500      0.0000    663.4872      9.0503    126.1098
  1268.0000      0.0000    655.7350      8.8739    127.9664
  1268.2500      0.0000    639.4590      8.5487    127.0170
  1268.5000      0.0000    619.1042      8.1728    123.2501
  1268.7500      0.0000    603.1567      7.8239    118.0509
  1269.0000      0.0000    596.1979      7.4797    113.4086
  1269.2500      0.0000    596.9001      7.0714    110.7370
  1269.5000      0.0000    601.0513      6.6101    110.1978
  1269.7500      0.0000    603.0078      6.1872    111.1392
  1270.0000      0.0000    599.8132      5.8873    112.9991
  1270.2500      0.0000    594.4982      5.7366    115.5866
  1270.5000      0.0000    591.1309      5.7007    118.8712
  1270.7500      0.0000    590.4288      5.7278    122.8396
  1271.0000      0.0000    592.2080      5.7876    127.2098
  1271.2500      0.0000    597.9526      5.8485    131.0415
  1271.5000      0.0000    608.8555      5.8636    133.0001
  1271.7500      0.0000    622.0333      5.8184    132.3222
  1272.0000      0.0000    631.4213      5.7518    129.4426
  1272.2500      0.0000    633.2584      5.7140    125.7475
  1272.5000      0.0000    629.0464      5.7166    122.7557
  1272.7500      0.0000    624.1940      5.7486    121.2325
