~Version Information
VERS.                      2.0: CWLS Log ASCII Standard - VERSION 2.0
WRAP.                       NO: One line per depth step
~Well Information Block
STRT.FT               240.0000: 
STOP.FT              1159.2500: 
STEP.FT                 0.2500: 
NULL.                -999.2500: 
COMP.          Pioneer Natural Resources: COMPANY
WELL.               Ryan 41-17: WELL
FLD.           Purgatoire River: FIELD
LOC.           822' FNL & 532' FEL--: LOCATION
CNTY.               Las Animas: COUNTY
SRVC.                Patterson: SERVICE COMPANY
DATE.          Thu Mar 16 16:50:09 2006: LOG DATE
UWI.           05 071 08719 00: UNIQUE WELL ID
STAT.                 Colorado: STATE
~Curve Information Block
DEPT.FT            0 000 00 00: Depth
SN.Ohm-m                      : IEL Short Normal
SP.mV                         : IEL Spontaneous Potential
DIR.Ohm-m                     : IEL Induction Resistivity
GR.GAPI                       : Gamma Ray
~Parameter Information Block
~A  Depth        SN          SP         DIR          GR     
# ...
   709.0000     28.4809    -28.8616     28.8502     98.2675
   709.2500     28.4193    -28.8232     28.7225     98.1898
   709.5000     28.3633    -28.7380     28.6064     95.2079
   709.7500     28.3055    -28.6132     28.5204     91.6317
   710.0000     28.2434    -28.4610     28.4555     85.3044
   710.2500     28.1783    -28.2967     28.3866     81.5522
   710.5000     28.1157    -28.1369     28.2985     77.9875
   710.7500     28.0634    -27.9963     28.2065     77.0701
   711.0000     28.0272    -27.8854     28.1534     76.9577
   711.2500     28.0061    -27.8086     28.1788     76.9860
   711.5000     27.9925    -27.7629     28.2846     76.3825
   711.7500     27.9733    -27.7392     28.4229     75.5245
   712.0000     27.9317    -27.7238     28.5187     73.9688
   712.2500     27.8528    -27.7020     28.5094     72.9451
   712.5000     27.7303    -27.6606     28.3731     71.4974
   712.7500     27.5678    -27.5907     28.1311     70.6643
   713.0000     27.3732    -27.4888     27.8277     70.0014
   713.2500     27.1515    -27.3568     27.5097     70.1907
   713.5000     26.9005    -27.2009     27.2121     71.6512
   713.7500     26.6151    -27.0303     26.9549     73.5223
   714.0000     26.2954    -26.8553     26.7436     77.8254
   714.2500     25.9520    -26.6857     26.5690     81.5829
   714.5000     25.6023    -26.5300     26.4079     87.9324
   714.7500     25.2630    -26.3950     26.2288     92.1304
   715.0000     24.9456    -26.2849     26.0045     97.3497
   715.2500     24.6554    -26.2014     25.7264     99.4549
   715.5000     24.3918    -26.1439     25.4067     99.7286
   715.7500     24.1522    -26.1094     25.0698     97.9675
   716.0000     23.9373    -26.0938     24.7390     93.3066
   716.2500     23.7509    -26.0920     24.4282     89.6949
   716.5000     23.5912    -26.0995     24.1405     84.7544
   716.7500     23.4442    -26.1123     23.8727     82.0776
   717.0000     23.2881    -26.1279     23.6207     78.9050
   717.2500     23.1074    -26.1449     23.3823     77.2177
   717.5000     22.9029    -26.1624     23.1544     75.1569
   717.7500     22.6883    -26.1798     22.9291     73.9614
   718.0000     22.4795    -26.1966     22.6943     72.1053
   718.2500     22.2877    -26.2117     22.4408     70.6736
   718.5000     22.1192    -26.2243     22.1690     68.1281
   718.7500     21.9724    -26.2336     21.8895     66.0762
   719.0000     21.8341    -26.2394     21.6172     62.1357
   719.2500     21.6842    -26.2419     21.3656     58.8635
   719.5000     21.5104    -26.2420     21.1451     53.5985
   719.7500     21.3236    -26.2409     20.9638     50.6331
   720.0000     21.1582    -26.2405     20.8290     48.6417
   720.2500     21.0573    -26.2425     20.7479     49.7663
   720.5000     21.0526    -26.2485     20.7288     55.3088
   720.7500     21.1507    -26.2595     20.7798     60.4181
   721.0000     21.3303    -26.2757     20.9065     66.4594
   721.2500     21.5509    -26.2963     21.1070     67.4744
   721.5000     21.7731    -26.3193     21.3661     64.0928
   721.7500     21.9772    -26.3424     21.6542     60.1862
   722.0000     22.1690    -26.3629     21.9348     55.6244
   722.2500     22.3701    -26.3785     22.1784     54.9515
   722.5000     22.6002    -26.3874     22.3725     58.0906
   722.7500     22.8658    -26.3885     22.5206     62.3825
   723.0000     23.1564    -26.3813     22.6297     70.1364
   723.2500     23.4491    -26.3665     22.7022     74.7431
   723.5000     23.7169    -26.3451     22.7379     78.7682
   723.7500     23.9376    -26.3188     22.7432     79.0212
   724.0000     24.0999    -26.2897     22.7361     76.0325
   724.2500     24.2037    -26.2601     22.7419     72.2921
   724.5000     24.2546    -26.2324     22.7808     65.0778
   724.7500     24.2600    -26.2087     22.8570     59.9051
   725.0000     24.2262    -26.1910     22.9583     53.0045
   725.2500     24.1593    -26.1811     23.0659     49.7417
   725.5000     24.0683    -26.1803     23.1656     47.6879
   725.7500     23.9696    -26.1899     23.2539     48.3488
   726.0000     23.8843    -26.2104     23.3342     52.1267
   726.2500     23.8261    -26.2418     23.4084     56.0999
   726.5000     23.7917    -26.2836     23.4713     63.0563
   726.7500     23.7673    -26.3346     23.5119     67.4396
   727.0000     23.7426    -26.3938     23.5195     72.2239
   727.2500     23.7157    -26.4600     23.4894     73.8787
   727.5000     23.6854    -26.5328     23.4211     74.4676
   727.7500     23.6455    -26.6119     23.3099     74.1634
   728.0000     23.5891    -26.6970     23.1429     73.6959
   728.2500     23.5158    -26.7876     22.9068     73.9093
   728.5000     23.4348    -26.8822     22.6028     75.6022
   728.7500     23.3605    -26.9787     22.2570     77.5928
   729.0000     23.3040    -27.0747     21.9133     80.9958
   729.2500     23.2668    -27.1684     21.6178     82.8199
   729.5000     23.2437    -27.2590     21.4024     83.9638
   729.7500     23.2307    -27.3474     21.2799     83.5127
   730.0000     23.2276    -27.4353     21.2466     81.3843
   730.2500     23.2321    -27.5254     21.2861     79.4598
   730.5000     23.2320    -27.6193     21.3704     76.6780
   730.7500     23.2022    -27.7176     21.4585     75.1540
   731.0000     23.1088    -27.8190     21.5005     73.0293
   731.2500     22.9177    -27.9210     21.4479     71.2650
   731.5000     22.6081    -28.0207     21.2648     67.9876
   731.7500     22.1819    -28.1155     20.9344     66.1868
   732.0000     21.6647    -28.2039     20.4598     66.4815
   732.2500     21.1003    -28.2860     19.8658     69.8774
   732.5000     20.5422    -28.3626     19.1994     80.3357
   732.7500     20.0436    -28.4349     18.5235     90.2707
   733.0000     19.6452    -28.5043     17.9022    107.1647
   733.2500     19.3638    -28.5713     17.3847    117.7600
   733.5000     19.1883    -28.6356     16.9960    129.4705
   733.7500     19.0857    -28.6963     16.7386    133.5907
   734.0000     19.0190    -28.7518     16.6031    134.7423
   734.2500     18.9636    -28.8004     16.5792    133.1060
   734.5000     18.9151    -28.8407     16.6615    128.6242
   734.7500     18.8851    -28.8721     16.8478    124.8885
   735.0000     18.8947    -28.8950     17.1355    118.5772
   735.2500     18.9732    -28.9110     17.5193    113.8494
   735.5000     19.1607    -28.9229     17.9910    105.8373
   735.7500     19.5002    -28.9345     18.5381    100.0061
   736.0000     20.0115    -28.9497     19.1377     90.9831
   736.2500     20.6633    -28.9725     19.7505     85.0245
   736.5000     21.3685    -29.0062     20.3212     76.6212
   736.7500     22.0083    -29.0532     20.7892     71.7536
   737.0000     22.4705    -29.1154     21.1045     66.1158
   737.2500     22.6802    -29.1940     21.2363     63.4887
   737.5000     22.6057    -29.2898     21.1650     60.9002
   737.7500     22.2461    -29.4029     20.8677     59.9468
   738.0000     21.6199    -29.5328     20.3186     59.7357
   738.2500     20.7683    -29.6780     19.5126     60.5208
   738.5000     19.7604    -29.8356     18.4908     63.4687
   738.7500     18.6860    -30.0014     17.3416     66.9253
   739.0000     17.6345    -30.1699     16.1705     74.4752
   739.2500     16.6731    -30.3349     15.0634     80.7111
   739.5000     15.8332    -30.4891     14.0674     90.8219
   739.7500     15.1113    -30.6247     13.1939     97.4276
   740.0000     14.4809    -30.7332     12.4336    105.9212
   740.2500     13.9132    -30.8063     11.7718    109.9807
   740.5000     13.3952    -30.8360     11.1967    113.3526
   740.7500     12.9357    -30.8159     10.7031    114.2354
   741.0000     12.5568    -30.7422     10.2923    114.5939
   741.2500     12.2798    -30.6148      9.9697    114.5187
   741.5000     12.1130    -30.4376      9.7420    113.8007
   741.7500     12.0492    -30.2182      9.6142    112.6565
   742.0000     12.0710    -29.9678      9.5869    109.7818
   742.2500     12.1593    -29.6992      9.6549    107.4411
