~Version Information
VERS.                      2.0: CWLS Log ASCII Standard - VERSION 2.0
WRAP.                       NO: One line per depth step
~Well Information Block
STRT.FT                 0.0000: 
STOP.FT              1674.7500: 
STEP.FT                 0.2500: 
NULL.                -999.2500: 
COMP.          Pioneer Natural Resources: COMPANY
WELL.          Culver 14-12 Tr: WELL
FLD.           Purgatorie River: FIELD
LOC.           915' FSL & 1048' FWL: LOCATION
STAT.                 Colorado: Colorado
CNTY.               Las Animas: COUNTY
CTRY. USA : Country
SECT. 12 : Section
TOWN. 32S : Township
RANG. 66W : Range
SRVC.                Patterson: SERVICE COMPANY
DATE.          Mon Oct 03 12:52:29 2005: LOG DATE
API. 05-071-08520                         : UNIQUE WELL ID
~Curve Information Block
DEPT.FT            0 000 00 00: Depth
CCL.                          : Casing Collar Locator
TT3.usec                      : CBL 3' Travel Time
AMP3.mV                       : CBL 3' Amplitude
GR.GAPI                       : Gamma Ray
~Parameter Information Block
~A  Depth       CCL         TT3         AMP3         GR     
# ...
  1306.5000      0.0000    795.2430     10.0668    101.9787
  1306.7500      0.0000    795.7343      9.9949    103.0797
  1307.0000      0.0000    795.8530      9.9398    108.2169
  1307.2500      0.0000    795.9143      9.9368    115.2577
  1307.5000      0.0000    795.1951      9.9592    121.1776
  1307.7500      0.0000    792.1542      9.9561    123.5156
  1308.0000      0.0000    786.4207      9.9108    121.9213
  1308.2500      0.0000    780.1861      9.8486    118.1202
  1308.5000      0.0000    775.3868      9.7990    113.9515
  1308.7500      0.0000    772.2377      9.7623    109.7462
  1309.0000      0.0000    771.4752      9.7094    104.7820
  1309.2500      0.0000    773.6307      9.6069     98.6252
  1309.5000      0.0000    778.0604      9.4306     91.5422
  1309.7500      0.0000    783.4311      9.1952     84.1274
  1310.0000      0.0000    786.2709      8.9881     77.1072
  1310.2500      0.0000    782.3708      8.8982     71.2100
  1310.5000      0.0000    772.4818      8.9137     66.6143
  1310.7500      0.0000    765.0273      8.9579     62.6431
  1311.0000      0.0000    768.2832      8.9859     58.5714
  1311.2500      0.0000    780.5731      9.0120     54.6931
  1311.5000      0.0000    794.3427      9.0841     52.0024
  1311.7500      0.0000    804.6702      9.2531     50.9158
  1312.0000      0.0000    808.7014      9.5343     50.9440
  1312.2500      0.0000    804.0964      9.8578     51.6507
  1312.5000      0.0000    791.0780     10.0974     53.3150
  1312.7500      0.0000    774.8818     10.1820     56.5454
  1313.0000      0.0000    766.4370     10.1380     61.7312
  1313.2500      0.0000    772.2608     10.0307     68.8942
  1313.5000      0.0000    784.9454      9.9296     77.7074
  1313.7500      0.0000    793.8546      9.8874     87.7430
  1314.0000      0.0000    796.9579      9.8938     98.7109
  1314.2500      0.0000    797.2796      9.8915    109.8208
  1314.5000      0.0000    796.9178      9.8579    118.9697
  1314.7500      0.0000    796.4608      9.8229    123.7050
  1315.0000      0.0000    796.0811      9.8107    123.4030
  1315.2500      0.0000    795.8754      9.7956    119.8487
  1315.5000      0.0000    796.0729      9.7366    115.5645
  1315.7500      0.0000    798.1315      9.6366    112.0012
  1316.0000      0.0000    806.0887      9.5410    109.1840
  1316.2500      0.0000    824.7465      9.5051    106.5228
  1316.5000      0.0000    852.4773      9.5682    103.7988
  1316.7500      0.0000    878.1304      9.7147    101.6541
  1317.0000      0.0000    892.5931      9.8727    101.3052
  1317.2500      0.0000    899.5134      9.9927    103.5757
  1317.5000      0.0000    906.6931     10.0892    107.9197
  1317.7500      0.0000    912.9228     10.1743    112.4363
  1318.0000      0.0000    910.2405     10.2123    115.1417
  1318.2500      0.0000    895.3810     10.1587    115.3496
  1318.5000      0.0000    873.9789     10.0142    113.8698
  1318.7500      0.0000    855.5900      9.8388    112.0680
  1319.0000      0.0000    846.1624      9.7027    110.9224
  1319.2500      0.0000    844.1117      9.6300    110.9204
  1319.5000      0.0000    844.6462      9.5976    112.3437
  1319.7500      0.0000    845.2583      9.5651    115.0206
  1320.0000      0.0000    845.5319      9.5091    117.7652
  1320.2500      0.0000    845.4081      9.4456    118.8493
  1320.5000      0.0000    844.9556      9.4049    117.6237
  1320.7500      0.0000    844.4064      9.3871    115.2070
  1321.0000      0.0000    843.8947      9.3589    113.0391
  1321.2500      0.0000    843.4059      9.2948    111.1810
  1321.5000      0.0000    842.9707      9.2121    108.6104
  1321.7500      0.0000    842.6275      9.1514    104.9388
  1322.0000      0.0000    842.3368      9.1348    101.2828
  1322.2500      0.0000    842.0391      9.1580     99.3876
  1322.5000      0.0000    841.6949      9.2014    100.1406
  1322.7500      0.0000    841.3671      9.2306    102.7125
  1323.0000      0.0000    841.2460      9.2093    104.7975
  1323.2500      0.0000    841.5574      9.1384    103.9440
  1323.5000      0.0000    843.0621      9.0703     99.3288
  1323.7500      0.0000    848.9551      9.0738     92.6072
  1324.0000      0.0000    866.0045      9.1812     86.7739
  1324.2500      0.0000    897.2075      9.3362     83.8555
  1324.5000      0.0000    927.0527      9.3979     83.5370
  1324.7500      0.0000    927.2023      9.2283     83.8577
  1325.0000      0.0000    891.4039      8.7719     83.0462
  1325.2500      0.0000    846.7147      8.0646     80.7285
  1325.5000      0.0000    819.5436      7.2163     77.8297
  1325.7500      0.0000    814.1279      6.3855     75.7494
  1326.0000      0.0000    821.7427      5.6901     75.3419
  1326.2500      0.0000    825.0566      5.1540     76.0752
  1326.5000      0.0000    807.4347      4.7881     76.2260
  1326.7500      0.0000    776.7766      4.6377     74.2883
  1327.0000      0.0000    760.0300      4.7252     70.1925
  1327.2500      0.0000    772.2582      4.9961     65.1134
  1327.5000      0.0000    806.7557      5.3441     60.5856
  1327.7500      0.0000    843.3737      5.7399     58.1272
  1328.0000      0.0000    859.4769      6.3114     59.1352
  1328.2500      0.0000    850.1978      7.2122     64.3633
  1328.5000      0.0000    834.4819      8.4380     73.3772
  1328.7500      0.0000    828.3229      9.8376     84.7080
  1329.0000      0.0000    828.6312     11.2890     96.4518
  1329.2500      0.0000    827.9329     12.8563    106.6485
  1329.5000      0.0000    825.8528     14.7210    113.5734
  1329.7500      0.0000    821.7950     16.8542    116.4297
  1330.0000      0.0000    806.5024     18.8584    116.1023
  1330.2500      0.0000    773.8961     20.2262    114.9950
  1330.5000      0.0000    739.7790     20.6664    115.5073
  1330.7500      0.0000    723.4225     20.1558    118.1394
  1331.0000      0.0000    724.3583     18.7453    121.1187
  1331.2500      0.0000    744.1714     16.5870    122.2518
  1331.5000      0.0000    785.9816     14.2723    121.1117
  1331.7500      0.0000    834.0889     12.5250    119.1339
  1332.0000      0.0000    877.5983     11.2367    117.8539
  1332.2500      0.0000    919.4785      9.7895    117.6214
  1332.5000      0.0000    953.8172      8.3273    117.8225
  1332.7500      0.0000    972.1295      7.4534    117.5616
  1333.0000      0.0000    982.6511      7.2142    116.0343
  1333.2500      0.0000    996.8619      7.1920    112.9326
  1333.5000     -2.0000   1009.7991      7.0619    108.9476
  1333.7500      2.0000   1013.0221      6.7490    105.7126
  1334.0000      0.0000   1007.6738      6.3806    105.0080
  1334.2500      0.0000    992.8489      6.2657    107.8733
  1334.5000      0.0000    961.1467      6.5214    114.0780
  1334.7500      0.0000    913.8262      6.7051    121.9411
  1335.0000      0.0000    864.4560      6.5167    128.7613
  1335.2500      0.0000    820.6691      6.4672    132.0749
  1335.5000      0.0000    774.5466      7.0950    131.1228
  1335.7500      0.0000    720.2581      8.2423    127.5314
  1336.0000      0.0000    678.0458      9.4200    124.5850
  1336.2500      0.0000    677.3011     10.3167    125.1429
  1336.5000      0.0000    708.2258     10.9132    129.4890
  1336.7500      0.0000    722.2910     11.3358    134.9388
  1337.0000      0.0000    687.6775     11.6922    137.7887
  1337.2500      0.0000    621.3813     12.0267    136.1321
  1337.5000      0.0000    562.8276     12.3323    131.1400
  1337.7500      0.0000    530.8750     12.5674    125.7106
  1338.0000      0.0000    517.8549     12.7010    121.8759
  1338.2500      0.0000    513.3220     12.7483    119.5524
  1338.5000      0.0000    518.9634     12.7296    117.6646
  1338.7500      0.0000    541.7600     12.6261    116.1371
  1339.0000      0.0000    574.2107     12.4133    116.4526
  1339.2500      0.0000    589.5644     12.1054    120.1056
  1339.5000      0.0000    576.3480     11.7593    126.5311
  1339.7500      0.0000    566.2785     11.4364    132.7518
