~Version Information
VERS.                      2.0: CWLS Log ASCII Standard - VERSION 2.0
WRAP.                       NO: One line per depth step
~Well Information Block
STRT.FT               340.0000: 
STOP.FT              2342.7000: 
STEP.FT                 0.1000: 
NULL.                -999.2500: 
COMP.          Pioneer Natural Resources: COMPANY
WELL.          Pinkerton 41-12: WELL
FLD.           Purgatoire River: FIELD
LOC.           1222' FNL & 670' FEL--: LOCATION
CNTY.               Las Animas: COUNTY
SRVC.                Patterson: SERVICE COMPANY
DATE.          Thu Mar 16 06:39:17 2006: LOG DATE
UWI.           05 071 08500 00: UNIQUE WELL ID
STAT.                 Colorado: STATE
~Curve Information Block
DEPT.FT            0 000 00 00: Depth
DCAL.in                       : CDL Caliper
RHOB.g/cc                     : CDL Bulk Density
RHOC.g/cc                     : CDL Density Correction
DPOR.pu                       : CDL Density Porosity
NPOR.pu                       : Neutron Porosity
GR.GAPI                       : Gamma Ray
~Parameter Information Block
~A  Depth       DCAL        RHOB        RHOC        DPOR        NPOR         GR     
# ...
  1127.2000      8.0761      2.4680      0.1139     11.0298     22.4336    123.2628
  1127.3000      8.0395      2.4481      0.0921     12.2351     22.4342    133.0764
  1127.4000      8.0395      2.4366      0.0543     12.9311     23.0108    136.8580
  1127.5000      8.0022      2.4521      0.0512     11.9942     23.5682    134.0889
  1127.6000      8.0022      2.4855      0.1088      9.9695     23.4384    127.9586
  1127.7000      8.0022      2.5173      0.0801      8.0445     23.0302    122.9329
  1127.8000      7.9743      2.5383      0.0828      6.7724     22.8920    121.4219
  1127.9000      7.9743      2.5515      0.0810      5.9714     22.8153    119.0957
  1128.0000      7.9728      2.5639      0.0881      5.2206     22.6277    116.2620
  1128.1000      7.9728      2.5678      0.0803      4.9803     22.5822    119.1125
  1128.2000      7.9728      2.5497      0.0822      6.0796     22.5884    124.3257
  1128.3000      7.9808      2.5140      0.0260      8.2425     22.4817    126.7562
  1128.4000      7.9808      2.4842      0.0132     10.0465     22.4461    128.0796
  1128.5000      7.9870      2.4764      0.0605     10.5218     22.3365    129.9869
  1128.6000      7.9870      2.4843      0.0639     10.0451     21.9663    130.4188
  1128.7000      7.9870      2.4979      0.0252      9.2204     21.5104    127.4315
  1128.8000      7.9967      2.5118      0.0520      8.3742     21.1277    121.3837
  1128.9000      7.9967      2.5175      0.0598      8.0318     21.1508    114.8116
  1129.0000      8.0050      2.5098      0.0701      8.4953     21.7129    111.7740
  1129.1000      8.0050      2.4998      0.0656      9.1060     22.4244    115.8772
  1129.2000      8.0050      2.5100      0.0416      8.4855     22.9955    124.7240
  1129.3000      8.0074      2.5482      0.1067      6.1709     23.2471    130.6575
  1129.4000      8.0074      2.5913      0.1401      3.5591     23.3107    131.3982
  1129.5000      8.0039      2.6071      0.1866      2.5995     23.3552    130.8377
  1129.6000      8.0039      2.5818      0.1414      4.1335     23.1502    132.0433
  1129.7000      8.0039      2.5367      0.0553      6.8681     22.7957    134.2315
  1129.8000      7.9984      2.5138      0.0719      8.2524     22.7896    134.2215
  1129.9000      7.9984      2.5476      0.0750      6.2068     23.1181    132.8606
  1130.0000      7.9959      2.6419      0.1749      0.4891     23.3273    133.2054
  1130.1000      7.9959      2.7538      0.2461     -6.2898     23.5375    132.6371
  1130.2000      7.9959      2.8335      0.2376    -11.1242     24.0489    128.9074
  1130.3000      7.9901      2.8699      0.2334    -13.3249     24.4364    124.1830
  1130.4000      7.9901      2.8769      0.2048    -13.7515     24.3669    122.3407
  1130.5000      7.9761      2.8705      0.1796    -13.3648     24.0300    127.4919
  1130.6000      7.9761      2.8576      0.1236    -12.5794     23.7086    135.0293
  1130.7000      7.9761      2.8318      0.0973    -11.0160     23.8057    135.1344
  1130.8000      7.9557      2.7861      0.0230     -8.2477     24.3646    129.0996
  1130.9000      7.9557      2.7249      0.0084     -4.5419     24.9152    123.2550
  1131.0000      7.9381      2.6546     -0.0444     -0.2776     25.1692    119.5632
  1131.1000      7.9381      2.5946     -0.1011      3.3605     25.2140    118.0713
  1131.2000      7.9381      2.5680     -0.0704      4.9668     25.1239    118.1722
  1131.3000      7.9341      2.5754     -0.0365      4.5209     24.9231    119.0623
  1131.4000      7.9341      2.5996     -0.0394      3.0534     24.8328    119.4632
  1131.5000      7.9547      2.6115      0.0004      2.3313     25.1071    118.7105
  1131.6000      7.9547      2.5935     -0.0993      3.4235     25.4635    119.5723
  1131.7000      7.9547      2.5704     -0.1041      4.8242     25.5105    122.4362
  1131.8000      7.9749      2.5827     -0.0743      4.0816     25.4384    122.9514
  1131.9000      7.9749      2.6314      0.0392      1.1246     25.5271    121.3739
  1132.0000      7.9667      2.6742      0.0711     -1.4669     25.6965    120.8056
  1132.1000      7.9667      2.6869      0.0531     -2.2366     25.8823    121.0472
  1132.2000      7.9667      2.6877      0.0357     -2.2847     26.2332    121.1731
  1132.3000      7.9510      2.6861      0.0352     -2.1853     26.8361    122.8517
  1132.4000      7.9510      2.6676      0.0576     -1.0642     27.3095    126.3439
  1132.5000      7.9431      2.6354     -0.0103      0.8855     27.2074    126.3054
  1132.6000      7.9431      2.6194     -0.0068      1.8519     26.6320    119.9625
  1132.7000      7.9431      2.6243      0.0517      1.5584     26.0022    114.0982
  1132.8000      7.9399      2.6189      0.0471      1.8834     25.6642    111.0950
  1132.9000      7.9399      2.5976      0.0112      3.1763     25.6813    107.4453
  1133.0000      7.9371      2.5861      0.0009      3.8728     25.8105    107.3084
  1133.1000      7.9371      2.5856      0.0617      3.9056     25.8336    113.7910
  1133.2000      7.9371      2.5699      0.0339      4.8551     25.5636    120.9049
  1133.3000      7.9333      2.5421     -0.0370      6.5383     25.0317    122.4193
  1133.4000      7.9333      2.5345     -0.0258      7.0009     24.7881    117.2263
  1133.5000      7.9229      2.5476      0.0335      6.2064     25.0340    111.0191
  1133.6000      7.9229      2.5494      0.0534      6.0994     25.1723    111.1750
  1133.7000      7.9229      2.5309      0.0275      7.2208     24.8384    115.7410
  1133.8000      7.9113      2.5147      0.0029      8.2010     24.3126    117.7820
  1133.9000      7.9113      2.5182      0.0541      7.9875     23.7188    116.8722
  1134.0000      7.9115      2.5369      0.0496      6.8518     23.1202    115.1206
  1134.1000      7.9115      2.5600      0.0825      5.4516     22.9333    113.3812
  1134.2000      7.9115      2.5746      0.1019      4.5714     23.3377    111.6955
  1134.3000      7.9133      2.5688      0.0792      4.9184     24.0164    109.7729
  1134.4000      7.9133      2.5461      0.0638      6.2950     24.5760    110.4061
  1134.5000      7.9110      2.5225      0.0438      7.7265     24.7930    113.4947
  1134.6000      7.9110      2.5088      0.0402      8.5571     24.7321    113.6472
  1134.7000      7.9110      2.5033      0.0220      8.8932     24.7322    110.5422
  1134.8000      7.9079      2.5062      0.0150      8.7171     24.9941    108.8762
  1134.9000      7.9079      2.5219      0.0361      7.7623     25.3398    108.8571
  1135.0000      7.9045      2.5485      0.0678      6.1503     25.5683    107.8865
  1135.1000      7.9045      2.5807      0.0704      4.2007     25.6683    107.2893
  1135.2000      7.9045      2.6105      0.0629      2.3967     25.5166    112.0985
  1135.3000      7.8965      2.6245      0.0756      1.5440     25.1530    120.1184
  1135.4000      7.8965      2.6211      0.0844      1.7513     24.9115    121.1453
  1135.5000      7.8884      2.6184      0.0454      1.9147     25.0181    114.1272
  1135.6000      7.8884      2.6254      0.0647      1.4886     25.3830    108.5373
  1135.7000      7.8884      2.6255      0.1051      1.4849     25.4679    108.0262
  1135.8000      7.8967      2.6097      0.0214      2.4455     24.9081    109.1156
  1135.9000      7.8967      2.5852      0.0498      3.9274     23.9554    108.4613
  1136.0000      7.9068      2.5495      0.0311      6.0899     23.0988    103.4099
  1136.1000      7.9068      2.5171     -0.0601      8.0550     22.4877     96.8902
  1136.2000      7.9068      2.5205      0.0116      7.8459     21.9855     94.0170
  1136.3000      7.9087      2.5546      0.0295      5.7840     21.6315     95.1622
  1136.4000      7.9087      2.5846      0.0753      3.9618     21.5378     98.4178
  1136.5000      7.9076      2.5918      0.0426      3.5276     21.8633    100.8160
  1136.6000      7.9076      2.5827      0.0380      4.0771     22.5357     99.8924
  1136.7000      7.9076      2.5759      0.0217      4.4913     22.8787     97.4487
