~Version Information
 VERS.                                  2.0 : CWLS LAS VERSION
 WRAP.                                   NO : WRAPING MODE
 SWARE .                 MController 2.5.0J : SOFTWARE VERSION
~Well Information
 WELL.                     Collister 17-31R : WELL
 COMP.                Petrogulf Corporation : COMPANY
 FLD.                      Purgatoire River : FIELD
 LOC.                NW/NE Sec 17 T33S R67W : LOCATION
 DATE.                             09/25/05 : DATE(S) LOGGED
 SRVC.       BLANCO Geological Services LLC : SERVICE COMPANY
 STAT.                                   CO : STATE
 CNTY.                           Las Animas : COUNTY
 CTRY.                                  USA : COUNTRY
 API.                       05-071-08436-00 : API NUMBER
 STRT.FT                             861.00 : START DEPTH
 STOP.FT                            2010.00 : STOP DEPTH
 STEP.FT                               1.00 : DEPTH INCREMENT
 NULL.                                -9999 : NULL VALUE
~Curve information
 DEPTH.FT                                   :
 ROP.MIN/FT                                 :
 GAS.UNITS                                  :
~ASCII Log data
# ...
      1461.0         0.27         23.2 
      1462.0         0.23         23.0 
      1463.0         0.20         23.0 
      1464.0         0.23         23.4 
      1465.0         0.23         23.2 
      1466.0         0.23         23.2 
      1467.0         0.30         23.2 
      1468.0         3.48         64.3 
      1469.0         0.33         29.2 
      1470.0         0.23         27.1 
      1471.0         0.30         25.4 
      1472.0         0.58         25.1 
      1473.0         0.50         24.8 
      1474.0         0.23         24.7 
      1475.0         0.20         24.3 
      1476.0         0.27         23.9 
      1477.0         0.53         24.1 
      1478.0         0.33         23.6 
      1479.0         0.23         23.3 
      1480.0         0.33         23.4 
      1481.0         0.28         23.4 
      1482.0         0.40         23.3 
      1483.0         0.37         23.3 
      1484.0         0.43         23.2 
      1485.0         0.33         23.4 
      1486.0         0.27         23.6 
      1487.0         0.33         23.5 
      1488.0         0.27         23.5 
      1489.0         0.43         23.6 
      1490.0         0.28         23.8 
      1491.0         0.20         23.8 
      1492.0         0.23         23.5 
      1493.0         0.23         23.7 
      1494.0         0.17         23.5 
      1495.0         0.27         22.9 
      1496.0         0.30         22.0 
      1497.0         0.33         21.7 
      1498.0         1.55         50.5 
      1499.0         0.33         46.8 
      1500.0         0.33         39.6 
      1501.0         0.53         31.9 
      1502.0         0.30         26.9 
      1503.0         0.43         26.0 
      1504.0         0.63         24.7 
      1505.0         0.52         24.0 
      1506.0         0.50         23.6 
      1507.0         0.73         23.1 
      1508.0         0.43         22.9 
      1509.0         0.40         22.9 
      1510.0         0.37         23.1 
      1511.0         0.50         23.5 
      1512.0         0.55         23.7 
      1513.0         0.43         23.7 
      1514.0         0.43         23.9 
      1515.0         0.37         24.8 
      1516.0         0.43         25.5 
      1517.0         0.23         25.5 
      1518.0         0.27         25.0 
      1519.0         0.33         24.8 
      1520.0         0.33         24.5 
      1521.0         0.25         24.1 
      1522.0         0.23         23.7 
      1523.0         0.27         23.8 
      1524.0         0.40         23.5 
      1525.0         0.27         23.3 
      1526.0         0.23         23.0 
      1527.0         0.23         21.8 
      1528.0         2.28         60.4 
      1529.0         0.40         52.2 
      1530.0         0.30         40.0 
      1531.0         0.83         32.8 
      1532.0         0.67         25.4 
      1533.0         0.48         24.7 
      1534.0         0.23         24.6 
      1535.0         0.27         24.4 
      1536.0         0.30         24.2 
      1537.0         0.20         23.6 
      1538.0         0.27         23.4 
      1539.0         0.40         25.2 
      1540.0         0.27         25.3 
      1541.0         0.20         24.6 
      1542.0         0.23         24.2 
      1543.0         0.27         24.3 
      1544.0         0.20         24.0 
      1545.0         0.25         23.9 
      1546.0         0.23         23.8 
      1547.0         0.20         25.3 
      1548.0         0.20         25.7 
      1549.0         0.20         25.5 
      1550.0         0.23         25.4 
      1551.0         0.37         25.4 
      1552.0         0.27         25.4 
      1553.0         0.37         25.5 
      1554.0         0.37         25.4 
      1555.0         0.30         25.0 
      1556.0         0.28         24.4 
      1557.0         0.33         23.2 
      1558.0         3.05         54.7 
      1559.0         0.53         30.8 
      1560.0         0.37         26.5 
      1561.0         0.37         24.7 
      1562.0         0.40         24.7 
      1563.0         0.40         24.7 
      1564.0         0.50         24.3 
      1565.0         0.42         24.0 
      1566.0         0.23         23.9 
      1567.0         0.27         23.6 
      1568.0         0.30         23.3 
      1569.0         0.37         23.2 
      1570.0         0.33         23.0 
      1571.0         0.30         23.1 
      1572.0         0.30         22.7 
      1573.0         0.27         22.8 
      1574.0         0.30         22.8 
      1575.0         0.27         22.8 
      1576.0         0.32         22.8 
      1577.0         0.33         23.0 
      1578.0         0.27         22.9 
      1579.0         0.20         23.1 
      1580.0         0.33         23.0 
      1581.0         0.27         23.0 
      1582.0         0.30         23.2 
      1583.0         0.27         23.0 
      1584.0         0.37         22.8 
      1585.0         0.37         22.2 
      1586.0         0.23         21.0 
      1587.0         0.28         20.3 
      1588.0         3.25         86.1 
      1589.0         0.37         29.8 
      1590.0         0.37         27.6 
      1591.0         0.23         24.7 
      1592.0         0.27         24.7 
      1593.0         0.47         24.4 
      1594.0         0.40         25.0 
      1595.0         0.23         24.8 
      1596.0         0.20         24.8 
      1597.0         0.23         24.5 
      1598.0         0.20         24.4 
      1599.0         0.32         24.1 
      1600.0         0.47         23.6 
      1601.0         0.23         23.0 
      1602.0         0.23         22.7 
      1603.0         0.23         22.9 
      1604.0         0.23         22.8 
      1605.0         0.33         22.6 
      1606.0         0.40         22.8 
      1607.0         0.30         22.7 
      1608.0         0.20         22.9 
      1609.0         0.23         22.6 
      1610.0         0.23         22.7 
      1611.0         0.35         22.8 
      1612.0         0.37         22.7 
      1613.0         0.30         22.5 
      1614.0         0.23         22.2 
      1615.0         0.23         21.0 
      1616.0         0.20         20.4 
      1617.0         0.27         20.5 
      1618.0         2.05         73.6 
      1619.0         0.37         56.5 
      1620.0         0.43         42.4 
      1621.0         0.40         32.2 
      1622.0         0.37         28.5 
      1623.0         0.27         26.1 
      1624.0         0.33         24.8 
      1625.0         0.33         24.1 
      1626.0         0.38         24.3 
      1627.0         0.47         23.8 
      1628.0         0.40         23.1 
      1629.0         0.30         23.1 
      1630.0         0.30         23.1 
      1631.0         0.27         22.6 
      1632.0         0.43         22.9 
      1633.0         0.53         22.5 
      1634.0         0.42         22.4 
      1635.0         0.33         22.3 
      1636.0         0.30         22.4 
      1637.0         0.40         22.6 
      1638.0         0.43         22.5 
      1639.0         0.43         22.9 
      1640.0         0.37         23.2 
      1641.0         0.43         23.1 
      1642.0         0.45         23.0 
      1643.0         0.47         23.0 
      1644.0         0.40         23.1 
      1645.0         0.33         23.0 
      1646.0         0.30         22.4 
      1647.0         0.27         21.5 
      1648.0         3.08         55.8 
      1649.0         0.43         31.1 
      1650.0         0.47         27.4 
      1651.0         0.27         24.9 
      1652.0         0.23         24.3 
      1653.0         0.23         24.4 
      1654.0         0.28         23.8 
      1655.0         0.23         23.2 
      1656.0         0.23         23.1 
      1657.0         0.27         22.8 
      1658.0         0.27         22.4 
      1659.0         0.30         22.5 
      1660.0         0.20         22.6 
