~Version Information
VERS.                      2.0: CWLS Log ASCII Standard - VERSION 2.0
WRAP.                       NO: One line per depth step
~Well Information Block
STRT.FT               350.0000: 
STOP.FT               906.0000: 
STEP.FT                 0.2500: 
NULL.                -999.2500: 
COMP.          Pioneer Natural Resources: COMPANY
WELL.           Hartford 31-18: WELL
FLD.           Purgatorie River: FIELD
LOC.           375' FNL & 1660' FEL: LOCATION
PROV.                 Colorado: PROVINCE
CNTY.               Las Animas: COUNTRY
SRVC.                Patterson: SERVICE COMPANY
DATE.          Sat Nov 19 19:02:38 2005: LOG DATE
UWI.           05-071-08555               : UNIQUE WELL ID
~Curve Information Block
DEPT.FT            0 000 00 00: Depth
SN.Ohm-m                      : IEL Short Normal
SP.mV                         : IEL Spontaneous Potential
DIR.Ohm-m                     : IEL Induction Resistivity
GR.GAPI                       : Gamma Ray
~Parameter Information Block
~A  Depth        SN          SP         DIR          GR     
# ...
   819.0000     28.4210    251.0461     29.0581     57.6448
   819.2500     28.9475    250.9063     29.3775     59.9559
   819.5000     29.5554    250.8441     29.6865     63.7576
   819.7500     30.2204    250.8775     29.9840     66.1972
   820.0000     30.9084    251.0165     30.2644     67.9840
   820.2500     31.5499    251.2723     30.5093     67.0471
   820.5000     32.0450    251.6629     30.6893     62.8784
   820.7500     32.3231    252.2132     30.7775     59.5113
   821.0000     32.3989    252.9457     30.7664     55.7056
   821.2500     32.3508    253.8687     30.6734     54.5148
   821.5000     32.2255    254.9689     30.5279     54.3922
   821.7500     31.9859    256.2122     30.3484     54.8620
   822.0000     31.5736    257.5462     30.1294     55.5228
   822.2500     30.9842    258.9019     29.8506     55.7289
   822.5000     30.2743    260.2016     29.4983     55.9671
   822.7500     29.5300    261.3779     29.0806     56.4031
   823.0000     28.8420    262.3924     28.6242     57.6665
   823.2500     28.2804    263.2398     28.1614     58.6650
   823.5000     27.8727    263.9348     27.7193     59.8185
   823.7500     27.6009    264.4980     27.3189     60.3583
   824.0000     27.4297    264.9485     26.9780     61.4387
   824.2500     27.3413    265.3048     26.7138     62.5268
   824.5000     27.3437    265.5839     26.5400     63.9863
   824.7500     27.4389    265.8039     26.4606     64.1344
   825.0000     27.5945    265.9865     26.4647     62.6696
   825.2500     27.7665    266.1564     26.5296     60.9791
   825.5000     27.9351    266.3363     26.6291     58.4213
   825.7500     28.1056    266.5424     26.7409     56.9932
   826.0000     28.2837    266.7845     26.8481     55.0919
   826.2500     28.4519    267.0660     26.9354     53.8893
   826.5000     28.5763    267.3796     26.9888     52.6806
   826.7500     28.6394    267.7035     27.0019     52.7422
   827.0000     28.6564    268.0024     26.9797     54.1864
   827.2500     28.6490    268.2393     26.9373     55.4519
   827.5000     28.6158    268.3906     26.8920     56.6038
   827.7500     28.5353    268.4576     26.8585     56.6024
   828.0000     28.3963    268.4666     26.8508     55.6954
   828.2500     28.2177    268.4558     26.8840     54.8755
   828.5000     28.0434    268.4591     26.9722     54.4025
   828.7500     27.9213    268.4970     27.1217     55.2862
   829.0000     27.8864    268.5782     27.3268     58.7046
   829.2500     27.9611    268.7062     27.5723     61.6976
   829.5000     28.1552    268.8825     27.8404     65.2398
   829.7500     28.4678    269.1058     28.1185     66.0312
   830.0000     28.8947    269.3718     28.4032     64.7914
   830.2500     29.4218    269.6762     28.7005     63.1721
   830.5000     30.0171    270.0175     29.0197     61.0676
   830.7500     30.6479    270.3977     29.3607     60.1464
   831.0000     31.3076    270.8196     29.7024     59.0980
   831.2500     32.0097    271.2813     30.0042     58.4039
   831.5000     32.7434    271.7684     30.2217     57.3121
   831.7500     33.4319    272.2525     30.3297     56.6100
   832.0000     33.9314    272.6979     30.3341     55.8978
   832.2500     34.0963    273.0721     30.2650     55.9472
   832.5000     33.8710    273.3536     30.1585     57.2130
   832.7500     33.3095    273.5345     30.0369     58.8041
   833.0000     32.5178    273.6199     29.9002     61.5167
   833.2500     31.5961    273.6262     29.7302     62.7563
   833.5000     30.6233    273.5789     29.5063     62.6167
   833.7500     29.6644    273.5099     29.2195     61.1275
   834.0000     28.7696    273.4531     28.8773     57.8576
   834.2500     27.9725    273.4382     28.4985     55.8319
   834.5000     27.2937    273.4837     28.1065     53.9165
   834.7500     26.7381    273.5958     27.7237     53.4363
   835.0000     26.2955    273.7745     27.3694     53.4539
   835.2500     25.9516    274.0200     27.0596     53.5697
   835.5000     25.6957    274.3330     26.8095     53.3956
   835.7500     25.5224    274.7054     26.6353     53.0256
   836.0000     25.4213    275.1122     26.5520     52.5492
   836.2500     25.3664    275.5125     26.5659     52.5818
   836.5000     25.3284    275.8598     26.6696     53.1063
   836.7500     25.2926    276.1134     26.8434     53.3760
   837.0000     25.2608    276.2473     27.0629     53.0300
   837.2500     25.2537    276.2526     27.3070     52.3107
   837.5000     25.3062    276.1345     27.5613     51.0309
   837.7500     25.4414    275.9077     27.8175     50.3435
   838.0000     25.6420    275.5933     28.0722     49.8278
   838.2500     25.8564    275.2176     28.3249     49.8567
   838.5000     26.0386    274.8122     28.5768     50.2265
   838.7500     26.1719    274.4109     28.8271     50.4124
   839.0000     26.2638    274.0434     29.0706     50.2580
   839.2500     26.3394    273.7311     29.2975     49.9613
   839.5000     26.4303    273.4910     29.4972     49.8181
   839.7500     26.5530    273.3415     29.6618     50.2441
   840.0000     26.7015    273.3010     29.7869     51.7631
   840.2500     26.8641    273.3752     29.8711     53.2082
   840.5000     27.0326    273.5490     29.9190     55.7436
   840.7500     27.2022    273.7908     29.9451     57.6384
   841.0000     27.3783    274.0635     29.9729     60.8472
   841.2500     27.5751    274.3271     30.0257     63.1319
   841.5000     27.7986    274.5381     30.1161     66.1153
   841.7500     28.0484    274.6535     30.2419     67.3454
   842.0000     28.3315    274.6444     30.3911     67.8119
   842.2500     28.6558    274.5058     30.5504     67.5043
   842.5000     29.0224    274.2545     30.7128     67.0001
   842.7500     29.4322    273.9198     30.8818     67.0447
   843.0000     29.8927    273.5365     31.0700     67.6033
   843.2500     30.4168    273.1405     31.2939     67.7124
   843.5000     31.0241    272.7638     31.5669     66.4774
   843.7500     31.7413    272.4269     31.8961     64.9430
   844.0000     32.5889    272.1349     32.2839     63.6342
   844.2500     33.5753    271.8836     32.7339     64.7573
   844.5000     34.7073    271.6713     33.2592     70.0370
   844.7500     35.9925    271.5065     33.8881     75.0013
   845.0000     37.4311    271.4026     34.6630     81.5538
   845.2500     39.0230    271.3661     35.6285     83.5732
   845.5000     40.7757    271.3845     36.8129     81.8610
   845.7500     42.6978    271.4202     38.2107     78.2923
   846.0000     44.7940    271.4139     39.7775     71.8640
   846.2500     47.0518    271.2983     41.4412     68.0145
   846.5000     49.4227    271.0213     43.1230     63.3886
   846.7500     51.8413    270.5643     44.7531     60.8610
   847.0000     54.2599    269.9430     46.2692     57.6190
   847.2500     56.6425    269.1938     47.6051     55.7931
   847.5000     58.9259    268.3601     48.6869     53.2868
   847.7500     60.9883    267.4876     49.4477     51.3549
   848.0000     62.6557    266.6241     49.8507     47.3935
   848.2500     63.7444    265.8155     49.9014     44.1372
   848.5000     64.1004    265.0972     49.6437     39.5212
   848.7500     63.6369    264.4919     49.1404     37.4696
   849.0000     62.3626    264.0133     48.4523     36.6341
   849.2500     60.3801    263.6701     47.6248     37.4179
   849.5000     57.8741    263.4651     46.6877     39.9221
   849.7500     55.0983    263.3911     45.6661     42.1705
   850.0000     52.3190    263.4305     44.5958     46.1996
   850.2500     49.7267    263.5554     43.5260     49.2440
   850.5000     47.4031    263.7277     42.5041     53.9871
   850.7500     45.3753    263.8992     41.5496     56.9221
   851.0000     43.6673    264.0184     40.6425     60.4492
   851.2500     42.2919    264.0446     39.7383     62.0083
   851.5000     41.2390    263.9591     38.8042     62.8948
   851.7500     40.4832    263.7649     37.8500     62.5776
   852.0000     39.9763    263.4778     36.9313     61.9815
   852.2500     39.6403    263.1197     36.1204     62.8391
