~Version Information
VERS.                      2.0: CWLS Log ASCII Standard - VERSION 2.0
WRAP.                       NO: One line per depth step
~Well Information Block
STRT.FT               305.0000: 
STOP.FT              1376.5000: 
STEP.FT                 0.1000: 
NULL.                -999.2500: 
COMP.          Pioneer Natural Resources: COMPANY
WELL.               LPGC 32-32: WELL
FLD.           Purgatoire River: FIELD
LOC.           1937' FNL & 1661' FEL: LOCATION
PROV.                 Colorado: PROVINCE
CNTY.               Las Animas: COUNTRY
SRVC.                Patterson: SERVICE COMPANY
DATE.          Mon Jan 30 07:33:36 2006: LOG DATE
UWI.           05 071 08641 00: UNIQUE WELL ID
~Curve Information Block
DEPT.FT            0 000 00 00: Depth
DCAL.in                       : CDL Caliper
RHOB.g/cc                     : CDL Bulk Density
RHOC.g/cc                     : CDL Density Correction
DPOR.pu                       : CDL Density Porosity
GR.GAPI                       : Gamma Ray
NPOR.pu                       : Neutron Porosity
~Parameter Information Block
~A  Depth       DCAL        RHOB        RHOC        DPOR         GR         NPOR    
# ...
   372.2000      8.1346      2.5066      0.0735      8.6938    134.8698     26.0162
   372.3000      8.1572      2.5216      0.0449      7.7792    127.7371     25.7707
   372.4000      8.1572      2.5455      0.0580      6.3322    115.9356     25.5585
   372.5000      8.1753      2.5731      0.0550      4.6582    107.8051     25.3904
   372.6000      8.1753      2.5908      0.1000      3.5881    105.6281     25.3799
   372.7000      8.1753      2.5905      0.0853      3.6085    107.3084     25.4138
   372.8000      8.1150      2.5798      0.0743      4.2553    110.3024     25.4696
   372.9000      8.1150      2.5712      0.0305      4.7735    111.8176     25.5780
   373.0000      8.1192      2.5678      0.0738      4.9808    111.2366     25.7304
   373.1000      8.1192      2.5605      0.0381      5.4235    109.4812     25.9055
   373.2000      8.1192      2.5494      0.0398      6.0978    108.1138     26.2431
   373.3000      8.1159      2.5483      0.0049      6.1661    108.0308     26.8009
   373.4000      8.1159      2.5582      0.0459      5.5611    107.4295     27.4367
   373.5000      8.1150      2.5709      0.0230      4.7951    107.4791     27.8948
   373.6000      8.1150      2.5952      0.0164      3.3187    110.4916     27.8731
   373.7000      8.1150      2.6331      0.0634      1.0267    113.1813     27.5178
   373.8000      8.1243      2.6600      0.0720     -0.6058    111.6035     27.1336
   373.9000      8.1243      2.6662      0.0253     -0.9825    105.7048     26.5156
   374.0000      8.1129      2.6652     -0.0005     -0.9237     99.1266     25.5172
   374.1000      8.1129      2.6620      0.0122     -0.7260     98.6761     24.5390
   374.2000      8.1129      2.6574     -0.0180     -0.4488    103.2728     23.9787
   374.3000      8.0990      2.6535     -0.0186     -0.2095    104.6310     23.6885
   374.4000      8.0990      2.6365     -0.0048      0.8163    101.1948     23.5011
   374.5000      8.1033      2.6062     -0.0593      2.6557     98.7612     23.6830
   374.6000      8.1033      2.5870     -0.0218      3.8199    100.8129     24.2059
   374.7000      8.1033      2.5870      0.0576      3.8168    103.3848     24.5127
   374.8000      8.1027      2.5972      0.0690      3.1989    102.9891     24.2571
   374.9000      8.1027      2.6093      0.0503      2.4686    101.8322     23.6656
   375.0000      8.0956      2.6170      0.0516      1.9983    103.4907     23.2170
   375.1000      8.0956      2.6149      0.0706      2.1292    105.8481     23.0840
   375.2000      8.0956      2.5962      0.0887      3.2605    105.4541     23.2306
   375.3000      8.0984      2.5673      0.0059      5.0122    107.9894     23.6009
   375.4000      8.0984      2.5451      0.0182      6.3587    116.0124     23.9646
   375.5000      8.1005      2.5350      0.0191      6.9720    119.5842     24.1842
   375.6000      8.1005      2.5312     -0.0374      7.2005    114.2166     24.1656
   375.7000      8.1005      2.5257      0.0063      7.5359    108.9651     24.0545
   375.8000      8.0969      2.5178      0.0053      8.0113    108.6701     24.2055
   375.9000      8.0969      2.5166      0.0020      8.0865    111.3127     24.4856
   376.0000      8.1007      2.5231      0.0094      7.6930    112.5116     24.5729
   376.1000      8.1007      2.5286      0.0402      7.3572    109.8700     24.5072
   376.2000      8.1007      2.5333     -0.0420      7.0743    106.5448     24.3280
   376.3000      8.1048      2.5425      0.0189      6.5136    105.9115     24.0984
   376.4000      8.1048      2.5546     -0.0300      5.7806    107.9245     24.1045
   376.5000      8.1080      2.5683     -0.0214      4.9504    111.1072     24.3448
   376.6000      8.1080      2.5758      0.0432      4.4952    113.3770     24.5802
   376.7000      8.1080      2.5669      0.0028      5.0358    111.0760     24.7206
   376.8000      8.1064      2.5510      0.0075      5.9999    105.6715     24.7718
   376.9000      8.1064      2.5447     -0.0083      6.3799    103.9196     24.7608
   377.0000      8.1341      2.5525     -0.0025      5.9087    106.1223     24.7538
   377.1000      8.1341      2.5659      0.0084      5.0991    106.2158     24.6681
   377.2000      8.1341      2.5686      0.0567      4.9327    104.6115     24.3871
   377.3000      8.1236      2.5650     -0.0375      5.1489    105.1356     24.0401
   377.4000      8.1236      2.5751      0.0480      4.5413    107.2107     23.8657
   377.5000      8.1236      2.5877      0.0498      3.7776    109.8331     23.8688
   377.6000      8.1236      2.5853      0.0470      3.9198    115.4061     23.7915
   377.7000      8.1236      2.5711      0.0399      4.7827    124.9234     23.4123
   377.8000      8.1399      2.5485      0.0017      6.1540    131.5867     22.7123
   377.9000      8.1399      2.5186     -0.0133      7.9641    130.2492     21.8200
   378.0000      8.1361      2.4825      0.0001     10.1519    126.5901     21.1048
   378.1000      8.1361      2.4467     -0.0247     12.3229    125.1508     20.8707
   378.2000      8.1361      2.4205     -0.0030     13.9121    125.6767     20.8103
   378.3000      8.1599      2.4018     -0.0010     15.0428    128.1778     20.6008
   378.4000      8.1599      2.3901     -0.0151     15.7536    132.3044     20.5786
   378.5000      8.1568      2.3904      0.0022     15.7327    138.3615     21.0417
   378.6000      8.1568      2.3964      0.0001     15.3725    144.3593     21.6500
   378.7000      8.1568      2.3973      0.0205     15.3180    146.6756     22.0752
   378.8000      8.1589      2.3985     -0.0146     15.2410    143.5873     22.4567
   378.9000      8.1589      2.4000      0.0700     15.1499    139.4271     22.9941
   379.0000      8.1360      2.3795      0.0804     16.3969    140.8296     23.6966
   379.1000      8.1360      2.3408      0.0535     18.7398    146.0123     24.4527
   379.2000      8.1360      2.3215      0.0341     19.9086    148.7521     25.1313
   379.3000      8.1509      2.3351      0.0854     19.0854    146.8929     25.6721
   379.4000      8.1509      2.3549      0.0762     17.8867    144.4198     26.3302
   379.5000      8.1996      2.3565      0.0746     17.7884    146.1742     27.2922
   379.6000      8.1996      2.3554      0.0364     17.8557    149.4799     28.2102
   379.7000      8.1996      2.3800      0.0653     16.3616    149.4297     28.7231
   379.8000      8.3067      2.4267      0.1165     13.5350    145.1949     28.7477
   379.9000      8.3067      2.4696      0.1567     10.9344    138.6033     28.4803
   380.0000      8.3552      2.4992      0.0482      9.1406    136.3504     28.3017
   380.1000      8.3552      2.5222      0.0952      7.7455    141.6129     28.2567
   380.2000      8.3552      2.5342      0.0657      7.0153    147.1112     28.1971
   380.3000      8.3726      2.5343      0.0972      7.0147    150.6253     28.1604
   380.4000      8.3726      2.5360      0.0585      6.9076    155.4217     28.0222
   380.5000      8.2729      2.5432      0.0659      6.4755    156.6079     27.6016
   380.6000      8.2729      2.5367      0.0703      6.8690    147.9001     26.8726
   380.7000      8.2729      2.5029      0.0805      8.9147    135.2063     26.0290
   380.8000      8.3000      2.4622     -0.0367     11.3820    127.8620     25.5359
   380.9000      8.3000      2.4397     -0.0068     12.7467    124.8473     25.5719
   381.0000      8.2932      2.4282     -0.0068     13.4435    123.3337     25.8828
   381.1000      8.2932      2.4205     -0.0582     13.9119    125.7373     25.9770
   381.2000      8.2932      2.4256     -0.0075     13.5970    131.9142     25.6437
   381.3000      8.2812      2.4392      0.0624     12.7736    137.8181     25.1976
   381.4000      8.2812      2.4547      0.0106     11.8378    143.3253     24.9118
   381.5000      8.2876      2.4860      0.0912      9.9422    146.0351     25.0099
   381.6000      8.2876      2.5367      0.2031      6.8651    141.0623     25.6077
   381.7000      8.2876      2.5823      0.2992      4.1055    131.9335     26.2551
