~Version Information
 VERS.                                  2.0 : CWLS LAS VERSION
 WRAP.                                   NO : WRAPING MODE
 SWARE .                 MController 2.5.0J : SOFTWARE VERSION
~Well Information
 WELL.                          Rolls 14-14 : WELL
 COMP.    Pioneer Natural Resources USA Inc : COMPANY
 FLD.                      Purgatoire River : FIELD
 LOC.                SW/SW Sec 14 T32S R66W : LOCATION
 DATE.                       07/31-08/01/05 : DATE(S) LOGGED
 SRVC.       BLANCO Geological Services LLC : SERVICE COMPANY
 STAT.                                   CO : STATE
 CNTY.                           Las Animas : COUNTY
 CTRY.                                  USA : COUNTRY
 API.                       05-071-08455-00 : API NUMBER
 STRT.FT                             831.00 : START DEPTH
 STOP.FT                            2365.00 : STOP DEPTH
 STEP.FT                               1.00 : DEPTH INCREMENT
 NULL.                                -9999 : NULL VALUE
~Curve information
 DEPTH.FT                                   :
 ROP.MIN/FT                                 :
 GAS.UNITS                                  :
~ASCII Log data
# ...
      2031.0         0.20        628.3 
      2032.0         0.17        622.9 
      2033.0         0.17        616.8 
      2034.0         0.13        616.5 
      2035.0         0.28        612.1 
      2036.0         2.60        673.6 
      2037.0         0.13        685.4 
      2038.0         0.23        754.9 
      2039.0         0.28        832.6 
      2040.0         0.37        917.4 
      2041.0         0.30       1076.1 
      2042.0         0.27       1187.8 
      2043.0         0.30       1272.2 
      2044.0         0.23       1297.3 
      2045.0         0.27       1292.9 
      2046.0         0.33       1236.7 
      2047.0         0.27       1106.5 
      2048.0         0.27       1025.0 
      2049.0         0.23        935.8 
      2050.0         0.20        873.0 
      2051.0         0.22        840.6 
      2052.0         0.27        814.6 
      2053.0         0.30        802.5 
      2054.0         0.23        804.1 
      2055.0         0.23        806.0 
      2056.0         0.27        804.4 
      2057.0         0.20        797.7 
      2058.0         0.27        789.5 
      2059.0         0.27        783.1 
      2060.0         0.23        772.0 
      2061.0         0.27        760.6 
      2062.0         0.20        753.9 
      2063.0         0.33        741.2 
      2064.0         0.32        734.6 
      2065.0         0.27        724.7 
      2066.0         4.15        873.6 
      2067.0         0.53       1113.5 
      2068.0         0.43       1172.2 
      2069.0         0.40       1164.0 
      2070.0         0.40       1165.9 
      2071.0         0.42       1168.8 
      2072.0         0.33       1142.4 
      2073.0         0.23       1061.8 
      2074.0         0.23        988.2 
      2075.0         0.13        954.5 
      2076.0         0.20        911.7 
      2077.0         0.23        871.1 
      2078.0         0.23        853.6 
      2079.0         0.20        828.2 
      2080.0         0.13        828.5 
      2081.0         0.13        835.8 
      2082.0         0.17        866.3 
      2083.0         0.17        886.9 
      2084.0         0.17        895.2 
      2085.0         0.27        896.8 
      2086.0         0.23        877.1 
      2087.0         0.28        864.1 
      2088.0         0.20        864.4 
      2089.0         0.20        864.7 
      2090.0         0.20        863.1 
      2091.0         0.20        849.2 
      2092.0         0.23        834.6 
      2093.0         0.20        819.0 
      2094.0         0.10        803.1 
      2095.0         0.20        796.5 
      2096.0         5.63       1858.4 
      2097.0         0.50       2494.1 
      2098.0         0.30       2635.7 
      2099.0         0.23       2632.5 
      2100.0         0.37       2465.9 
      2101.0         0.23       1870.8 
      2102.0         0.23       1717.5 
      2103.0         0.27       1589.6 
      2104.0         0.30       1428.4 
      2105.0         0.30       1275.4 
      2106.0         0.28       1099.9 
      2107.0         0.20       1032.9 
      2108.0         0.20        982.8 
      2109.0         0.20        939.0 
      2110.0         0.23        914.5 
      2111.0         0.20        866.3 
      2112.0         0.23        852.6 
      2113.0         0.27        839.0 
      2114.0         0.23        830.4 
      2115.0         0.20        824.4 
      2116.0         0.20        811.1 
      2117.0         0.20        800.6 
      2118.0         0.23        793.3 
      2119.0         0.27        778.1 
      2120.0         0.32        766.3 
      2121.0         0.30        744.7 
      2122.0         0.17        736.8 
      2123.0         0.20        731.1 
      2124.0         0.23        725.4 
      2125.0         0.27        716.8 
      2126.0         6.90       2625.2 
      2127.0         0.60       2737.6 
      2128.0         0.43       2201.8 
      2129.0         0.40       1535.7 
      2130.0         0.38       1224.0 
      2131.0         0.33       1142.4 
      2132.0         0.33       1113.5 
      2133.0         0.23       1038.3 
      2134.0         0.20        979.9 
      2135.0         0.20        952.3 
      2136.0         0.30        917.4 
      2137.0         0.30        871.4 
      2138.0         0.23        829.8 
      2139.0         0.23        823.1 
      2140.0         0.27        813.0 
      2141.0         0.23        800.6 
      2142.0         0.23        789.5 
      2143.0         0.25        778.1 
      2144.0         0.20        764.7 
      2145.0         0.23        753.3 
      2146.0         0.30        744.7 
      2147.0         0.17        730.5 
      2148.0         0.13        720.3 
      2149.0         0.13        721.6 
      2150.0         0.20        720.0 
      2151.0         0.20        716.5 
      2152.0         0.27        707.3 
      2153.0         0.40        684.1 
      2154.0         0.27        684.4 
      2155.0         0.30        708.2 
      2156.0         5.00       1114.8 
      2157.0         0.47       1076.1 
      2158.0         0.43       1053.5 
      2159.0         0.33       1063.4 
      2160.0         0.43       1061.2 
      2161.0         0.35       1008.2 
      2162.0         0.27        937.1 
      2163.0         0.27        895.8 
      2164.0         0.30        846.3 
      2165.0         0.30        817.4 
      2166.0         0.30        803.1 
      2167.0         0.27        796.1 
      2168.0         0.27        787.3 
      2169.0         0.30        778.7 
      2170.0         0.27        767.6 
      2171.0         0.27        760.3 
      2172.0         0.23        747.3 
      2173.0         0.25        745.7 
      2174.0         0.27        739.0 
      2175.0         0.27        729.8 
      2176.0         0.27        720.6 
      2177.0         0.30        716.2 
      2178.0         0.23        707.0 
      2179.0         0.27        701.9 
      2180.0         0.23        693.6 
      2181.0         0.23        689.8 
      2182.0         0.30        688.9 
      2183.0         0.23        684.1 
      2184.0         0.27        679.0 
      2185.0         0.27        676.2 
      2186.0         3.73        720.6 
      2187.0         0.17        764.4 
      2188.0         0.13        797.4 
      2189.0         0.13        881.2 
      2190.0         0.17        929.1 
      2191.0         0.30       1077.7 
      2192.0         0.47       1120.2 
      2193.0         0.20       1105.6 
      2194.0         0.20       1072.0 
      2195.0         0.30       1034.2 
      2196.0         0.30       1003.4 
      2197.0         0.30        963.7 
      2198.0         0.30        882.8 
      2199.0         0.28        857.4 
      2200.0         0.30        853.6 
      2201.0         0.30        856.1 
      2202.0         0.33        866.0 
      2203.0         0.27        867.2 
      2204.0         0.27        865.3 
      2205.0         0.30        854.9 
      2206.0         0.33        832.0 
      2207.0         0.30        815.2 
      2208.0         0.30        802.8 
      2209.0         0.27        792.0 
      2210.0         0.32        784.1 
      2211.0         0.27        761.9 
      2212.0         0.23        751.1 
      2213.0         0.23        742.5 
      2214.0         0.23        740.9 
      2215.0         0.17        738.7 
      2216.0         3.18        740.9 
      2217.0         0.57        768.5 
      2218.0         0.37        906.3 
      2219.0         0.50       1258.3 
      2220.0         0.27       1356.3 
      2221.0         0.37       1395.7 
      2222.0         0.25       1389.7 
      2223.0         0.20       1347.4 
      2224.0         0.47       1251.6 
      2225.0         0.30       1082.1 
      2226.0         0.23       1015.8 
      2227.0         0.17        949.1 
      2228.0         0.17        912.9 
      2229.0         0.40        894.9 
      2230.0         0.23        845.3 
