~Version Information
VERS.                      2.0: CWLS Log ASCII Standard - VERSION 2.0
WRAP.                       NO: One line per depth step
~Well Information Block
STRT.FT               491.0000: 
STOP.FT              1911.5000: 
STEP.FT                 0.2500: 
NULL.                -999.2500: 
COMP.          Pioneer Natural Resources: COMPANY
WELL.            Corazon 13-10: WELL
FLD.           Purgatoire River: FIELD
LOC.           2510' FSL & 439' FWL: LOCATION
PROV.                 Colorado: PROVINCE
CNTY.               Las Animas: COUNTRY
SRVC.                Patterson: SERVICE COMPANY
DATE.          Wed Nov 30 22:14:48 2005: LOG DATE
UWI.           05 071 08613 00: UNIQUE WELL ID
~Curve Information Block
DEPT.FT            0 000 00 00: Depth
SN.Ohm-m                      : IEL Short Normal
SP.mV                         : IEL Spontaneous Potential
DIR.Ohm-m                     : IEL Induction Resistivity
GR.GAPI                       : Gamma Ray
~Parameter Information Block
~A  Depth        SN          SP         DIR          GR     
# ...
   859.5000      2.5361    -77.7230      0.4892     77.5487
   859.7500      2.1083    -75.7257      0.7302     78.7236
   860.0000      1.8526    -71.8139      1.1206     82.2518
   860.2500      1.8219    -66.0326      1.5588     85.8921
   860.5000      1.9504    -58.6836      1.6233     91.7984
   860.7500      2.3122    -50.3462      1.2607     95.0334
   861.0000      3.1605    -41.7464      0.8950     98.5444
   861.2500      4.7640    -33.5715      0.6789    100.5571
   861.5000      7.1935    -26.3340      0.5926    103.5775
   861.7500     10.1717    -20.3199      0.6184    104.9950
   862.0000     13.1759    -15.6009      0.7859    104.5287
   862.2500     15.7353    -12.0776      1.2546    102.0741
   862.5000     17.6208     -9.5349      2.9382     96.4832
   862.7500     18.8140     -7.7028 100000.0000     93.2822
   863.0000     19.4359     -6.3235 100000.0000     92.8339
   863.2500     19.6895     -5.2187 100000.0000     96.8576
   863.5000     19.7463     -4.3389 100000.0000    109.4406
   863.7500     19.6450     -3.7690 100000.0000    120.7633
   864.0000     19.3091     -3.6823 100000.0000    138.0671
   864.2500     18.6832     -4.2689 100000.0000    147.4104
   864.5000     17.8132     -5.6896 100000.0000    155.8464
   864.7500     16.8137     -8.0824 100000.0000    157.8816
   865.0000     15.8217    -11.6110 100000.0000    157.2796
   865.2500     14.9231    -16.5142      3.9089    155.5046
   865.5000     14.0620    -23.1219      1.4428    152.1020
   865.7500     13.0344    -31.8158      0.7919    149.8742
   866.0000     11.5889    -42.9199      0.5271    146.9663
   866.2500      9.6500    -56.5268      0.4061    144.9730
   866.5000      7.4937    -72.3026      0.3561    140.3357
   866.7500      5.6052    -89.3608      0.3469    135.0506
   867.0000      4.3147   -106.3077      0.3629    122.6679
   867.2500      3.5811   -121.5277      0.3986    111.5779
   867.5000      3.1477   -133.6621      0.4610     92.3746
   867.7500      2.8856   -142.0718      0.5776     79.4063
   868.0000      2.9230   -147.0121      0.8162     62.4569
   868.2500      3.4470   -149.4068      1.3842     54.0061
   868.5000      4.3138   -150.3902      3.3340     46.4663
   868.7500      4.8793   -150.9091    110.6356     44.8646
   869.0000      4.5826   -151.5580 100000.0000     47.3426
   869.2500      3.6473   -152.5946 100000.0000     52.0104
   869.5000      2.7564   -153.9911 100000.0000     62.4807
   869.7500      2.2524   -155.4533 100000.0000     70.5302
   870.0000      1.9994   -156.4934 100000.0000     81.3402
   870.2500      1.7942   -156.6642 100000.0000     86.2608
   870.5000      1.6230   -155.8759 100000.0000     89.3967
   870.7500      1.5633   -154.4884 100000.0000     89.2598
   871.0000      1.6045   -152.9642 100000.0000     87.3225
   871.2500      1.6416   -151.2882 100000.0000     85.2353
   871.5000      1.6209   -148.6586 100000.0000     80.1811
   871.7500      1.6046   -143.7716 100000.0000     75.0980
   872.0000      1.7119   -135.5401 100000.0000     65.9565
   872.2500      2.1550   -123.7238 100000.0000     60.8025
   872.5000      3.3175   -109.0253 100000.0000     58.9393
   872.7500      5.5443    -92.6675      3.7832     63.6441
   873.0000      8.6864    -75.8820      1.4712     80.0049
   873.2500     11.9558    -59.6767      0.9182     95.1849
   873.5000     14.4261    -44.8689      0.7534    118.9962
   873.7500     15.6503    -32.1308      0.7907    132.7816
   874.0000     15.7811    -21.8852      1.0715    147.9744
   874.2500     15.3178    -14.1211      2.0164    154.2982
   874.5000     14.7867     -8.3261      9.1376    158.5555
   874.7500     14.4459     -3.6859 100000.0000    158.3005
   875.0000     14.2131      0.4798 100000.0000    154.7389
   875.2500     13.9004      4.3023 100000.0000    151.7577
   875.5000     13.3979      7.3526 100000.0000    148.9752
   875.7500     12.6843      9.1338 100000.0000    148.7900
   876.0000     11.8933      9.6305 100000.0000    149.8461
   876.2500     11.2741      9.3619 100000.0000    150.2972
   876.5000     10.9132      8.9540 100000.0000    149.5720
   876.7500     10.6865      8.7500 100000.0000    148.3702
   877.0000     10.5057      8.7779 100000.0000    146.4230
   877.2500     10.3730      8.9318 100000.0000    145.2652
   877.5000     10.2896      9.1172 100000.0000    143.1316
   877.7500     10.2633      9.2881 100000.0000    140.7634
   878.0000     10.3108      9.4299     77.3186    134.9931
   878.2500     10.4268      9.5398     30.8461    129.8113
   878.5000     10.5719      9.6171     22.6242    121.3815
   878.7500     10.6615      9.6618     20.6062    116.4203
   879.0000     10.6551      9.6782     21.6286    111.5751
   879.2500     10.6281      9.6791     25.4704    110.5947
   879.5000     10.6508      9.6827     32.3792    112.3679
   879.7500     10.6808      9.7010     39.6642    114.9670
   880.0000     10.6358      9.7326     38.4390    119.1071
   880.2500     10.5176      9.7700     28.2296    121.2761
   880.5000     10.3658      9.8119     18.8541    123.7565
   880.7500     10.1112      9.8673     13.1722    125.5019
   881.0000      9.6628      9.9487     10.0257    129.0857
   881.2500      9.0910     10.0630      8.2868    132.1227
   881.5000      8.5502     10.2065      7.3159    137.0575
   881.7500      8.1152     10.3660      6.7699    140.2656
   882.0000      7.8098     10.5236      6.4596    144.8231
   882.2500      7.6794     10.6645      6.2823    147.7799
   882.5000      7.7159     10.7815      6.1877    152.1002
   882.7500      7.7859     10.8754      6.1568    154.7202
   883.0000      7.7654     10.9518      6.1840    157.8190
   883.2500      7.6657     11.0165      6.2643    159.1637
   883.5000      7.5184     11.0739      6.3872    159.9149
   883.7500      7.3104     11.1251      6.5368    159.3392
   884.0000      7.0890     11.1672      6.6965    156.4248
   884.2500      6.9614     11.1950      6.8542    153.2861
   884.5000      6.9947     11.2048      7.0041    148.2984
   884.7500      7.1597     11.1966      7.1463    146.0146
   885.0000      7.3389     11.1743      7.2837    145.4871
   885.2500      7.4417     11.1456      7.4204    146.9244
   885.5000      7.5157     11.1200      7.5591    150.2086
   885.7500      7.6670     11.1024      7.6998    152.0709
   886.0000      7.8922     11.0912      7.8393    153.3030
   886.2500      8.0604     11.0812      7.9731    153.2018
   886.5000      8.0896     11.0665      8.0980    152.9027
   886.7500      8.0696     11.0378      8.2135    153.3861
   887.0000      8.1438     10.9801      8.3212    155.3299
   887.2500      8.3480     10.8781      8.4228    156.6447
   887.5000      8.5870     10.7270      8.5201    156.6668
   887.7500      8.7348     10.5374      8.6146    154.6594
   888.0000      8.7683     10.3309      8.7086    148.8599
   888.2500      8.7545     10.1293      8.8050    144.1244
   888.5000      8.7330      9.9455      8.9072    138.2619
   888.7500      8.7221      9.7803      9.0191    136.4432
   889.0000      8.7756      9.6238      9.1442    137.2105
   889.2500      8.9325      9.4597      9.2834    139.1081
   889.5000      9.1618      9.2711      9.4327    141.3426
   889.7500      9.4197      9.0479      9.5797    140.6962
   890.0000      9.7222      8.7927      9.7044    134.1749
   890.2500     10.1155      8.5220      9.7824    125.8297
   890.5000     10.6253      8.2591      9.7940    109.4900
   890.7500     11.2554      8.0219      9.7346     98.3993
   891.0000     11.9771      7.8152      9.6206     85.2825
   891.2500     12.6882      7.6361      9.4842     80.1969
   891.5000     13.2301      7.4807      9.3608     78.7249
   891.7500     13.4923      7.3439      9.2782     81.6502
   892.0000     13.4601      7.2166      9.2509     90.8936
   892.2500     13.1700      7.0887      9.2817     99.3636
   892.5000     12.6811      6.9562      9.3635    113.5435
   892.7500     12.0615      6.8218      9.4808    122.7774
