~Version Information
VERS.                      2.0: CWLS Log ASCII Standard - VERSION 2.0
WRAP.                       NO: One line per depth step
~Well Information Block
STRT.FT                -5.0000: 
STOP.FT               912.2500: 
STEP.FT                 0.2500: 
NULL.                -999.2500: 
COMP.          Pioneer Natural Resources: COMPANY
WELL.               Ernie 31-6: WELL
FLD.           Purgatoire River: FIELD
LOC.           681' FNL & 2138' FEL: LOCATION
CNTY.               Las Animas: COUNTY
SRVC.                         : SERVICE COMPANY
DATE.          Tue Jun 27 10:36:58 2006: LOG DATE
UWI.           05 071 08716 00: UNIQUE WELL ID
STAT.                       CO: STATE
~Curve Information Block
DEPT.FT            0 000 00 00: Depth
GR.GAPI                       : Gamma Ray
CCL.                          : Casing Collar Locator
TT3.usec                      : CBL 3' Travel Time
AMP3.mV                       : CBL 3' Amplitude
~Parameter Information Block
~A  Depth        GR         CCL         TT3         AMP3    
# ...
   397.0000    171.0095      0.0000    716.5752      7.8004
   397.2500    168.4926      0.0000    710.8229      7.7481
   397.5000    164.6666      0.0000    702.8220      7.6612
   397.7500    160.2870      0.0000    690.8126      7.5508
   398.0000    155.5660      0.0000    673.3427      7.4378
   398.2500    150.6043      0.0000    654.6134      7.3517
   398.5000    145.9405      0.0000    645.2852      7.3164
   398.7500    141.9023      0.0000    655.4494      7.3390
   399.0000    137.4480      0.0000    685.3102      7.4149
   399.2500    130.6403      0.0000    723.9512      7.5324
   399.5000    121.0983      0.0000    757.7161      7.6656
   399.7500    111.6265      0.0000    778.9259      7.7715
   400.0000    106.5514      0.0000    787.3434      7.8064
   400.2500    108.4352      0.0000    785.8077      7.7488
   400.5000    116.7041      0.0000    775.8347      7.6127
   400.7500    128.7494      0.0000    756.9074      7.4438
   401.0000    141.3942      0.0000    728.8941      7.2961
   401.2500    151.6549      0.0000    694.9155      7.2047
   401.5000    157.3372      0.0000    662.7100      7.1766
   401.7500    157.7280      0.0000    643.0101      7.2047
   402.0000    153.8813      0.0000    643.6887      7.2808
   402.2500    148.1770      0.0000    663.2545      7.3882
   402.5000    143.2433      0.0000    690.9309      7.4932
   402.7500    140.6013      0.0000    714.1172      7.5618
   403.0000    140.0366      0.0000    725.7485      7.5890
   403.2500    140.4623      0.0000    726.1785      7.6044
   403.5000    141.2380      0.0000    721.0234      7.6437
   403.7500    142.2664      0.0000    717.6699      7.7170
   404.0000    143.1046      0.0000    721.1603      7.8062
   404.2500    142.8367      0.0000    731.2739      7.8832
   404.5000    141.0300      0.0000    743.2103      7.9259
   404.7500    138.2808      0.0000    751.0557      7.9243
   405.0000    135.8238      0.0000    750.1673      7.8822
   405.2500    134.9559      0.0000    737.1959      7.8150
   405.5000    136.3046      0.0000    711.0239      7.7443
   405.7500    138.8614      0.0000    676.7359      7.6980
   406.0000    140.0194      0.0000    647.8137      7.7097
   406.2500    137.2428      0.0000    640.2717      7.8059
   406.5000    129.9305      0.0000    661.5992      7.9847
   406.7500    119.8941      0.0000    706.0891      8.2061
   407.0000    110.1518      0.0000    761.8664      8.4065
   407.2500    102.6847      0.0000    820.4258      8.5292
   407.5000     97.0171      0.0000    877.7493      8.5532
   407.7500     91.3371      0.0000    929.3207      8.5057
   408.0000     84.9606      0.0000    968.7321      8.4457
   408.2500     79.1125      0.0000    991.8959      8.4241
   408.5000     75.4601      0.0000   1000.4891      8.4502
   408.7500     74.6655      0.0000   1000.7220      8.4945
   409.0000     76.2733      0.0000    999.0666      8.5208
   409.2500     79.2034      0.0000    998.4115      8.5061
   409.5000     82.2572      0.0000    997.3031      8.4375
   409.7500     84.7041      0.0000    992.9066      8.3140
   410.0000     86.5731      0.0000    984.7303      8.1505
   410.2500     88.0845      0.0000    975.6802      7.9741
   410.5000     88.7289      0.0000    969.3640      7.8252
   410.7500     87.2513      0.0000    965.5512      7.7545
   411.0000     82.8597      0.0000    958.1343      7.7777
   411.2500     76.3973      0.0000    939.4747      7.8358
   411.5000     70.1477      0.0000    907.8357      7.8486
   411.7500     66.3701      0.0000    869.0815      7.8084
   412.0000     65.8178      0.0000    831.2278      7.7790
   412.2500     67.4725      0.0000    799.6536      7.8158
   412.5000     69.6779      0.0000    776.7389      7.9213
   412.7500     71.5165      0.0000    762.2961      8.0586
   413.0000     73.1145     -2.0000    753.4777      8.1881
   413.2500     74.9298      0.0000    746.3661      8.3049
   413.5000     77.1227      0.0000    738.7949      8.4551
   413.7500     79.4774      0.0000    731.2100      8.7054
   414.0000     81.4663      0.0000    724.7777      9.0919
   414.2500     82.3552      0.0000    719.5801      9.5979
   414.5000     81.6891      0.0000    714.9299     10.1590
   414.7500     79.8453      0.0000    710.8519     10.6896
   415.0000     77.7941      0.0000    708.4969     11.1296
   415.2500     76.1146      0.0000    709.3257     11.4775
   415.5000     74.6267      0.0000    714.5224     11.7752
   415.7500     73.1957      0.0000    724.8977     12.0750
   416.0000     72.4018      0.0000    740.3369     12.4190
   416.2500     73.0031      0.0000    759.1158     12.8137
   416.5000     75.0201      0.0000    778.4537     13.2017
   416.7500     77.6474      0.0000    795.8968     13.4755
   417.0000     79.9504      0.0000    810.0264     13.5498
   417.2500     81.5066      0.0000    820.2739     13.4278
   417.5000     82.3575      0.0000    826.7806     13.1945
   417.7500     82.4193      0.0000    830.3294     12.9544
   418.0000     81.2006      0.0000    832.0353     12.7706
   418.2500     78.4285      0.0000    833.0250     12.6410
   418.5000     74.9046      0.0000    834.3992     12.5103
   418.7500     72.1359      0.0000    837.1865     12.3036
   419.0000     70.8283      0.0000    841.7896     11.9633
   419.2500     70.1975      0.0000    847.1385     11.4766
   419.5000     69.1189      0.0000    850.7346     10.8849
   419.7500     67.5827      0.0000    850.3589     10.2691
   420.0000     66.5675      0.0000    846.0626      9.7199
   420.2500     66.6714      0.0000    840.1286      9.3100
   420.5000     67.4976      0.0000    835.0576      9.0744
   420.7500     68.4683      0.0000    831.9196      8.9990
   421.0000     69.5923      0.0000    830.4060      9.0249
   421.2500     71.1542      0.0000    829.7405      9.0731
   421.5000     73.1342      0.0000    829.3085      9.0807
   421.7500     75.1702      0.0000    828.8035      9.0301
   422.0000     76.6878      0.0000    828.1716      8.9513
   422.2500     77.0376      0.0000    827.5101      8.8950
   422.5000     75.9914      0.0000    826.9606      8.8932
   422.7500     74.0891      0.0000    826.6269      8.9390
   423.0000     72.1744      0.0000    826.5792      8.9928
   423.2500     70.8062      0.0000    827.0081      9.0096
   423.5000     70.2677      0.0000    828.5970      8.9703
   423.7500     70.6125      0.0000    832.9789      8.8903
   424.0000     71.3924      0.0000    842.7803      8.7955
   424.2500     71.7515      0.0000    860.5211      8.6927
   424.5000     71.2276      0.0000    886.3307      8.5727
   424.7500     70.4284      0.0000    916.1492      8.4372
   425.0000     70.5435      0.0000    942.7913      8.3141
   425.2500     72.0211      0.0000    959.9081      8.2443
   425.5000     74.0357      0.0000    965.4563      8.2540
   425.7500     75.4356      0.0000    961.6165      8.3408
   426.0000     75.8829      0.0000    951.8177      8.4761
   426.2500     75.9421      0.0000    937.8799      8.6144
   426.5000     76.4804      0.0000    919.6407      8.7035
   426.7500     78.1393      0.0000    897.2205      8.7058
   427.0000     80.9228      0.0000    873.3385      8.6271
   427.2500     83.9895      0.0000    852.6782      8.5178
   427.5000     86.1616      0.0000    838.9370      8.4298
   427.7500     87.0488      0.0000    833.1600      8.3752
   428.0000     87.5378      0.0000    834.7341      8.3314
   428.2500     88.7582      0.0000    842.6977      8.2765
   428.5000     90.6344      0.0000    855.4255      8.2113
   428.7500     91.8387      0.0000    869.8517      8.1563
   429.0000     91.1640      0.0000    882.2755      8.1355
   429.2500     88.7581      0.0000    890.3591      8.1600
   429.5000     86.0391      0.0000    894.0899      8.2230
   429.7500     84.4306      0.0000    894.9313      8.3046
   430.0000     84.2961      0.0000    894.4433      8.3833
   430.2500     85.2607      0.0000    893.6030      8.4414
