~Version Information
VERS.                      2.0: CWLS Log ASCII Standard - VERSION 2.0
WRAP.                       NO: One line per depth step
~Well Information Block
STRT.FT               240.0000: 
STOP.FT               713.7500: 
STEP.FT                 0.2500: 
NULL.                -999.2500: 
COMP.          Pioneer Natural Resources: COMPANY
WELL.           Belvedere 14-7: WELL
FLD.           Purgatorie River: FIELD
LOC.           786' FSL & 1283' FWL: LOCATION
PROV.                 Colorado: PROVINCE
CNTY.               Las Animas: COUNTRY
SRVC.                Patterson: SERVICE COMPANY
DATE.          Sun Nov 27 03:38:28 2005: LOG DATE
UWI.           05-071-08557               : UNIQUE WELL ID
~Curve Information Block
DEPT.FT            0 000 00 00: Depth
DIR.Ohm-m                     : IEL Induction Resistivity
GR.GAPI                       : Gamma Ray
~Parameter Information Block
~A  Depth       DIR          GR     
# ...
   686.0000     16.9560     94.6730
   686.2500     16.7172     95.5602
   686.5000     16.5307     95.6034
   686.7500     16.3944     95.6202
   687.0000     16.2903     96.5859
   687.2500     16.1891     97.5624
   687.5000     16.0622     98.6459
   687.7500     15.8946     99.2712
   688.0000     15.6922    101.1543
   688.2500     15.4787    103.1874
   688.5000     15.2861    106.1108
   688.7500     15.1461    106.9380
   689.0000     15.0843    105.6448
   689.2500     15.1164    103.3573
   689.5000     15.2453     99.0657
   689.7500     15.4598     96.5416
   690.0000     15.7386     94.5123
   690.2500     16.0584     94.4620
   690.5000     16.4028     95.0953
   690.7500     16.7666     94.8020
   691.0000     17.1547     91.9908
   691.2500     17.5775     88.7349
   691.5000     18.0482     83.3005
   691.7500     18.5811     80.2023
   692.0000     19.1864     77.0906
   692.2500     19.8612     76.1737
   692.5000     20.5796     76.6592
   692.7500     21.2901     77.9826
   693.0000     21.9275     79.8510
   693.2500     22.4341     79.7548
   693.5000     22.7777     76.7476
   693.7500     22.9546     73.6173
   694.0000     22.9786     69.6893
   694.2500     22.8702     68.6148
   694.5000     22.6534     69.2025
   694.7500     22.3588     69.9446
   695.0000     22.0212     68.7442
   695.2500     21.6729     64.8005
   695.5000     21.3369     52.8703
   695.7500     21.0252     41.7146
   696.0000     20.7435     24.1772
   696.2500     20.4948     14.5417
   696.5000     20.2814      5.3325
   696.7500     20.1045      2.3037
   697.0000     19.9630      0.4999
   697.2500     19.8509      0.1495
   697.5000     19.7556      0.0175
   697.7500     19.6591      0.0022
   698.0000     19.5436   -999.2500
   698.2500     19.3985   -999.2500
   698.5000     19.2238   -999.2500
   698.7500     19.0291   -999.2500
   699.0000     18.8299   -999.2500
   699.2500     18.6438   -999.2500
   699.5000     18.4867   -999.2500
   699.7500     18.3697   -999.2500
   700.0000     18.2966   -999.2500
   700.2500     18.2639   -999.2500
   700.5000     18.2634   -999.2500
   700.7500     18.2844   -999.2500
   701.0000     17.9558   -999.2500
   701.2500     17.9864   -999.2500
   701.5000     18.0076   -999.2500
   701.7500     18.0145   -999.2500
   702.0000     18.0120   -999.2500
   702.2500     18.0165   -999.2500
   702.5000     18.0516   -999.2500
   702.7500     18.1394   -999.2500
   703.0000     18.2947   -999.2500
   703.2500     18.5299   -999.2500
   703.5000     18.8685   -999.2500
   703.7500     19.3683   -999.2500
   704.0000     20.1400   -999.2500
   704.2500     21.3533   -999.2500
   704.5000     23.9350   -999.2500
   704.7500     26.8062   -999.2500
   705.0000     30.6461   -999.2500
   705.2500     35.2027   -999.2500
   705.5000     39.8073   -999.2500
   705.7500     43.6288   -999.2500
   706.0000     46.1981   -999.2500
   706.2500     47.6308   -999.2500
   706.5000     48.3523   -999.2500
   706.7500     48.7603   -999.2500
   707.0000     49.1088   -999.2500
   707.2500     49.5349   -999.2500
   707.5000 100000.0000   -999.2500
   707.7500 100000.0000   -999.2500
   708.0000 100000.0000   -999.2500
   708.2500 100000.0000   -999.2500
   708.5000 100000.0000   -999.2500
   708.7500 100000.0000   -999.2500
   709.0000 100000.0000   -999.2500
   709.2500 100000.0000   -999.2500
   709.5000 100000.0000   -999.2500
   709.7500 100000.0000   -999.2500
   710.0000 100000.0000   -999.2500
   710.2500 100000.0000   -999.2500
   710.5000 100000.0000   -999.2500
   710.7500 100000.0000   -999.2500
   711.0000 100000.0000   -999.2500
   711.2500 100000.0000   -999.2500
   711.5000 100000.0000   -999.2500
   711.7500 100000.0000   -999.2500
   712.0000 100000.0000   -999.2500
   712.2500 100000.0000   -999.2500
   712.5000 100000.0000   -999.2500
   712.7500 100000.0000   -999.2500
   713.0000 100000.0000   -999.2500
   713.2500 100000.0000   -999.2500
   713.5000 100000.0000   -999.2500
   713.7500 100000.0000   -999.2500
