~Version Information
VERS.                      2.0: CWLS Log ASCII Standard - VERSION 2.0
WRAP.                       NO: One line per depth step
~Well Information Block
STRT.FT               460.0000: 
STOP.FT              2311.7000: 
STEP.FT                 0.1000: 
NULL.                -999.2500: 
COMP.          Pioneer Natural Resources: COMPANY
WELL.          McDonald 33-31 R: WELL
FLD.           Purgatoire River: FIELD
LOC.           1386' FSL & 1926' FEL: LOCATION
STAT.                 Colorado: State
CNTY.               Las Animas: COUNTY
CTRY.                      USA: Country
SECT.                       31: Section
TOWN.                      32S: Township
RANG.                      66W: Range
SRVC.                Patterson: SERVICE COMPANY
DATE.          Sat Sep 24 09:00:13 2005: LOG DATE
API.           05 071 08533 00: API
~Curve Information Block
DEPT.FT            0 000 00 00: Depth
DCAL.in                       : CDL Caliper
RHOB.g/cc                     : CDL Bulk Density
RHOC.g/cc                     : CDL Density Correction
DPOR.pu                       : CDL Density Porosity
NPOR.pu                       : Neutron Porosity
GR.GAPI                       : Gamma Ray
~Parameter Information Block
~A  Depth       DCAL        RHOB        RHOC        DPOR        NPOR         GR     
# ...
  1314.4000      7.9904      2.5003      0.1304      9.0746     18.5870    149.2027
  1314.5000      7.9581      2.5072      0.0821      8.6556     18.6721    143.8012
  1314.6000      7.9581      2.4966      0.0274      9.2951     18.7288    136.5537
  1314.7000      7.9581      2.4996      0.0319      9.1151     19.2138    130.2085
  1314.8000      7.9264      2.5377      0.0609      6.8031     20.0815    128.6523
  1314.9000      7.9264      2.6066      0.0593      2.6280     21.2327    132.1502
  1315.0000      7.8960      2.6804      0.1376     -1.8411     22.7962    133.4969
  1315.1000      7.8960      2.7291      0.1490     -4.7943     24.5540    125.8386
  1315.2000      7.8960      2.7524      0.1384     -6.2078     25.9066    110.9780
  1315.3000      7.8785      2.7684      0.1672     -7.1736     26.7473     94.7493
  1315.4000      7.8785      2.7812      0.1259     -7.9545     27.6614     82.8167
  1315.5000      7.8764      2.7810      0.1370     -7.9385     28.6217     78.9428
  1315.6000      7.8764      2.7620      0.0340     -6.7862     28.8357     81.0597
  1315.7000      7.8764      2.7333      0.0659     -5.0474     28.2294     85.1990
  1315.8000      7.8933      2.7027     -0.0326     -3.1933     27.5960     90.0651
  1315.9000      7.8933      2.6720     -0.0526     -1.3359     27.2970     94.5829
  1316.0000      7.9199      2.6401     -0.0683      0.5981     26.8533     95.7784
  1316.1000      7.9199      2.6077     -0.0116      2.5612     26.0434     93.3848
  1316.2000      7.9199      2.5828     -0.0152      4.0711     25.3607     91.1803
  1316.3000      7.9278      2.5729      0.0081      4.6705     25.0509     89.9816
  1316.4000      7.9278      2.5652      0.0450      5.1405     24.8150     87.9219
  1316.5000      7.9135      2.5459     -0.0056      6.3078     24.4112     86.1559
  1316.6000      7.9135      2.5245      0.0261      7.6088     23.8459     86.5460
  1316.7000      7.9135      2.5124     -0.0065      8.3384     23.2314     88.0358
  1316.8000      7.8948      2.5086      0.0564      8.5723     22.7545     88.7174
  1316.9000      7.8948      2.5098      0.0125      8.4951     22.8045     89.0196
  1317.0000      7.8822      2.5324      0.0126      7.1249     23.3755     90.6045
  1317.1000      7.8822      2.5835      0.0975      4.0300     24.0058     93.2622
  1317.2000      7.8822      2.6355      0.1607      0.8808     24.4742     94.1045
  1317.3000      7.8802      2.6602      0.1513     -0.6207     24.9181     92.8022
  1317.4000      7.8802      2.6528      0.1470     -0.1711     25.5804     93.3846
  1317.5000      7.8860      2.6248      0.1015      1.5253     26.2633     96.3566
  1317.6000      7.8860      2.5996      0.0714      3.0534     26.3495     99.6402
  1317.7000      7.8860      2.5920      0.0806      3.5175     25.6083    104.1110
  1317.8000      7.9013      2.5942      0.0545      3.3809     24.5945    110.0410
  1317.9000      7.9013      2.5950      0.0289      3.3346     23.9692    114.0430
  1318.0000      7.9266      2.5870      0.0591      3.8193     23.7815    114.6661
  1318.1000      7.9266      2.5693      0.0458      4.8936     23.9525    115.2783
  1318.2000      7.9266      2.5574      0.0008      5.6117     24.3950    117.2233
  1318.3000      7.9473      2.5562      0.0578      5.6875     24.6937    119.7702
  1318.4000      7.9473      2.5521      0.0134      5.9328     24.6447    121.4794
  1318.5000      7.9535      2.5477      0.0133      6.2008     24.3682    121.7708
  1318.6000      7.9535      2.5501      0.0301      6.0537     23.9774    124.0646
  1318.7000      7.9535      2.5574      0.0184      5.6099     23.7084    128.5667
  1318.8000      7.9494      2.5693      0.0192      4.8881     23.5314    128.2716
  1318.9000      7.9494      2.5783      0.0962      4.3436     23.1287    122.4223
  1319.0000      7.9400      2.5717      0.0664      4.7435     22.6868    116.2742
  1319.1000      7.9400      2.5577      0.0061      5.5933     22.7150    111.1352
  1319.2000      7.9400      2.5502      0.0533      6.0477     23.1071    107.0380
  1319.3000      7.9315      2.5420      0.0205      6.5436     23.5208    106.7028
  1319.4000      7.9315      2.5274      0.0028      7.4277     23.9062    109.0754
  1319.5000      7.9277      2.5217     -0.0542      7.7731     24.2680    109.1576
  1319.6000      7.9277      2.5364      0.0013      6.8864     24.5744    107.2178
  1319.7000      7.9277      2.5559      0.0418      5.7001     24.7439    108.1148
  1319.8000      7.9261      2.5664      0.0524      5.0694     24.5025    110.8451
  1319.9000      7.9261      2.5720      0.0401      4.7278     23.7849    109.7793
  1320.0000      7.9193      2.5702      0.0878      4.8336     23.3480    105.3836
  1320.1000      7.9193      2.5569      0.0484      5.6403     23.6475    101.4526
  1320.2000      7.9193      2.5501      0.0285      6.0556     23.8160     99.4479
  1320.3000      7.9065      2.5601      0.0851      5.4487     23.2023     97.7538
  1320.4000      7.9065      2.5709      0.0830      4.7925     22.3470     94.3738
  1320.5000      7.9028      2.5776      0.0688      4.3893     21.6965     89.5508
  1320.6000      7.9028      2.5934      0.0793      3.4286     21.2196     86.4691
  1320.7000      7.9028      2.6164      0.1119      2.0379     21.1643     88.8669
  1320.8000      7.9134      2.6262      0.1216      1.4448     21.5658     93.4711
  1320.9000      7.9134      2.6167      0.0755      2.0175     21.8244     94.2699
  1321.0000      7.9233      2.6012      0.0728      2.9573     21.7713     93.8693
  1321.1000      7.9233      2.5874      0.0865      3.7912     22.0543     96.5944
  1321.2000      7.9233      2.5772      0.0537      4.4137     22.8408     98.9811
  1321.3000      7.9275      2.5747      0.0828      4.5641     23.4411     97.7602
  1321.4000      7.9275      2.5793      0.0653      4.2873     23.3857     94.7762
  1321.5000      7.9268      2.5835      0.0603      4.0285     22.9305     92.1942
  1321.6000      7.9268      2.5858      0.0621      3.8887     22.7179     91.3891
  1321.7000      7.9268      2.5953      0.0521      3.3162     22.6158     94.1037
  1321.8000      7.9229      2.6098      0.1016      2.4350     22.1387    100.6338
  1321.9000      7.9229      2.6129      0.0623      2.2475     21.1992    107.7282
  1322.0000      7.9220      2.6017      0.0688      2.9251     20.2608    112.6916
  1322.1000      7.9220      2.5891      0.0329      3.6926     19.9575    114.0774
  1322.2000      7.9220      2.5868      0.0629      3.8285     20.2583    108.4984
  1322.3000      7.9246      2.5926      0.0758      3.4761     20.6988     98.6951
  1322.4000      7.9246      2.5937      0.0875      3.4100     20.8768     95.3460
  1322.5000      7.9293      2.5797      0.0816      4.2592     20.9326    101.0278
  1322.6000      7.9293      2.5558      0.0064      5.7101     21.2007    107.3856
  1322.7000      7.9293      2.5467     -0.0591      6.2634     21.5807    106.7824
  1322.8000      7.9309      2.5636      0.0140      5.2342     21.8731    100.0671
  1322.9000      7.9309      2.5827      0.0892      4.0758     21.8579     93.5961
  1323.0000      7.9240      2.5853      0.0381      3.9209     21.4353     89.7547
  1323.1000      7.9240      2.5798      0.0578      4.2528     20.9603     89.7241
  1323.2000      7.9240      2.5774      0.0626      4.4016     20.6779     91.8086
  1323.3000      7.9103      2.5853      0.0659      3.9214     20.4535     90.0191
  1323.4000      7.9103      2.6069      0.0892      2.6110     20.1343     84.7761
  1323.5000      7.8997      2.6284      0.1540      1.3106     20.0938     80.3654
  1323.6000      7.8997      2.6319      0.1147      1.0951     20.5741     79.0335
  1323.7000      7.8997      2.6253      0.0647      1.4986     21.0755     81.8586
  1323.8000      7.9037      2.6250      0.0948      1.5155     21.4651     86.7619
  1323.9000      7.9037      2.6214      0.1034      1.7316     22.3144     89.3001
