~Version Information
 VERS.                                  2.0 : CWLS LAS VERSION
 WRAP.                                   NO : WRAPING MODE
 SWARE .                 MController 2.5.0J : SOFTWARE VERSION
~Well Information
 WELL.                     Surtees 23-34 Tr : WELL
 COMP.    Pioneer Natural Resources USA Inc : COMPANY
 FLD.                      Purgatoire River : FIELD
 LOC.                NE/SW Sec 34 T32S R66W : LOCATION
 DATE.                             07/26/05 : DATE(S) LOGGED
 SRVC.       BLANCO Geological Services LLC : SERVICE COMPANY
 STAT.                                   CO : STATE
 CNTY.                           Las Animas : COUNTY
 CTRY.                                  USA : COUNTRY
 API.                       05-071-08449-00 : API NUMBER
 STRT.FT                             479.00 : START DEPTH
 STOP.FT                            1500.00 : STOP DEPTH
 STEP.FT                               1.00 : DEPTH INCREMENT
 NULL.                                -9999 : NULL VALUE
~Curve information
 DEPTH.FT                                   :
 ROP.MIN/FT                                 :
 GAS.UNITS                                  :
~ASCII Log data
# ...
      1279.0         0.13        695.5 
      1280.0         0.15        697.4 
      1281.0         0.13        694.0 
      1282.0         0.13        687.0 
      1283.0         0.13        684.4 
      1284.0         0.17        681.6 
      1285.0         0.13        677.8 
      1286.0         3.85       1856.2 
      1287.0         0.17       1733.7 
      1288.0         0.20       1630.5 
      1289.0         0.23       1389.7 
      1290.0         0.27       1149.4 
      1291.0         0.20       1029.4 
      1292.0         0.23       1000.5 
      1293.0         0.27        978.6 
      1294.0         0.55        958.0 
      1295.0         0.43        894.5 
      1296.0         0.33        843.1 
      1297.0         0.23        820.0 
      1298.0         0.20        800.3 
      1299.0         0.20        783.8 
      1300.0         0.17        768.5 
      1301.0         0.17        725.7 
      1302.0         0.13        695.9 
      1303.0         0.17        684.4 
      1304.0         0.17        665.1 
      1305.0         0.13        654.0 
      1306.0         0.17        649.8 
      1307.0         0.17        648.6 
      1308.0         0.17        654.9 
      1309.0         0.17        661.9 
      1310.0         0.18        667.0 
      1311.0         0.17        675.5 
      1312.0         0.17        687.9 
      1313.0         0.20        699.3 
      1314.0         0.13        704.4 
      1315.0         0.13        707.0 
      1316.0         3.38       1263.3 
      1317.0         0.13       1230.3 
      1318.0         0.30       1152.9 
      1319.0         0.27       1003.1 
      1320.0         0.20        919.9 
      1321.0         0.27        904.1 
      1322.0         0.30        913.9 
      1323.0         0.27        915.8 
      1324.0         0.23        911.0 
      1325.0         0.27        892.0 
      1326.0         0.25        872.6 
      1327.0         0.23        846.0 
      1328.0         0.13        824.1 
      1329.0         0.10        814.2 
      1330.0         0.13        802.5 
      1331.0         0.13        774.2 
      1332.0         0.10        764.7 
      1333.0         0.13        742.2 
      1334.0         0.10        720.9 
      1335.0         0.13        716.2 
      1336.0         0.13        714.6 
      1337.0         0.13        725.1 
      1338.0         0.10        726.6 
      1339.0         0.13        738.4 
      1340.0         0.13        740.6 
      1341.0         0.17        743.5 
      1342.0         0.13        742.5 
      1343.0         0.10        743.1 
      1344.0         0.23        743.5 
      1345.0         0.23        763.5 
      1346.0         2.25        895.8 
      1347.0         0.43       1069.1 
      1348.0         0.37       1185.9 
      1349.0         0.30       1282.1 
      1350.0         0.30       1291.9 
      1351.0         0.32       1264.9 
      1352.0         0.27       1176.4 
      1353.0         0.27       1071.0 
      1354.0         0.27        993.6 
      1355.0         0.30        969.4 
      1356.0         0.30        968.5 
      1357.0         0.30        957.4 
      1358.0         0.30        942.5 
      1359.0         0.27        924.7 
      1360.0         0.27        901.8 
      1361.0         0.27        876.4 
      1362.0         0.27        855.8 
      1363.0         0.32        828.2 
      1364.0         0.23        810.4 
      1365.0         0.30        798.4 
      1366.0         0.27        786.6 
      1367.0         0.27        780.6 
      1368.0         0.27        769.2 
      1369.0         0.27        763.5 
      1370.0         0.23        759.3 
      1371.0         0.27        757.1 
      1372.0         0.23        755.5 
      1373.0         0.23        754.9 
      1374.0         0.27        756.8 
      1375.0         0.32        756.2 
      1376.0         3.03       1316.0 
      1377.0         0.35       1316.7 
      1378.0         0.13       1191.0 
      1379.0         0.13       1150.7 
      1380.0         0.30       1101.2 
      1381.0         0.27       1071.0 
      1382.0         0.30       1070.7 
      1383.0         0.27       1055.5 
      1384.0         0.30       1026.9 
      1385.0         0.30       1002.4 
      1386.0         0.23        988.5 
      1387.0         0.30        965.3 
      1388.0         0.27        946.3 
      1389.0         0.27        916.8 
      1390.0         0.28        895.5 
      1391.0         0.23        881.2 
      1392.0         0.23        867.2 
      1393.0         0.17        855.2 
      1394.0         0.27        837.4 
      1395.0         0.23        801.2 
      1396.0         0.27        790.4 
      1397.0         0.27        778.1 
      1398.0         0.27        775.8 
      1399.0         0.27        773.3 
      1400.0         0.23        775.5 
      1401.0         0.27        774.2 
      1402.0         0.27        773.9 
      1403.0         0.25        768.2 
      1404.0         0.20        768.2 
      1405.0         0.23        767.9 
      1406.0         1.93        836.1 
      1407.0         0.37        975.5 
      1408.0         0.43       1043.4 
      1409.0         0.38       1090.7 
      1410.0         0.30       1102.4 
      1411.0         0.30       1091.0 
      1412.0         0.27       1039.3 
      1413.0         0.27        976.1 
      1414.0         0.23        918.7 
      1415.0         0.23        907.5 
      1416.0         0.17        902.8 
      1417.0         0.13        902.8 
      1418.0         0.10        892.0 
      1419.0         0.17        884.1 
      1420.0         0.23        863.1 
      1421.0         0.27        870.1 
      1422.0         0.27        913.6 
      1423.0         0.32        949.8 
      1424.0         0.23        950.4 
      1425.0         0.27        946.9 
      1426.0         0.27        927.2 
      1427.0         0.23        895.5 
      1428.0         0.23        878.4 
      1429.0         0.20        860.6 
      1430.0         0.30        841.2 
      1431.0         0.27        804.1 
      1432.0         0.23        793.3 
      1433.0         0.27        804.1 
      1434.0         0.23        812.3 
      1435.0         0.23        819.0 
      1436.0         2.82       1030.7 
      1437.0         0.43       1027.5 
      1438.0         0.23       1043.7 
      1439.0         0.22       1067.8 
      1440.0         0.20       1076.4 
      1441.0         0.10       1070.7 
      1442.0         0.17       1061.2 
      1443.0         0.27       1024.3 
      1444.0         0.27        961.5 
      1445.0         0.30        916.4 
      1446.0         0.23        925.6 
      1447.0         0.20        925.6 
      1448.0         0.13        921.8 
      1449.0         0.20        917.1 
      1450.0         0.17        906.0 
      1451.0         0.17        893.3 
      1452.0         0.20        878.7 
      1453.0         0.20        853.9 
      1454.0         0.17        840.3 
      1455.0         0.18        833.3 
      1456.0         0.23        826.0 
      1457.0         0.20        809.5 
      1458.0         0.20        802.5 
      1459.0         0.20        796.8 
      1460.0         0.23        783.8 
      1461.0         0.20        773.3 
      1462.0         0.20        768.2 
      1463.0         0.23        764.4 
      1464.0         0.27        764.1 
      1465.0         0.20        765.4 
      1466.0         3.15       1123.4 
      1467.0         0.37       1075.8 
      1468.0         0.30       1060.8 
      1469.0         0.27       1063.4 
      1470.0         0.27       1041.2 
      1471.0         0.32       1000.2 
      1472.0         0.27        944.4 
      1473.0         0.23        933.6 
      1474.0         0.23        933.3 
      1475.0         0.30        931.0 
      1476.0         0.27        908.5 
      1477.0         0.27        889.8 
      1478.0         0.23        865.0 
