~Version Information
VERS.                      2.0: CWLS Log ASCII Standard - VERSION 2.0
WRAP.                       NO: One line per depth step
~Well Information Block
STRT.FT                 0.0000: 
STOP.FT               968.2500: 
STEP.FT                 0.2500: 
NULL.                -999.2500: 
COMP.          Pioneer Natural Resources: COMPANY
WELL.              Atlas 32-18: WELL
FLD.           Purgatorie River: FIELD
LOC.           1892' FNL & 1456' FEL: LOCATION
PROV.                 Colorado: PROVINCE
CNTY.               Las Animas: COUNTRY
SRVC.                Patterson: SERVICE COMPANY
DATE.          Fri Dec 02 11:37:22 2005: LOG DATE
UWI.                          : UNIQUE WELL ID
~Curve Information Block
DEPT.FT            0 000 00 00: Depth
CCL.                          : Casing Collar Locator
TT3.usec                      : CBL 3' Travel Time
AMP3.mV                       : CBL 3' Amplitude
GR.GAPI                       : Gamma Ray
~Parameter Information Block
~A  Depth       CCL         TT3         AMP3         GR     
# ...
   938.0000      0.0000    706.1742      1.4354     52.0029
   938.2500      0.0000    707.3733      1.9228     50.7784
   938.5000      0.0000    709.5731      2.5289     51.4189
   938.7500      0.0000    715.7938      3.1480     53.1532
   939.0000      0.0000    717.8455      3.6945     55.2873
   939.2500      0.0000    709.3795      4.1645     57.3110
   939.5000      0.0000    695.1655      4.6825     58.9827
   939.7500      0.0000    684.7573      5.3997     60.2632
   940.0000      0.0000    683.1873      6.3032     61.0653
   940.2500      0.0000    692.6793      7.2075     61.1886
   940.5000      0.0000    712.3417      7.9569     60.6122
   940.7500      0.0000    730.3748      8.5166     59.6854
   941.0000      0.0000    729.2795      8.8911     58.8491
   941.2500      0.0000    705.2119      9.0940     58.2739
   941.5000      0.0000    679.4590      9.1617     57.9144
   941.7500      0.0000    680.2560      9.1323     57.8534
   942.0000      0.0000    708.9424      9.0605     58.5330
   942.2500      0.0000    741.1714      9.0213     60.6677
   942.5000      0.0000    759.7459      9.0340     64.8101
   942.7500      0.0000    766.2020      9.0403     70.7322
   943.0000      0.0000    767.5820      9.0019     77.1028
   943.2500      0.0000    767.4568      8.9428     82.0431
   943.5000      0.0000    766.1661      8.8766     84.3823
   943.7500      0.0000    762.9374      8.7986     84.5501
   944.0000      0.0000    758.4475      8.7221     84.2458
   944.2500      0.0000    756.0662      8.6422     85.1776
   944.5000      0.0000    757.8703      8.5460     87.8476
   944.7500      0.0000    760.7040      8.4678     91.2527
   945.0000      0.0000    759.6202      8.4373     93.8392
   945.2500      0.0000    753.6043      8.4354     94.9260
   945.5000      0.0000    747.2298      8.4538     94.9147
   945.7500      0.0000    746.0659      8.5080     93.9473
   946.0000      0.0000    749.4700      8.5938     90.9420
   946.2500      0.0000    752.5825      8.6926     84.6617
   946.5000      0.0000    754.8358      8.8158     75.5688
   946.7500      0.0000    758.5236      9.0001     65.9798
   947.0000      0.0000    761.3361      9.2450     58.3518
   947.2500      0.0000    756.5246      9.5201     53.7370
   947.5000      0.0000    737.4336      9.8096     51.6464
   947.7500      0.0000    703.0309     10.0761     50.8938
   948.0000      0.0000    665.1260     10.2282     50.4905
   948.2500      0.0000    646.0143     10.1843     50.0791
   948.5000      0.0000    658.4697      9.9538     49.8416
   948.7500      0.0000    689.5920      9.5963     50.0313
   949.0000      0.0000    715.6653      9.1261     50.4449
   949.2500      0.0000    728.3005      8.5247     50.4696
   949.5000      0.0000    734.0649      7.7883     49.8528
   949.7500      0.0000    738.0775      6.9168     49.1973
   950.0000      0.0000    739.2346      5.9373     49.3263
   950.2500      0.0000    734.7202      4.9234     50.3330
   950.5000      0.0000    724.1219      3.9497     51.5496
   950.7500      0.0000    709.5200      3.0680     52.3635
   951.0000      0.0000    692.5475      2.3143     52.8202
   951.2500      0.0000    675.3704      1.7170     53.3032
   951.5000      0.0000    662.0223      1.2948     53.5698
   951.7500      0.0000    654.3886      1.0390     52.2347
   952.0000      0.0000    650.0212      0.9067     47.4644
   952.2500      0.0000    645.0675      0.8292     38.5324
   952.5000      0.0000    638.1454      0.7591     26.9301
   952.7500      0.0000    632.8134      0.7275     15.7320
   953.0000      0.0000    635.3182      0.8264      7.5146
   953.2500      0.0000    648.2070      1.1077      2.8901
   953.5000      0.0000    667.0296      1.5333      0.8855
   953.7500      0.0000    683.3557      2.0587      0.2142
   954.0000      0.0000    692.7619      2.6990      0.0405
   954.2500      0.0000    698.7891      3.4836      0.0057
   954.5000      0.0000    704.8643      4.4241      0.0000
   954.7500      0.0000    709.0686      5.5207   -999.2500
   955.0000      0.0000    711.8403      6.7592   -999.2500
   955.2500      0.0000    717.8206      8.1208   -999.2500
   955.5000      0.0000    722.5934      9.5650   -999.2500
   955.7500      0.0000    710.1012     10.9770   -999.2500
   956.0000      0.0000    680.9422     12.1565   -999.2500
   956.2500      0.0000    669.6092     12.8920   -999.2500
   956.5000      0.0000    699.7064     13.0734   -999.2500
   956.7500      0.0000    744.1742     12.7411   -999.2500
   957.0000      0.0000    763.5329     12.0143   -999.2500
   957.2500      0.0000    739.6970     10.9141   -999.2500
   957.5000      0.0000    653.0494      9.1683   -999.2500
   957.7500      0.0000    487.6078      6.5045   -999.2500
   958.0000      0.0000    282.5284      3.4203   -999.2500
   958.2500      0.0000    118.5652      1.0103   -999.2500
   958.5000      0.0000     34.4084     -0.2155   -999.2500
   958.7500      0.0000      6.7069     -0.6173   -999.2500
   959.0000      0.0000      0.8599     -0.7019   -999.2500
   959.2500      0.0000      0.0687     -0.7133   -999.2500
   959.5000      0.0000   -999.2500   -999.2500   -999.2500
   959.7500      0.0000   -999.2500   -999.2500   -999.2500
   960.0000      0.0000   -999.2500   -999.2500   -999.2500
   960.2500      0.0000   -999.2500   -999.2500   -999.2500
   960.5000      0.0000   -999.2500   -999.2500   -999.2500
   960.7500      0.0000   -999.2500   -999.2500   -999.2500
   961.0000      0.0000   -999.2500   -999.2500   -999.2500
   961.2500      0.0000   -999.2500   -999.2500   -999.2500
   961.5000      0.0000   -999.2500   -999.2500   -999.2500
   961.7500      0.0000   -999.2500   -999.2500   -999.2500
   962.0000      0.0000   -999.2500   -999.2500   -999.2500
   962.2500      0.0000   -999.2500   -999.2500   -999.2500
   962.5000      0.0000   -999.2500   -999.2500   -999.2500
   962.7500      0.0000   -999.2500   -999.2500   -999.2500
   963.0000      0.0000   -999.2500   -999.2500   -999.2500
   963.2500      0.0000   -999.2500   -999.2500   -999.2500
   963.5000      0.0000   -999.2500   -999.2500   -999.2500
   963.7500      0.0000   -999.2500   -999.2500   -999.2500
   964.0000      0.0000   -999.2500   -999.2500   -999.2500
   964.2500      0.0000   -999.2500   -999.2500   -999.2500
   964.5000      0.0000   -999.2500   -999.2500   -999.2500
   964.7500      0.0000   -999.2500   -999.2500   -999.2500
   965.0000      0.0000   -999.2500   -999.2500   -999.2500
   965.2500      0.0000   -999.2500   -999.2500   -999.2500
   965.5000   -999.2500   -999.2500   -999.2500   -999.2500
   965.7500   -999.2500   -999.2500   -999.2500   -999.2500
   966.0000   -999.2500   -999.2500   -999.2500   -999.2500
   966.2500   -999.2500   -999.2500   -999.2500   -999.2500
   966.5000   -999.2500   -999.2500   -999.2500   -999.2500
   966.7500   -999.2500   -999.2500   -999.2500   -999.2500
   967.0000   -999.2500   -999.2500   -999.2500   -999.2500
   967.2500   -999.2500   -999.2500   -999.2500   -999.2500
   967.5000   -999.2500   -999.2500   -999.2500   -999.2500
   967.7500   -999.2500   -999.2500   -999.2500   -999.2500
   968.0000   -999.2500   -999.2500   -999.2500   -999.2500
   968.2500   -999.2500   -999.2500   -999.2500   -999.2500
