~Version Information
 VERS.                                  2.0 : CWLS LAS VERSION
 WRAP.                                   NO : WRAPING MODE
 SWARE .                MController 2.5.0QA : SOFTWARE VERSION
~Well Information
 WELL.                        Fleming 11-02 : WELL
 COMP.    Pioneer Natural Resources USA Inc : COMPANY
 FLD.                      Purgatoire River : FIELD
 LOC.                 NW/NW Sec02 T33S R66W : LOCATION
 DATE.                          06/25-27/06 : DATE(S) LOGGED
 SRVC.       Blanco Geological Services LLC : SERVICE COMPANY
 STAT.                             Colorado : STATE
 CNTY.                           Las Animas : COUNTY
 CTRY.                                  USA : COUNTRY
 API.                       05-071-08491-00 : API NUMBER
 STRT.FT                             347.00 : START DEPTH
 STOP.FT                            2080.00 : STOP DEPTH
 STEP.FT                               1.00 : DEPTH INCREMENT
 NULL.                                -9999 : NULL VALUE
~Curve information
 DEPTH.FT                                   :
 ROP.MIN/FT                                 :
 GAS.UNITS                                  :
~ASCII Log data
# ...
       547.0         0.20          4.1 
       548.0         0.17          4.7 
       549.0         0.23          4.3 
       550.0         0.23          3.8 
       551.0         0.27          3.7 
       552.0         0.23          4.4 
       553.0         0.20          3.9 
       554.0         0.23          4.3 
       555.0         0.23          4.3 
       556.0         0.20          4.4 
       557.0         0.23          5.4 
       558.0         0.23          4.3 
       559.0         0.25          4.4 
       560.0         0.23          4.9 
       561.0         0.27          4.7 
       562.0         4.72         10.4 
       563.0         0.37          5.4 
       564.0         0.30          5.8 
       565.0         0.30          4.3 
       566.0         0.23          4.7 
       567.0         0.32          4.8 
       568.0         0.27          5.2 
       569.0         0.20          5.2 
       570.0         0.17          5.8 
       571.0         0.27          5.9 
       572.0         0.27          5.6 
       573.0         0.27          6.0 
       574.0         0.27          6.6 
       575.0         0.33          5.5 
       576.0         0.30          5.1 
       577.0         0.33          5.9 
       578.0         0.30          5.9 
       579.0         0.28          5.0 
       580.0         0.40          5.5 
       581.0         0.53          5.5 
       582.0         0.50          5.6 
       583.0         0.40          5.5 
       584.0         0.50          5.7 
       585.0         0.37          5.3 
       586.0         0.33          5.3 
       587.0         0.38          4.6 
       588.0         0.37          4.8 
       589.0         0.40          5.6 
       590.0         0.33          4.7 
       591.0         0.33          4.5 
       592.0         4.48          8.8 
       593.0         0.43          4.9 
       594.0         0.38          4.5 
       595.0         0.43          5.3 
       596.0         0.47          4.6 
       597.0         0.43          4.6 
       598.0         0.43          5.2 
       599.0         0.43          4.6 
       600.0         0.47          4.6 
       601.0         0.43          4.4 
       602.0         0.45          4.4 
       603.0         0.43          4.5 
       604.0         0.40          4.8 
       605.0         0.43          4.3 
       606.0         0.37          5.0 
       607.0         0.37          5.0 
       608.0         0.37          4.2 
       609.0         0.40          3.7 
       610.0         0.45          3.8 
       611.0         0.37          4.1 
       612.0         0.37          4.4 
       613.0         0.40          4.3 
       614.0         0.40          3.6 
       615.0         0.37          4.2 
       616.0         0.37          3.8 
       617.0         0.33          3.7 
       618.0         0.40          3.9 
       619.0         0.35          3.9 
       620.0         0.37          3.3 
       621.0         0.43          3.7 
       622.0        21.27         93.9 
       623.0         0.27          3.3 
       624.0         0.23          3.1 
       625.0         0.23          3.4 
       626.0         0.23          3.6 
       627.0         0.25          2.9 
       628.0         0.23          2.9 
       629.0         0.23          2.9 
       630.0         0.20          2.8 
       631.0         0.23          3.0 
       632.0         0.27          3.5 
       633.0         0.23          2.9 
       634.0         0.23          3.1 
       635.0         0.20          3.0 
       636.0         0.23          3.0 
       637.0         0.23          3.1 
       638.0         0.20          3.4 
       639.0         0.20          3.3 
       640.0         0.20          4.3 
       641.0         0.23          4.0 
       642.0         0.28          3.8 
       643.0         0.30          3.6 
       644.0         0.30          3.7 
       645.0         0.27          3.5 
       646.0         0.27          4.0 
       647.0         0.23          4.0 
       648.0         0.20          3.4 
       649.0         0.27          3.2 
       650.0         0.27          4.0 
       651.0         0.23          3.5 
       652.0         4.80          7.0 
       653.0         0.50          3.5 
       654.0         0.47          4.6 
       655.0         0.47          5.2 
       656.0         0.57          5.7 
       657.0         0.53          5.0 
       658.0         0.58          4.6 
       659.0         0.53          4.6 
       660.0         0.57          4.4 
       661.0         0.60          4.2 
       662.0         0.60          4.5 
       663.0         0.57          4.2 
       664.0         0.52          3.9 
       665.0         0.30          4.0 
       666.0         0.30          4.2 
       667.0         0.30          4.6 
       668.0         0.37          4.8 
       669.0         0.30          4.1 
       670.0         0.27          3.8 
       671.0         0.43          4.1 
       672.0         0.33          5.7 
       673.0         0.32          9.3 
       674.0         0.17         10.0 
       675.0         0.20          9.9 
       676.0         0.17         10.0 
       677.0         0.17          9.5 
       678.0         0.20          9.5 
       679.0         0.20          8.8 
       680.0         0.17          7.6 
       681.0         0.37          7.7 
       682.0         4.72         13.3 
       683.0         0.35          6.3 
       684.0         0.37          5.6 
       685.0         0.33          5.5 
       686.0         0.27          5.0 
       687.0         0.27          4.8 
       688.0         0.27          5.4 
       689.0         0.20          4.6 
       690.0         0.17          4.6 
       691.0         0.20          4.9 
       692.0         0.20          5.5 
       693.0         0.17          6.7 
       694.0         0.20          7.2 
       695.0         0.17          7.2 
       696.0         0.17          7.4 
       697.0         0.20          5.9 
       698.0         0.22          6.1 
       699.0         0.27          5.9 
       700.0         0.23          5.6 
       701.0         0.23          5.8 
       702.0         0.20          5.7 
       703.0         0.23          5.1 
       704.0         0.20          5.1 
       705.0         0.23          5.2 
       706.0         0.20          5.1 
       707.0         0.20          5.6 
       708.0         0.20          6.3 
       709.0         0.20          6.2 
       710.0         0.23          5.7 
       711.0         0.27          5.0 
       712.0         4.60         15.7 
       713.0         0.33          5.7 
       714.0         0.37          5.9 
       715.0         0.37          4.9 
       716.0         0.37          5.7 
       717.0         0.30          4.6 
       718.0         0.33          5.4 
       719.0         0.27          4.8 
       720.0         0.32          5.7 
       721.0         0.33          5.0 
       722.0         0.33          5.8 
       723.0         0.30          5.2 
       724.0         0.33          5.2 
       725.0         0.37          4.9 
       726.0         0.37          5.6 
       727.0         0.37          5.7 
       728.0         0.33          5.4 
       729.0         0.33          5.5 
       730.0         0.38          5.6 
       731.0         0.37          5.0 
       732.0         0.33          5.2 
       733.0         0.37          4.7 
       734.0         0.40          5.3 
       735.0         0.40          5.3 
       736.0         0.33          5.0 
       737.0         0.40          7.7 
       738.0         0.13          7.5 
       739.0         0.17          7.5 
       740.0         0.22          8.7 
       741.0         0.17          7.6 
       742.0         5.12         12.2 
       743.0         0.33          5.9 
       744.0         0.43          5.9 
       745.0         0.33          5.7 
       746.0         0.23          4.9 
