~Version Information
VERS.                      2.0: CWLS Log ASCII Standard - VERSION 2.0
WRAP.                       NO: One line per depth step
~Well Information Block
STRT.FT               670.0000: 
STOP.FT              2110.0000: 
STEP.FT                 0.2500: 
NULL.                -999.2500: 
COMP.          Petrogulf Corporation: COMPANY
WELL.           Montoya 12-44R: WELL
FLD.           Purgatorie River: FIELD
LOC.           713' FSL & 798' FEL: LOCATION
PROV.                 Colorado: PROVINCE
CNTY.               Las Animas: COUNTRY
SRVC.                Patterson: SERVICE COMPANY
DATE.          Sun Oct 02 01:06:45 2005: LOG DATE
UWI.           05-071-08538               : UNIQUE WELL ID
~Curve Information Block
DEPT.FT            0 000 00 00: Depth
SP.mV                         : DIL Spontaneous Potential
RILD.Ohm-m                    : DIL Deep Resistivity
RILM.Ohm-m                    : DIL Medium Resistivity
RLL3.Ohm-m                    : DIL Shallow Resistivity
GR.GAPI                       : Gamma Ray
~Parameter Information Block
~A  Depth        SP         RILD        RILM        RLL3         GR     
# ...
  1034.0000   2000.0000     21.5571     23.5815   2000.0000     90.2117
  1034.2500   2000.0000     21.0223     22.3350   2000.0000     93.2989
  1034.5000   2000.0000     20.5175     21.2290   2000.0000     99.8330
  1034.7500   2000.0000     20.0349     20.2873   2000.0000    103.8893
  1035.0000   2000.0000     19.5373     19.5154   2000.0000    106.7838
  1035.2500   2000.0000     19.0818     18.9093   2000.0000    106.1476
  1035.5000   2000.0000     18.7144     18.4610   2000.0000    103.1988
  1035.7500   2000.0000     18.3939     18.1614   2000.0000    101.5951
  1036.0000   2000.0000     18.0807     17.9999   2000.0000    101.2724
  1036.2500   2000.0000     17.8103     17.9613   2000.0000    101.9986
  1036.5000   2000.0000     17.6159     18.0238   2000.0000    102.5182
  1036.7500   2000.0000     17.4594     18.1571   2000.0000    101.7376
  1037.0000   2000.0000     17.3345     18.3234   2000.0000     99.2094
  1037.2500   2000.0000     17.2313     18.4819   2000.0000     97.3072
  1037.5000   2000.0000     17.1400     18.5954   2000.0000     95.1704
  1037.7500   2000.0000     17.0560     18.6354   2000.0000     94.7308
  1038.0000   2000.0000     16.9792     18.5860   2000.0000     96.3034
  1038.2500   2000.0000     16.9079     18.4426   2000.0000     98.8095
  1038.5000   2000.0000     16.8338     18.2089   2000.0000    103.2980
  1038.7500   2000.0000     16.7832     17.8950   2000.0000    105.5172
  1039.0000   2000.0000     16.6782     17.5174   2000.0000    106.2978
  1039.2500   2000.0000     16.5745     17.1011   2000.0000    105.0486
  1039.5000   2000.0000     16.5087     16.6803   2000.0000    101.0742
  1039.7500   2000.0000     16.5583     16.2974   2000.0000     97.5423
  1040.0000   2000.0000     16.6804     15.9995   2000.0000     92.5034
  1040.2500   2000.0000     16.9222     15.8339   2000.0000     93.6729
  1040.5000   2000.0000     17.2770     15.8454   2000.0000     94.1230
  1040.7500   2000.0000     17.7289     16.0754   2000.0000     96.2398
  1041.0000   2000.0000     18.2623     16.5630   2000.0000     99.3939
  1041.2500   2000.0000     18.8685     17.3457   2000.0000    108.0142
  1041.5000   2000.0000     19.5484     18.4611   2000.0000    103.7721
  1041.7500   2000.0000     21.2447     19.9466   2000.0000     97.9027
  1042.0000   2000.0000     22.1955     21.8381   2000.0000     86.2806
  1042.2500    124.2831     23.3023     24.1680    323.0623     83.8843
  1042.5000    124.7332     24.6157     26.9621    456.1151     70.6925
  1042.7500    125.2926     27.7394     30.2350    582.0878     62.2365
  1043.0000    125.9878     29.8552     33.9813    673.6668     49.8256
  1043.2500    126.7995     32.3471     38.1590    712.3950     41.9209
  1043.5000    127.6587     35.1592     42.6606    696.8307     31.5720
  1043.7500    128.4802     38.1346     47.2778    641.3429     26.2451
  1044.0000    129.2140     41.0163     51.6751    566.7981     21.1912
  1044.2500    129.8701     43.4962     55.4075    489.6153     19.9243
  1044.5000    130.4963     45.3018     58.0105    415.7289     21.0508
  1044.7500    131.1378     46.5484     59.1520    342.8062     23.4166
  1045.0000    131.8138     46.6693     58.7672    268.5401     28.4077
  1045.2500    132.5195     46.0302     57.0841    197.0652     32.3589
  1045.5000    133.2393     44.8202     54.5228    136.9939     39.4977
  1045.7500    133.9546     43.5127     51.5412     94.1797     45.5244
  1046.0000    134.6450     41.8304     48.5188     67.8292     56.9983
  1046.2500    135.2905     40.1921     45.7093     52.9617     66.2093
  1046.5000    135.8805     38.6733     43.2457     44.7637     81.6789
  1046.7500    136.4214     37.2786     41.1676     40.5177     92.3968
  1047.0000    136.9372     35.9798     39.4511     39.1979    107.4203
  1047.2500    137.4621     34.7515     38.0344     40.5758    115.7159
  1047.5000    138.0258     33.5915     36.8388     44.4603    124.4245
  1047.7500    138.6365     32.5198     35.7868     49.9021    127.5697
  1048.0000    139.2699     31.5653     34.8185     54.7825    128.6701
  1048.2500    139.8731     30.7514     33.9000     56.5783    127.5015
  1048.5000    140.3851     30.0872     33.0247     54.0492    124.2608
  1048.7500    140.7592     29.5655     32.2050     48.2675    122.0495
  1049.0000    140.9762     29.1636     31.4591     41.8270    119.9797
  1049.2500    141.0437     28.8433     30.7991     36.9741    119.9589
  1049.5000    140.9857     28.5524     30.2228     34.3975    122.5042
  1049.7500    140.8290     28.2310     29.7112     33.4387    125.7183
  1050.0000    140.5942     27.8270     29.2306     33.0797    130.8306
  1050.2500    140.2940     27.3142     28.7384     32.7288    132.7071
  1050.5000    139.9373     26.7019     28.1912     32.3886    131.6091
  1050.7500    139.5361     26.0292     27.5548     32.3741    128.9271
  1051.0000    139.1115     25.3487     26.8127     32.9411    124.6278
  1051.2500    138.6923     24.7119     25.9726     34.0471    122.5684
  1051.5000    138.3057     24.1608     25.0670     35.2638    120.3060
  1051.7500    137.9666     23.7257     24.1469     35.8333    118.5843
  1052.0000    137.6742     23.4243     23.2726     34.9600    115.1729
  1052.2500    137.4145     23.2584     22.5020     32.3324    112.7824
  1052.5000    137.1640     23.2090     21.8825     28.5034    110.3668
  1052.7500    136.8940     23.2355     21.4457     24.6889    110.2909
  1053.0000    136.5781     23.2843     21.2068     22.0750    113.2843
  1053.2500    136.1982     23.3070     21.1648     21.2202    117.2552
  1053.5000    135.7421     23.2784     21.3052     21.9627    124.6931
  1053.7500    135.2004     23.2030     21.6021     23.7244    129.3026
  1054.0000    134.5674     23.1085     22.0217     25.8742    133.6715
  1054.2500    133.8510     23.0312     22.5251     27.9359    134.2467
  1054.5000    133.0798     23.0017     23.0724     29.6246    131.7122
  1054.7500    132.2995     23.0347     23.6238     30.8067    128.5094
  1055.0000    131.5565     23.1226     24.1404     31.4679    123.0863
  1055.2500    130.8810     23.2337     24.5822     31.6942    119.5559
  1055.5000    130.2826     23.3176     24.9070     31.6286    114.4356
  1055.7500    129.7581     23.3193     25.0712     31.4070    111.4767
  1056.0000    129.3019     23.1966     25.0358     31.1027    109.4288
  1056.2500    128.9089     22.9307     24.7751     30.7030    110.4587
  1056.5000    128.5730     22.5257     24.2843     30.1185    114.9226
  1056.7500    128.2839     22.0000     23.5841     29.2357    118.5311
  1057.0000    128.0267     21.3806     22.7165     28.0076    123.0115
  1057.2500    127.7842     20.6998     21.7371     26.5248    125.0522
  1057.5000    127.5438     19.9942     20.7051     24.9877    126.9237
  1057.7500    127.3074     19.2998     19.6754     23.5774    127.5284
  1058.0000    127.0992     18.6452     18.6938     22.3352    127.7745
  1058.2500    126.9685     18.0462     17.7950     21.1746    127.9925
  1058.5000    126.9834     17.5045     17.0017     20.0208    129.5450
  1058.7500    127.2158     17.0139     16.3262     18.9319    131.5819
  1059.0000    127.7169     16.5684     15.7706     18.0847    135.0238
  1059.2500    128.4980     16.1691     15.3296     17.6639    136.6621
  1059.5000    129.5277     15.8246     14.9928     17.7640    137.5780
  1059.7500    130.7487     15.5454     14.7476     18.3209    137.5245
  1060.0000    132.0989     15.3396     14.5824     19.0594    137.2528
  1060.2500    133.5186     15.2092     14.4884     19.5550    137.1645
  1060.5000    134.9441     15.1501     14.4607     19.4956    137.3584
  1060.7500    136.3046     15.1543     14.4972     18.9637    137.8753
  1061.0000    137.5324     15.2126     14.5964     18.4271    139.2841
  1061.2500    138.5797     15.3158     14.7544     18.4042    140.3781
  1061.5000    139.4264     15.4538     14.9623     19.1033    141.7716
  1061.7500    140.0726     15.6142     15.2054     20.3072    142.5950
