~Version Information
VERS.                      2.0: CWLS Log ASCII Standard - VERSION 2.0
WRAP.                       NO: One line per depth step
~Well Information Block
STRT.FT               390.0000: 
STOP.FT               825.0000: 
STEP.FT                 0.1000: 
NULL.                -999.2500: 
COMP.          Pioneer Natural Resources: COMPANY
WELL.             Veedol 34-28: WELL
FLD.           Purgatoire River: FIELD
LOC.           357' FSL & 2520' FEL: LOCATION
PROV.                 Colorado: PROVINCE
CNTY.               Las Animas: COUNTRY
SRVC.                Patterson: SERVICE COMPANY
DATE.          Thu Dec 22 14:38:20 2005: LOG DATE
UWI.           05 071 08628 00: UNIQUE WELL ID
~Curve Information Block
DEPT.FT            0 000 00 00: Depth
DCAL.in                       : CDL Caliper
RHOB.g/cc                     : CDL Bulk Density
RHOC.g/cc                     : CDL Density Correction
DPOR.pu                       : CDL Density Porosity
GR.GAPI                       : Gamma Ray
NPOR.pu                       : Neutron Porosity
~Parameter Information Block
~A  Depth       DCAL        RHOB        RHOC        DPOR         GR         NPOR    
# ...
   697.2000      7.8778      2.0156     -0.0584     38.4498     89.1867     21.0198
   697.3000      7.8792      1.8755     -0.1434     46.9399     85.5003     21.2850
   697.4000      7.8792      1.7762     -0.1238     52.9559     82.8991     21.3341
   697.5000      7.8807      1.7214     -0.1675     56.2811     79.5177     21.6350
   697.6000      7.8807      1.7218     -0.0967     56.2532     75.7483     22.4040
   697.7000      7.8807      1.7906     -0.0318     52.0867     73.0696     23.4907
   697.8000      7.8824      1.9105      0.2103     44.8188     74.5473     25.0609
   697.9000      7.8824      2.0344      0.2935     37.3087     83.4957     26.9410
   698.0000      7.8845      2.1240      0.3343     31.8770     97.8042     27.8311
   698.1000      7.8845      2.1735      0.3153     28.8779    110.3156     27.6581
   698.2000      7.8845      2.2074      0.2510     26.8220    115.5455     28.1143
   698.3000      7.8809      2.2553      0.2640     23.9233    115.6980     29.9697
   698.4000      7.8809      2.3158      0.2641     20.2519    117.6123     32.1592
   698.5000      7.8528      2.3710      0.1446     16.9077    121.2253     33.2770
   698.6000      7.8528      2.4280      0.0759     13.4559    122.2039     33.2907
   698.7000      7.8528      2.5029      0.0942      8.9178    121.6767     33.1183
   698.8000      7.8015      2.5779      0.2196      4.3711    121.3643     32.7250
   698.9000      7.8015      2.6238      0.2116      1.5886    121.2514     31.4903
   699.0000      7.7693      2.6400      0.1963      0.6052    123.3557     29.9087
   699.1000      7.7693      2.6381      0.1998      0.7182    125.0784     28.7915
   699.2000      7.7693      2.6229      0.1810      1.6397    120.7766     28.2190
   699.3000      7.7624      2.5980      0.1631      3.1523    111.8162     27.8673
   699.4000      7.7624      2.5726      0.1355      4.6919    103.2166     27.1665
   699.5000      7.7610      2.5591      0.0961      5.5101     96.1593     26.0148
   699.6000      7.7610      2.5602      0.1043      5.4409     90.2525     24.8867
   699.7000      7.7610      2.5658      0.1019      5.1001     85.0650     24.1886
   699.8000      7.7593      2.5610      0.1048      5.3915     81.5815     23.6690
   699.9000      7.7593      2.5412      0.0900      6.5964     82.2423     22.6460
   700.0000      7.8491      2.5210      0.0582      7.8190     85.9660     21.4103
   700.1000      7.8491      2.5135      0.0641      8.2756     87.7571     20.8057
   700.2000      7.8491      2.5138      0.0640      8.2542     87.6981     20.5999
   700.3000      7.8517      2.5135      0.0390      8.2710     90.7838     20.3807
   700.4000      7.8517      2.5095      0.0601      8.5146     95.0816     20.2830
   700.5000      7.8544      2.5052      0.0253      8.7757     96.5880     20.3893
   700.6000      7.8544      2.5055      0.0285      8.7592     97.6731     20.4785
   700.7000      7.8544      2.5011      0.0655      9.0263     98.8037     20.1393
   700.8000      7.8546      2.4832      0.0298     10.1064     97.3368     19.4905
   700.9000      7.8546      2.4630      0.0000     11.3317     93.5284     19.1977
   701.0000      7.8532      2.4515      0.0176     12.0332     90.0086     19.4526
   701.1000      7.8532      2.4466      0.0168     12.3249     87.8093     20.0144
   701.2000      7.8532      2.4419      0.0582     12.6097     85.3573     20.5712
   701.3000      7.8522      2.4332      0.0611     13.1391     82.3396     20.8818
   701.4000      7.8522      2.4259      0.0206     13.5807     82.6216     20.7557
   701.5000      7.8535      2.4236      0.0574     13.7189     86.2153     20.4971
   701.6000      7.8535      2.4247      0.0086     13.6563     87.0080     20.6507
   701.7000      7.8535      2.4328      0.0506     13.1635     83.4767     20.9548
   701.8000      7.8559      2.4442      0.0708     12.4746     80.0909     21.1028
   701.9000      7.8559      2.4520      0.0623     11.9979     79.4805     21.2318
   702.0000      7.8572      2.4617      0.0614     11.4102     80.1771     21.1647
   702.1000      7.8572      2.4730      0.1243     10.7257     81.0508     21.1804
   702.2000      7.8572      2.4718      0.0976     10.8022     83.7943     21.8004
   702.3000      7.8552      2.4536      0.0713     11.9016     89.4957     22.3550
   702.4000      7.8552      2.4314      0.0097     13.2463     94.7395     22.2305
   702.5000      7.8530      2.4227     -0.0025     13.7743     95.1852     22.2807
   702.6000      7.8530      2.4345      0.0307     13.0636     93.4685     23.0887
   702.7000      7.8530      2.4607      0.0292     11.4752     95.4732     24.0152
   702.8000      7.8524      2.4916      0.0591      9.6018    100.5929     24.1986
   702.9000      7.8524      2.5160      0.0546      8.1184    104.9955     23.0303
   703.0000      7.8525      2.5273      0.0439      7.4356    106.5631     21.2222
   703.1000      7.8525      2.5237      0.0912      7.6520    106.3440     20.2924
   703.2000      7.8525      2.5054      0.0477      8.7651    106.7790     20.3768
   703.3000      7.8533      2.4778      0.0512     10.4335    106.5821     20.9466
   703.4000      7.8533      2.4531      0.0252     11.9320    106.3377     21.7316
   703.5000      7.8544      2.4433     -0.0145     12.5249    109.3040     21.9885
   703.6000      7.8544      2.4443      0.0329     12.4694    113.8738     21.4517
   703.7000      7.8544      2.4385      0.0128     12.8159    116.4943     20.9399
   703.8000      7.8543      2.4251      0.0108     13.6298    116.1182     20.7045
   703.9000      7.8543      2.4172     -0.0073     14.1072    118.0798     20.2239
   704.0000      7.8535      2.4244     -0.0137     13.6724    126.2561     19.5465
   704.1000      7.8535      2.4461      0.0165     12.3564    132.6310     19.2836
   704.2000      7.8535      2.4714      0.0402     10.8257    132.6813     19.7843
   704.3000      7.8536      2.4859      0.0655      9.9441    132.9260     20.6538
   704.4000      7.8536      2.4821      0.0536     10.1783    133.8762     21.2043
   704.5000      7.8544      2.4688      0.0425     10.9820    130.1956     21.3458
   704.6000      7.8544      2.4656     -0.0124     11.1768    124.2152     21.7123
   704.7000      7.8544      2.4721      0.0302     10.7807    122.1802     22.6955
   704.8000      7.8543      2.4667      0.0560     11.1081    126.0432     23.7199
   704.9000      7.8543      2.4478      0.0118     12.2523    131.6723     23.8705
   705.0000      7.8539      2.4370     -0.0048     12.9066    135.3242     23.5044
   705.1000      7.8539      2.4420      0.0106     12.6035    138.9847     23.6325
   705.2000      7.8539      2.4490      0.0207     12.1842    144.1462     24.0425
   705.3000      7.8532      2.4453      0.0084     12.4081    150.1995     24.3393
   705.4000      7.8532      2.4349     -0.0031     13.0373    156.1012     24.6840
   705.5000      7.8524      2.4269     -0.0003     13.5232    158.0531     24.8669
   705.6000      7.8524      2.4213     -0.0086     13.8581    156.2845     24.8439
   705.7000      7.8524      2.4171      0.0056     14.1172    154.8347     24.8916
   705.8000      7.8520      2.4202     -0.0203     13.9250    151.9215     25.0700
   705.9000      7.8520      2.4354      0.0018     13.0053    147.4645     25.2873
   706.0000      7.8520      2.4491      0.0302     12.1734    146.3594     25.3614
   706.1000      7.8520      2.4428      0.0254     12.5561    147.7734     25.1720
   706.2000      7.8520      2.4235      0.0057     13.7257    145.9525     24.5468
   706.3000      7.8523      2.4153      0.0102     14.2220    140.9798     23.8552
   706.4000      7.8523      2.4234      0.0283     13.7319    141.2348     23.7340
   706.5000      7.8531      2.4313      0.0430     13.2516    148.7512     23.9010
   706.6000      7.8531      2.4294      0.0279     13.3709    154.0007     23.7477
   706.7000      7.8531      2.4263      0.0124     13.5599    151.1476     23.7352
