~Version Information
VERS.                      2.0: CWLS Log ASCII Standard - VERSION 2.0
WRAP.                       NO: One line per depth step
~Well Information Block
STRT.FT               239.2000: 
STOP.FT              1618.0000: 
STEP.FT                 0.1000: 
NULL.                -999.2500: 
COMP.          Pioneer Natural Resources: COMPANY
WELL.          Daytona 31-14 Tr: WELL
FLD.           Purgatoire River: FIELD
LOC.           683' FNL & 1943' FEL: LOCATION
CNTY.               Las Animas: COUNTY
SRVC.                         : SERVICE COMPANY
DATE.          Fri Jan 27 14:32:28 2006: LOG DATE
UWI.           05 071 08681 00: UNIQUE WELL ID
STAT.                 Colorado: STATE
~Curve Information Block
DEPT.FT            0 000 00 00: Depth
DCAL.in                       : CDL Caliper
RHOB.g/cc                     : CDL Bulk Density
RHOC.g/cc                     : CDL Density Correction
DPOR.pu                       : CDL Density Porosity
GR.GAPI                       : Gamma Ray
~Parameter Information Block
~A  Depth       DCAL        RHOB        RHOC        DPOR         GR     
# ...
  1336.8000      8.0026      2.5650      0.1122      5.1543     70.0892
  1336.9000      8.0026      2.5420      0.0452      6.5431     67.2766
  1337.0000      8.0029      2.5144     -0.0091      8.2167     65.1728
  1337.1000      8.0029      2.5021      0.0553      8.9650     63.8886
  1337.2000      8.0029      2.5012      0.0510      9.0153     62.8299
  1337.3000      7.9949      2.5007      0.0372      9.0469     62.4776
  1337.4000      7.9949      2.5020      0.0206      8.9725     65.2120
  1337.5000      7.9785      2.5186     -0.0183      7.9636     70.8026
  1337.6000      7.9785      2.5494      0.0834      6.0998     77.9204
  1337.7000      7.9785      2.5626      0.0753      5.2971     84.0072
  1337.8000      7.9661      2.5497      0.0646      6.0766     87.2564
  1337.9000      7.9661      2.5423      0.0360      6.5259     88.6983
  1338.0000      7.9613      2.5541      0.0858      5.8118     90.2534
  1338.1000      7.9613      2.5679      0.0860      4.9736     94.0827
  1338.2000      7.9613      2.5677      0.0813      4.9885     99.5886
  1338.3000      7.9543      2.5554      0.0240      5.7352    103.1454
  1338.4000      7.9543      2.5452      0.0697      6.3537    103.7899
  1338.5000      7.9664      2.5433      0.0479      6.4662    104.9878
  1338.6000      7.9664      2.5459      0.0677      6.3094    108.9829
  1338.7000      7.9664      2.5455      0.0882      6.3356    114.3539
  1338.8000      7.9482      2.5371      0.0822      6.8416    119.2558
  1338.9000      7.9482      2.5249      0.1083      7.5833    125.7732
  1339.0000      7.9437      2.5147      0.1004      8.1983    135.4754
  1339.1000      7.9437      2.5072      0.0924      8.6541    145.0855
  1339.2000      7.9437      2.5046      0.0677      8.8114    152.6008
  1339.3000      7.9513      2.5108      0.1267      8.4366    158.6875
  1339.4000      7.9513      2.5209      0.1609      7.8240    163.7943
  1339.5000      7.9761      2.5298      0.1943      7.2859    169.9230
  1339.6000      7.9761      2.5389      0.1670      6.7326    176.6974
  1339.7000      7.9761      2.5464      0.2362      6.2793    183.2618
  1339.8000      7.9948      2.5450      0.1554      6.3615    189.2971
  1339.9000      7.9948      2.5396      0.1272      6.6920    189.6506
  1340.0000      8.0079      2.5402      0.1140      6.6544    183.5765
  1340.1000      8.0079      2.5487      0.1160      6.1386    179.7213
  1340.2000      8.0079      2.5587      0.1199      5.5303    184.9865
  1340.3000      8.0095      2.5601      0.1434      5.4462    194.0953
  1340.4000      8.0095      2.5526      0.1329      5.9022    196.7413
  1340.5000      8.0085      2.5478      0.1627      6.1912    190.5968
  1340.6000      8.0085      2.5499      0.1282      6.0693    179.9657
  1340.7000      8.0085      2.5476      0.1419      6.2090    172.7142
  1340.8000      8.0090      2.5340      0.1355      7.0305    173.2396
  1340.9000      8.0090      2.5213      0.1216      7.8001    175.6052
  1341.0000      8.0056      2.5238      0.0969      7.6474    173.9008
  1341.1000      8.0056      2.5385      0.1166      6.7599    168.4309
  1341.2000      8.0056      2.5527      0.1384      5.8987    163.2394
  1341.3000      8.0061      2.5638      0.1260      5.2219    160.6519
  1341.4000      8.0061      2.5749      0.1670      4.5488    161.1292
  1341.5000      8.0064      2.5792      0.1573      4.2904    167.9503
  1341.6000      8.0064      2.5712      0.1503      4.7728    176.4946
  1341.7000      8.0064      2.5672      0.0609      5.0196    175.7036
  1341.8000      8.0049      2.5836      0.1314      4.0215    169.8890
  1341.9000      8.0049      2.5998      0.1898      3.0450    170.4403
  1342.0000      7.9998      2.5893      0.1167      3.6776    173.9429
  1342.1000      7.9998      2.5648      0.0971      5.1619    172.7038
  1342.2000      7.9998      2.5475      0.1109      6.2143    167.6110
  1342.3000      7.9999      2.5382      0.0808      6.7766    159.9135
  1342.4000      7.9999      2.5325      0.0745      7.1226    151.3747
  1342.5000      8.0029      2.5292      0.0754      7.3212    147.3389
  1342.6000      8.0029      2.5258      0.1014      7.5263    152.2850
  1342.7000      8.0029      2.5247      0.0522      7.5966    160.4832
  1342.8000      8.0020      2.5330      0.0483      7.0891    162.7751
  1342.9000      8.0020      2.5516      0.0666      5.9639    159.6378
  1343.0000      8.0008      2.5833      0.0406      4.0441    152.2930
  1343.1000      8.0008      2.6275      0.0994      1.3655    143.1835
  1343.2000      8.0008      2.6648      0.1454     -0.8955    138.9791
  1343.3000      7.9935      2.6771      0.1541     -1.6450    140.8298
  1343.4000      7.9935      2.6657      0.1731     -0.9518    145.6859
  1343.5000      7.9761      2.6445      0.1320      0.3359    149.6830
  1343.6000      7.9761      2.6273      0.1753      1.3785    153.0071
  1343.7000      7.9761      2.6171      0.1703      1.9918    157.3861
  1343.8000      7.9447      2.6105      0.1478      2.3954    158.8876
  1343.9000      7.9447      2.6037      0.1395      2.8037    157.5226
  1344.0000      7.9772      2.5959      0.1359      3.2762    158.1848
  1344.1000      7.9772      2.5872      0.1347      3.8061    161.0400
  1344.2000      7.9772      2.5751      0.1271      4.5417    163.7602
  1344.3000      7.9973      2.5573      0.1096      5.6196    165.1333
  1344.4000      7.9973      2.5393      0.0693      6.7109    161.8926
  1344.5000      8.0028      2.5277      0.0596      7.4126    155.9554
  1344.6000      8.0028      2.5224      0.0446      7.7311    154.8246
  1344.7000      8.0028      2.5224      0.0474      7.7308    159.8757
  1344.8000      7.9995      2.5249      0.0667      7.5810    162.5508
  1344.9000      7.9995      2.5303      0.0312      7.2569    155.4150
  1345.0000      7.9962      2.5473      0.0640      6.2249    143.9618
  1345.1000      7.9962      2.5722      0.1026      4.7142    138.5279
  1345.2000      7.9962      2.5893      0.1035      3.6800    137.7322
  1345.3000      7.9977      2.5952      0.0670      3.3185    135.3605
  1345.4000      7.9977      2.5968      0.0820      3.2248    132.0713
  1345.5000      7.9768      2.5953      0.1032      3.3126    129.4857
  1345.6000      7.9768      2.5958      0.0799      3.2822    126.6807
  1345.7000      7.9768      2.6085      0.1235      2.5151    124.3761
  1345.8000      7.9513      2.6304      0.0997      1.1863    124.0004
  1345.9000      7.9513      2.6437      0.1423      0.3828    122.7084
  1346.0000      7.9727      2.6285      0.1302      1.3004    118.7210
  1346.1000      7.9727      2.5922      0.0391      3.5014    114.3113
  1346.2000      7.9727      2.5668      0.0112      5.0395    111.5035
  1346.3000      7.9862      2.5632      0.0460      5.2589    110.7332
  1346.4000      7.9862      2.5657      0.0512      5.1070    112.4441
  1346.5000      7.9643      2.5643      0.0717      5.1935    116.1984
  1346.6000      7.9643      2.5591      0.0379      5.5068    116.2351
  1346.7000      7.9643      2.5536      0.0407      5.8417    109.8140
  1346.8000      7.9595      2.5495      0.0482      6.0896    101.9622
  1346.9000      7.9595      2.5490      0.0606      6.1233     96.8495
  1347.0000      7.9454      2.5598      0.0498      5.4685     97.4500
  1347.1000      7.9454      2.5919      0.0437      3.5187    103.3193
  1347.2000      7.9454      2.6426      0.1342      0.4496    110.0190
  1347.3000      7.9447      2.6844      0.1811     -2.0839    112.5567
  1347.4000      7.9447      2.6928      0.1576     -2.5966    107.5410
  1347.5000      7.9527      2.6765      0.1131     -1.6035    102.3710
  1347.6000      7.9527      2.6502      0.1217     -0.0143    104.0227
  1347.7000      7.9527      2.6172      0.1000      1.9863    106.5561
  1347.8000      7.9502      2.5910      0.0775      3.5733    105.5083
  1347.9000      7.9502      2.5786      0.0924      4.3280    102.6163
