~Version Information
VERS.                      2.0: CWLS Log ASCII Standard - VERSION 2.0
WRAP.                       NO: One line per depth step
~Well Information Block
STRT.FT               340.0000: 
STOP.FT              2342.7000: 
STEP.FT                 0.1000: 
NULL.                -999.2500: 
COMP.          Pioneer Natural Resources: COMPANY
WELL.          Pinkerton 41-12: WELL
FLD.           Purgatoire River: FIELD
LOC.           1222' FNL & 670' FEL--: LOCATION
CNTY.               Las Animas: COUNTY
SRVC.                Patterson: SERVICE COMPANY
DATE.          Thu Mar 16 06:39:17 2006: LOG DATE
UWI.           05 071 08500 00: UNIQUE WELL ID
STAT.                 Colorado: STATE
~Curve Information Block
DEPT.FT            0 000 00 00: Depth
DCAL.in                       : CDL Caliper
RHOB.g/cc                     : CDL Bulk Density
RHOC.g/cc                     : CDL Density Correction
DPOR.pu                       : CDL Density Porosity
NPOR.pu                       : Neutron Porosity
GR.GAPI                       : Gamma Ray
~Parameter Information Block
~A  Depth       DCAL        RHOB        RHOC        DPOR        NPOR         GR     
# ...
  2173.6000      8.0210      2.6088      0.0978      2.4951     21.4750     66.8271
  2173.7000      8.0210      2.6180      0.1095      1.9383     21.3399     68.4739
  2173.8000      8.0252      2.6023      0.0536      2.8926     21.0690     64.0088
  2173.9000      8.0252      2.5832      0.0386      4.0501     20.8614     58.6575
  2174.0000      8.0250      2.5725      0.0687      4.6951     20.7034     57.0890
  2174.1000      8.0250      2.5666      0.0595      5.0539     20.7352     58.3447
  2174.2000      8.0250      2.5713      0.0294      4.7678     21.0359     59.3903
  2174.3000      8.0243      2.5853      0.0687      3.9239     21.4221     60.5932
  2174.4000      8.0243      2.5854      0.0915      3.9164     21.8046     65.0954
  2174.5000      8.0216      2.5682      0.0461      4.9598     22.2360     69.8623
  2174.6000      8.0216      2.5557      0.0252      5.7172     22.4725     68.9132
  2174.7000      8.0216      2.5477      0.0653      6.2005     22.3605     66.5381
  2174.8000      8.0123      2.5265      0.0585      7.4822     22.2057     69.3735
  2174.9000      8.0123      2.5045     -0.0388      8.8208     22.3363     74.5756
  2175.0000      7.9964      2.5076      0.0082      8.6332     22.5138     78.4026
  2175.1000      7.9964      2.5309      0.0638      7.2157     22.5434     80.6388
  2175.2000      7.9964      2.5546      0.0744      5.7799     22.8476     80.1472
  2175.3000      7.9832      2.5737      0.1066      4.6218     23.4150     75.8030
  2175.4000      7.9832      2.5894      0.0817      3.6744     23.8035     71.5105
  2175.5000      7.9770      2.5951      0.0804      3.3281     23.7348     72.4530
  2175.6000      7.9770      2.5855      0.0758      3.9087     23.0796     75.5032
  2175.7000      7.9770      2.5706      0.0130      4.8115     22.1883     76.4817
  2175.8000      7.9799      2.5637      0.0214      5.2285     21.7550     76.4883
  2175.9000      7.9799      2.5631      0.0492      5.2688     21.9917     74.9501
  2176.0000      7.9986      2.5662      0.0528      5.0779     22.5930     72.5665
  2176.1000      7.9986      2.5746      0.0665      4.5693     23.2786     73.8588
  2176.2000      7.9986      2.5750      0.0733      4.5432     23.9720     76.8623
  2176.3000      8.0275      2.5523      0.0374      5.9233     24.7325     76.4427
  2176.4000      8.0275      2.5158      0.0241      8.1303     25.6139     72.9565
  2176.5000      8.0445      2.4818      0.0400     10.1968     26.6784     71.2116
  2176.6000      8.0445      2.4393      0.0448     12.7680     27.7431     75.8989
  2176.7000      8.0445      2.3703      0.0178     16.9527     28.3347     83.6069
  2176.8000      8.0475      2.2809     -0.0291     22.3724     28.5056     85.8013
  2176.9000      8.0475      2.1905     -0.0473     27.8474     28.7669     83.9537
  2177.0000      8.0450      2.0984     -0.0569     33.4285     29.2560     83.5389
  2177.1000      8.0450      1.9871     -0.0754     40.1738     30.0762     83.9818
  2177.2000      8.0450      1.8630     -0.1226     47.6973     31.1455     82.7910
  2177.3000      8.0415      1.7574     -0.1430     54.0972     31.9258     81.2105
  2177.4000      8.0415      1.6789     -0.1218     58.8574     32.3655     79.3887
  2177.5000      8.0361      1.6023     -0.0936     63.4956     32.6590     72.9051
  2177.6000      8.0361      1.5190     -0.1162     68.5439     32.7363     62.0549
  2177.7000      8.0361      1.4576     -0.1036     72.2667     32.7178     52.5958
  2177.8000      8.0317      1.4348      0.0060     73.6489     32.8109     48.4523
  2177.9000      8.0317      1.4275      0.0547     74.0918     33.1933     48.9746
  2178.0000      8.0316      1.4133      0.0407     74.9503     33.8000     50.9228
  2178.1000      8.0316      1.3960      0.0233     75.9999     34.1340     50.9614
  2178.2000      8.0316      1.3860      0.0281     76.6066     33.9791     49.0642
  2178.3000      8.0439      1.3847      0.0377     76.6825     33.8043     47.8560
  2178.4000      8.0439      1.3842      0.0574     76.7148     33.8889     47.7747
  2178.5000      8.0708      1.3774      0.0417     77.1290     33.9554     46.5830
  2178.6000      8.0708      1.3656      0.0377     77.8421     33.6842     43.6835
  2178.7000      8.0708      1.3496      0.0353     78.8098     33.2459     41.9988
  2178.8000      8.0975      1.3303     -0.0272     79.9790     33.1176     42.1734
  2178.9000      8.0975      1.3145     -0.0073     80.9424     33.2914     41.4708
  2179.0000      8.1186      1.3109     -0.0313     81.1559     33.4928     38.3788
  2179.1000      8.1186      1.3274      0.0242     80.1571     33.6227     34.8538
  2179.2000      8.1186      1.3681      0.0593     77.6905     33.6635     32.4214
  2179.3000      8.1270      1.4489      0.0649     72.7914     33.4666     32.5124
  2179.4000      8.1270      1.5909      0.1081     64.1866     32.9343     38.8452
  2179.5000      8.1343      1.7728      0.1963     53.1643     32.2263     51.2561
  2179.6000      8.1343      1.9285      0.2647     43.7247     31.5351     64.1497
  2179.7000      8.1343      2.0242      0.2336     37.9258     30.9313     71.5871
  2179.8000      8.1748      2.0913      0.2474     33.8601     30.5537     75.9668
  2179.9000      8.1748      2.1585      0.2819     29.7860     30.4652     83.2928
  2180.0000      8.1941      2.2203      0.2506     26.0417     30.4892     93.2793
  2180.1000      8.1941      2.2766      0.1271     22.6325     30.5101    102.8603
  2180.2000      8.1941      2.3370      0.0721     18.9673     30.5513    108.5915
  2180.3000      8.1142      2.3901      0.1374     15.7500     30.4663    109.9355
  2180.4000      8.1142      2.4168      0.1025     14.1336     30.0179    112.4126
  2180.5000      8.0210      2.4225      0.1077     13.7902     29.3730    117.2834
  2180.6000      8.0210      2.4254      0.0812     13.6106     28.8499    118.5243
  2180.7000      8.0210      2.4377      0.0898     12.8646     28.5407    116.6551
  2180.8000      7.9812      2.4572      0.0970     11.6864     28.4301    115.0078
  2180.9000      7.9812      2.4715      0.0795     10.8153     28.3246    113.8400
  2181.0000      7.9708      2.4719      0.1010     10.7939     27.9156    117.0085
  2181.1000      7.9708      2.4625      0.0778     11.3630     27.5198    124.2284
  2181.2000      7.9708      2.4597      0.0980     11.5349     27.5079    124.4439
  2181.3000      7.9684      2.4761      0.0550     10.5410     27.2609    113.8813
  2181.4000      7.9684      2.5091      0.1075      8.5421     26.3845    102.3226
  2181.5000      7.9660      2.5382      0.1307      6.7737     25.3727     96.1537
  2181.6000      7.9660      2.5472      0.0988      6.2284     24.6934     93.0301
  2181.7000      7.9660      2.5420      0.0824      6.5452     24.1203     87.3733
  2181.8000      7.9628      2.5379      0.0997      6.7936     23.3383     78.1394
  2181.9000      7.9628      2.5452      0.0882      6.3512     22.7188     72.5209
  2182.0000      7.9614      2.5567      0.1135      5.6542     22.4057     72.9360
  2182.1000      7.9614      2.5529      0.0863      5.8833     21.8840     73.7746
  2182.2000      7.9614      2.5322      0.0640      7.1421     21.0136     73.5399
  2182.3000      7.9594      2.5135      0.0242      8.2757     20.4331     72.9079
  2182.4000      7.9594      2.5120      0.0212      8.3626     20.6595     71.7777
  2182.5000      7.9514      2.5282      0.0348      7.3806     21.4350     70.0861
  2182.6000      7.9514      2.5583      0.0498      5.5576     22.0504     67.8096
  2182.7000      7.9514      2.5907      0.1156      3.5944     22.2056     66.8041
  2182.8000      7.9404      2.6039      0.1183      2.7914     22.2294     68.1880
  2182.9000      7.9404      2.5996      0.0757      3.0562     22.4475     69.0307
  2183.0000      7.9237      2.5990      0.1023      3.0889     23.0239     67.0597
  2183.1000      7.9237      2.6031      0.1619      2.8418     24.0517     64.4568
