~Version Information
 VERS.                                  2.0 : CWLS LAS VERSION
 WRAP.                                   NO : WRAPING MODE
 SWARE .                 MController 2.5.0N : SOFTWARE VERSION
~Well Information
 WELL.                        Cleaver 24-12 : WELL
 COMP.    Pioneer Natural Resources USA Inc : COMPANY
 FLD.                      Purgatoire River : FIELD
 LOC.                SE/SW Sec 12 T32S R67W : LOCATION
 DATE.                         1/05-06/2006 : DATE(S) LOGGED
 SRVC.       BLANCO Geological Services LLC : SERVICE COMPANY
 STAT.                                   CO : STATE
 CNTY.                           Las Animas : COUNTY
 CTRY.                                  USA : COUNTRY
 API.                       05-071-08634-00 : API NUMBER
 STRT.FT                             461.00 : START DEPTH
 STOP.FT                            3055.00 : STOP DEPTH
 STEP.FT                               1.00 : DEPTH INCREMENT
 NULL.                                -9999 : NULL VALUE
~Curve information
 DEPTH.FT                                   :
 ROP.MIN/FT                                 :
 GAS.UNITS                                  :
~ASCII Log data
# ...
      2661.0         0.50         24.8 
      2662.0         0.43         30.4 
      2663.0         0.43         40.5 
      2664.0         0.47         36.1 
      2665.0         1.07         34.4 
      2666.0         6.17         72.6 
      2667.0         0.88         46.8 
      2668.0         0.60         51.5 
      2669.0         0.83        119.5 
      2670.0         0.97        120.7 
      2671.0         0.85        142.6 
      2672.0         0.87        112.9 
      2673.0         0.90         52.0 
      2674.0         0.90         31.6 
      2675.0         1.12         27.8 
      2676.0         1.47         31.6 
      2677.0         0.87         36.0 
      2678.0         0.30         52.9 
      2679.0         0.35         63.1 
      2680.0         0.50         72.1 
      2681.0         0.40         80.2 
      2682.0         0.30         65.7 
      2683.0         0.30         66.3 
      2684.0         0.33         65.9 
      2685.0         0.33         51.4 
      2686.0         0.27         77.0 
      2687.0         0.23         77.0 
      2688.0         0.30         86.3 
      2689.0         0.35         78.7 
      2690.0         0.33         91.9 
      2691.0         0.37         79.1 
      2692.0         0.43         36.4 
      2693.0         0.47         62.6 
      2694.0         0.50         44.4 
      2695.0         0.53         50.6 
      2696.0         7.07        146.9 
      2697.0         1.12        137.2 
      2698.0         1.00        180.5 
      2699.0         0.67        110.3 
      2700.0         0.30         69.9 
      2701.0         0.30         70.1 
      2702.0         0.58        103.0 
      2703.0         0.47        150.6 
      2704.0         0.83        187.8 
      2705.0         0.80        228.7 
      2706.0         0.67        255.1 
      2707.0         0.65        263.5 
      2708.0         1.10        409.1 
      2709.0         1.00        342.1 
      2710.0         1.12         54.3 
      2711.0         1.13         33.5 
      2712.0         1.07         42.3 
      2713.0         1.52         81.7 
      2714.0         1.27         78.2 
      2715.0         0.97         95.2 
      2716.0         0.95        108.6 
      2717.0         0.80        103.9 
      2718.0         0.87        126.2 
      2719.0         0.80        103.0 
      2720.0         0.85         48.9 
      2721.0         0.83         34.9 
      2722.0         0.90         96.4 
      2723.0         0.87        101.6 
      2724.0         0.78        105.7 
      2725.0         0.63        110.3 
      2726.0         8.73        185.2 
      2727.0         0.78        220.8 
      2728.0         0.40        217.9 
      2729.0         0.23        213.6 
      2730.0         0.43        208.2 
      2731.0         0.53        156.7 
      2732.0         0.27         81.8 
      2733.0         0.50         87.5 
      2734.0         0.62         52.2 
      2735.0         0.60         60.4 
      2736.0         0.57         57.1 
      2737.0         0.60         52.6 
      2738.0         0.50         50.1 
      2739.0         0.60         49.6 
      2740.0         0.85         52.7 
      2741.0         0.80         24.0 
      2742.0         0.60         27.8 
      2743.0         0.53         28.6 
      2744.0         0.47         39.1 
      2745.0         0.23         39.2 
      2746.0         0.28         51.7 
      2747.0         0.60         79.5 
      2748.0         0.70         86.1 
      2749.0         0.67         80.9 
      2750.0         0.53         75.9 
      2751.0         0.53         58.3 
      2752.0         0.98         64.7 
      2753.0         0.47         62.3 
      2754.0         0.63         57.6 
      2755.0         0.90         51.9 
      2756.0        12.20        200.3 
      2757.0         1.07        133.7 
      2758.0         0.43        132.8 
      2759.0         0.65        136.8 
      2760.0         0.67        107.8 
      2761.0         0.90        189.7 
      2762.0         0.93         66.5 
      2763.0         1.15         26.0 
      2764.0         1.47         37.4 
      2765.0         1.18         39.6 
      2766.0         1.07         49.2 
      2767.0         0.83         48.5 
      2768.0         0.77         61.0 
      2769.0         0.82         58.2 
      2770.0         0.80         57.9 
      2771.0         0.73         72.5 
      2772.0         0.70         69.0 
      2773.0         0.73         71.1 
      2774.0         0.75         66.8 
      2775.0         0.73         74.4 
      2776.0         0.80         64.7 
      2777.0         0.80         56.5 
      2778.0         0.72         67.2 
      2779.0         0.77         75.1 
      2780.0         0.73         71.1 
      2781.0         0.80         67.3 
      2782.0         0.82         62.8 
      2783.0         0.77         39.5 
      2784.0         0.77         24.8 
      2785.0         0.37         28.7 
      2786.0        11.15         70.5 
      2787.0         0.10         12.0 
      2788.0         0.22        105.0 
      2789.0         0.33         91.9 
      2790.0         0.50         79.0 
      2791.0         0.53         84.4 
      2792.0         0.60        115.2 
      2793.0         0.63        186.6 
      2794.0         0.57        190.7 
      2795.0         0.55        121.6 
      2796.0         0.50         22.0 
      2797.0         0.57        116.6 
      2798.0         0.63         71.3 
      2799.0         0.33         22.8 
      2800.0         0.40          4.1 
      2801.0         0.30          9.3 
      2802.0         0.45         16.6 
      2803.0         0.33         17.5 
      2804.0         0.37         18.6 
      2805.0         0.33         20.4 
      2806.0         0.23         11.9 
      2807.0         0.30          2.0 
      2808.0         0.40         71.3 
      2809.0         0.70         63.9 
      2810.0         0.72         37.0 
      2811.0         0.73        125.0 
      2812.0         0.63        110.6 
      2813.0         0.53        103.3 
      2814.0         0.50        104.1 
      2815.0         3.08         84.0 
      2816.0         3.62         35.7 
      2817.0         1.18         56.5 
      2818.0         0.90         57.1 
      2819.0         0.63         82.5 
      2820.0         0.63        110.6 
      2821.0         0.57        102.0 
      2822.0         0.65        107.5 
      2823.0         0.70         86.4 
      2824.0         0.63         64.9 
      2825.0         0.77         18.5 
      2826.0         0.88         11.4 
      2827.0         0.83         18.5 
      2828.0         1.00         14.2 
      2829.0         0.93         37.8 
      2830.0         0.82         40.3 
      2831.0         0.73         27.0 
      2832.0         0.70         34.5 
      2833.0         0.73         41.4 
      2834.0         0.77         48.2 
      2835.0         0.68         33.1 
      2836.0         0.73         47.9 
      2837.0         0.77         33.9 
      2838.0         0.80         54.9 
      2839.0         0.75         24.0 
      2840.0         0.80         34.8 
      2841.0         0.77         34.9 
      2842.0         0.57         26.0 
      2843.0         0.63         17.6 
      2844.0         0.58         28.3 
      2845.0         0.43         15.1 
      2846.0        10.12         83.5 
      2847.0         0.83         84.6 
      2848.0         0.57          0.6 
      2849.0         0.20          0.2 
      2850.0         0.33         43.2 
      2851.0         0.50         28.9 
      2852.0         0.55         70.1 
      2853.0         0.60         47.0 
      2854.0         0.47         27.7 
      2855.0         0.27         17.9 
      2856.0         0.20         17.9 
      2857.0         0.43         36.4 
      2858.0         0.43         39.0 
      2859.0         0.33         52.3 
      2860.0         0.32         44.8 
