~Version Information
VERS.                      2.0: CWLS Log ASCII Standard - VERSION 2.0
WRAP.                       NO: One line per depth step
~Well Information Block
STRT.FT               795.0000: 
STOP.FT              2276.0000: 
STEP.FT                 0.1000: 
NULL.                -999.2500: 
COMP.          Pioneer Natural Resources: COMPANY
WELL.            Wildcard 31-5: WELL
FLD.           Purgatoire River: FIELD
LOC.           624' FNL & 1852' FEL--: LOCATION
CNTY.               Las Animas: COUNTY
SRVC.                Patterson: SERVICE COMPANY
DATE.          Tue Mar 07 07:04:10 2006: LOG DATE
UWI.           05 071 08707 00: UNIQUE WELL ID
STAT.                 Colorado: STATE
~Curve Information Block
DEPT.FT            0 000 00 00: Depth
DCAL.in                       : CDL Caliper
DPOR.pu                       : CDL Density Porosity
NPOR.pu                       : Neutron Porosity
RHOB.g/cc                     : CDL Bulk Density
RHOC.g/cc                     : CDL Density Correction
GR.GAPI                       : Gamma Ray
~Parameter Information Block
~A  Depth       DCAL        DPOR        NPOR        RHOB        RHOC         GR     
# ...
  2071.8000      7.9340      9.4773     26.8322      2.4936      0.1216    127.3144
  2071.9000      7.9340      9.6678     26.4806      2.4905      0.1263    119.1977
  2072.0000      7.9410     10.0556     26.3497      2.4841      0.1069    109.1701
  2072.1000      7.9410     10.3923     26.4582      2.4785      0.1193    112.1295
  2072.2000      7.9410     11.1438     26.4250      2.4661      0.1074    124.8270
  2072.3000      7.9484     12.8947     26.5404      2.4372      0.1181    125.9480
  2072.4000      7.9484     15.1091     27.1085      2.4007      0.0169    112.0834
  2072.5000      7.9548     16.3521     27.8740      2.3802     -0.0152     97.2609
  2072.6000      7.9548     16.4242     28.5537      2.3790      0.0216     93.5017
  2072.7000      7.9548     16.5238     28.8578      2.3774      0.0662    105.4999
  2072.8000      7.9601     17.2384     28.6258      2.3656      0.0646    120.6088
  2072.9000      7.9601     17.9706     28.2435      2.3535      0.0579    122.6069
  2073.0000      7.9610     18.5674     28.1283      2.3436      0.0938    113.8671
  2073.1000      7.9610     19.4114     28.1057      2.3297      0.0345    105.5837
  2073.2000      7.9610     20.1570     27.9236      2.3174      0.0620     99.7463
  2073.3000      7.9594     20.5137     27.8375      2.3115      0.0786     94.0728
  2073.4000      7.9594     20.4681     28.0354      2.3123      0.0963     89.0055
  2073.5000      7.9587     19.9203     28.1518      2.3213      0.1381     89.8964
  2073.6000      7.9587     19.1804     27.7988      2.3335      0.1336     95.1091
  2073.7000      7.9587     18.7787     27.0362      2.3402      0.1555     95.2862
  2073.8000      7.9582     18.5824     26.0968      2.3434      0.1514     94.3412
  2073.9000      7.9582     17.6562     25.0472      2.3587      0.1731    105.5166
  2074.0000      7.9507     15.3708     24.1685      2.3964      0.1021    122.9800
  2074.1000      7.9507     12.5499     23.9121      2.4429      0.1185    126.4557
  2074.2000      7.9507     10.6189     24.4345      2.4748      0.0844    118.9945
  2074.3000      7.9326      9.4229     25.4380      2.4945      0.0645    112.6239
  2074.4000      7.9326      8.0937     26.3329      2.5165      0.0886    107.1941
  2074.5000      7.9141      6.9045     26.6610      2.5361      0.0789    104.5850
  2074.6000      7.9141      6.2312     26.2999      2.5472      0.0441    103.7602
  2074.7000      7.9141      5.9409     25.5895      2.5520      0.0750    100.3884
  2074.8000      7.9048      5.7967     24.8461      2.5544      0.0561     95.6963
  2074.9000      7.9048      5.2775     24.2137      2.5629      0.0917     91.4625
  2075.0000      7.9029      4.5329     24.0467      2.5752      0.0990     90.3748
  2075.1000      7.9029      4.1111     24.2709      2.5822      0.0700     93.6546
  2075.2000      7.9029      3.6071     24.4704      2.5905      0.1018     97.9352
  2075.3000      7.9032      2.6266     24.6309      2.6067      0.1086    102.4303
  2075.4000      7.9032      1.8177     24.7566      2.6200      0.1176    111.1914
  2075.5000      7.9032      1.9775     24.6702      2.6174      0.1087    122.0972
  2075.6000      7.9032      3.1205     24.5750      2.5985      0.0676    128.7993
  2075.7000      7.9032      4.7503     24.6421      2.5716      0.0535    133.0476
  2075.8000      7.9033      6.3875     24.6070      2.5446      0.0224    136.9178
  2075.9000      7.9033      7.4937     24.4906      2.5264      0.0331    135.6505
  2076.0000      7.9045      7.3206     24.6509      2.5292      0.0232    130.1857
  2076.1000      7.9045      6.4747     25.3400      2.5432      0.0873    125.9825
  2076.2000      7.9045      6.6070     26.0612      2.5410      0.0429    119.5612
  2076.3000      7.9054      7.3912     26.0724      2.5280      0.0236    104.3397
  2076.4000      7.9054      7.7192     25.8840      2.5226      0.0709     86.1401
  2076.5000      7.9089      7.9904     26.0613      2.5182      0.0481     77.0882
  2076.6000      7.9089      9.0927     26.2146      2.5000      0.0597     78.2749
  2076.7000      7.9089     10.8881     25.9977      2.4703     -0.0086     81.0823
  2076.8000      7.9217     11.9806     25.6858      2.4523     -0.0005     86.0658
  2076.9000      7.9217     11.5422     25.8112      2.4596      0.0233     94.4010
  2077.0000      7.9400     10.4166     26.4722      2.4781      0.0765     98.7798
  2077.1000      7.9400      9.6475     27.2023      2.4908      0.0457     98.4219
  2077.2000      7.9400      9.1820     27.8383      2.4985      0.0865     97.7555
  2077.3000      7.9611      8.4320     28.3605      2.5109      0.0621    101.0282
  2077.4000      7.9611      7.3105     28.4914      2.5294      0.1021    110.4157
  2077.5000      7.9854      6.8263     28.2501      2.5374      0.0914    120.8193
  2077.6000      7.9854      7.6038     28.0729      2.5245      0.0673    123.3011
  2077.7000      7.9854      8.6945     27.9799      2.5065      0.0192    118.6268
  2077.8000      8.0001      9.1033     27.4141      2.4998      0.0672    116.0110
  2077.9000      8.0001      9.0978     26.6268      2.4999      0.0839    117.1496
  2078.0000      7.9976      9.2732     26.3785      2.4970      0.0474    118.7838
  2078.1000      7.9976      9.7113     26.6276      2.4898      0.0488    115.6484
  2078.2000      7.9976     10.0107     27.0388      2.4848      0.0227    108.3440
  2078.3000      7.9914      9.9071     27.5016      2.4865      0.0427    106.7353
  2078.4000      7.9914      9.9089     27.8672      2.4865      0.0738    111.6929
  2078.5000      7.9939     10.2935     28.0387      2.4802      0.0276    115.0678
  2078.6000      7.9939     10.8444     28.1519      2.4711      0.0871    117.4272
  2078.7000      7.9939     11.7155     28.3037      2.4567      0.0654    124.7915
  2078.8000      8.0072     12.7833     28.5339      2.4391      0.0547    129.4946
  2078.9000      8.0072     13.6223     28.7744      2.4252      0.0772    120.8679
  2079.0000      8.0197     14.3664     29.1203      2.4130      0.0679    108.8603
  2079.1000      8.0197     15.8534     29.7366      2.3884      0.0736    108.9243
  2079.2000      8.0197     18.8288     30.3053      2.3393      0.0348    119.3724
  2079.3000      8.0249     22.9859     30.6332      2.2707      0.0562    132.9129
  2079.4000      8.0249     27.8290     31.0317      2.1908      0.0171    141.1580
  2079.5000      8.0232     33.6427     31.6784      2.0949     -0.0086    135.4934
  2079.6000      8.0232     40.8219     32.4800      1.9764      0.0087    119.6636
  2079.7000      8.0232     48.1105     33.1802      1.8562     -0.1089    110.0296
  2079.8000      8.0199     53.2320     33.6608      1.7717     -0.0868    115.8725
  2079.9000      8.0199     56.7922     33.8804      1.7129      0.0094    119.8394
  2080.0000      8.0224     61.3705     33.7479      1.6374     -0.0254    100.6889
  2080.1000      8.0224     66.7793     33.5082      1.5481     -0.0426     71.6744
  2080.2000      8.0224     70.7901     33.2974      1.4820      0.0147     56.0669
  2080.3000      8.0305     72.4709     32.9437      1.4542      0.0547     52.8146
  2080.4000      8.0305     72.2021     32.5978      1.4587      0.0706     51.0256
  2080.5000      8.0531     70.5152     32.4440      1.4865      0.1085     51.0529
  2080.6000      8.0531     67.8371     32.3669      1.5307      0.0842     57.2920
  2080.7000      8.0531     64.3548     32.2497      1.5881      0.1123     61.5358
  2080.8000      8.1315     59.7222     31.9280      1.6646      0.1188     59.9459
  2080.9000      8.1315     53.6340     31.3802      1.7650      0.1698     61.4788
  2081.0000      8.3024     46.9869     30.8965      1.8747      0.2001     66.8133
  2081.1000      8.3024     41.1489     30.6373      1.9710      0.1964     70.1354
  2081.2000      8.3024     36.4448     30.2558      2.0487      0.2305     69.9030
  2081.3000      8.4920     32.2427     29.4644      2.1180      0.2371     69.8562
