~Version Information
VERS.                      2.0: CWLS Log ASCII Standard - VERSION 2.0
WRAP.                       NO: One line per depth step
~Well Information Block
STRT.FT                -5.5000: 
STOP.FT               791.0000: 
STEP.FT                 0.2500: 
NULL.                -999.2500: 
COMP.          Pioneer Natural Resources: COMPANY
WELL.           Beringer 33-18: WELL
FLD.           Purgatoire River: FIELD
LOC.           2356' FSL & 2338' FEL--: LOCATION
CNTY.               Las Animas: COUNTY
SRVC.                Patterson: SERVICE COMPANY
DATE.          Mon Apr 03 11:39:01 2006: LOG DATE
UWI.           05 071 08725 00: UNIQUE WELL ID
STAT.                 Colorado: STATE
~Curve Information Block
DEPT.FT            0 000 00 00: Depth
CCL.                          : Casing Collar Locator
TT3.usec                      : CBL 3' Travel Time
AMP3.mV                       : CBL 3' Amplitude
GR.GAPI                       : Gamma Ray
~Parameter Information Block
~A  Depth       CCL         TT3         AMP3         GR     
# ...
    61.5000      0.0000    835.7905      5.7333     96.7515
    61.7500      0.0000    838.2618      5.7098     91.7541
    62.0000      0.0000    839.8387      5.6830     84.1049
    62.2500      0.0000    839.5350      5.6729     79.8296
    62.5000      0.0000    836.3294      5.6732     76.0849
    62.7500      0.0000    832.6909      5.6847     75.7077
    63.0000      0.0000    826.9361      5.7154     77.7020
    63.2500      0.0000    823.8951      5.7381     79.8303
    63.5000      0.0000    821.6207      5.7603     82.3412
    63.7500      0.0000    822.1305      5.7604     82.7386
    64.0000      0.0000    824.8213      5.7420     81.0532
    64.2500      0.0000    825.2825      5.7316     78.6477
    64.5000      0.0000    819.5049      5.7536     73.9072
    64.7500      0.0000    811.5719      5.8063     70.7674
    65.0000      0.0000    798.9163      5.9304     67.5601
    65.2500      0.0000    793.2249      6.0192     66.5093
    65.5000      0.0000    790.5459      6.1224     64.5955
    65.7500      0.0000    791.4860      6.1651     61.7276
    66.0000      0.0000    793.4500      6.2074     55.0475
    66.2500      0.0000    793.4360      6.2358     50.5817
    66.5000      0.0000    790.6040      6.2919     46.7689
    66.7500      0.0000    787.5471      6.3368     46.5942
    67.0000      0.0000    782.9321      6.4009     48.3680
    67.2500      0.0000    780.2505      6.4326     49.5786
    67.5000      0.0000    776.2452      6.4613     49.8622
    67.7500      0.0000    773.1284      6.4767     48.8204
    68.0000      0.0000    768.0263      6.5124     46.2504
    68.2500      0.0000    765.0713      6.5478     44.7835
    68.5000      0.0000    762.2495      6.6053     44.3821
    68.7500      0.0000    761.2521      6.6340     45.5738
    69.0000      0.0000    759.9819      6.6479     48.6092
    69.2500      0.0000    758.8934      6.6387     50.3566
    69.5000      0.0000    756.9890      6.6138     51.0263
    69.7500      0.0000    755.6461      6.5979     50.1082
    70.0000      0.0000    753.5712      6.5671     47.7872
    70.2500      0.0000    752.6413      6.5214     46.2681
    70.5000      0.0000    754.2713      6.3735     44.4793
    70.7500      0.0000    758.9905      6.2144     43.6765
    71.0000      0.0000    772.2211      5.9152     43.3093
    71.2500      0.0000    783.6857      5.7017     43.8466
    71.5000      0.0000    801.6726      5.3883     46.2294
    71.7500      0.0000    814.0118      5.1959     49.1333
    72.0000      0.0000    835.4531      4.9623     55.4343
    72.2500     -2.0000    852.3948      4.8554     60.0938
    72.5000      2.0000    879.7446      4.7538     65.1393
    72.7500      2.0000    897.4691      4.7045     66.2651
    73.0000      0.0000    920.4966      4.6403     66.0876
    73.2500      0.0000    931.1161      4.6213     66.8155
    73.5000      0.0000    934.1252      4.6992     71.5928
    73.7500      0.0000    924.6629      4.8521     76.9825
    74.0000      0.0000    893.1840      5.1867     86.0169
    74.2500      0.0000    864.4056      5.4039     91.1790
    74.5000      0.0000    820.5995      5.6185     96.0593
    74.7500      0.0000    797.1898      5.6868     97.2070
    75.0000      0.0000    775.6225      5.7380     96.1729
    75.2500      0.0000    769.1718      5.7671     93.8181
    75.5000      0.0000    765.9756      5.8155     87.9587
    75.7500      0.0000    765.2259      5.8474     83.1037
    76.0000      0.0000    764.0410      5.8866     76.4912
    76.2500      0.0000    763.7130      5.9029     73.4913
    76.5000      0.0000    765.5163      5.9042     71.0195
    76.7500      0.0000    768.2632      5.8848     70.0698
    77.0000      0.0000    773.0018      5.8285     69.0867
    77.2500      0.0000    775.5341      5.7859     68.8976
    77.5000      0.0000    777.8176      5.7495     69.7901
    77.7500      0.0000    778.5624      5.7566     71.1691
    78.0000      0.0000    779.0765      5.8040     73.9188
    78.2500      0.0000    779.2170      5.8383     75.9698
    78.5000      0.0000    779.2757      5.8540     79.5933
    78.7500      0.0000    779.2614      5.8254     82.6101
    79.0000      0.0000    779.2380      5.7197     87.2888
    79.2500      0.0000    779.2655      5.6173     89.2029
    79.5000      0.0000    779.4136      5.4451     88.4229
    79.7500      0.0000    779.5660      5.3346     85.9036
    80.0000      0.0000    779.7826      5.1938     82.1687
    80.2500      0.0000    779.8669      5.1230     81.3188
    80.5000      0.0000    779.8525      5.0603     83.0996
    80.7500      0.0000    779.6823      5.0507     85.7346
    81.0000      0.0000    778.7800      5.0796     90.7168
    81.2500      0.0000    777.2580      5.1170     94.2615
    81.5000      0.0000    772.5874      5.1773     99.1576
    81.7500      0.0000    767.6422      5.2109    101.4521
    82.0000      0.0000    758.4736      5.2490    101.9784
    82.2500      0.0000    752.4896      5.2711     99.9973
    82.5000      0.0000    745.8820      5.3113     94.7644
    82.7500      0.0000    743.6970      5.3462     91.3468
    83.0000      0.0000    743.8137      5.4052     88.3682
    83.2500      0.0000    745.9042      5.4406     87.7662
    83.5000      0.0000    751.3117      5.4775     87.6791
    83.7500      0.0000    755.7816      5.4917     87.9727
    84.0000      0.0000    762.6187      5.5043     89.7569
    84.2500      0.0000    766.7791      5.5078     91.8635
    84.5000      0.0000    771.9238      5.5031     94.4068
    84.7500      0.0000    774.4563      5.4949     94.1383
    85.0000      0.0000    776.9016      5.4873     89.8173
    85.2500      0.0000    777.8104      5.4932     85.2247
    85.5000      0.0000    778.5269      5.5223     78.4700
    85.7500      0.0000    778.7761      5.5518     75.2277
    86.0000      0.0000    778.9910      5.6024     72.8393
    86.2500      0.0000    779.0693      5.6369     72.7428
    86.5000      0.0000    779.0741      5.6889     74.3729
    86.7500      0.0000    778.9431      5.7248     76.1723
    87.0000      0.0000    778.3671      5.7788     78.5380
    87.2500      0.0000    777.6704      5.8089     78.9817
    87.5000      0.0000    776.3470      5.8347     77.3124
    87.7500      0.0000    775.5410      5.8397     75.0674
    88.0000      0.0000    774.7709      5.8459     71.4673
    88.2500      0.0000    774.5313      5.8615     69.6251
    88.5000      0.0000    774.4566      5.9109     67.8789
    88.7500      0.0000    774.6391      5.9555     66.8485
    89.0000      0.0000    775.3411      6.0213     64.4116
    89.2500      0.0000    775.9642      6.0557     62.1911
    89.5000      0.0000    776.7367      6.0910     59.4824
    89.7500      0.0000    777.0262      6.1076     59.3191
    90.0000      0.0000    777.2612      6.1287     62.6074
    90.2500      0.0000    777.4855      6.1408     66.7499
    90.5000      0.0000    778.3467      6.1524     74.4613
    90.7500      0.0000    779.5461      6.1548     80.1288
    91.0000      0.0000    782.7564      6.1557     88.9705
    91.2500      0.0000    786.0214      6.1601     94.3367
    91.5000      0.0000    792.4650      6.1766     99.8236
    91.7500      0.0000    797.2668      6.1906    101.4593
    92.0000      0.0000    803.5406      6.2023    101.7918
    92.2500      0.0000    805.9413      6.1993    101.0969
    92.5000      0.0000    805.4869      6.1857     99.0874
    92.7500      0.0000    802.4702      6.1813     97.8050
    93.0000      0.0000    795.4501      6.1989     97.9632
    93.2500      0.0000    790.5778      6.2306     99.8215
    93.5000      0.0000    785.0435      6.3009    103.0916
    93.7500      0.0000    782.9060      6.3507    103.7140
    94.0000      0.0000    781.3927      6.4054    101.0792
    94.2500      0.0000    780.9276      6.4206     97.9158
    94.5000      0.0000    780.3998      6.4171     93.9105
    94.7500      0.0000    780.0513      6.4069     92.9002
