~Version Information
VERS.                      2.0: CWLS Log ASCII Standard - VERSION 2.0
WRAP.                       NO: One line per depth step
~Well Information Block
STRT.FT              1585.0000: 
STOP.FT              2353.0000: 
STEP.FT                 0.2500: 
NULL.                -999.2500: 
COMP.          XTO Energy Inc.: COMPANY
WELL.          Hill Ranch 15-11: WELL
FLD.           Purgatrorie River: FIELD
LOC.           1862' FSL & 1801' FWL: LOCATION
STAT.                       CO: State
CNTY.               Las Animas: COUNTY
CTRY. USA : Country
SECT. 15 : Section
TOWN. 35S : Township
RANG. 67W : Range
SRVC.          Patterson Wireline: SERVICE COMPANY
DATE.          Thu Dec 08 10:20:02 2005: LOG DATE
API.              05 071 08472: UNIQUE WELL ID
~Curve Information Block
DEPT.FT            0 000 00 00: Depth
CCL.                          : Casing Collar Locator
TT3.usec                      : CBL 3' Travel Time
AMP3.mV                       : CBL 3' Amplitude
BONDIX.                       : CBL Bond Index
GR.GAPI                       : Gamma Ray
~Parameter Information Block
~A  Depth       CCL         TT3         AMP3       BONDIX        GR     
# ...
  2033.0000      0.0000    750.0674      8.6068      0.5271     53.0441
  2033.2500      0.0000    740.7000      8.0767      0.5411     49.9365
  2033.5000      0.0000    734.1972      7.6321      0.5535     47.6184
  2033.7500      0.0000    730.1913      7.2671      0.5643     45.8766
  2034.0000      0.0000    727.8437      6.9669      0.5735     44.6629
  2034.2500      0.0000    726.4521      6.7099      0.5818     43.9053
  2034.5000      0.0000    725.8288      6.4776      0.5895     43.2044
  2034.7500      0.0000    726.4067      6.2641      0.5969     41.9903
  2035.0000      0.0000    729.1313      6.0763      0.6036     40.3454
  2035.2500      0.0000    734.9548      5.9281      0.6090     39.4136
  2035.5000      0.0000    744.0198      5.8321      0.6126     40.7502
  2035.7500      0.0000    755.2230      5.7922      0.6141     45.4957
  2036.0000      0.0000    766.7606      5.7993      0.6138     54.3593
  2036.2500      0.0000    777.1937      5.8372      0.6124     67.7467
  2036.5000      0.0000    786.0261      5.8924      0.6103     84.9980
  2036.7500      0.0000    793.4932      5.9605      0.6078    103.4803
  2037.0000      0.0000    800.0367      6.0477      0.6046    119.3555
  2037.2500      0.0000    806.1158      6.1673      0.6003    129.6554
  2037.5000      0.0000    812.4651      6.3325      0.5945    133.2241
  2037.7500      0.0000    820.0493      6.5495      0.5871    129.9119
  2038.0000      0.0000    829.1574      6.8143      0.5784    120.2307
  2038.2500      0.0000    838.5057      7.1153      0.5689    106.3773
  2038.5000      0.0000    845.5862      7.4378      0.5592     92.3050
  2038.7500      0.0000    848.0974      7.7696      0.5496     81.4409
  2039.0000      0.0000    845.2381      8.1102      0.5402     74.5814
  2039.2500      0.0000    838.1602      8.4766      0.5305     70.5998
  2039.5000      0.0000    829.4957      8.8974      0.5198     68.4679
  2039.7500      0.0000    822.0129      9.3929      0.5079     67.7438
  2040.0000      0.0000    817.1464      9.9590      0.4950     67.8325
  2040.2500      0.0000    814.5824     10.5721      0.4819     67.9046
  2040.5000      0.0000    813.0605     11.2079      0.4691     67.6873
  2040.7500      0.0000    811.4550     11.8593      0.4567     67.8634
  2041.0000      0.0000    809.4668     12.5369      0.4445     69.3569
  2041.2500      0.0000    807.8089     13.2504      0.4323     72.1532
  2041.5000      0.0000    807.6507     13.9801      0.4205     75.0775
  2041.7500      0.0000    809.4808     14.6599      0.4101     77.0925
  2042.0000      0.0000    812.5192     15.1938      0.4022     78.8495
  2042.2500      0.0000    815.4356     15.4996      0.3979     82.6916
  2042.5000      0.0000    817.4571     15.5444      0.3972     90.9254
  2042.7500      0.0000    818.6148     15.3477      0.4000    104.0100
  2043.0000      0.0000    819.2165     14.9646      0.4056    120.1316
  2043.2500      0.0000    819.4111     14.4717      0.4129    136.0844
  2043.5000      0.0000    819.2100     13.9536      0.4210    148.6624
  2043.7500      0.0000    818.7036     13.4830      0.4285    156.0084
  2044.0000      0.0000    818.1929     13.1045      0.4347    158.4404
  2044.2500      0.0000    818.1591     12.8308      0.4394    158.0863
  2044.5000      0.0000    819.1410     12.6508      0.4425    157.3241
  2044.7500      0.0000    821.5765     12.5413      0.4444    157.2711
  2045.0000      0.0000    825.5856     12.4799      0.4455    157.6716
  2045.2500      0.0000    830.7145     12.4549      0.4459    157.8436
  2045.5000      0.0000    835.7985     12.4658      0.4457    157.1103
  2045.7500      0.0000    839.0103     12.5095      0.4450    154.4706
  2046.0000      0.0000    838.2450     12.5627      0.4440    148.7855
  2046.2500      0.0000    832.1405     12.5748      0.4438    139.6358
  2046.5000      0.0000    821.1926     12.4804      0.4455    127.5415
  2046.7500      0.0000    807.4427     12.2261      0.4500    113.3420
  2047.0000      0.0000    792.7302     11.8021      0.4577     97.9347
  2047.2500      0.0000    777.7832     11.2580      0.4681     82.7106
  2047.5000      0.0000    763.2252     10.6822      0.4796     69.6758
  2047.7500      0.0000    750.6862     10.1540      0.4908     60.6263
  2048.0000      0.0000    742.1871      9.7057      0.5007     56.3163
  2048.2500      0.0000    738.4048      9.3285      0.5094     56.7295
  2048.5000      0.0000    737.7877      9.0078      0.5171     61.8615
  2048.7500      0.0000    737.5594      8.7474      0.5235     71.3822
  2049.0000      0.0000    735.7590      8.5596      0.5283     83.1757
  2049.2500      0.0000    732.5120      8.4428      0.5313     92.7855
  2049.5000      0.0000    729.8843      8.3779      0.5330     95.3603
  2049.7500      0.0000    730.9767      8.3460      0.5339     88.9580
  2050.0000      0.0000    738.3997      8.3425      0.5340     76.0363
  2050.2500      0.0000    752.1226      8.3692      0.5333     61.5952
  2050.5000      0.0000    768.6582      8.4152      0.5321     49.9735
  2050.7500      0.0000    783.3494      8.4509      0.5311     43.1059
  2051.0000      0.0000    793.5728      8.4445      0.5313     40.7606
  2051.2500      0.0000    799.2585      8.3853      0.5328     41.4967
  2051.5000      0.0000    801.1248      8.2860      0.5355     43.4980
  2051.7500      0.0000    799.8352      8.1689      0.5386     45.3208
  2052.0000      0.0000    796.8879      8.0537      0.5417     46.4663
  2052.2500      0.0000    795.0916      7.9559      0.5444     47.3184
  2052.5000      0.0000    797.1838      7.8828      0.5464     48.3914
  2052.7500      0.0000    803.7426      7.8282      0.5479     49.4939
  2053.0000      0.0000    812.3366      7.7777      0.5494     49.5774
  2053.2500      0.0000    818.6238      7.7231      0.5509     47.5992
  2053.5000      0.0000    818.9595      7.6727      0.5523     43.7275
  2053.7500      0.0000    812.9525      7.6469      0.5531     39.5061
  2054.0000      0.0000    803.3753      7.6638      0.5526     36.6634
  2054.2500      0.0000    793.2345      7.7266      0.5508     36.1293
  2054.5000      0.0000    784.0103      7.8245      0.5480     38.3715
  2054.7500      0.0000    777.1849      7.9446      0.5447     43.9779
  2055.0000      0.0000    775.3088      8.0792      0.5410     53.3036
  2055.2500      0.0000    779.6047      8.2209      0.5372     65.7600
  2055.5000      0.0000    787.3620      8.3554      0.5336     79.7068
  2055.7500      0.0000    793.3412      8.4642      0.5308     92.7467
  2056.0000      0.0000    793.9520      8.5318      0.5290    102.0967
  2056.2500      0.0000    789.6152      8.5507      0.5285    105.4297
  2056.5000      0.0000    783.4025      8.5243      0.5292    102.1546
  2056.7500      0.0000    778.1001      8.4659      0.5307     93.9238
  2057.0000      0.0000    774.4764      8.3901      0.5327     83.4987
  2057.2500      0.0000    771.3776      8.3002      0.5351     72.9536
  2057.5000      0.0000    766.7480      8.1808      0.5383     63.0637
  2057.7500      0.0000    759.0830      8.0032      0.5431     54.2834
  2058.0000      0.0000    748.9531      7.7355      0.5506     47.6731
  2058.2500      0.0000    739.2701      7.3501      0.5618     44.4863
  2058.5000      0.0000    733.3112      6.8354      0.5777     45.2045
  2058.7500      0.0000    732.1346      6.2208      0.5984     49.2764
  2059.0000      0.0000    734.0729      5.5923      0.6218     55.4431
  2059.2500      0.0000    736.4166      5.0597      0.6438     62.0660
  2059.5000      0.0000    737.2606      4.6919      0.6604     67.6019
  2059.7500      0.0000    736.1782      4.4829      0.6704     71.2410
  2060.0000      0.0000    733.7417      4.3767      0.6757     73.1540
  2060.2500      0.0000    730.7398      4.3140      0.6788     74.1483
  2060.5000      0.0000    728.1115      4.2648      0.6814     75.0596
  2060.7500      0.0000    727.4203      4.2310      0.6831     76.1127
