~Version Information
VERS.                      2.0: CWLS Log ASCII Standard - VERSION 2.0
WRAP.                       NO: One line per depth step
~Well Information Block
STRT.FT               240.0000: 
STOP.FT              1043.5000: 
STEP.FT                 0.2500: 
NULL.                -999.2500: 
COMP.          Pioneer Natural Resources: COMPANY
WELL.          Stags Leap 13-30: WELL
FLD.           Purgatorie River: FIELD
LOC.           1813' FSL & 117' FWL: LOCATION
PROV.                 Colorado: PROVINCE
CNTY.               Las Animas: COUNTRY
SRVC.                Patterson: SERVICE COMPANY
DATE.          Thu Dec 08 19:20:57 2005: LOG DATE
UWI.                          : UNIQUE WELL ID
~Curve Information Block
DEPT.FT            0 000 00 00: Depth
DIR.Ohm-m                     : IEL Induction Resistivity
GR.GAPI                       : Gamma Ray
~Parameter Information Block
~A  Depth       DIR          GR     
# ...
   630.2500     12.8049    121.8270
   630.5000     12.5080    124.4661
   630.7500     12.2425    126.3326
   631.0000     12.0097    129.6114
   631.2500     11.8070    132.2618
   631.5000     11.6303    136.7054
   631.7500     11.4759    139.6001
   632.0000     11.3418    143.2250
   632.2500     11.2303    145.0358
   632.5000     11.1487    146.9071
   632.7500     11.1080    147.5816
   633.0000     11.1189    147.5627
   633.2500     11.1896    146.8463
   633.5000     11.3249    145.0788
   633.7500     11.5268    143.7964
   634.0000     11.7942    142.2487
   634.2500     12.1200    141.6435
   634.5000     12.4893    141.4309
   634.7500     12.8805    141.5812
   635.0000     13.2704    141.5793
   635.2500     13.6411    140.9747
   635.5000     13.9846    138.7078
   635.7500     14.3030    136.3408
   636.0000     14.6048    132.0649
   636.2500     14.8992    129.1303
   636.5000     15.1908    125.0339
   636.7500     15.4775    122.6338
   637.0000     15.7513    119.8485
   637.2500     16.0004    118.7538
   637.5000     16.2093    118.3463
   637.7500     16.3607    118.7680
   638.0000     16.4384    120.0785
   638.2500     16.4352    121.0350
   638.5000     16.3591    121.4948
   638.7500     16.2343    120.4836
   639.0000     16.0939    116.7117
   639.2500     15.9688    113.3520
   639.5000     15.8783    109.1911
   639.7500     15.8252    108.1485
   640.0000     15.7965    109.6986
   640.2500     15.7699    112.2074
   640.5000     15.7229    116.5686
   640.7500     15.6409    119.0961
   641.0000     15.5211    121.5899
   641.2500     15.3722    122.3335
   641.5000     15.2110    122.5715
   641.7500     15.0574    122.6249
   642.0000     14.9299    123.1520
   642.2500     14.8416    123.8303
   642.5000     14.8006    124.9572
   642.7500     14.8141    125.5280
   643.0000     14.8915    125.9203
   643.2500     15.0446    125.9555
   643.5000     15.2807    126.0728
   643.7500     15.5975    126.3852
   644.0000     15.9842    127.0381
   644.2500     16.4275    127.2063
   644.5000     16.9194    126.3227
   644.7500     17.4564    124.7685
   645.0000     18.0349    121.3116
   645.2500     18.6465    118.8240
   645.5000     19.2800    115.7771
   645.7500     19.9274    114.2705
   646.0000     20.5858    111.9041
   646.2500     21.2538    109.5635
   646.5000     21.9257    104.3240
   646.7500     22.5881     99.8720
   647.0000     23.2228     92.7856
   647.2500     23.8135     88.4976
   647.5000     24.3525     83.4807
   647.7500     24.8440     81.0544
   648.0000     25.2987     78.0990
   648.2500     25.7252     76.1175
   648.5000     26.1235     72.8621
   648.7500     26.4865     70.8187
   649.0000     26.8067     68.9765
   649.2500     27.0840     69.0211
   649.5000     27.3276     70.8772
   649.7500     27.5519     72.7375
   650.0000     27.7639     75.2293
   650.2500     27.9469     76.1571
   650.5000     28.0502     76.2742
   650.7500     27.9944     75.9024
   651.0000     27.6981     75.7814
   651.2500     27.1082     76.4142
   651.5000     26.2177     78.2312
   651.7500     25.0636     79.4982
   652.0000     23.7170     80.5466
   652.2500     22.2705     80.3616
   652.5000     20.8213     78.7323
   652.7500     19.4515     77.0214
   653.0000     18.2135     74.5095
   653.2500     17.1284     73.7022
   653.5000     16.1929     75.2396
   653.7500     15.3887     78.6391
   654.0000     14.6894     87.3548
   654.2500     14.0651     95.1614
   654.5000     13.4873    108.7757
   654.7500     12.9346    118.3790
   655.0000     12.3985    131.9861
   655.2500     11.8848    139.4652
   655.5000     11.4091    147.0109
   655.7500     10.9888    149.5729
   656.0000     10.6365    150.7730
   656.2500     10.3566    150.5695
   656.5000     10.1468    149.4815
   656.7500      9.9999    148.2116
   657.0000      9.9060    145.1274
   657.2500      9.8530    142.3070
   657.5000      9.8282    137.8246
   657.7500      9.8196    135.5018
   658.0000      9.8178    134.1782
   658.2500      9.8160    134.9934
   658.5000      9.8096    138.4665
   658.7500      9.7950    141.7848
   659.0000      9.7719    147.1153
   659.2500      9.7441    150.2250
   659.5000      9.7195    153.2921
   659.7500      9.7083    154.0148
   660.0000      9.7201    153.5423
   660.2500      9.7622    152.8990
   660.5000      9.8377    152.5082
   660.7500      9.9444    152.6096
   661.0000     10.0736    152.3346
   661.2500     10.2109    151.3684
   661.5000     10.3400    148.6743
   661.7500     10.4459    146.2843
   662.0000     10.5179    142.1195
   662.2500     10.5511    138.9818
   662.5000     10.5478    133.6420
   662.7500     10.5179    129.6338
   663.0000     10.4764    123.1617
   663.2500     10.4373    118.9051
   663.5000     10.4078    113.5702
   663.7500     10.3854    111.2492
   664.0000     10.3593    110.0604
   664.2500     10.3156    110.7011
   664.5000     10.2428    113.0873
   664.7500     10.1350    115.0180
   665.0000      9.9932    117.6704
   665.2500      9.8252    119.2743
   665.5000      9.6439    121.8476
   665.7500      9.4651    123.7308
   666.0000      9.3044    126.2874
   666.2500      9.1736    127.3971
   666.5000      9.0793    127.9598
   666.7500      9.0226    127.9769
   667.0000      8.9996    128.6708
   667.2500      9.0025    130.1113
   667.5000      9.0196    133.5114
   667.7500      9.0357    135.8504
   668.0000      9.0362    138.1697
   668.2500      9.0109    138.6955
   668.5000      8.9573    138.4377
   668.7500      8.8793    137.9776
   669.0000      8.7826    137.3620
   669.2500      8.6729    137.2116
   669.5000      8.5554    137.5772
   669.7500      8.4351    138.1279
   670.0000      8.3168    138.9644
   670.2500      8.2043    139.3382
   670.5000      8.0989    139.7045
   670.7500      7.9999    139.9695
   671.0000      7.9053    140.5217
   671.2500      7.8137    141.0442
   671.5000      7.7247    142.3482
   671.7500      7.6386    143.7350
   672.0000      7.5559    146.3384
   672.2500      7.4778    147.8679
   672.5000      7.4065    148.7417
   672.7500      7.3460    148.1117
   673.0000      7.3011    146.0128
   673.2500      7.2764    144.6323
   673.5000      7.2758    143.5872
   673.7500      7.3023    143.6481
   674.0000      7.3589    144.5062
   674.2500      7.4485    145.3921
   674.5000      7.5738    146.9568
   674.7500      7.7373    147.9935
   675.0000      7.9415    149.2504
   675.2500      8.1882    149.7710
   675.5000      8.4780    149.9506
   675.7500      8.8084    149.6471
   676.0000      9.1743    148.6608
   676.2500      9.5699    147.6952
   676.5000      9.9910    145.4554
   676.7500     10.4359    142.9495
   677.0000     10.9044    136.9223
   677.2500     11.3951    131.4402
   677.5000     11.9032    122.0341
   677.7500     12.4191    115.7571
   678.0000     12.9267    107.5119
   678.2500     13.4012    103.4143
   678.5000     13.8102    100.2370
   678.7500     14.1176    100.2107
   679.0000     14.2921    102.5338
   679.2500     14.3148    104.8720
   679.5000     14.1855    108.2923
   679.7500     13.9243    110.0236
   680.0000     13.5674    111.6470
   680.2500     13.1573    112.5199
   680.5000     12.7328    114.9618
   680.7500     12.3229    118.1008
   681.0000     11.9460    125.1260
   681.2500     11.6115    130.4725
   681.5000     11.3219    137.3208
   681.7500     11.0747    140.2282
   682.0000     10.8647    141.9478
   682.2500     10.6871    141.8258
   682.5000     10.5395    140.8521
   682.7500     10.4235    140.2591
   683.0000     10.3435    140.2391
   683.2500     10.3053    141.0516
   683.5000     10.3136    143.2262
   683.7500     10.3714    144.7127
   684.0000     10.4783    145.8425
   684.2500     10.6304    145.5712
   684.5000     10.8191    144.0370
   684.7500     11.0314    142.7608
   685.0000     11.2509    141.0863
   685.2500     11.4592    140.1730
   685.5000     11.6387    138.6767
   685.7500     11.7759    137.1752
