~Version Information
VERS.                      2.0: CWLS Log ASCII Standard - VERSION 2.0
WRAP.                       NO: One line per depth step
~Well Information Block
STRT.FT                -6.7500: 
STOP.FT              1466.2500: 
STEP.FT                 0.2500: 
NULL.                -999.2500: 
COMP.          Pioneer Natural Resources: COMPANY
WELL.          Pallet Ranch 34-15 Tr: WELL
FLD.           Purgatorie River: FIELD
LOC.           465' FSL & 2138' FEL--: LOCATION
PROV.                       CO: PROVINCE
CNTY.               Las Animas: COUNTRY
SRVC.          Patterson Wireline: SERVICE COMPANY
DATE.          Wed Jan 25 09:38:09 2006: LOG DATE
UWI.           05 071 08657 00: UNIQUE WELL ID
~Curve Information Block
DEPT.FT            0 000 00 00: Depth
CCL.                          : Casing Collar Locator
TT3.usec                      : CBL 3' Travel Time
AMP3.mV                       : CBL 3' Amplitude
GR.GAPI                       : Gamma Ray
~Parameter Information Block
~A  Depth       CCL         TT3         AMP3         GR     
# ...
   294.7500      0.0000    712.8945      7.5917     62.4674
   295.0000      0.0000    738.8196      7.4725     61.8389
   295.2500      0.0000    780.3975      7.1462     61.4844
   295.5000      0.0000    826.0147      6.7207     61.9467
   295.7500      0.0000    862.6815      6.3619     63.6949
   296.0000      0.0000    885.5026      6.1483     67.1946
   296.2500      0.0000    897.6384      6.0529     72.5976
   296.5000      0.0000    903.3239      6.0204     79.0810
   296.7500      0.0000    905.3033      6.0339     84.7593
   297.0000      0.0000    905.3652      6.1326     87.7160
   297.2500      0.0000    900.7659      6.3814     87.4045
   297.5000      0.0000    883.5897      6.7943     85.0248
   297.7500      0.0000    850.2205      7.2758     82.4374
   298.0000      0.0000    808.8037      7.6745     80.6721
   298.2500      0.0000    772.9031      7.9015     79.4614
   298.5000      0.0000    750.0993      7.9709     78.1127
   298.7500      0.0000    739.1754      7.9430     76.6708
   299.0000      0.0000    735.1545      7.8734     75.9928
   299.2500      0.0000    734.0114      7.8096     76.5649
   299.5000      0.0000    733.7800      7.7932     77.5235
   299.7500      0.0000    733.7366      7.8468     77.3041
   300.0000      0.0000    733.6210      7.9646     75.2425
   300.2500      0.0000    733.3411      8.1209     72.1529
   300.5000      0.0000    732.9489      8.2835     69.3912
   300.7500      0.0000    732.5828      8.4220     67.7919
   301.0000      0.0000    732.3752      8.5160     67.4546
   301.2500      0.0000    732.3777      8.5635     68.0712
   301.5000      0.0000    732.5589      8.5829     69.2906
   301.7500      0.0000    732.8492      8.6043     70.9504
   302.0000      0.0000    733.1732      8.6532     73.0076
   302.2500      0.0000    733.4586      8.7375     75.1436
   302.5000      0.0000    733.6473      8.8427     76.4480
   302.7500      0.0000    733.7156      8.9384     75.9048
   303.0000      0.0000    733.6848      8.9946     73.6310
   303.2500      0.0000    733.6111      8.9972     71.2658
   303.5000      0.0000    733.5563      8.9498     70.5336
   303.7500      0.0000    733.5541      8.8632     71.7899
   304.0000      0.0000    733.5975      8.7496     74.4693
   304.2500      0.0000    733.6530      8.6251     78.3400
   304.5000      0.0000    733.6862      8.5098     83.5263
   304.7500      0.0000    733.6704      8.4177     89.4802
   305.0000      0.0000    733.5867      8.3476     94.6342
   305.2500      0.0000    733.4355      8.2874     97.4170
   305.5000      0.0000    733.2472      8.2274     97.4974
   305.7500      0.0000    733.0580      8.1694     95.7983
   306.0000      0.0000    732.8771      8.1237     93.4921
   306.2500      0.0000    732.6917      8.0981     91.2991
   306.5000      0.0000    732.5095      8.0938     89.4962
   306.7500      0.0000    732.3815      8.1081     88.0228
   307.0000      0.0000    732.3707      8.1380     86.5322
   307.2500      0.0000    732.4996      8.1800     84.8395
   307.5000      0.0000    732.7245      8.2288     83.5147
   307.7500      0.0000    732.9509      8.2778     83.6382
   308.0000      0.0000    733.0760      8.3215     85.7162
   308.2500      0.0000    733.0351      8.3562     89.1332
   308.5000      0.0000    732.8267      8.3820     92.8384
   308.7500      0.0000    732.5105      8.4048     96.1343
   309.0000      0.0000    732.1838      8.4380     98.5467
   309.2500      0.0000    731.9554      8.4978     99.4791
   309.5000      0.0000    731.9200      8.5937     98.5820
   309.7500      0.0000    732.1309      8.7191     96.3649
   310.0000      0.0000    732.5633      8.8522     94.0804
   310.2500      0.0000    733.0991      8.9665     92.6764
   310.5000      0.0000    733.5707      9.0407     91.7322
   310.7500      0.0000    733.8582      9.0592     89.7886
   311.0000      0.0000    733.9846      9.0150     86.0243
   311.2500      0.0000    734.1627      8.9160     81.3160
   311.5000      0.0000    734.8003      8.7826     77.5907
   311.7500      0.0000    736.3409      8.6364     76.5253
   312.0000      0.0000    738.7997      8.4921     78.5395
   312.2500      0.0000    741.3222      8.3583     82.2765
   312.5000      0.0000    742.5327      8.2381     85.1819
   312.7500      0.0000    741.6879      8.1276     85.2804
   313.0000      0.0000    739.3760      8.0208     82.6902
   313.2500      0.0000    736.8889      7.9190     79.3898
   313.5000      0.0000    735.1234      7.8326     77.5561
   313.7500      0.0000    734.2146      7.7725     78.1142
   314.0000      0.0000    733.8771      7.7428     80.6556
   314.2500      0.0000    733.7758      7.7410     84.4059
   314.5000      0.0000    733.6664      7.7570     88.8746
   314.7500      0.0000    733.4365      7.7718     93.5083
   315.0000      0.0000    733.1184      7.7693     97.2971
   315.2500      0.0000    732.8300      7.7575     99.4206
   315.5000      0.0000    732.6727      7.7743    100.0956
   315.7500      0.0000    732.6675      7.8587    100.1757
   316.0000      0.0000    732.7690      8.0109     99.9769
   316.2500      0.0000    732.9139      8.1816     98.8746
   316.5000      0.0000    733.0523      8.3034     95.9378
   316.7500      0.0000    733.1534      8.3368     90.9014
   317.0000      0.0000    733.2000      8.2911     84.7556
   317.2500      0.0000    733.1885      8.2102     79.2462
   317.5000      0.0000    733.1327      8.1468     75.5737
   317.7500      0.0000    733.0494      8.1482     73.7488
   318.0000      0.0000    732.9380      8.2497     73.2986
   318.2500      0.0000    732.7834      8.4605     74.2305
   318.5000      0.0000    732.5844      8.7477     76.9720
   318.7500      0.0000    732.3652      9.0414     81.4268
   319.0000      0.0000    732.1668      9.2656     86.4697
   319.2500      0.0000    732.0336      9.3717     90.7066
   319.5000      0.0000    731.9968      9.3593     93.6204
   319.7500      0.0000    732.0508      9.2757     95.7230
   320.0000      0.0000    732.1511      9.1916     97.6999
   320.2500      0.0000    732.2454      9.1618     99.6002
   320.5000      0.0000    732.3096      9.2012    100.8260
   320.7500      0.0000    732.3490      9.2903    100.9326
   321.0000      0.0000    732.3806      9.3934    100.5205
   321.2500      0.0000    732.4303      9.4720    101.0798
   321.5000      0.0000    732.5265      9.4928    103.4899
   321.7500      0.0000    732.6625      9.4384    106.7780
   322.0000      0.0000    732.7436      9.3100    108.8320
   322.2500      0.0000    732.5676      9.1211    108.2907
   322.5000      0.0000    731.8257      8.8942    105.3750
   322.7500      0.0000    730.2073      8.6627    101.2272
   323.0000      0.0000    727.7369      8.4606     97.0880
   323.2500      0.0000    725.1009      8.3005     93.9142
   323.5000      0.0000    723.2817      8.1675     92.1189
   323.7500      0.0000    722.5900      8.0366     91.4214
   324.0000      0.0000    722.4337      7.8949     90.9784
   324.2500      0.0000    722.3685      7.7433     89.7750
   324.5000      0.0000    722.8189      7.5835     87.3787
   324.7500      0.0000    724.2297      7.4113     84.6110
   325.0000      0.0000    725.9601      7.2217     83.0114
   325.2500      0.0000    726.6641      7.0178     83.0123
   325.5000      0.0000    725.7118      6.8154     82.9363
   325.7500      0.0000    723.9684      6.6409     80.6190
   326.0000      0.0000    723.0977      6.5207     76.0014
   326.2500      0.0000    724.0703      6.4640     71.4559
   326.5000      0.0000    726.3918      6.4562     69.5106
   326.7500      0.0000    728.7916      6.4697     70.7400
   327.0000      0.0000    730.3925      6.4811     73.7077
   327.2500      0.0000    731.1190      6.4823     76.2440
   327.5000      0.0000    731.3233      6.4829     76.6027
   327.7500      0.0000    731.3439      6.5060     74.0457
   328.0000      0.0000    731.3479      6.5758     69.1349
