~Version Information
 VERS.                                  2.0 : CWLS LAS VERSION
 WRAP.                                   NO : WRAPING MODE
 SWARE .                 MController 2.5.0N : SOFTWARE VERSION
~Well Information
 WELL.                    Hellzonfire 32-31 : WELL
 COMP.    Pioneer Natural Resources USA Inc : COMPANY
 FLD.                      Purgatoire River : FIELD
 LOC.                 SW/NE SEC31 T32S R66W : LOCATION
 DATE.                             09/01/05 : DATE(S) LOGGED
 SRVC.       Blanco Geological Services LLC : SERVICE COMPANY
 STAT.                             Colorado : STATE
 CNTY.                           Las Animas : COUNTY
 CTRY.                                  USA : COUNTRY
 API.                       05-071-08483-00 : API NUMBER
 STRT.FT                             356.00 : START DEPTH
 STOP.FT                            2480.00 : STOP DEPTH
 STEP.FT                               1.00 : DEPTH INCREMENT
 NULL.                                -9999 : NULL VALUE
~Curve information
 DEPTH.FT                                   :
 ROP.MIN/FT                                 :
 GAS.UNITS                                  :
~ASCII Log data
# ...
       956.0         2.50        412.3 
       957.0         0.37        338.9 
       958.0         0.27        277.0 
       959.0         0.38        223.7 
       960.0         0.23        130.1 
       961.0         0.23        116.2 
       962.0         0.30        102.1 
       963.0         0.27         91.3 
       964.0         0.23         82.1 
       965.0         0.23         75.0 
       966.0         0.23         74.2 
       967.0         0.23         68.6 
       968.0         0.30         66.7 
       969.0         0.30         64.7 
       970.0         0.33         64.5 
       971.0         0.28         65.1 
       972.0         0.33         66.0 
       973.0         0.37         66.3 
       974.0         0.40         65.9 
       975.0         0.37         66.0 
       976.0         0.30         66.1 
       977.0         0.37         69.1 
       978.0         0.30         73.1 
       979.0         0.23         72.9 
       980.0         0.20         72.6 
       981.0         0.20         69.1 
       982.0         0.25         65.7 
       983.0         0.27         64.1 
       984.0         0.20         62.4 
       985.0         0.17         58.9 
       986.0         2.00        291.2 
       987.0         0.13        290.0 
       988.0         0.62        278.1 
       989.0         0.37        244.4 
       990.0         0.27        158.9 
       991.0         0.23        124.3 
       992.0         0.23        107.6 
       993.0         0.23         94.3 
       994.0         0.30         92.4 
       995.0         0.27         84.7 
       996.0         0.23         83.1 
       997.0         0.23         83.1 
       998.0         0.17         88.5 
       999.0         0.10         92.0 
      1000.0         0.17         92.0 
      1001.0         0.13         92.7 
      1002.0         0.17         92.7 
      1003.0         0.10         92.0 
      1004.0         0.15         89.9 
      1005.0         0.17         89.9 
      1006.0         0.23         86.5 
      1007.0         0.23         83.5 
      1008.0         0.20         81.9 
      1009.0         0.23         82.5 
      1010.0         0.27         78.4 
      1011.0         0.23         77.9 
      1012.0         0.27         72.1 
      1013.0         0.23         70.5 
      1014.0         0.20         69.9 
      1015.0         0.23         61.2 
      1016.0         1.95        281.5 
      1017.0         0.77        286.6 
      1018.0         0.37        240.7 
      1019.0         0.33        161.0 
      1020.0         0.27        124.6 
      1021.0         0.27        107.0 
      1022.0         0.35         96.3 
      1023.0         0.30         86.2 
      1024.0         0.30         82.5 
      1025.0         0.27         77.5 
      1026.0         0.23         72.3 
      1027.0         0.23         69.7 
      1028.0         0.23         69.6 
      1029.0         0.23         68.8 
      1030.0         0.23         73.9 
      1031.0         0.23         73.4 
      1032.0         0.23         76.6 
      1033.0         0.27         77.0 
      1034.0         0.13         78.6 
      1035.0         0.13         79.4 
      1036.0         0.15         78.8 
      1037.0         0.17         78.8 
      1038.0         0.27         72.7 
      1039.0         0.10         69.3 
      1040.0         0.27         63.8 
      1041.0         0.27         65.7 
      1042.0         0.27        105.7 
      1043.0         0.53        194.0 
      1044.0         0.20        316.5 
      1045.0         0.13        340.7 
      1046.0         0.27        403.2 
      1047.0         0.27        429.4 
      1048.0         0.30        428.3 
      1049.0         0.52        362.1 
      1050.0         0.37        270.3 
      1051.0         0.27        155.7 
      1052.0         0.30        124.9 
      1053.0         0.27        121.8 
      1054.0         0.27        105.7 
      1055.0         0.30         94.5 
      1056.0         0.23         84.8 
      1057.0         0.27         81.6 
      1058.0         0.30         75.8 
      1059.0         0.20         69.6 
      1060.0         0.28         69.3 
      1061.0         0.23         66.4 
      1062.0         0.23         66.3 
      1063.0         0.27         66.3 
      1064.0         0.23         66.3 
      1065.0         0.23         70.2 
      1066.0         0.20         70.2 
      1067.0         0.23         70.9 
      1068.0         0.20         69.3 
      1069.0         0.30         65.9 
      1070.0         0.20         63.4 
      1071.0         0.23         62.9 
      1072.0         0.23         62.6 
      1073.0         0.20         62.0 
      1074.0         0.32         62.0 
      1075.0         0.17         64.0 
      1076.0         2.30       1005.6 
      1077.0         0.43        781.0 
      1078.0         0.37        666.0 
      1079.0         0.32        443.9 
      1080.0         0.27        440.0 
      1081.0         0.27        128.5 
      1082.0         0.27        105.1 
      1083.0         0.33        100.0 
      1084.0         0.27         92.5 
      1085.0         0.27         90.4 
      1086.0         0.23         83.2 
      1087.0         0.30         80.5 
      1088.0         0.27         73.4 
      1089.0         0.27         72.3 
      1090.0         0.30         68.5 
      1091.0         0.22         68.8 
      1092.0         0.30         70.4 
      1093.0         0.17         72.4 
      1094.0         0.13         72.6 
      1095.0         0.17         73.8 
      1096.0         0.20         76.8 
      1097.0         0.20         74.0 
      1098.0         0.27         70.2 
      1099.0         0.23         70.2 
      1100.0         0.20         67.6 
      1101.0         0.30         66.7 
      1102.0         0.27         60.1 
      1103.0         0.17         58.2 
      1104.0         0.30         51.9 
      1105.0         0.55         74.0 
      1106.0         0.83        144.8 
      1107.0         0.17        152.3 
      1108.0         0.50        224.5 
      1109.0         0.13        224.5 
      1110.0         0.37        233.5 
      1111.0         0.27        222.5 
      1112.0         0.27        210.7 
      1113.0         0.20        195.3 
      1114.0         0.17        185.8 
      1115.0         0.18        179.4 
      1116.0         0.23        172.5 
      1117.0         0.27        158.5 
      1118.0         0.20        143.0 
      1119.0         0.27        128.5 
      1120.0         0.20        116.0 
      1121.0         0.20        114.8 
      1122.0         0.20        103.8 
      1123.0         0.17        102.9 
      1124.0         0.27         95.4 
      1125.0         0.20         99.6 
      1126.0         0.27        108.5 
      1127.0         0.23        109.9 
      1128.0         0.23        106.6 
      1129.0         0.20        106.6 
      1130.0         0.22        104.4 
      1131.0         0.20        100.9 
      1132.0         0.20         96.8 
      1133.0         0.20         91.4 
      1134.0         0.23         80.7 
      1135.0         0.23         80.4 
      1136.0         1.07        166.4 
      1137.0         0.17        187.1 
      1138.0         0.27        206.8 
      1139.0         0.17        206.8 
      1140.0         0.43        217.5 
      1141.0         0.38        196.2 
      1142.0         0.30        167.6 
      1143.0         0.23        131.4 
      1144.0         0.27        119.0 
      1145.0         0.23        110.8 
      1146.0         0.27        104.3 
      1147.0         0.23         97.4 
      1148.0         0.23         94.7 
      1149.0         0.23         84.9 
      1150.0         0.20         80.2 
      1151.0         0.23         80.2 
      1152.0         0.20         78.6 
      1153.0         0.20         77.9 
      1154.0         0.23         77.7 
      1155.0         0.25         75.1 
