~Version Information
VERS.                      2.0: CWLS Log ASCII Standard - VERSION 2.0
WRAP.                       NO: One line per depth step
~Well Information Block
STRT.FT               491.0000: 
STOP.FT              1909.5000: 
STEP.FT                 0.1000: 
NULL.                -999.2500: 
COMP.          Pioneer Natural Resources: COMPANY
WELL.            Corazon 13-10: WELL
FLD.           Purgatoire River: FIELD
LOC.           2510' FSL & 439' FWL: LOCATION
PROV.                 Colorado: PROVINCE
CNTY.               Las Animas: COUNTRY
SRVC.                Patterson: SERVICE COMPANY
DATE.          Thu Dec 01 07:28:46 2005: LOG DATE
UWI.           05 071 08613 00: UNIQUE WELL ID
~Curve Information Block
DEPT.FT            0 000 00 00: Depth
DCAL.in                       : CDL Caliper
RHOB.g/cc                     : CDL Bulk Density
RHOC.g/cc                     : CDL Density Correction
DPOR.pu                       : CDL Density Porosity
GR.GAPI                       : Gamma Ray
NPOR.pu                       : Neutron Porosity
~Parameter Information Block
~A  Depth       DCAL        RHOB        RHOC        DPOR         GR         NPOR    
# ...
  1614.2000      7.9417      1.4768     -0.1604     71.1042     40.7012     29.7938
  1614.3000      7.9584      1.4654     -0.0428     71.7961     41.3903     30.1135
  1614.4000      7.9584      1.4725      0.0248     71.3621     44.0151     30.3688
  1614.5000      8.0102      1.4940      0.0242     70.0600     48.3318     31.3172
  1614.6000      8.0102      1.5543      0.0048     66.4048     49.9166     32.4745
  1614.7000      8.0102      1.6695      0.0773     59.4259     46.9664     32.6473
  1614.8000      8.1472      1.8181      0.1160     50.4207     46.2089     31.8456
  1614.9000      8.1472      1.9596      0.1486     41.8396     54.2316     31.1152
  1615.0000      8.1454      2.0717      0.1896     35.0496     68.5571     30.7824
  1615.1000      8.1454      2.1630      0.1549     29.5172     81.7656     30.6848
  1615.2000      8.1454      2.2474      0.2276     24.3998     90.5915     30.8632
  1615.3000      8.0549      2.3185      0.1289     20.0914     95.6973     31.1225
  1615.4000      8.0549      2.3669      0.1121     17.1583     98.3488     31.0187
  1615.5000      8.0712      2.4007      0.0370     15.1099    100.3265     29.9952
  1615.6000      8.0712      2.4347      0.0807     13.0502    101.8963     28.3387
  1615.7000      8.0712      2.4690      0.0434     10.9701    102.2081     27.4149
  1615.8000      7.9804      2.4950      0.0554      9.3928    103.2854     27.5040
  1615.9000      7.9804      2.5055      0.0187      8.7585    106.3310     27.5617
  1616.0000      7.9608      2.5019      0.0222      8.9785    108.0296     27.3014
  1616.1000      7.9608      2.4915      0.0878      9.6076    106.6643     26.9476
  1616.2000      7.9608      2.4808      0.0097     10.2521    106.2853     26.4516
  1616.3000      7.9478      2.4792      0.0000     10.3500    107.4907     26.0613
  1616.4000      7.9478      2.4840      0.0574     10.0627    105.0006     26.0668
  1616.5000      7.9502      2.4857      0.0062      9.9561     99.8949     26.2461
  1616.6000      7.9502      2.4840      0.0152     10.0605     98.8414     26.4650
  1616.7000      7.9502      2.4786      0.0047     10.3897    103.7051     26.8691
  1616.8000      7.9870      2.4699     -0.0090     10.9135    107.4501     27.3846
  1616.9000      7.9870      2.4538      0.0647     11.8892    103.6869     27.7576
  1617.0000      7.9697      2.4232     -0.0086     13.7444     96.9037     28.1819
  1617.1000      7.9697      2.3885     -0.0048     15.8492     95.0066     28.9063
  1617.2000      7.9697      2.3646      0.0153     17.2980    100.8327     29.2502
  1617.3000      7.9490      2.3616     -0.0195     17.4758    109.2659     28.6416
  1617.4000      7.9490      2.3859     -0.0167     16.0037    114.0038     28.0986
  1617.5000      7.9437      2.4153      0.0341     14.2217    112.3809     28.1789
  1617.6000      7.9437      2.4174      0.0540     14.0958    106.6447     28.1220
  1617.7000      7.9437      2.4031     -0.0255     14.9650    102.9840     27.7116
  1617.8000      7.9457      2.4025      0.0464     14.9978    105.8474     27.5553
  1617.9000      7.9457      2.4117      0.0521     14.4416    112.2055     28.1520
  1618.0000      7.9742      2.4155      0.0214     14.2131    114.6994     28.9631
  1618.1000      7.9742      2.4183     -0.0054     14.0453    113.1097     29.3397
  1618.2000      7.9742      2.4252      0.0104     13.6242    113.9016     29.4635
  1618.3000      8.0069      2.4323      0.0071     13.1968    115.7330     29.1895
  1618.4000      8.0069      2.4368      0.0258     12.9226    114.2935     28.5591
  1618.5000      8.0025      2.4385      0.0007     12.8192    115.5473     28.4770
  1618.6000      8.0025      2.4407      0.0211     12.6863    123.4103     29.1188
  1618.7000      8.0025      2.4456      0.0408     12.3878    131.4332     29.2499
  1618.8000      7.9741      2.4501      0.0166     12.1136    133.1540     28.3323
  1618.9000      7.9741      2.4482      0.0811     12.2281    129.8297     27.5428
  1619.0000      7.9462      2.4349      0.0241     13.0368    123.8691     27.5492
  1619.1000      7.9462      2.4187      0.0237     14.0197    117.2634     27.9207
  1619.2000      7.9462      2.4132      0.0331     14.3494    115.1550     28.2447
  1619.3000      7.9399      2.4134      0.0607     14.3369    119.9452     28.5791
  1619.4000      7.9399      2.4015      0.0515     15.0632    123.7035     29.0286
  1619.5000      7.9475      2.3825     -0.0048     16.2114    121.1120     29.5652
  1619.6000      7.9475      2.3758      0.0386     16.6202    119.3192     30.3750
  1619.7000      7.9475      2.3752      0.0493     16.6573    124.3904     30.9128
  1619.8000      7.9485      2.3644      0.0297     17.3072    130.8167     30.2366
  1619.9000      7.9485      2.3493     -0.0068     18.2214    129.7167     29.1404
  1620.0000      7.9548      2.3468      0.0076     18.3761    123.2636     29.1506
  1620.1000      7.9548      2.3601      0.0505     17.5682    120.3193     29.8808
  1620.2000      7.9548      2.3802      0.0509     16.3530    121.4003     30.1619
  1620.3000      7.9611      2.3997      0.0588     15.1668    123.8085     30.3296
  1620.4000      7.9611      2.4200      0.0392     13.9368    127.6958     30.4861
  1620.5000      7.9818      2.4443      0.0239     12.4666    127.0651     30.0542
  1620.6000      7.9818      2.4582      0.1094     11.6261    118.3341     29.3373
  1620.7000      7.9818      2.4513      0.0117     12.0436    110.7030     28.8466
  1620.8000      8.0173      2.4430     -0.0207     12.5449    108.7152     28.3965
  1620.9000      8.0173      2.4411      0.0037     12.6632    108.7994     28.0517
  1621.0000      8.0706      2.4359     -0.0238     12.9741    114.1813     27.9020
  1621.1000      8.0706      2.4398     -0.0681     12.7387    128.3770     27.4117
  1621.2000      8.0706      2.4601      0.0168     11.5094    143.2094     26.7068
  1621.3000      8.0349      2.4767      0.0119     10.5014    147.9119     26.3005
  1621.4000      8.0349      2.4854      0.0043      9.9765    145.0890     26.4983
  1621.5000      7.9956      2.4992      0.0410      9.1390    142.5652     27.3940
  1621.6000      7.9956      2.5128      0.0258      8.3156    140.8302     28.5086
  1621.7000      7.9956      2.5104      0.0699      8.4603    138.4207     28.9419
  1621.8000      7.9758      2.4897      0.0154      9.7137    136.5243     28.1947
  1621.9000      7.9758      2.4645     -0.0163     11.2446    136.9007     27.0682
  1622.0000      7.9744      2.4478     -0.0216     12.2523    139.3835     26.8191
  1622.1000      7.9744      2.4352      0.0112     13.0199    141.5972     27.2362
  1622.2000      7.9744      2.4091      0.0242     14.6014    140.4413     27.7603
  1622.3000      7.9688      2.3673      0.0198     17.1310    135.3615     28.5313
  1622.4000      7.9688      2.3279     -0.0463     19.5235    130.6505     29.0550
  1622.5000      7.9642      2.3030     -0.0408     21.0283    129.3923     29.1054
  1622.6000      7.9642      2.2877     -0.0218     21.9587    126.9217     29.2570
  1622.7000      7.9642      2.2797     -0.0466     22.4429    119.8156     29.7366
  1622.8000      7.9969      2.2827     -0.0065     22.2616    113.5308     30.1006
  1622.9000      7.9969      2.2915      0.0018     21.7268    110.7779     29.7506
  1623.0000      7.9883      2.3041     -0.0093     20.9624    109.9632     29.0849
  1623.1000      7.9883      2.3234      0.0155     19.7930    110.3585     28.8779
  1623.2000      7.9883      2.3454      0.0303     18.4613    106.2363     29.3398
  1623.3000      7.9816      2.3568      0.0784     17.7679     95.6047     30.1149
  1623.4000      7.9816      2.3542      0.0136     17.9263     89.5838     30.4134
  1623.5000      8.0013      2.3620     -0.0264     17.4549     96.1697     29.7679
  1623.6000      8.0013      2.3947      0.0254     15.4743    108.1268     28.6906
  1623.7000      8.0013      2.4304      0.0322     13.3087    114.4551     27.8857
