~Version Information
 VERS.                                  2.0 : CWLS LAS VERSION
 WRAP.                                   NO : WRAPING MODE
 SWARE .                 MController 2.5.0N : SOFTWARE VERSION
~Well Information
 WELL.               Bear Cub Federal 11-23 : WELL
 COMP.    Pioneer Natural Resources USA Inc : COMPANY
 FLD.                      Purgatoire River : FIELD
 LOC.                 NW/NW Sec23 T33S R67W : LOCATION
 DATE.                          06/18-19/06 : DATE(S) LOGGED
 SRVC.       Blanco Geological Services LLC : SERVICE COMPANY
 STAT.                             Colorado : STATE
 CNTY.                           Las Animas : COUNTY
 CTRY.                                  USA : COUNTRY
 API.                       05-071-08509-00 : API NUMBER
 STRT.FT                             475.00 : START DEPTH
 STOP.FT                            2220.00 : STOP DEPTH
 STEP.FT                               1.00 : DEPTH INCREMENT
 NULL.                                -9999 : NULL VALUE
~Curve information
 DEPTH.FT                                   :
 ROP.MIN/FT                                 :
 GAS.UNITS                                  :
~ASCII Log data
# ...
      1275.0         0.23         43.2 
      1276.0         0.33         43.6 
      1277.0         0.50         43.7 
      1278.0         0.23         27.9 
      1279.0         0.20         26.6 
      1280.0         0.20         28.6 
      1281.0         0.20         31.1 
      1282.0         0.23         38.8 
      1283.0         0.20         53.4 
      1284.0         0.20         76.2 
      1285.0         0.20         88.1 
      1286.0         1.45         86.6 
      1287.0         0.17         57.6 
      1288.0         0.23         55.0 
      1289.0         0.37         53.6 
      1290.0         0.37         46.7 
      1291.0         0.40         43.8 
      1292.0         0.47         42.7 
      1293.0         0.40         44.5 
      1294.0         0.28         44.1 
      1295.0         0.30         44.2 
      1296.0         0.30         40.1 
      1297.0         0.20         38.3 
      1298.0         0.20         41.9 
      1299.0         0.23         41.9 
      1300.0         0.23         43.3 
      1301.0         0.33         41.4 
      1302.0         0.27         43.4 
      1303.0         0.23         44.2 
      1304.0         0.20         44.9 
      1305.0         0.27         43.5 
      1306.0         0.27         42.4 
      1307.0         0.25         38.9 
      1308.0         0.27         37.2 
      1309.0         0.47         40.2 
      1310.0         0.47         41.0 
      1311.0         0.33         27.3 
      1312.0         0.23         30.0 
      1313.0         0.23         34.0 
      1314.0         0.27         53.0 
      1315.0         0.30         60.1 
      1316.0         1.68         93.1 
      1317.0         0.27         66.8 
      1318.0         0.37         50.6 
      1319.0         0.50         43.4 
      1320.0         0.30         44.0 
      1321.0         0.23         44.0 
      1322.0         0.20         43.3 
      1323.0         0.27         43.3 
      1324.0         0.18         43.4 
      1325.0         0.20         43.4 
      1326.0         0.17         42.8 
      1327.0         0.20         42.7 
      1328.0         0.27         42.5 
      1329.0         0.23         39.9 
      1330.0         0.27         39.8 
      1331.0         0.30         39.1 
      1332.0         0.27         40.3 
      1333.0         0.33         39.7 
      1334.0         0.27         38.7 
      1335.0         0.27         41.5 
      1336.0         0.30         41.6 
      1337.0         0.32         40.8 
      1338.0         0.30         41.1 
      1339.0         0.27         41.0 
      1340.0         0.47         36.3 
      1341.0         0.40         28.1 
      1342.0         0.37         38.7 
      1343.0         0.33         53.7 
      1344.0         0.27         94.7 
      1345.0         0.13         94.7 
      1346.0         3.18        129.4 
      1347.0         0.47         46.2 
      1348.0         0.33         42.7 
      1349.0         0.28         43.2 
      1350.0         0.33         43.2 
      1351.0         0.37         43.6 
      1352.0         0.27         44.4 
      1353.0         0.30         44.4 
      1354.0         0.27         45.0 
      1355.0         0.27         42.1 
      1356.0         0.30         44.4 
      1357.0         0.30         44.7 
      1358.0         0.27         43.3 
      1359.0         0.32         42.7 
      1360.0         0.33         38.5 
      1361.0         0.30         35.9 
      1362.0         0.30         34.5 
      1363.0         0.30         32.3 
      1364.0         0.33         39.6 
      1365.0         0.37         44.8 
      1366.0         0.30         38.6 
      1367.0         0.27         35.3 
      1368.0         0.27         26.7 
      1369.0         0.23         22.3 
      1370.0         0.28         21.8 
      1371.0         0.30         23.4 
      1372.0         0.37         36.3 
      1373.0         0.47         48.1 
      1374.0         0.30         89.2 
      1375.0         0.20         89.2 
      1376.0         1.27         95.6 
      1377.0         0.30         37.2 
      1378.0         0.25         34.5 
      1379.0         0.23         48.3 
      1380.0         0.53         48.8 
      1381.0         0.17         43.3 
      1382.0         0.20         42.1 
      1383.0         0.20         43.0 
      1384.0         0.17         43.0 
      1385.0         0.17         38.1 
      1386.0         0.30         40.5 
      1387.0         0.43         38.8 
      1388.0         0.23         30.9 
      1389.0         0.23         36.9 
      1390.0         0.25         43.4 
      1391.0         0.27         44.4 
      1392.0         0.23         41.2 
      1393.0         0.23         40.2 
      1394.0         0.23         41.7 
      1395.0         0.23         42.0 
      1396.0         0.30         39.6 
      1397.0         0.37         41.3 
      1398.0         0.38         39.6 
      1399.0         0.27         25.1 
      1400.0         0.20         23.4 
      1401.0         0.23         19.7 
      1402.0         0.20         18.4 
      1403.0         0.33         18.8 
      1404.0         0.33         30.2 
      1405.0         0.27         40.6 
      1406.0         1.25         85.1 
      1407.0         0.27         69.2 
      1408.0         0.10         54.5 
      1409.0         0.13         48.3 
      1410.0         0.60         47.4 
      1411.0         0.27         40.0 
      1412.0         0.23         41.5 
      1413.0         0.32         42.1 
      1414.0         0.20         41.1 
      1415.0         0.20         41.1 
      1416.0         0.30         40.0 
      1417.0         0.27         38.7 
      1418.0         0.33         39.4 
      1419.0         0.27         39.5 
      1420.0         0.30         37.9 
      1421.0         0.30         39.7 
      1422.0         0.27         38.0 
      1423.0         0.30         39.1 
      1424.0         0.27         37.6 
      1425.0         0.35         38.1 
      1426.0         0.30         36.5 
      1427.0         0.33         34.4 
      1428.0         0.33         32.8 
      1429.0         0.20         26.3 
      1430.0         0.30         24.3 
      1431.0         0.20         23.8 
      1432.0         0.27         23.3 
      1433.0         0.30         20.1 
      1434.0         0.17         19.4 
      1435.0         0.23         23.6 
      1436.0         2.08         83.1 
      1437.0         0.23         46.2 
      1438.0         0.30         50.2 
      1439.0         0.30         41.4 
      1440.0         0.30         44.4 
      1441.0         0.30         42.3 
      1442.0         0.33         35.6 
      1443.0         0.25         34.2 
      1444.0         0.23         35.6 
      1445.0         0.23         34.7 
      1446.0         0.33         39.4 
      1447.0         0.40         43.7 
      1448.0         0.27         35.3 
      1449.0         0.27         35.8 
      1450.0         0.27         41.7 
      1451.0         0.30         42.1 
      1452.0         0.33         40.6 
      1453.0         0.33         33.3 
      1454.0         0.35         33.8 
      1455.0         0.37         38.7 
      1456.0         0.40         35.2 
      1457.0         0.37         35.1 
      1458.0         0.33         37.9 
      1459.0         0.33         21.6 
      1460.0         0.27         20.6 
      1461.0         0.23         17.0 
      1462.0         0.27         17.1 
      1463.0         0.27         19.7 
      1464.0         0.37         42.1 
      1465.0         0.45         57.1 
      1466.0         1.33         68.3 
      1467.0         0.27         49.4 
      1468.0         0.50         44.5 
      1469.0         0.40         38.3 
      1470.0         0.30         34.6 
      1471.0         0.35         31.3 
      1472.0         0.27         34.1 
      1473.0         0.27         36.3 
      1474.0         0.23         36.3 
