~Version Information
 VERS.                                  2.0 : CWLS LAS VERSION
 WRAP.                                   NO : WRAPING MODE
 SWARE .                 MController 2.5.0J : SOFTWARE VERSION
~Well Information
 WELL.YWAM 7-32R : WELL
 COMP.                Petrogulf Corporation : COMPANY
 FLD.                      Purgatoire River : FIELD
 LOC.                 SW/NE Sec 7 T33S R67W : LOCATION
 DATE.9/28/05 : DATE(S) LOGGED
 SRVC.       BLANCO Geological Services LLC : SERVICE COMPANY
 STAT.                                   CO : STATE
 CNTY.                           Las Animas : COUNTY
 CTRY.                                  USA : COUNTRY
 API.                       05-071-08518-00 : API NUMBER
 STRT.FT                               1.00 : START DEPTH
 STOP.FT                            2100.00 : STOP DEPTH
 STEP.FT                               1.00 : DEPTH INCREMENT
 NULL.                                -9999 : NULL VALUE
~Curve information
 DEPTH.FT                                   :
 ROP.MIN/FT                                 :
 GAS.UNITS                                  :
~ASCII Log data
         1.0     -9999.00          4.9 
         2.0         1.97          5.7 
         3.0         0.20          5.5 
         4.0         1.05          5.4 
         5.0         3.52          5.3 
         6.0         0.13          4.4 
         7.0         1.93          4.8 
         8.0         0.35          4.4 
         9.0         0.40          4.6 
        10.0         3.45         47.0 
        11.0         5.43          3.9 
        12.0         0.10          3.8 
        13.0         1.17          3.9 
        14.0         0.37          3.7 
        15.0         1.55          3.7 
        16.0         0.10          4.0 
        17.0         0.57          3.9 
        18.0         2.12          4.1 
        19.0         1.67          4.2 
        20.0         0.07          3.9 
        21.0         0.38          4.1 
        22.0         0.63          4.2 
        23.0         3.82          4.8 
        24.0         0.10          4.3 
        25.0        15.98          5.5 
        26.0         0.95          5.5 
        27.0         0.17          5.2 
        28.0         0.23          5.6 
        29.0         0.27          5.3 
        30.0         0.17          5.6 
        31.0         0.30          5.8 
        32.0         0.23          5.6 
        33.0         0.23          5.6 
        34.0         0.17          5.3 
        35.0         0.23          5.4 
        36.0         0.25          5.4 
        37.0         0.20          5.2 
        38.0         0.20          5.6 
        39.0         0.13          5.4 
        40.0         0.20          5.4 
        41.0         0.20          5.6 
        42.0         0.20          5.4 
        43.0         0.27          5.7 
        44.0         0.23          5.4 
        45.0         0.27          5.6 
        46.0         0.23          5.4 
        47.0         0.27          5.7 
        48.0         0.30          5.5 
        49.0         0.23          6.0 
        50.0         0.32          5.7 
        51.0         0.27          5.7 
        52.0         0.23          5.6 
        53.0         0.27          5.9 
        54.0         0.27          5.9 
        55.0         0.27          5.7 
        56.0         1.33          5.9 
        57.0         0.27          5.7 
        58.0         0.28          5.4 
        59.0         0.23         28.4 
        60.0         0.27        133.3 
        61.0         0.27        148.3 
        62.0         0.27        112.0 
        63.0         0.27         50.8 
        64.0         0.27         24.2 
        65.0         0.27         10.5 
        66.0         0.27          5.4 
        67.0         0.27          3.0 
        68.0         0.27          1.9 
        69.0         0.30          1.8 
        70.0         0.32          1.9 
        71.0         0.30          1.6 
        72.0         0.30          2.3 
        73.0         0.30          2.3 
        74.0         0.33          2.6 
        75.0         0.33          2.6 
        76.0         0.30          2.7 
        77.0         0.30          3.0 
        78.0         0.27          3.1 
        79.0         0.27          3.3 
        80.0         0.30          3.4 
        81.0         0.32          3.7 
        82.0         0.30          4.2 
        83.0         0.30          4.3 
        84.0         0.30          6.0 
        85.0         0.33          6.3 
        86.0         0.80          4.5 
        87.0         0.30          4.2 
        88.0         0.27          4.0 
        89.0         0.27          4.1 
        90.0         0.27          4.1 
        91.0         0.25          3.9 
        92.0         0.30          4.3 
        93.0         0.30          4.0 
        94.0         0.30          4.4 
        95.0         0.27          4.4 
        96.0         0.27          4.2 
        97.0         0.27          4.5 
        98.0         0.23          4.4 
        99.0         0.27          4.5 
       100.0         0.27          4.2 
       101.0         0.27          4.6 
       102.0         0.27          4.3 
       103.0         0.25          4.4 
       104.0         0.27          4.5 
       105.0         0.23          4.5 
       106.0         0.27          5.1 
       107.0         0.27          4.6 
       108.0         0.30          4.5 
       109.0         0.30          4.5 
       110.0         0.30          4.4 
       111.0         0.33          4.4 
       112.0         0.30          4.6 
       113.0         0.37          5.0 
       114.0         0.32          5.1 
       115.0         0.33          4.9 
       116.0         2.27          7.3 
       117.0         0.20          4.3 
       118.0         0.28          4.7 
       119.0         0.23          4.4 
       120.0         0.27          4.6 
       121.0         0.27          4.8 
       122.0         0.23          4.8 
       123.0         0.27          4.5 
       124.0         0.27          4.7 
       125.0         0.23          4.6 
       126.0         0.23          4.5 
       127.0         0.27          4.6 
       128.0         0.23          4.8 
       129.0         0.30          4.9 
       130.0         0.27          4.6 
       131.0         0.28          4.8 
       132.0         0.27          4.9 
       133.0         0.30          4.7 
       134.0         0.40          4.8 
       135.0         0.37          4.5 
       136.0         0.27          4.6 
       137.0         0.40          4.5 
       138.0         0.57          4.7 
       139.0         0.40          5.0 
       140.0         0.30          5.0 
       141.0         0.35          4.9 
       142.0         0.27          5.2 
       143.0         0.23          4.8 
       144.0         0.27          5.7 
       145.0         0.27          6.9 
       146.0         1.10          6.6 
       147.0         0.23          4.4 
       148.0         0.17          4.4 
       149.0         0.27          4.4 
       150.0         0.25          4.6 
       151.0         0.20          4.4 
       152.0         0.27          4.3 
       153.0         0.20          4.7 
       154.0         0.33          4.8 
       155.0         0.27          4.5 
       156.0         0.23          4.8 
       157.0         0.27          4.6 
       158.0         0.23          4.3 
       159.0         0.27          4.6 
       160.0         0.23          4.7 
       161.0         0.27          4.4 
       162.0         0.27          4.8 
       163.0         0.38          4.6 
       164.0         0.33          4.7 
       165.0         0.23          4.6 
       166.0         0.27          4.5 
       167.0         0.23          4.6 
       168.0         0.27          4.6 
       169.0         0.27          4.6 
       170.0         0.23          4.4 
       171.0         0.23          4.5 
       172.0         0.23          4.8 
       173.0         0.27          4.8 
       174.0         0.27          4.5 
       175.0         0.25          4.7 
       176.0         1.63          4.7 
       177.0         0.27          5.0 
       178.0         0.23          4.9 
       179.0         0.30          4.6 
       180.0         0.32          4.7 
       181.0         0.30          4.8 
       182.0         0.30          4.7 
       183.0         0.30          4.7 
       184.0         0.33          4.8 
       185.0         0.30          4.7 
       186.0         0.27          4.8 
       187.0         0.20          4.8 
       188.0         0.23          4.7 
       189.0         0.30          5.0 
       190.0         0.28          4.5 
       191.0         0.23          4.7 
       192.0         0.20          4.8 
       193.0         0.27          4.4 
       194.0         0.27          4.5 
       195.0         0.33          4.4 
       196.0         0.30          4.4 
       197.0         0.30          4.7 
       198.0         0.30          4.6 
       199.0         0.33          4.3 
       200.0         0.27          4.4 
