~Version Information
VERS.                      2.0: CWLS Log ASCII Standard - VERSION 2.0
WRAP.                       NO: One line per depth step
~Well Information Block
STRT.FT                10.0000: 
STOP.FT               959.2500: 
STEP.FT                 0.2500: 
NULL.                -999.2500: 
COMP.          XTO Energy Inc.: COMPANY
WELL.          Golden Eagle 20-04: WELL
FLD.           Purgatrorie River: FIELD
LOC.           702' FNL & 487' FWL--: LOCATION
STAT.                       CO: State
CNTY.               Las Animas: COUNTY
CTRY. USA : Country
SECT. 20 : Section
TOWN. 33S : Township
RANG. 67W : Range
SRVC.          Patterson Wireline: SERVICE COMPANY
DATE.          Mon Dec 05 08:42:44 2005: LOG DATE
API.           05 071 08599 00: UNIQUE WELL ID
~Curve Information Block
DEPT.FT            0 000 00 00: Depth
TEMP.degF                     : Downhole Temperature
DTMP.degF                     : Delta Temperature
~Parameter Information Block
~A  Depth       TEMP        DTMP    
# ...
   679.0000     65.9286      0.0591
   679.2500     65.9404      0.0576
   679.5000     65.9565      0.0599
   679.7500     65.9725      0.0583
   680.0000     65.9888      0.0588
   680.2500     66.0010      0.0612
   680.5000     66.0173      0.0595
   680.7500     66.0295      0.0600
   681.0000     66.0461      0.0606
   681.2500     66.0628      0.0634
   681.5000     66.0755      0.0644
   681.7500     66.0926      0.0651
   682.0000     66.1101      0.0663
   682.2500     66.1279      0.0676
   682.5000     66.1461      0.0686
   682.7500     66.1598      0.0699
   683.0000     66.1788      0.0713
   683.2500     66.1980      0.0701
   683.5000     66.2126      0.0715
   683.7500     66.2324      0.0751
   684.0000     66.2527      0.0765
   684.2500     66.2681      0.0751
   684.5000     66.2890      0.0789
   684.7500     66.3101      0.0776
   685.0000     66.3318      0.0790
   685.2500     66.3482      0.0830
   685.5000     66.3705      0.0815
   685.7500     66.3876      0.0829
   686.0000     66.4106      0.0843
   686.2500     66.4340      0.0883
   686.5000     66.4519      0.0865
   686.7500     66.4759      0.0905
   687.0000     66.5004      0.0916
   687.2500     66.5247      0.0926
   687.5000     66.5435      0.0933
   687.7500     66.5686      0.0942
   688.0000     66.5938      0.0948
   688.2500     66.6193      0.0923
   688.5000     66.6385      0.0958
   688.7500     66.6642      0.0960
   689.0000     66.6899      0.0962
   689.2500     66.7093      0.0930
   689.5000     66.7350      0.0961
   689.7500     66.7606      0.0927
   690.0000     66.7862      0.0924
   690.2500     66.8053      0.0952
   690.5000     66.8307      0.0917
   690.7500     66.8497      0.0911
   691.0000     66.8748      0.0905
   691.2500     66.8997      0.0929
   691.5000     66.9183      0.0921
   691.7500     66.9429      0.0943
   692.0000     66.9671      0.0904
   692.2500     66.9912      0.0893
   692.5000     67.0148      0.0885
   692.7500     67.0382      0.0872
   693.0000     67.0555      0.0858
   693.2500     67.0784      0.0818
   693.5000     67.0952      0.0804
   693.7500     67.1173      0.0789
   694.0000     67.1388      0.0802
   694.2500     67.1548      0.0761
   694.5000     67.1756      0.0772
   694.7500     67.1959      0.0732
   695.0000     67.2159      0.0716
   695.2500     67.2305      0.0726
   695.5000     67.2496      0.0688
   695.7500     67.2637      0.0672
   696.0000     67.2821      0.0655
   696.2500     67.3000      0.0662
   696.5000     67.3131      0.0626
   696.7500     67.3302      0.0633
   697.0000     67.3469      0.0617
   697.2500     67.3630      0.0601
   697.5000     67.3749      0.0589
   697.7500     67.3904      0.0573
   698.0000     67.4055      0.0558
   698.2500     67.4201      0.0527
   698.5000     67.4309      0.0533
   698.7500     67.4449      0.0519
   699.0000     67.4584      0.0506
   699.2500     67.4685      0.0478
   699.5000     67.4815      0.0483
   699.7500     67.4942      0.0471
   700.0000     67.5066      0.0447
   700.2500     67.5157      0.0453
   700.5000     67.5275      0.0442
   700.7500     67.5392      0.0433
   701.0000     67.5477      0.0411
   701.2500     67.5590      0.0417
   701.5000     67.5700      0.0409
   701.7500     67.5807      0.0402
   702.0000     67.5887      0.0397
   702.2500     67.5991      0.0390
   702.5000     67.6094      0.0384
   702.7500     67.6195      0.0367
   703.0000     67.6271      0.0375
   703.2500     67.6370      0.0370
   703.5000     67.6468      0.0353
   703.7500     67.6541      0.0349
   704.0000     67.6636      0.0358
   704.2500     67.6731      0.0354
   704.5000     67.6801      0.0351
   704.7500     67.6893      0.0349
   705.0000     67.6986      0.0346
   705.2500     67.7078      0.0333
   705.5000     67.7170      0.0343
   705.7500     67.7238      0.0342
   706.0000     67.7329      0.0329
   706.2500     67.7397      0.0339
   706.5000     67.7487      0.0326
   706.7500     67.7577      0.0336
   707.0000     67.7644      0.0324
   707.2500     67.7756      0.0334
   707.5000     67.7822      0.0334
   707.7500     67.7911      0.0333
   708.0000     67.7978      0.0333
   708.2500     67.8066      0.0321
   708.5000     67.8155      0.0332
   708.7500     67.8244      0.0321
   709.0000     67.8310      0.0331
   709.2500     67.8398      0.0331
   709.5000     67.8486      0.0329
   709.7500     67.8553      0.0318
   710.0000     67.8640      0.0328
   710.2500     67.8727      0.0328
   710.5000     67.8814      0.0317
   710.7500     67.8880      0.0327
   711.0000     67.8967      0.0328
   711.2500     67.9054      0.0318
   711.5000     67.9120      0.0320
   711.7500     67.9207      0.0332
   712.0000     67.9296      0.0335
   712.2500     67.9363      0.0327
   712.5000     67.9454      0.0341
   712.7500     67.9545      0.0344
   713.0000     67.9638      0.0348
   713.2500     67.9707      0.0350
   713.5000     67.9801      0.0353
   713.7500     67.9896      0.0357
   714.0000     67.9992      0.0348
   714.2500     68.0064      0.0362
   714.5000     68.0161      0.0353
   714.7500     68.0259      0.0356
   715.0000     68.0333      0.0359
   715.2500     68.0432      0.0375
   715.5000     68.0507      0.0380
   715.7500     68.0608      0.0384
   716.0000     68.0710      0.0388
   716.2500     68.0814      0.0393
   716.5000     68.0920      0.0412
   716.7500     68.1027      0.0404
   717.0000     68.1108      0.0411
   717.2500     68.1219      0.0418
   717.5000     68.1331      0.0409
   717.7500     68.1416      0.0416
   718.0000     68.1532      0.0436
   718.2500     68.1650      0.0442
   718.5000     68.1739      0.0433
   718.7500     68.1858      0.0454
   719.0000     68.1981      0.0460
   719.2500     68.2104      0.0449
   719.5000     68.2197      0.0470
   719.7500     68.2324      0.0476
   720.0000     68.2451      0.0465
   720.2500     68.2548      0.0471
   720.5000     68.2679      0.0492
   720.7500     68.2811      0.0480
   721.0000     68.2910      0.0486
   721.2500     68.3045      0.0508
   721.5000     68.3181      0.0513
   721.7500     68.3284      0.0502
   722.0000     68.3423      0.0525
   722.2500     68.3563      0.0532
   722.5000     68.3706      0.0521
   722.7500     68.3814      0.0545
   723.0000     68.3961      0.0553
   723.2500     68.4109      0.0561
   723.5000     68.4223      0.0549
   723.7500     68.4375      0.0575
   724.0000     68.4529      0.0581
   724.2500     68.4686      0.0567
   724.5000     68.4804      0.0592
   724.7500     68.4964      0.0576
   725.0000     68.5124      0.0580
   725.2500     68.5244      0.0582
   725.5000     68.5406      0.0603
   725.7500     68.5527      0.0603
   726.0000     68.5689      0.0602
   726.2500     68.5850      0.0601
   726.5000     68.6010      0.0599
   726.7500     68.6170      0.0616
   727.0000     68.6328      0.0592
   727.2500     68.6447      0.0588
   727.5000     68.6603      0.0583
   727.7500     68.6758      0.0559
   728.0000     68.6873      0.0554
   728.2500     68.7026      0.0568
   728.5000     68.7176      0.0562
   728.7500     68.7288      0.0538
   729.0000     68.7437      0.0552
   729.2500     68.7583      0.0545
   729.5000     68.7727      0.0522
   729.7500     68.7835      0.0534
   730.0000     68.7977      0.0511
   730.2500     68.8117      0.0505
   730.5000     68.8221      0.0500
   730.7500     68.8357      0.0512
   731.0000     68.8459      0.0490
   731.2500     68.8594      0.0484
   731.5000     68.8727      0.0496
   731.7500     68.8859      0.0491
   732.0000     68.8956      0.0503
   732.2500     68.9085      0.0483
   732.5000     68.9212      0.0478
   732.7500     68.9339      0.0459
   733.0000     68.9465      0.0472
   733.2500     68.9559      0.0469
   733.5000     68.9684      0.0466
   733.7500     68.9777      0.0448
   734.0000     68.9900      0.0445
   734.2500     69.0023      0.0457
   734.5000     69.0144      0.0439
