~Version Information
VERS.                      2.0: CWLS Log ASCII Standard - VERSION 2.0
WRAP.                       NO: One line per depth step
~Well Information Block
STRT.FT                -7.2500: 
STOP.FT              1273.5000: 
STEP.FT                 0.2500: 
NULL.                -999.2500: 
COMP.          Pioneer Natural Resources: COMPANY
WELL.            Keiko 14-6 Tr: WELL
FLD.           Purgatorie River: FIELD
LOC.           462' FSL & 1202' FWL--: LOCATION
PROV.                       CO: PROVINCE
CNTY.               Las Animas: COUNTRY
SRVC.          Patterson Wireline: SERVICE COMPANY
DATE.          Wed Jan 04 09:22:19 2006: LOG DATE
UWI.           05 071 08629 00: UNIQUE WELL ID
~Curve Information Block
DEPT.FT            0 000 00 00: Depth
CCL.                          : Casing Collar Locator
TT3.usec                      : CBL 3' Travel Time
AMP3.mV                       : CBL 3' Amplitude
GR.GAPI                       : Gamma Ray
~Parameter Information Block
~A  Depth       CCL         TT3         AMP3         GR     
# ...
   394.7500      0.0000    711.1929     12.0069     82.0545
   395.0000      0.0000    716.1971     11.9487     82.6890
   395.2500      0.0000    721.7833     11.8946     81.9952
   395.5000      0.0000    725.8954     11.8424     79.8818
   395.7500      0.0000    727.6302     11.8009     77.8766
   396.0000      0.0000    726.8718     11.7755     77.8232
   396.2500      0.0000    723.9503     11.7551     80.2008
   396.5000      0.0000    719.9236     11.7151     83.6746
   396.7500      0.0000    716.5702     11.6385     86.0144
   397.0000      0.0000    715.1537     11.5328     85.6071
   397.2500      0.0000    714.7834     11.4235     82.6356
   397.5000      0.0000    712.3779     11.3325     78.9780
   397.7500      0.0000    704.5015     11.2668     76.6893
   398.0000      0.0000    689.7100     11.2233     76.4336
   398.2500      0.0000    670.5497     11.1940     77.4078
   398.5000      0.0000    654.1966     11.1689     78.5929
   398.7500      0.0000    649.2123     11.1415     79.6993
   399.0000      0.0000    658.9243     11.1162     80.9879
   399.2500      0.0000    678.2432     11.1058     82.7621
   399.5000      0.0000    698.3131     11.1230     85.3091
   399.7500      0.0000    713.3523     11.1767     88.9573
   400.0000      0.0000    722.4865     11.2681     93.7233
   400.2500      0.0000    727.2878     11.3835     98.8912
   400.5000      0.0000    729.4565     11.4950    103.2212
   400.7500      0.0000    730.1562     11.5748    105.6441
   401.0000      0.0000    730.1086     11.6119    105.6895
   401.2500      0.0000    729.7433     11.6141    103.4471
   401.5000      0.0000    729.3219     11.5993     99.3520
   401.7500      0.0000    728.9774     11.5882     94.0141
   402.0000      0.0000    728.7667     11.6012     88.0552
   402.2500      0.0000    728.7383     11.6555     81.8607
   402.5000      0.0000    728.9461     11.7598     75.4373
   402.7500      0.0000    729.3715     11.9097     68.6688
   403.0000      0.0000    729.8680     12.0858     61.8147
   403.2500      0.0000    730.2574     12.2602     55.7864
   403.5000      0.0000    730.4834     12.4100     51.8915
   403.7500      0.0000    730.6266     12.5252     51.1156
   404.0000      0.0000    730.7462     12.6068     53.4806
   404.2500      0.0000    730.7198     12.6554     58.1585
   404.5000      0.0000    730.1981     12.6621     64.1770
   404.7500      0.0000    728.7324     12.6110     70.6971
   405.0000      0.0000    726.1166     12.4954     76.7301
   405.2500      0.0000    722.8060     12.3299     81.3005
   405.5000      0.0000    719.9618     12.1457     84.0361
   405.7500      0.0000    718.8834     11.9724     85.1642
   406.0000      0.0000    720.2447     11.8238     84.9896
   406.2500      0.0000    723.7858     11.7011     83.7293
   406.5000      0.0000    728.6015     11.6045     81.6921
   406.7500      0.0000    733.5780     11.5383     79.1951
   407.0000      0.0000    737.5693     11.5071     76.2144
   407.2500      0.0000    739.5790     11.5077     72.4293
   407.5000      0.0000    739.2792     11.5278     67.8889
   407.7500      0.0000    737.3125     11.5492     63.4695
   408.0000      0.0000    734.6599     11.5538     60.3311
   408.2500      0.0000    731.6177     11.5292     58.9489
   408.5000      0.0000    727.3573     11.4725     58.9147
   408.7500      0.0000    720.6168     11.3873     59.6006
   409.0000      0.0000    711.4628     11.2788     60.7780
   409.2500      0.0000    702.7966     11.1508     62.5386
   409.5000      0.0000    699.1202     11.0095     64.8409
   409.7500      0.0000    702.6049     10.8651     67.4870
   410.0000      0.0000    710.8174     10.7313     70.5804
   410.2500      0.0000    719.1034     10.6222     74.6348
   410.5000      0.0000    724.5251     10.5478     79.9041
   410.7500      0.0000    727.0307     10.5098     85.6448
   411.0000      0.0000    727.9521     10.5013     90.3114
   411.2500      0.0000    728.4294     10.5128     92.7553
   411.5000      0.0000    728.9460     10.5333     93.1921
   411.7500      0.0000    729.5495     10.5494     92.6939
   412.0000      0.0000    730.1514     10.5476     91.7953
   412.2500      0.0000    730.6572     10.5228     90.1615
   412.5000      0.0000    730.8624     10.4795     87.7125
   412.7500      0.0000    730.2795     10.4281     85.3756
   413.0000      0.0000    728.1570     10.3801     84.3383
   413.2500      0.0000    723.9901     10.3468     84.8960
   413.5000      0.0000    718.4250     10.3344     86.3066
   413.7500      0.0000    713.7372     10.3380     87.6006
   414.0000      0.0000    712.6192     10.3434     88.3059
   414.2500      0.0000    715.3954     10.3325     88.5082
   414.5000      0.0000    717.8307     10.2830     88.5278
   414.7500      0.0000    712.7550     10.1638     88.7086
   415.0000      0.0000    696.2421      9.9487     89.3691
   415.2500      0.0000    673.2179      9.6647     90.8164
   415.5000      0.0000    655.0605      9.4273     93.2856
   415.7500      0.0000    650.1926      9.3807     96.5584
   416.0000      0.0000    658.8704      9.5612     99.4335
   416.2500      0.0000    677.7150      9.8540     99.9379
   416.5000      0.0000    705.1234     10.1269     96.5596
   416.7500      0.0000    739.7009     10.3656     89.4148
   417.0000      0.0000    775.9643     10.6326     80.1377
   417.2500      0.0000    804.3787     10.9450     70.7641
   417.5000     -2.0000    816.0271     11.2516     62.8372
   417.7500      0.0000    808.1705     11.5013     57.2374
   418.0000      0.0000    785.7147     11.7073     54.3329
   418.2500      0.0000    755.6150     11.9559     54.1222
   418.5000      0.0000    720.7267     12.3404     56.2571
   418.7500      0.0000    683.2833     12.8403     59.8575
   419.0000      0.0000    652.5641     13.2881     63.4389
   419.2500      0.0000    641.3849     13.5184     65.5250
   419.5000      0.0000    653.2300     13.5220     65.7012
   419.7500      0.0000    677.7462     13.3989     64.8879
   420.0000      0.0000    700.0629     13.2237     64.3372
   420.2500      0.0000    711.0104     13.0235     64.4945
   420.5000      0.0000    708.8101     12.8294     65.0477
   420.7500      0.0000    696.2458     12.6786     65.7799
   421.0000      0.0000    678.3547     12.5791     66.7334
   421.2500      0.0000    659.5297     12.5014     67.4265
   421.5000      0.0000    639.9697     12.4094     66.6533
   421.7500      0.0000    617.1223     12.2909     63.6068
   422.0000      0.0000    592.0377     12.1649     58.8771
   422.2500      0.0000    570.6190     12.0624     54.0119
   422.5000      0.0000    556.2296     12.0068     50.3070
   422.7500      0.0000    544.8833     12.0037     48.1283
   423.0000      0.0000    530.8112     12.0419     47.0810
   423.2500      0.0000    513.8359     12.0969     46.5024
   423.5000      0.0000    498.4156     12.1427     45.9239
   423.7500      0.0000    487.6565     12.1642     45.3330
   424.0000      0.0000    480.7366     12.1603     45.0637
   424.2500      0.0000    474.9695     12.1358     45.3595
   424.5000      0.0000    468.8195     12.0956     46.0355
   424.7500      0.0000    463.2053     12.0486     46.5084
   425.0000      0.0000    460.3121     12.0124     46.2094
   425.2500      0.0000    460.7954     12.0094     45.1757
   425.5000      0.0000    462.3392     12.0567     44.2821
   425.7500      0.0000    461.5912     12.1565     44.6142
   426.0000      0.0000    457.3055     12.2938     46.3617
   426.2500      0.0000    451.7860     12.4428     48.3873
   426.5000      0.0000    450.6856     12.5783     49.0942
   426.7500      0.0000    461.4212     12.6866     47.7854
   427.0000      0.0000    487.8640     12.7728     45.1936
   427.2500      0.0000    523.3001     12.8597     42.8478
   427.5000      0.0000    551.9669     12.9747     41.9552
   427.7500      0.0000    562.8276     13.1302     42.5879
   428.0000      0.0000    559.6360     13.3125     43.6011
