~Version Information
VERS.                      2.0: CWLS Log ASCII Standard - VERSION 2.0
WRAP.                       NO: One line per depth step
~Well Information Block
STRT.FT               -14.0000: 
STOP.FT               951.0000: 
STEP.FT                 0.2500: 
NULL.                -999.2500: 
COMP.          Pioneer Natural Resources: COMPANY
WELL.             Giggle 21-22: WELL
FLD.           Purgatoire River: FIELD
LOC.           950' FNL & 2094' FWL: LOCATION
CNTY.               Las Animas: COUNTY
SRVC.                         : SERVICE COMPANY
DATE.          Mon Apr 17 17:51:33 2006: LOG DATE
UWI.           05 071 08726 00: UNIQUE WELL ID
STAT.                       CO: STATE
~Curve Information Block
DEPT.FT            0 000 00 00: Depth
CCL.                          : Casing Collar Locator
TT3.usec                      : CBL 3' Travel Time
AMP3.mV                       : CBL 3' Amplitude
GR.GAPI                       : Gamma Ray
~Parameter Information Block
~A  Depth       CCL         TT3         AMP3         GR     
# ...
    53.0000      0.0000    784.0637      3.3388     93.8611
    53.2500      0.0000    777.5490      3.0738     92.3476
    53.5000      0.0000    765.9979      2.8727     88.9088
    53.7500      0.0000    754.1058      2.7425     85.2154
    54.0000      0.0000    748.0656      2.6706     82.9450
    54.2500      0.0000    750.4144      2.6316     82.7558
    54.5000      0.0000    757.1288      2.5930     84.1700
    54.7500      0.0000    761.2593      2.5261     86.1282
    55.0000      0.0000    759.2067      2.4217     87.4620
    55.2500      0.0000    753.1660      2.2970     87.3602
    55.5000      0.0000    748.5795      2.1857     86.0679
    55.7500      0.0000    749.9611      2.1176     84.9716
    56.0000      0.0000    758.6104      2.1062     85.3576
    56.2500      0.0000    773.1591      2.1508     87.0900
    56.5000      0.0000    790.3856      2.2445     88.8601
    56.7500      0.0000    804.4812      2.3753     89.5933
    57.0000      0.0000    807.9935      2.5211     89.2238
    57.2500      0.0000    797.3513      2.6490     88.2345
    57.5000      0.0000    777.6973      2.7285     86.9830
    57.7500      0.0000    759.6782      2.7517     85.6818
    58.0000      0.0000    750.6442      2.7395     84.6954
    58.2500      0.0000    749.5963      2.7252     84.4119
    58.5000      0.0000    749.8401      2.7313     84.7753
    58.7500      0.0000    745.1599      2.7599     85.2680
    59.0000      0.0000    734.0011      2.8037     85.4141
    59.2500      0.0000    719.5556      2.8606     85.1171
    59.5000      0.0000    706.8630      2.9381     84.6780
    59.7500      0.0000    699.6190      3.0423     84.7666
    60.0000      0.0000    698.7203      3.1678     86.1350
    60.2500      0.0000    702.4694      3.2974     88.8483
    60.5000      0.0000    707.3102      3.4145     91.7550
    60.7500      0.0000    709.2741      3.5152     93.0953
    61.0000      0.0000    706.3120      3.6062     91.9243
    61.2500      0.0000    699.7315      3.6900     89.0444
    61.5000      0.0000    693.3213      3.7576     86.4294
    61.7500      0.0000    691.3687      3.8020     85.4441
    62.0000      0.0000    696.9492      3.8388     85.6312
    62.2500      0.0000    710.3713      3.9060     85.5206
    62.5000      0.0000    728.5962      4.0404     84.3781
    62.7500      0.0000    747.1713      4.2516     82.4967
    63.0000      0.0000    763.5048      4.5146     79.9335
    63.2500      0.0000    778.4181      4.7788     76.0444
    63.5000      0.0000    794.8661      4.9954     70.6939
    63.7500      0.0000    815.0437      5.1449     65.1793
    64.0000      0.0000    837.5959      5.2410     61.2558
    64.2500      0.0000    857.6209      5.3083     59.4882
    64.5000      0.0000    870.5247      5.3620     59.1099
    64.7500      0.0000    875.4014      5.4084     59.3472
    65.0000      0.0000    873.4048      5.4514     60.1250
    65.2500      0.0000    864.6930      5.4925     61.4149
    65.5000      0.0000    849.7540      5.5259     62.7657
    65.7500      0.0000    832.3204      5.5389     63.8207
    66.0000      0.0000    817.8656      5.5178     64.6742
    66.2500      0.0000    809.5850      5.4564     65.4969
    66.5000      0.0000    807.3347      5.3562     66.3055
    66.7500      0.0000    809.3160      5.2192     67.2252
    67.0000      0.0000    813.1845      5.0471     68.6829
    67.2500      0.0000    816.5020      4.8544     71.1156
    67.5000      0.0000    817.8574      4.6712     74.3156
    67.7500      0.0000    817.8602      4.5208     77.1669
    68.0000      0.0000    818.4482      4.4018     78.4104
    68.2500      0.0000    821.3668      4.3047     77.6597
    68.5000      0.0000    827.6708      4.2353     75.3695
    68.7500      0.0000    838.5541      4.2113     72.0893
    69.0000      0.0000    855.4407      4.2390     68.3829
    69.2500      2.1021    878.7888      4.3017     65.3951
    69.5000     -5.0000    906.7726      4.3734     64.6122
    69.7500      0.0000    933.7675      4.4498     66.5712
    70.0000      0.0000    949.0023      4.5638     70.1815
    70.2500      0.0000    940.2458      4.7582     73.6093
    70.5000      0.0000    904.4097      5.0331     75.5685
    70.7500      0.0000    854.1947      5.3337     75.6713
    71.0000      0.0000    809.8381      5.5987     74.0237
    71.2500      0.0000    783.8728      5.8025     70.9511
    71.5000      0.0000    775.3877      5.9420     67.0938
    71.7500      0.0000    776.3645      6.0155     63.3603
    72.0000      0.0000    779.8448      6.0304     60.4894
    72.2500      0.0000    782.8058      6.0093     58.7729
    72.5000      0.0000    784.8016      5.9753     58.2700
    72.7500      0.0000    786.1366      5.9412     58.9033
    73.0000      0.0000    787.0358      5.9110     60.1519
    73.2500      0.0000    787.6281      5.8865     61.0744
    73.5000      0.0000    787.9897      5.8709     61.0026
    73.7500      0.0000    788.1407      5.8680     60.1029
    74.0000      0.0000    788.0744      5.8778     59.2059
    74.2500      0.0000    787.8427      5.8919     59.1735
    74.5000      0.0000    787.5800      5.8976     60.2670
    74.7500      0.0000    787.4036      5.8870     61.9174
    75.0000      0.0000    787.3123      5.8657     63.1683
    75.2500      0.0000    787.2119      5.8457     63.4344
    75.5000      0.0000    787.0281      5.8296     62.8365
    75.7500      0.0000    786.7946      5.8034     61.9744
    76.0000      0.0000    786.6528      5.7522     61.5564
    76.2500      0.0000    786.7977      5.6805     62.0853
    76.5000      0.0000    787.4326      5.6109     63.6416
    76.7500      0.0000    788.8123      5.5639     66.0804
    77.0000      0.0000    791.2870      5.5392     69.5239
    77.2500      0.0000    795.1583      5.5188     74.3193
    77.5000      0.0000    800.3937      5.4842     80.3346
    77.7500      0.0000    806.5645      5.4322     86.4143
    78.0000      0.0000    813.0681      5.3729     90.6018
    78.2500      0.0000    819.2395      5.3190     91.0893
    78.5000      0.0000    824.3297      5.2762     87.5342
    78.7500      0.0000    827.7566      5.2430     81.7778
    79.0000      0.0000    829.4944      5.2134     76.8910
    79.2500      0.0000    830.0200      5.1840     75.0144
    79.5000      0.0000    829.7837      5.1598     76.0825
    79.7500      0.0000    828.6758      5.1497     78.6103
    80.0000      0.0000    825.9288      5.1563     81.2533
    80.2500      0.0000    820.6957      5.1733     83.3432
    80.5000      0.0000    813.2711      5.1941     84.4803
    80.7500      0.0000    806.1799      5.2167     84.4115
    81.0000      0.0000    803.6360      5.2383     83.2824
    81.2500      0.0000    808.8202      5.2533     81.5182
    81.5000      0.0000    820.9281      5.2603     79.4875
    81.7500      0.0000    835.2134      5.2645     77.6115
    82.0000      0.0000    846.5646      5.2719     76.7093
    82.2500      0.0000    853.1363      5.2859     77.8187
    82.5000      0.0000    856.5299      5.3100     81.3314
    82.7500      0.0000    859.0997      5.3492     86.1526
    83.0000      0.0000    861.7629      5.4074     90.0448
    83.2500      0.0000    864.1034      5.4814     91.3651
    83.5000      0.0000    865.5474      5.5574     90.4296
    83.7500      0.0000    865.8850      5.6174     88.7925
    84.0000      0.0000    865.1515      5.6508     87.3992
    84.2500      0.0000    863.7391      5.6625     85.8996
    84.5000      0.0000    862.7905      5.6671     83.5217
    84.7500      0.0000    863.9121      5.6752     80.1601
    85.0000      0.0000    867.3729      5.6878     76.7721
    85.2500      0.0000    869.6301      5.7045     75.0594
    85.5000      0.0000    862.0475      5.7344     76.5390
    85.7500      0.0000    832.7587      5.7917     81.3094
    86.0000      0.0000    772.8806      5.8779     87.5119
    86.2500      0.0000    685.0038      5.9726     92.4783
