~Version Information
VERS.                      2.0: CWLS Log ASCII Standard - VERSION 2.0
WRAP.                       NO: One line per depth step
~Well Information Block
STRT.FT                -6.7500: 
STOP.FT              1121.2500: 
STEP.FT                 0.2500: 
NULL.                -999.2500: 
COMP.          Pioneer Natural Resources: COMPANY
WELL.              Draco 31-21: WELL
FLD.           Purgatorie River: FIELD
LOC.           491' FNL & 2446' FEL--: LOCATION
CNTY.               Las Animas: COUNTY
SRVC.          Patterson Wireline: SERVICE COMPANY
DATE.          Mon Feb 06 09:50:04 2006: LOG DATE
UWI.           05 071 08672 00: UNIQUE WELL ID
STAT.                       CO: STATE
~Curve Information Block
DEPT.FT            0 000 00 00: Depth
CCL.                          : Casing Collar Locator
TT3.usec                      : CBL 3' Travel Time
AMP3.mV                       : CBL 3' Amplitude
GR.GAPI                       : Gamma Ray
~Parameter Information Block
~A  Depth       CCL         TT3         AMP3         GR     
# ...
   294.7500      0.0000    768.5636     12.1210     77.7135
   295.0000      0.0000    770.1821     11.8787     77.8400
   295.2500      0.0000    768.9371     11.6787     78.0392
   295.5000      0.0000    769.2983     11.5338     78.4992
   295.7500      0.0000    776.1204     11.4341     79.5864
   296.0000      0.0000    790.8599     11.3684     81.4290
   296.2500      0.0000    806.9174     11.3314     83.5157
   296.5000      0.0000    811.2800     11.3194     84.8686
   296.7500      0.0000    794.4129     11.3302     85.0139
   297.0000      0.0000    759.5039     11.3615     84.6353
   297.2500      0.0000    721.4352     11.3980     84.7946
   297.5000      0.0000    695.2793     11.4072     85.6166
   297.7500      0.0000    684.4156     11.3634     86.1861
   298.0000      0.0000    680.5695     11.2773     85.6806
   298.2500      0.0000    675.6435     11.1918     84.1872
   298.5000      0.0000    668.8854     11.1460     82.5175
   298.7500      0.0000    660.2075     11.1387     81.7112
   299.0000      0.0000    644.0904     11.1158     82.6397
   299.2500      0.0000    617.4324     10.9855     85.5176
   299.5000      0.0000    589.0707     10.6805     89.6048
   299.7500      0.0000    574.1619     10.2472     93.6317
   300.0000      0.0000    582.0317      9.8379     96.7079
   300.2500      0.0000    614.5776      9.5539     98.8076
   300.5000      0.0000    669.7560      9.3297    100.2502
   300.7500      0.0000    737.5519      9.0512    100.7694
   301.0000      0.0000    798.3251      8.7342     99.4807
   301.2500      0.0000    836.1610      8.4986     96.0862
   301.5000      0.0000    851.5189      8.4129     91.9568
   301.7500     -2.0000    854.6050      8.4526     89.5342
   302.0000      0.0000    849.5165      8.5854     90.2457
   302.2500      0.0000    829.1323      8.8537     93.0926
   302.5000      0.0000    782.9672      9.3643     95.6752
   302.7500      0.0000    710.5458     10.1683     96.4862
   303.0000      0.0000    631.4630     11.1174     95.6551
   303.2500      0.0000    578.7881     11.8914     93.5914
   303.5000      0.0000    574.6136     12.2539     89.9644
   303.7500      0.0000    611.9373     12.2437     84.6947
   304.0000      0.0000    663.2812     12.0756     79.2688
   304.2500      0.0000    704.2459     11.9252     76.0614
   304.5000      0.0000    727.1102     11.8499     76.2580
   304.7500      0.0000    737.2765     11.8298     78.8653
   305.0000      0.0000    742.8533     11.8155     81.8050
   305.2500      0.0000    747.5047     11.7619     83.6449
   305.5000      0.0000    749.0623     11.6528     84.2209
   305.7500      0.0000    743.2835     11.5014     84.0985
   306.0000      0.0000    730.8160     11.3244     83.9949
   306.2500      0.0000    722.1028     11.1252     84.6577
   306.5000      0.0000    732.1173     10.8999     86.6978
   306.7500      0.0000    766.2162     10.6592     90.0525
   307.0000      0.0000    812.6837     10.4395     93.6715
   307.2500      0.0000    853.1918     10.2874     96.1030
   307.5000      0.0000    879.3968     10.2266     96.5846
   307.7500      0.0000    896.2831     10.2410     95.4913
   308.0000      0.0000    910.9336     10.2913     93.7759
   308.2500      0.0000    921.9224     10.3491     92.2828
   308.5000      0.0000    920.9413     10.4124     91.5244
   308.7500      0.0000    903.8172     10.4956     91.5809
   309.0000      0.0000    877.6359     10.6142     92.0503
   309.2500      0.0000    854.9030     10.7784     92.3213
   309.5000      0.0000    841.2549     10.9895     91.8349
   309.7500      0.0000    831.4403     11.2368     89.9908
   310.0000      0.0000    816.7448     11.5065     86.3216
   310.2500      0.0000    792.3506     11.7950     81.3020
   310.5000      0.0000    756.8090     12.1070     76.7271
   310.7500      0.0000    710.8511     12.4365     74.5713
   311.0000      0.0000    661.9623     12.7567     75.2247
   311.2500      0.0000    625.7760     13.0382     77.1345
   311.5000      0.0000    613.4410     13.2736     78.3552
   311.7500      0.0000    615.7266     13.4836     78.1810
   312.0000      0.0000    606.6044     13.6986     77.2139
   312.2500      0.0000    567.0538     13.9318     76.2545
   312.5000      0.0000    502.7054     14.1664     75.3598
   312.7500      0.0000    436.6347     14.3648     73.7928
   313.0000      0.0000    388.9931     14.4922     70.7949
   313.2500      0.0000    366.6109     14.5345     66.4893
   313.5000      0.0000    368.5737     14.4970     61.9770
   313.7500      0.0000    395.2992     14.3936     58.4502
   314.0000      0.0000    448.9591     14.2375     56.2826
   314.2500      0.0000    525.4291     14.0410     54.9632
   314.5000      0.0000    608.8885     13.8173     53.7702
   314.7500      0.0000    677.9739     13.5822     52.4821
   315.0000      0.0000    719.0988     13.3563     51.4709
   315.2500      0.0000    733.7982     13.1626     51.2046
   315.5000      0.0000    732.3722     13.0212     51.8470
   315.7500      0.0000    719.3015     12.9473     53.2303
   316.0000      0.0000    686.7454     12.9461     54.9237
   316.2500      0.0000    627.4003     13.0003     56.3678
   316.5000      0.0000    553.3091     13.0648     57.1907
   316.7500      0.0000    494.0125     13.0872     57.3346
   317.0000      0.0000    473.1100     13.0401     56.8025
   317.2500      0.0000    489.3888     12.9375     55.4753
   317.5000      0.0000    519.7636     12.8247     53.2229
   317.7500      0.0000    536.5790     12.7505     50.1360
   318.0000      0.0000    524.0204     12.7391     46.7380
   318.2500      0.0000    484.8709     12.7821     43.9245
   318.5000      0.0000    435.5210     12.8560     42.4698
   318.7500      0.0000    393.1850     12.9427     42.5819
   319.0000      0.0000    365.8636     13.0336     44.0065
   319.2500      0.0000    352.0211     13.1192     46.3938
   319.5000      0.0000    346.3766     13.1823     49.2835
   319.7500      0.0000    344.5912     13.2089     51.8328
   320.0000      0.0000    344.5176     13.2014     53.0113
   320.2500      0.0000    345.6527     13.1761     52.3284
   320.5000      0.0000    348.4591     13.1445     50.2417
   320.7500      0.0000    353.5475     13.1000     47.7313
   321.0000      0.0000    360.7812     13.0289     45.5417
   321.2500      0.0000    368.6663     12.9379     43.8808
   321.5000      0.0000    374.7911     12.8690     42.6483
   321.7500      0.0000    377.0076     12.8843     41.7346
   322.0000      0.0000    374.4427     13.0250     41.1551
   322.2500      0.0000    367.9359     13.2681     40.9870
   322.5000      0.0000    359.8874     13.5213     41.0883
   322.7500      0.0000    353.3802     13.6759     41.0164
   323.0000      0.0000    350.8640     13.6803     40.5419
   323.2500      0.0000    353.1690     13.5627     40.1925
   323.5000      0.0000    359.1962     13.3934     40.9105
   323.7500      0.0000    366.2234     13.2376     43.2033
   324.0000      0.0000    370.9512     13.1353     46.8453
   324.2500      0.0000    371.1091     13.1040     51.1035
   324.5000      0.0000    366.7146     13.1406     54.9735
   324.7500      0.0000    360.1007     13.2180     57.6043
   325.0000      0.0000    354.9616     13.2838     58.8349
   325.2500      0.0000    355.5744     13.2740     59.1469
   325.5000      0.0000    367.0551     13.1451     59.0504
   325.7500      0.0000    395.4541     12.9019     58.7202
   326.0000      0.0000    445.0542     12.5950     58.1468
   326.2500      0.0000    512.9406     12.2891     57.2716
   326.5000      0.0000    586.2097     12.0329     55.8097
   326.7500      0.0000    646.9526     11.8525     53.3154
   327.0000      0.0000    681.3792     11.7587     49.8288
   327.2500      0.0000    684.7673     11.7523     46.3215
   327.5000      0.0000    661.6528     11.8228     44.1022
   327.7500      0.0000    626.0767     11.9447     43.7505
   328.0000      0.0000    598.9509     12.0825     44.7695
