~Version Information
VERS.                      2.0: CWLS Log ASCII Standard - VERSION 2.0
WRAP.                       NO: One line per depth step
~Well Information Block
STRT.FT                -8.0000: 
STOP.FT              2135.0000: 
STEP.FT                 0.2500: 
NULL.                -999.2500: 
COMP.          Pioneer Natural Resources: COMPANY
WELL.             AMX 13-13 Tr: WELL
FLD.           Purgatorie River: FIELD
LOC.           2401' FSL & 895' FWL--: LOCATION
PROV.                       CO: PROVINCE
CNTY.               Las Animas: COUNTRY
SRVC.          Patterson Wireline: SERVICE COMPANY
DATE.          Thu Jan 05 10:37:28 2006: LOG DATE
UWI.           05 071 08631 00: UNIQUE WELL ID
~Curve Information Block
DEPT.FT            0 000 00 00: Depth
CCL.                          : Casing Collar Locator
TT3.usec                      : CBL 3' Travel Time
AMP3.mV                       : CBL 3' Amplitude
GR.GAPI                       : Gamma Ray
~Parameter Information Block
~A  Depth       CCL         TT3         AMP3         GR     
# ...
  1834.5000      0.0000    446.9617      4.3013    122.0021
  1834.7500      0.0000    480.2251      4.3297    119.0449
  1835.0000      0.0000    527.9646      4.3850    118.8066
  1835.2500      0.0000    581.6633      4.4650    121.3764
  1835.5000      0.0000    628.8629      4.5495    126.0102
  1835.7500      0.0000    661.2615      4.6172    131.5064
  1836.0000      0.0000    678.6708      4.6667    136.4843
  1836.2500      0.0000    686.0836      4.7165    139.4282
  1836.5000      0.0000    688.6917      4.7862    138.9652
  1836.7500      0.0000    689.5186      4.8784    134.6793
  1837.0000      0.0000    689.7376      4.9747    127.8146
  1837.2500      0.0000    689.6777      5.0398    120.9290
  1837.5000      0.0000    689.4136      5.0314    116.5461
  1837.7500      0.0000    688.9655      4.9214    115.8683
  1838.0000      0.0000    688.3391      4.7199    118.4301
  1838.2500      0.0000    687.3219      4.4753    122.7112
  1838.5000      0.0000    684.7844      4.2454    127.1697
  1838.7500      0.0000    677.6132      4.0653    130.8369
  1839.0000      0.0000    660.4534      3.9406    133.0678
  1839.2500      0.0000    628.1086      3.8608    133.1516
  1839.5000      0.0000    580.5145      3.8129    130.7609
  1839.7500      0.0000    525.8777      3.7873    126.9115
  1840.0000      0.0000    477.1047      3.7774    123.8981
  1840.2500      0.0000    443.6175      3.7769    123.6659
  1840.5000      0.0000    426.4181      3.7799    126.2887
  1840.7500      0.0000    420.2321      3.7836    130.3567
  1841.0000      0.0000    418.8749      3.7870    134.6749
  1841.2500      0.0000    418.5779      3.7869    139.0658
  1841.5000      0.0000    418.0769      3.7766    143.4433
  1841.7500      0.0000    417.3242      3.7516    146.5972
  1842.0000      0.0000    416.5144      3.7139    146.5484
  1842.2500      0.0000    415.7560      3.6700    142.4937
  1842.5000      0.0000    415.0851      3.6239    136.2103
  1842.7500      0.0000    414.4970      3.5735    130.9501
  1843.0000      0.0000    413.9592      3.5139    128.7182
  1843.2500      0.0000    413.4292      3.4459    128.8762
  1843.5000      0.0000    412.8951      3.3786    129.5279
  1843.7500      0.0000    412.3917      3.3238    129.8555
  1844.0000      0.0000    411.9949      3.2883    130.7304
  1844.2500      0.0000    411.8533      3.2730    133.3328
  1844.5000      0.0000    412.4378      3.2760    137.6908
  1844.7500      0.0000    415.1410      3.2942    142.4408
  1845.0000      0.0000    423.1714      3.3215    145.5333
  1845.2500      0.0000    441.7277      3.3477    145.4339
  1845.5000      0.0000    475.5446      3.3647    142.4241
  1845.7500      0.0000    523.8394      3.3737    138.6657
  1846.0000      0.0000    577.3628      3.3844    136.3705
  1846.2500      0.0000    622.6180      3.4047    135.9966
  1846.5000      0.0000    650.6409      3.4352    136.6032
  1846.7500      0.0000    661.7562      3.4739    137.4182
  1847.0000      0.0000    662.4926      3.5217    138.3463
  1847.2500      0.0000    659.0971      3.5785    139.3768
  1847.5000      0.0000    653.6255      3.6401    140.3670
  1847.7500      0.0000    644.0677      3.6992    141.2946
  1848.0000      0.0000    626.4156      3.7477    142.0045
  1848.2500      0.0000    597.2908      3.7778    141.6121
  1848.5000      0.0000    557.2206      3.7857    138.8488
  1848.7500      0.0000    512.4547      3.7785    133.5752
  1849.0000      0.0000    472.2938      3.7717    127.7272
  1849.2500      0.0000    444.0258      3.7791    124.0761
  1849.5000      0.0000    431.4534      3.8043    123.7108
  1849.7500      0.0000    437.3807      3.8446    124.9675
  1850.0000      0.0000    463.6847      3.8962    125.1489
  1850.2500      0.0000    506.7290      3.9498    123.1216
  1850.5000      0.0000    555.1276      3.9840    119.8132
  1850.7500      0.0000    595.7800      3.9735    116.4019
  1851.0000      0.0000    622.5737      3.9111    112.9976
  1851.2500      0.0000    637.9424      3.8222    109.5225
  1851.5000      0.0000    647.4207      3.7480    107.0300
  1851.7500      0.0000    654.8759      3.7125    107.1401
  1852.0000      0.0000    661.8807      3.7094    110.1639
  1852.2500      0.0000    668.8159      3.7209    114.5094
  1852.5000      0.0000    675.5015      3.7419    118.2720
  1852.7500      0.0000    681.4598      3.7799    121.0546
  1853.0000      0.0000    686.4351      3.8332    123.7818
  1853.2500      0.0000    690.7555      3.8805    126.9799
  1853.5000      0.0000    694.6767      3.8958    129.9190
  1853.7500      0.0000    696.9457      3.8735    131.6268
  1854.0000      0.0000    694.0467      3.8384    132.2364
  1854.2500      0.0000    681.4114      3.8324    132.7725
  1854.5000      0.0000    656.9449      3.8819    133.5080
  1854.7500      0.0000    624.9469      3.9725    133.1194
  1855.0000      0.0000    595.2183      4.0549    130.0488
  1855.2500      0.0000    574.6708      4.0820    124.4783
  1855.5000      0.0000    559.8090      4.0447    118.4698
  1855.7500      0.0000    540.8698      3.9729    114.1374
  1856.0000      0.0000    512.9769      3.9067    111.9400
  1856.2500      0.0000    480.1093      3.8681    110.6732
  1856.5000      0.0000    449.4771      3.8572    108.6728
  1856.7500      0.0000    425.6283      3.8650    104.9466
  1857.0000      0.0000    409.4536      3.8815     99.6866
  1857.2500      0.0000    399.7161      3.8983     94.1361
  1857.5000      0.0000    394.4273      3.9093     89.6876
  1857.7500      0.0000    391.7529      3.9138     86.7474
  1858.0000      0.0000    390.5213      3.9145     84.7727
  1858.2500      0.0000    390.2373      3.9139     83.6281
  1858.5000      0.0000    390.9733      3.9129     84.1576
  1858.7500      0.0000    393.5962      3.9118     86.8750
  1859.0000      0.0000    400.4698      3.9125     90.8183
  1859.2500      0.0000    415.7462      3.9185     94.5579
  1859.5000      0.0000    443.6651      3.9364     97.8971
  1859.7500      0.0000    484.8174      3.9754    101.5830
  1860.0000      0.0000    533.7536      4.0458    105.2882
  1860.2500      0.0000    581.4850      4.1550    106.8558
  1860.5000      0.0000    620.9207      4.3044    104.3230
  1860.7500      0.0000    649.6582      4.4847     98.4128
  1861.0000      0.0000    668.6464      4.6742     92.4110
  1861.2500      0.0000    680.0714      4.8503     89.6455
  1861.5000      0.0000    686.6329      5.0129     91.2921
  1861.7500      0.0000    691.4617      5.2044     96.0316
  1862.0000      0.0000    697.5842      5.5014    100.9913
  1862.2500      0.0000    706.4514      5.9738    103.2678
  1862.5000      0.0000    716.2248      6.6251    101.5704
  1862.7500      0.0000    722.2775      7.3546     96.9076
  1863.0000      0.0000    721.3903      7.9934     91.6328
  1863.2500      0.0000    715.7853      8.4142     87.8209
  1863.5000      0.0000    711.3069      8.6280     86.2833
  1863.7500      0.0000    711.2652      8.7649     86.4654
  1864.0000      0.0000    713.7950      8.9494     87.0771
  1864.2500      0.0000    715.6212      9.1974     87.0862
  1864.5000      0.0000    716.1158      9.4279     86.2099
  1864.7500      0.0000    716.1572      9.5524     84.7124
  1865.0000      0.0000    714.6590      9.5338     83.2463
  1865.2500      0.0000    709.0922      9.3791     82.7749
  1865.5000      0.0000    700.2767      9.1064     83.9968
  1865.7500      0.0000    694.9976      8.7369     86.5984
  1866.0000      0.0000    701.5174      8.3094     89.1969
  1866.2500      0.0000    721.6051      7.8755     90.1598
  1866.5000      0.0000    748.0604      7.4532     88.7934
  1866.7500      0.0000    772.1333      6.9992     85.9573
  1867.0000     -2.0000    792.9063      6.4614     83.3867
  1867.2500      0.0000    815.1287      5.8524     82.3212
  1867.5000      0.0000    836.7205      5.2551     82.8175
  1867.7500      0.0000    845.1923      4.7586     84.4080
