~Version Information
VERS.                      2.0: CWLS Log ASCII Standard - VERSION 2.0
WRAP.                       NO: One line per depth step
~Well Information Block
STRT.FT                -9.0000: 
STOP.FT              1754.0000: 
STEP.FT                 0.2500: 
NULL.                -999.2500: 
COMP.          Pioneer Natural Resources: COMPANY
WELL.          Touchstone 11-32 Tr: WELL
FLD.           Purgatorie River: FIELD
LOC.           782' FNL & 840' FWL--: LOCATION
CNTY.               Las Animas: COUNTY
SRVC.          Patterson Wireline: SERVICE COMPANY
DATE.          Mon Mar 06 09:18:09 2006: LOG DATE
UWI.           05 071 08626 00: UNIQUE WELL ID
STAT.                       CO: STATE
~Curve Information Block
DEPT.FT            0 000 00 00: Depth
CCL.                          : Casing Collar Locator
TT3.usec                      : CBL 3' Travel Time
AMP3.mV                       : CBL 3' Amplitude
GR.GAPI                       : Gamma Ray
~Parameter Information Block
~A  Depth       CCL         TT3         AMP3         GR     
# ...
  1733.0000      0.0000    680.9588      6.9007    170.5182
  1733.2500      0.0000    676.3646      7.0674    173.4079
  1733.5000      0.0000    686.1155      7.2120    177.2903
  1733.7500      0.0000    708.3101      7.3214    179.8366
  1734.0000      0.0000    735.2383      7.4099    179.0946
  1734.2500      0.0000    758.8330      7.5266    174.8148
  1734.5000      0.0000    774.1381      7.7449    168.4410
  1734.7500      0.0000    778.9877      8.1418    162.1782
  1735.0000      0.0000    770.6917      8.7677    157.9572
  1735.2500      0.0000    743.7032      9.6143    156.5564
  1735.5000      0.0000    693.4813     10.5945    156.9760
  1735.7500      0.0000    626.4431     11.5472    156.7655
  1736.0000      0.0000    565.6818     12.2780    153.6184
  1736.2500      0.0000    540.1546     12.6379    146.9412
  1736.5000      0.0000    562.1327     12.6008    137.9430
  1736.7500      0.0000    614.8932     12.2781    128.6588
  1737.0000      0.0000    665.3141     11.8516    121.0998
  1737.2500      0.0000    689.9509     11.4705    116.7847
  1737.5000      0.0000    690.2108     11.1803    116.2008
  1737.7500      0.0000    684.7866     10.9216    118.5432
  1738.0000      0.0000    689.6447     10.5879    122.2976
  1738.2500      0.0000    705.9732     10.0981    126.2215
  1738.5000      0.0000    724.8268      9.4382    129.7181
  1738.7500      0.0000    738.1906      8.6633    132.3530
  1739.0000      0.0000    743.6431      7.8707    133.1524
  1739.2500      0.0000    742.3416      7.1640    130.2978
  1739.5000      0.0000    736.2978      6.6187    121.4306
  1739.7500      0.0000    727.4321      6.2554    104.8052
  1740.0000      0.0000    717.6726      6.0356     81.1065
  1740.2500      0.0000    709.2238      5.8903     54.4727
  1740.5000      0.0000    704.1815      5.7659     30.8458
  1740.7500      0.0000    703.4468      5.6510     14.3913
  1741.0000      0.0000    706.0344      5.5626      5.4382
  1741.2500      0.0000    708.8836      5.5135      1.6445
  1741.5000      0.0000    706.7714      5.5003      0.3938
  1741.7500      0.0000    693.4586      5.5177      0.0737
  1742.0000      0.0000    665.3931      5.5688      0.0102
  1742.2500      0.0000    626.5790      5.6583      0.0000
  1742.5000      0.0000    589.7704      5.7813   -999.2500
  1742.7500      0.0000    570.3703      5.9237   -999.2500
  1743.0000      0.0000    576.5400      6.0704   -999.2500
  1743.2500      0.0000    604.0331      6.2119   -999.2500
  1743.5000      0.0000    639.9879      6.3457   -999.2500
  1743.7500      0.0000    671.6036      6.4718   -999.2500
  1744.0000      0.0000    692.7582      6.5875   -999.2500
  1744.2500      0.0000    703.7028      6.6803   -999.2500
  1744.5000      0.0000    704.4302      6.7145   -999.2500
  1744.7500      0.0000    688.1248      6.6120   -999.2500
  1745.0000      0.0000    641.4003      6.2469   -999.2500
  1745.2500      0.0000    552.8359      5.5032   -999.2500
  1745.5000      0.0000    425.5478      4.3928   -999.2500
  1745.7500      0.0000    283.0384      3.1228   -999.2500
  1746.0000      0.0000    158.2112      1.9980   -999.2500
  1746.2500      0.0000     72.7572      1.2238   -999.2500
  1746.5000      0.0000     27.1035      0.8093   -999.2500
  1746.7500      0.0000      8.0857      0.6364   -999.2500
  1747.0000      0.0000      1.9143      0.5803   -999.2500
  1747.2500      0.0000      0.3544      0.5661   -999.2500
  1747.5000      0.0000      0.0471      0.5633   -999.2500
  1747.7500      0.0000   -999.2500   -999.2500   -999.2500
  1748.0000      0.0000   -999.2500   -999.2500   -999.2500
  1748.2500      0.0000   -999.2500   -999.2500   -999.2500
  1748.5000      0.0000   -999.2500   -999.2500   -999.2500
  1748.7500      0.0000   -999.2500   -999.2500   -999.2500
  1749.0000      0.0000   -999.2500   -999.2500   -999.2500
  1749.2500      0.0000   -999.2500   -999.2500   -999.2500
  1749.5000      0.0000   -999.2500   -999.2500   -999.2500
  1749.7500      0.0000   -999.2500   -999.2500   -999.2500
  1750.0000      0.0000   -999.2500   -999.2500   -999.2500
  1750.2500      0.0000   -999.2500   -999.2500   -999.2500
  1750.5000      0.0000   -999.2500   -999.2500   -999.2500
  1750.7500      0.0000   -999.2500   -999.2500   -999.2500
  1751.0000      0.0000   -999.2500   -999.2500   -999.2500
  1751.2500      0.0000   -999.2500   -999.2500   -999.2500
  1751.5000      0.0000   -999.2500   -999.2500   -999.2500
  1751.7500      0.0000   -999.2500   -999.2500   -999.2500
  1752.0000      0.0000   -999.2500   -999.2500   -999.2500
  1752.2500      0.0000   -999.2500   -999.2500   -999.2500
  1752.5000      0.0000   -999.2500   -999.2500   -999.2500
  1752.7500      0.0000   -999.2500   -999.2500   -999.2500
  1753.0000      0.0000   -999.2500   -999.2500   -999.2500
  1753.2500      0.0000   -999.2500   -999.2500   -999.2500
  1753.5000   -999.2500   -999.2500   -999.2500   -999.2500
  1753.7500   -999.2500   -999.2500   -999.2500   -999.2500
  1754.0000   -999.2500   -999.2500   -999.2500   -999.2500
