~Version Information
 VERS.                                  2.0 : CWLS LAS VERSION
 WRAP.                                   NO : WRAPING MODE
 SWARE .                 MController 2.5.0N : SOFTWARE VERSION
~Well Information
 WELL.                    Hanginstone 21-27 : WELL
 COMP.   Pioneer Natural Resources USA, Inc : COMPANY
 FLD.                      Purgatoire River : FIELD
 LOC.                NE/NW Sec 27 T32S R67W : LOCATION
 DATE.                         1/05-07/2006 : DATE(S) LOGGED
 SRVC.       BLANCO Geological Services LLC : SERVICE COMPANY
 STAT.                                   CO : STATE
 CNTY.                           Las Animas : COUNTY
 CTRY.                                  USA : COUNTRY
 API.                       05-071-08632-00 : API NUMBER
 STRT.FT                             907.00 : START DEPTH
 STOP.FT                            2970.00 : STOP DEPTH
 STEP.FT                               1.00 : DEPTH INCREMENT
 NULL.                                -9999 : NULL VALUE
~Curve information
 DEPTH.FT                                   :
 ROP.MIN/FT                                 :
 GAS.UNITS                                  :
~ASCII Log data
# ...
      2107.0         0.27         25.0 
      2108.0         0.20         17.2 
      2109.0         0.37         31.4 
      2110.0         0.33          8.5 
      2111.0         0.73         11.8 
      2112.0         0.88         17.2 
      2113.0         0.30         21.0 
      2114.0         0.27         27.3 
      2115.0         0.30         44.6 
      2116.0         0.27         58.3 
      2117.0         0.27         67.7 
      2118.0         0.23         82.3 
      2119.0         0.27         99.0 
      2120.0         0.37        107.1 
      2121.0         0.23        146.3 
      2122.0         0.20        130.5 
      2123.0         0.20        144.7 
      2124.0         0.22        168.4 
      2125.0         0.23        185.8 
      2126.0         0.30        188.8 
      2127.0         0.27        189.1 
      2128.0         0.27        200.3 
      2129.0         0.20        199.3 
      2130.0         0.17        193.2 
      2131.0         9.38       3198.2 
      2132.0         0.23       1452.3 
      2133.0         0.23       1436.4 
      2134.0         0.23       1496.4 
      2135.0         0.30       1510.2 
      2136.0         0.40       1513.6 
      2137.0         0.40       1513.6 
      2138.0         0.27       1522.0 
      2139.0         0.30       1527.7 
      2140.0         0.28       1506.8 
      2141.0         0.27       1477.5 
      2142.0         0.23       1440.8 
      2143.0         0.23       1421.3 
      2144.0         0.23       1404.8 
      2145.0         0.23       1387.2 
      2146.0         0.20       1380.5 
      2147.0         0.30       1379.8 
      2148.0         0.37       1383.5 
      2149.0         0.17       1376.8 
      2150.0         0.20       1379.2 
      2151.0         0.40       1381.8 
      2152.0         0.42       1404.1 
      2153.0         0.37       1433.7 
      2154.0         0.33       1465.7 
      2155.0         0.33       1496.1 
      2156.0         0.37       1543.9 
      2157.0         0.33       1559.1 
      2158.0         0.37       1607.9 
      2159.0         0.43       1637.6 
      2160.0         0.60       1677.3 
      2161.0         9.12       2952.9 
      2162.0         0.80          5.6 
      2163.0         0.55          5.1 
      2164.0         0.50          5.2 
      2165.0         0.43         13.1 
      2166.0         0.47         14.4 
      2167.0         0.50          6.8 
      2168.0         0.50          4.2 
      2169.0         0.60          5.6 
      2170.0         0.65          6.8 
      2171.0         0.73          6.0 
      2172.0         0.93          5.7 
      2173.0         0.43          5.5 
      2174.0         0.23          6.3 
      2175.0         0.37          7.2 
      2176.0         0.32          9.0 
      2177.0         0.37         13.2 
      2178.0         0.27         23.1 
      2179.0         0.37         25.6 
      2180.0         0.17         26.9 
      2181.0         0.17         30.4 
      2182.0         0.20         33.8 
      2183.0         0.27         37.8 
      2184.0         0.27         44.8 
      2185.0         0.27         45.9 
      2186.0         0.33         48.9 
      2187.0         0.33         58.4 
      2188.0         0.32         67.0 
      2189.0         0.17         70.7 
      2190.0         0.37         71.7 
      2191.0       118.58       1496.1 
      2192.0         0.43         52.7 
      2193.0         0.33         26.4 
      2194.0         0.37         19.2 
      2195.0         0.28         15.5 
      2196.0         0.23         12.4 
      2197.0         0.20         11.1 
      2198.0         0.30          9.9 
      2199.0         0.23          9.1 
      2200.0         0.17          9.5 
      2201.0         0.17          9.5 
      2202.0         0.17         10.0 
      2203.0         0.17         10.6 
      2204.0         0.20         11.3 
      2205.0         0.13         11.6 
      2206.0         0.20         13.2 
      2207.0         0.17         13.9 
      2208.0         0.20         15.2 
      2209.0         0.17         16.2 
      2210.0         0.23         18.8 
      2211.0         0.20         20.9 
      2212.0         0.18         22.4 
      2213.0         0.17         25.1 
      2214.0         0.20         28.6 
      2215.0         0.23         30.7 
      2216.0         0.20         32.3 
      2217.0         0.20         35.6 
      2218.0         0.13         39.4 
      2219.0         0.20         39.1 
      2220.0         0.13         37.9 
      2221.0         9.85         50.8 
      2222.0         0.33         39.5 
      2223.0         0.37         49.2 
      2224.0         0.30         55.4 
      2225.0         0.23         48.1 
      2226.0         0.20         25.8 
      2227.0         0.17         17.4 
      2228.0         0.13         10.1 
      2229.0         0.17          8.1 
      2230.0         0.12          7.4 
      2231.0         0.17          7.6 
      2232.0         0.23          7.7 
      2233.0         0.27          6.3 
      2234.0         0.30          6.2 
      2235.0         0.30          4.1 
      2236.0         0.27          3.6 
      2237.0         0.17          3.3 
      2238.0         0.13          3.1 
      2239.0         0.30          3.6 
      2240.0         0.30          3.4 
      2241.0         0.23          3.3 
      2242.0         0.33          3.4 
      2243.0         0.20          3.7 
      2244.0         0.25          4.1 
      2245.0         0.27          4.3 
      2246.0         0.33          4.5 
      2247.0         0.33         10.1 
      2248.0         0.50          9.5 
      2249.0         0.20          6.9 
      2250.0         0.40          6.9 
      2251.0         9.92         61.9 
      2252.0         0.37         70.6 
      2253.0         0.30         90.4 
      2254.0         0.40         96.8 
      2255.0         0.28         97.1 
      2256.0         0.13         95.9 
      2257.0         0.20        103.1 
      2258.0         0.30        119.0 
      2259.0         0.37        118.3 
      2260.0         0.40         86.1 
      2261.0         0.40         65.2 
      2262.0         0.23         56.2 
      2263.0         0.37         44.1 
      2264.0         0.37         33.9 
      2265.0         0.52         28.1 
      2266.0         0.43         21.7 
      2267.0         0.40         16.0 
      2268.0         0.43         13.6 
      2269.0         0.40         12.6 
      2270.0         0.47         10.6 
      2271.0         0.17          8.6 
      2272.0         0.20          7.3 
      2273.0         0.20          8.7 
      2274.0         0.30         10.0 
      2275.0         0.38         12.8 
      2276.0         0.37         13.3 
      2277.0         0.37          9.9 
      2278.0         0.37          8.0 
      2279.0         0.33          7.4 
      2280.0         0.37          7.5 
      2281.0         8.95       1378.5 
      2282.0         2.82       1241.7 
      2283.0         0.63         15.2 
      2284.0         0.50         21.0 
      2285.0         0.50         25.9 
      2286.0         0.47         29.9 
      2287.0         0.40         34.3 
      2288.0         0.23         37.3 
      2289.0         0.17         39.3 
      2290.0         0.28         42.6 
      2291.0         0.30         47.7 
      2292.0         0.30         54.0 
      2293.0         0.23         57.1 
      2294.0         0.23         61.4 
      2295.0         0.13         65.7 
      2296.0         0.13         68.7 
      2297.0         0.13         70.3 
      2298.0         0.10         72.3 
      2299.0         0.17         75.6 
      2300.0         0.13         77.7 
      2301.0         0.13         79.6 
      2302.0         0.17         98.7 
      2303.0         0.17        113.9 
      2304.0         0.17        113.6 
      2305.0         0.13        108.3 
      2306.0         0.13        110.8 
