~Version Information
VERS.                      2.0: CWLS Log ASCII Standard - VERSION 2.0
WRAP.                       NO: One line per depth step
~Well Information Block
STRT.FT                -6.7500: 
STOP.FT              1544.5000: 
STEP.FT                 0.2500: 
NULL.                -999.2500: 
COMP.          Pioneer Natural Resources: COMPANY
WELL.          Lorencito 10-36-33-67: WELL
FLD.           Purgatorie River: FIELD
LOC.           2130' FSL & 2362' FEL--: LOCATION
STAT.                       CO: State
CNTY.               Las Animas: COUNTY
CTRY. USA : Country
SECT. 36 : Section
TOWN. 33S : Township
RANG. 67W : Range
SRVC.          Patterson Wireline: SERVICE COMPANY
DATE.          Fri Sep 02 09:21:42 2005: LOG DATE
API.           05 071 08501 00: UNIQUE WELL ID
~Curve Information Block
DEPT.FT            0 000 00 00: Depth
CCL.                          : Casing Collar Locator
TT3.usec                      : CBL 3' Travel Time
AMP3.mV                       : CBL 3' Amplitude
GR.GAPI                       : Gamma Ray
~Parameter Information Block
~A  Depth       CCL         TT3         AMP3         GR     
# ...
   194.2500      0.0000    773.4265     12.2353     99.1369
   194.5000      0.0000    773.4722     12.2261     97.5502
   194.7500      0.0000    773.4841     12.2363     92.8896
   195.0000      0.0000    773.4590     12.2592     86.6518
   195.2500      0.0000    773.4725     12.2969     79.8946
   195.5000      0.0000    773.5563     12.3547     72.9547
   195.7500      0.0000    773.6723     12.4269     66.2983
   196.0000      0.0000    773.7858     12.4904     61.4935
   196.2500      0.0000    773.9198     12.5171     60.4894
   196.5000      0.0000    774.1236     12.4939     63.5292
   196.7500      0.0000    774.3986     12.4351     68.3509
   197.0000      0.0000    774.6708     12.3761     72.0748
   197.2500      0.0000    774.8354     12.3563     73.6435
   197.5000      0.0000    774.8253     12.4017     73.9267
   197.7500      0.0000    774.6488     12.5173     73.9169
   198.0000      0.0000    774.3880     12.6860     73.7950
   198.2500      0.0000    774.2101     12.8718     73.6276
   198.5000      0.0000    774.4097     13.0244     74.0249
   198.7500      0.0000    775.5295     13.0928     75.7426
   199.0000      0.0000    778.3918     13.0503     78.8780
   199.2500      0.0000    783.7894     12.9152     82.3579
   199.5000      0.0000    791.7079     12.7443     84.1597
   199.7500      0.0000    800.4672     12.5984     82.7382
   200.0000      0.0000    806.7260     12.5089     78.8670
   200.2500      0.0000    807.2115     12.4717     75.5731
   200.5000      0.0000    801.3626     12.4618     75.2923
   200.7500      0.0000    792.0594     12.4447     77.1833
   201.0000      0.0000    782.9123     12.3733     78.1255
   201.2500      0.0000    774.9364     12.1934     76.2750
   201.5000      0.0000    766.9867     11.8792     72.8005
   201.7500      0.0000    760.9606     11.4647     70.3467
   202.0000      0.0000    766.6743     11.0148     70.8437
   202.2500      0.0000    798.0677     10.5636     74.6445
   202.5000      0.0000    860.0261     10.1168     80.5464
   202.7500      0.0000    939.4438      9.7088     86.2227
   203.0000      0.0000   1012.6860      9.4022     89.4242
   203.2500      0.0000   1061.2213      9.2247     89.3798
   203.5000     -2.0000   1077.5455      9.1486     86.9622
   203.7500      0.0000   1059.9330      9.1337     83.6191
   204.0000      0.0000   1009.1415      9.1781     80.5076
   204.2500      0.0000    933.0695      9.3325     78.3269
   204.5000      0.0000    850.8245      9.6614     77.2389
   204.7500      0.0000    786.1454     10.1655     76.7887
   205.0000      0.0000    753.1370     10.7425     76.2093
   205.2500      0.0000    748.4331     11.2550     74.9339
   205.5000      0.0000    757.5665     11.6245     72.8516
   205.7500      0.0000    767.5508     11.8495     70.2786
   206.0000      0.0000    773.2593     11.9674     67.8457
   206.2500      0.0000    775.3262     12.0252     66.3102
   206.5000      0.0000    775.7506     12.0575     66.3767
   206.7500      0.0000    775.7902     12.0722     68.4669
   207.0000      0.0000    775.9958     12.0635     72.2425
   207.2500      0.0000    776.8625     12.0393     76.2262
   207.5000      0.0000    779.2495     12.0273     78.5039
   207.7500      0.0000    784.1484     12.0508     78.4349
   208.0000      0.0000    791.4086     12.1045     77.4048
   208.2500      0.0000    798.4812     12.1559     77.2615
   208.5000      0.0000    801.4272     12.1787     78.2085
   208.7500      0.0000    798.2933     12.1820     78.8436
   209.0000      0.0000    791.1043     12.1988     78.1713
   209.2500      0.0000    783.8442     12.2470     76.8119
   209.5000      0.0000    779.0678     12.3110     75.9547
   209.7500      0.0000    776.8882     12.3637     75.6973
   210.0000      0.0000    776.2383     12.3966     75.1245
   210.2500      0.0000    776.1579     12.4236     73.8138
   210.5000      0.0000    776.1528     12.4587     72.4262
   210.7500      0.0000    776.0623     12.4997     71.7668
   211.0000      0.0000    775.9537     12.5316     72.0553
   211.2500      0.0000    776.2131     12.5431     73.1294
   211.5000      0.0000    777.7667     12.5374     74.6114
   211.7500      0.0000    782.0476     12.5279     75.7968
   212.0000      0.0000    790.1179     12.5270     75.9251
   212.2500      0.0000    800.9667     12.5354     74.7620
   212.5000      0.0000    810.7974     12.5402     72.8579
   212.7500      0.0000    815.3405     12.5259     71.2214
   213.0000      0.0000    813.6677     12.4912     70.6015
   213.2500      0.0000    808.9563     12.4552     70.9476
   213.5000      0.0000    805.0397     12.4431     71.6826
   213.7500      0.0000    802.9568     12.4655     72.4954
   214.0000      0.0000    800.9994     12.5133     73.5726
   214.2500      0.0000    797.2192     12.5707     74.9357
   214.5000      0.0000    791.4772     12.6274     75.9089
   214.7500      0.0000    785.3834     12.6772     75.6177
   215.0000      0.0000    780.6900     12.7147     74.0651
   215.2500      0.0000    778.0106     12.7354     72.5039
   215.5000      0.0000    776.8818     12.7363     72.5766
   215.7500      0.0000    776.5570     12.7173     75.0952
   216.0000      0.0000    776.5403     12.6888     79.4622
   216.2500      0.0000    776.6400     12.6751     83.8449
   216.5000      0.0000    776.8035     12.6972     85.8794
   216.7500      0.0000    776.9713     12.7474     83.9459
   217.0000      0.0000    777.1010     12.7871     78.4022
   217.2500      0.0000    777.3652     12.7768     71.4199
   217.5000      0.0000    778.3616     12.7092     65.1979
   217.7500      0.0000    781.0636     12.6148     60.3505
   218.0000      0.0000    786.2940     12.5372     56.1580
   218.2500      0.0000    793.9153     12.5026     52.0576
   218.5000      0.0000    802.4904     12.5093     48.4806
   218.7500      0.0000    810.0262     12.5430     46.3131
   219.0000      0.0000    815.2439     12.5960     45.8236
   219.2500      0.0000    818.1215     12.6619     46.1262
   219.5000      0.0000    819.3839     12.7150     45.6585
   219.7500      0.0000    819.7166     12.7124     43.3406
   220.0000      0.0000    819.3756     12.6254     39.4011
   220.2500      0.0000    818.1330     12.4662     35.1610
   220.5000      0.0000    815.6193     12.2816     32.0070
   220.7500      0.0000    812.2893     12.1260     30.5082
   221.0000      0.0000    810.7712     12.0345     30.3832
   221.2500      0.0000    815.5341     12.0064     31.0873
   221.5000      0.0000    828.9982     12.0043     32.2611
   221.7500      0.0000    846.8956     11.9790     33.6679
   222.0000      0.0000    860.1462     11.9041     34.8903
   222.2500      0.0000    863.8047     11.7886     35.3916
   222.5000      0.0000    861.9693     11.6598     35.0759
   222.7500      0.0000    861.5900     11.5398     34.5125
   223.0000      0.0000    864.9125     11.4374     34.1941
   223.2500      0.0000    870.6435     11.3546     33.8198
   223.5000      0.0000    877.9368     11.2946     32.8864
   223.7500      0.0000    885.1367     11.2643     31.8031
   224.0000      0.0000    887.9385     11.2682     31.6935
   224.2500      0.0000    882.5126     11.2981     33.1393
   224.5000      0.0000    869.1951     11.3288     35.6810
   224.7500      0.0000    852.0131     11.3331     38.5484
   225.0000      0.0000    836.2516     11.3032     41.3519
   225.2500      0.0000    826.4568     11.2549     43.8739
   225.5000      0.0000    824.6790     11.2116     45.5028
   225.7500      0.0000    829.4894     11.1891     45.3481
   226.0000      0.0000    837.0709     11.1929     43.1293
   226.2500      0.0000    843.5599     11.2257     39.7564
   226.5000      0.0000    846.6307     11.2933     36.7370
   226.7500      0.0000    845.5877     11.4006     35.0157
   227.0000      0.0000    840.9323     11.5391     34.4990
   227.2500      0.0000    834.2601     11.6789     34.5773
   227.5000      0.0000    828.0945     11.7791     34.8687
