~Version Information
VERS.                      2.0: CWLS Log ASCII Standard - VERSION 2.0
WRAP.                       NO: One line per depth step
~Well Information Block
STRT.FT                -6.2500: 
STOP.FT              2245.0000: 
STEP.FT                 0.0500: 
NULL.                -999.2500: 
COMP.          Pioneer Natural Resources: COMPANY
WELL.          Roadster 41-33 Kv: WELL
FLD.           Purgatoire River: FIELD
LOC.           903' FNL & 248' FEL--: LOCATION
PROV.                 Colorado: PROVINCE
CNTY.               Las Animas: COUNTRY
SRVC.                Patterson: SERVICE COMPANY
DATE.          Tue Jan 17 11:20:00 2006: LOG DATE
UWI.           05 071 08615 00: UNIQUE WELL ID
~Curve Information Block
DEPT.FT            0 000 00 00: Depth
CCL.                          : Casing Collar Locator
TT3.usec                      : CBL 3' Travel Time
AMP3.mV                       : CBL 3' Amplitude
GR.GAPI                       : Gamma Ray
~Parameter Information Block
~A  Depth       CCL         TT3         AMP3         GR     
# ...
  1782.6500      0.0000    737.3341      7.1896    109.8438
  1782.7000      0.0000    737.3341      7.1896    109.8438
  1782.7500      0.0000    739.9415      7.1560    113.4962
  1782.8000      0.0000    739.9415      7.1560    113.4962
  1782.8500      0.0000    739.9415      7.1560    113.4962
  1782.9000      0.0000    739.9415      7.1560    113.4962
  1782.9500      0.0000    739.9415      7.1560    113.4962
  1783.0000      0.0000    728.3071      6.9869    117.7464
  1783.0500      0.0000    728.3071      6.9869    117.7464
  1783.1000      0.0000    728.3071      6.9869    117.7464
  1783.1500      0.0000    728.3071      6.9869    117.7464
  1783.2000      0.0000    728.3071      6.9869    117.7464
  1783.2500      0.0000    701.4385      6.7257    120.5935
  1783.3000      0.0000    701.4385      6.7257    120.5935
  1783.3500      0.0000    701.4385      6.7257    120.5935
  1783.4000      0.0000    701.4385      6.7257    120.5935
  1783.4500      0.0000    701.4385      6.7257    120.5935
  1783.5000      0.0000    663.0327      6.4728    121.0753
  1783.5500      0.0000    663.0327      6.4728    121.0753
  1783.6000      0.0000    663.0327      6.4728    121.0753
  1783.6500      0.0000    663.0327      6.4728    121.0753
  1783.7000      0.0000    663.0327      6.4728    121.0753
  1783.7500      0.0000    623.0162      6.3192    119.7371
  1783.8000      0.0000    623.0162      6.3192    119.7371
  1783.8500      0.0000    623.0162      6.3192    119.7371
  1783.9000      0.0000    623.0162      6.3192    119.7371
  1783.9500      0.0000    623.0162      6.3192    119.7371
  1784.0000      0.0000    594.6450      6.2915    117.9271
  1784.0500      0.0000    594.6450      6.2915    117.9271
  1784.1000      0.0000    594.6450      6.2915    117.9271
  1784.1500      0.0000    594.6450      6.2915    117.9271
  1784.2000      0.0000    594.6450      6.2915    117.9271
  1784.2500      0.0000    587.6452      6.3490    116.2408
  1784.3000      0.0000    587.6452      6.3490    116.2408
  1784.3500      0.0000    587.6452      6.3490    116.2408
  1784.4000      0.0000    587.6452      6.3490    116.2408
  1784.4500      0.0000    587.6452      6.3490    116.2408
  1784.5000      0.0000    602.6542      6.4232    113.9196
  1784.5500      0.0000    602.6542      6.4232    113.9196
  1784.6000      0.0000    602.6542      6.4232    113.9196
  1784.6500      0.0000    602.6542      6.4232    113.9196
  1784.7000      0.0000    602.6542      6.4232    113.9196
  1784.7500      0.0000    631.4001      6.4709    110.1447
  1784.8000      0.0000    631.4001      6.4709    110.1447
  1784.8500      0.0000    631.4001      6.4709    110.1447
  1784.9000      0.0000    631.4001      6.4709    110.1447
  1784.9500      0.0000    631.4001      6.4709    110.1447
  1785.0000      0.0000    662.2078      6.5007    105.5974
  1785.0500      0.0000    662.2078      6.5007    105.5974
  1785.1000      0.0000    662.2078      6.5007    105.5974
  1785.1500      0.0000    662.2078      6.5007    105.5974
  1785.2000      0.0000    662.2078      6.5007    105.5974
  1785.2500      0.0000    686.4889      6.5486    102.2988
  1785.3000      0.0000    686.4889      6.5486    102.2988
  1785.3500      0.0000    686.4889      6.5486    102.2988
  1785.4000      0.0000    686.4889      6.5486    102.2988
  1785.4500      0.0000    686.4889      6.5486    102.2988
  1785.5000      0.0000    701.5652      6.6281    102.0559
  1785.5500      0.0000    701.5652      6.6281    102.0559
  1785.6000      0.0000    701.5652      6.6281    102.0559
  1785.6500      0.0000    701.5652      6.6281    102.0559
  1785.7000      0.0000    701.5652      6.6281    102.0559
  1785.7500      0.0000    708.9128      6.7074    105.3493
  1785.8000      0.0000    708.9128      6.7074    105.3493
  1785.8500      0.0000    708.9128      6.7074    105.3493
  1785.9000      0.0000    708.9128      6.7074    105.3493
  1785.9500      0.0000    708.9128      6.7074    105.3493
  1786.0000      0.0000    711.0897      6.7345    111.2199
  1786.0500      0.0000    711.0897      6.7345    111.2199
  1786.1000      0.0000    711.0897      6.7345    111.2199
  1786.1500      0.0000    711.0897      6.7345    111.2199
  1786.2000      0.0000    711.0897      6.7345    111.2199
  1786.2500      0.0000    710.3126      6.6830    117.2880
  1786.3000      0.0000    710.3126      6.6830    117.2880
  1786.3500      0.0000    710.3126      6.6830    117.2880
  1786.4000      0.0000    710.3126      6.6830    117.2880
  1786.4500      0.0000    710.3126      6.6830    117.2880
  1786.5000      0.0000    708.4098      6.5701    120.0753
  1786.5500      0.0000    708.4098      6.5701    120.0753
  1786.6000      0.0000    708.4098      6.5701    120.0753
  1786.6500      0.0000    708.4098      6.5701    120.0753
  1786.7000      0.0000    708.4098      6.5701    120.0753
  1786.7500      0.0000    706.6989      6.4269    116.8635
  1786.8000      0.0000    706.6989      6.4269    116.8635
  1786.8500      0.0000    706.6989      6.4269    116.8635
  1786.9000      0.0000    706.6989      6.4269    116.8635
  1786.9500      0.0000    706.6989      6.4269    116.8635
  1787.0000      0.0000    705.7339      6.2662    107.9869
  1787.0500      0.0000    705.7339      6.2662    107.9869
  1787.1000      0.0000    705.7339      6.2662    107.9869
  1787.1500      0.0000    705.7339      6.2662    107.9869
  1787.2000      0.0000    705.7339      6.2662    107.9869
  1787.2500      0.0000    705.4495      6.0945     96.3955
  1787.3000      0.0000    705.4495      6.0945     96.3955
  1787.3500      0.0000    705.4495      6.0945     96.3955
  1787.4000      0.0000    705.4495      6.0945     96.3955
  1787.4500      0.0000    705.4495      6.0945     96.3955
  1787.5000      0.0000    705.5538      5.9453     84.5850
  1787.5500      0.0000    705.5538      5.9453     84.5850
  1787.6000      0.0000    705.5538      5.9453     84.5850
  1787.6500      0.0000    705.5538      5.9453     84.5850
  1787.7000      0.0000    705.5538      5.9453     84.5850
  1787.7500      0.0000    705.7943      5.8786     73.0836
  1787.8000      0.0000    705.7943      5.8786     73.0836
  1787.8500      0.0000    705.7943      5.8786     73.0836
  1787.9000      0.0000    705.7943      5.8786     73.0836
  1787.9500      0.0000    705.7943      5.8786     73.0836
  1788.0000      0.0000    706.0162      5.9430     62.1562
  1788.0500      0.0000    706.0162      5.9430     62.1562
  1788.1000      0.0000    706.0162      5.9430     62.1562
  1788.1500      0.0000    706.0162      5.9430     62.1562
  1788.2000      0.0000    706.0162      5.9430     62.1562
  1788.2500      0.0000    706.1365      6.1397     53.3227
  1788.3000      0.0000    706.1365      6.1397     53.3227
  1788.3500      0.0000    706.1365      6.1397     53.3227
  1788.4000      0.0000    706.1365      6.1397     53.3227
  1788.4500      0.0000    706.1365      6.1397     53.3227
  1788.5000      0.0000    706.1232      6.4170     48.1369
  1788.5500      0.0000    706.1232      6.4170     48.1369
  1788.6000      0.0000    706.1232      6.4170     48.1369
  1788.6500      0.0000    706.1232      6.4170     48.1369
  1788.7000      0.0000    706.1232      6.4170     48.1369
  1788.7500      0.0000    705.9907      6.6925     46.2706
  1788.8000      0.0000    705.9907      6.6925     46.2706
  1788.8500      0.0000    705.9907      6.6925     46.2706
  1788.9000      0.0000    705.9907      6.6925     46.2706
  1788.9500      0.0000    705.9907      6.6925     46.2706
  1789.0000      0.0000    705.7965      6.8898     45.7518
  1789.0500      0.0000    705.7965      6.8898     45.7518
  1789.1000      0.0000    705.7965      6.8898     45.7518
  1789.1500      0.0000    705.7965      6.8898     45.7518
  1789.2000      0.0000    705.7965      6.8898     45.7518
  1789.2500      0.0000    705.6188      6.9706     44.9676
  1789.3000      0.0000    705.6188      6.9706     44.9676
