~Version Information
VERS.                      2.0: CWLS Log ASCII Standard - VERSION 2.0
WRAP.                       NO: One line per depth step
~Well Information Block
STRT.FT               -11.5000: 
STOP.FT              1961.7500: 
STEP.FT                 0.2500: 
NULL.                -999.2500: 
COMP.          Petrogulf Corporation: COMPANY
WELL.           State 16-23R-X: WELL
FLD.           Purgatorie River: FIELD
LOC.           2381' FSL & 2072' FWL--: LOCATION
PROV.                       CO: PROVINCE
CNTY.               Las Animas: COUNTRY
SRVC.          Patterson Wireline: SERVICE COMPANY
DATE.          Fri Sep 09 14:32:42 2005: LOG DATE
UWI.           05 071 08324 00: UNIQUE WELL ID
~Curve Information Block
DEPT.FT            0 000 00 00: Depth
CCL.                          : Casing Collar Locator
TT3.usec                      : CBL 3' Travel Time
AMP3.mV                       : CBL 3' Amplitude
GR.GAPI                       : Gamma Ray
~Parameter Information Block
~A  Depth       CCL         TT3         AMP3         GR     
# ...
   491.0000      0.0000    365.1587      3.9831     59.7621
   491.2500      0.0000    365.1994      3.8629     56.9333
   491.5000      0.0000    365.2401      3.7382     55.4149
   491.7500      0.0000    365.2634      3.6206     56.0095
   492.0000      0.0000    365.2800      3.5175     58.0854
   492.2500      0.0000    365.3183      3.4273     60.4710
   492.5000      0.0000    365.3929      3.3428     62.5657
   492.7500      0.0000    365.4836      3.2597     64.4925
   493.0000      0.0000    365.5912      3.1804     66.4322
   493.2500      0.0000    365.9120      3.1078     68.0229
   493.5000      0.0000    367.1696      3.0377     68.5046
   493.7500      0.0000    371.0762      2.9609     67.4744
   494.0000      0.0000    380.7238      2.8734     65.4221
   494.2500      0.0000    400.4042      2.7877     63.5127
   494.5000      0.0000    434.1199      2.7356     62.8977
   494.7500      0.0000    482.6734      2.7564     64.0497
   495.0000      0.0000    541.2988      2.8728     66.4171
   495.2500      0.0000    601.0782      3.0766     68.6584
   495.5000      0.0000    654.0662      3.3379     69.5459
   495.7500      0.0000    697.1531      3.6251     69.0105
   496.0000      0.0000    731.1887      3.9185     68.3170
   496.2500      0.0000    757.9681      4.2084     69.0563
   496.5000      0.0000    778.6906      4.4869     71.9923
   496.7500      0.0000    793.8005      4.7424     76.7675
   497.0000      0.0000    803.2720      4.9624     82.2407
   497.2500      0.0000    807.5460      5.1409     86.9683
   497.5000      0.0000    808.0916      5.2820     89.9129
   497.7500      0.0000    806.2778      5.3928     91.1183
   498.0000      0.0000    802.0212      5.4713     91.6067
   498.2500      0.0000    794.5872      5.5037     92.4963
   498.5000      0.0000    784.3703      5.4776     94.1796
   498.7500      0.0000    772.3342      5.3974     96.1200
   499.0000      0.0000    757.7023      5.2856     97.2746
   499.2500      0.0000    738.5427      5.1686     96.8121
   499.5000      0.0000    715.7971      5.0661     94.6705
   499.7500      0.0000    694.7084      4.9907     91.7094
   500.0000      0.0000    680.5909      4.9537     89.3819
   500.2500      0.0000    674.3145      4.9667     88.8447
   500.5000      0.0000    672.7420      5.0342     90.0247
   500.7500      0.0000    672.0838      5.1421     91.6746
   501.0000      0.0000    670.0062      5.2522     92.4046
   501.2500      0.0000    666.1807      5.3191     91.5628
   501.5000      0.0000    662.7422      5.3207     89.4612
   501.7500      0.0000    663.9958      5.2743     87.1525
   502.0000      0.0000    673.8409      5.2218     85.8372
   502.2500      0.0000    692.1380      5.1995     86.0430
   502.5000      0.0000    713.9755      5.2203     87.1647
   502.7500      0.0000    733.3970      5.2730     87.8769
   503.0000      0.0000    747.9027      5.3323     87.2946
   503.2500      0.0000    758.7185      5.3728     86.0610
   503.5000      0.0000    767.2277      5.3837     86.3334
   503.7500      0.0000    772.9481      5.3746     90.2150
   504.0000      0.0000    775.4960      5.3667     97.7566
   504.2500      0.0000    776.4479      5.3796    106.5202
   504.5000      0.0000    777.6378      5.4238    113.2159
   504.7500      0.0000    778.9454      5.4966    115.7715
   505.0000      0.0000    779.5688      5.5783    114.0954
   505.2500      0.0000    780.6514      5.6386    109.5569
   505.5000      0.0000    784.7220      5.6558    104.1954
   505.7500      0.0000    792.2663      5.6362    100.0347
   506.0000      0.0000    799.8447      5.6149     98.3592
   506.2500      0.0000    802.1233      5.6362     99.1947
   506.5000      0.0000    796.0978      5.7308    101.5876
   506.7500      0.0000    783.5330      5.9023    104.5850
   507.0000      0.0000    769.1816      6.1277    107.7493
   507.2500      0.0000    756.4188      6.3646    110.4435
   507.5000      0.0000    744.6778      6.5663    111.1252
   507.7500      0.0000    730.9627      6.6986    108.2992
   508.0000      0.0000    713.6965      6.7532    102.3327
   508.2500      0.0000    695.1111      6.7474     95.6658
   508.5000      0.0000    679.6762      6.7114     90.8274
   508.7500      0.0000    670.0375      6.6746     88.4226
   509.0000      0.0000    664.8636      6.6586     87.1578
   509.2500      0.0000    660.8419      6.6756     85.4904
   509.5000      0.0000    656.2537      6.7266     83.0626
   509.7500      0.0000    652.1331      6.7952     80.8465
   510.0000      0.0000    650.2804      6.8527     80.2218
   510.2500      0.0000    651.0587      6.8796     81.8446
   510.5000      0.0000    653.7739      6.8865     85.1311
   510.7500      0.0000    658.5122      6.9006     88.6722
   511.0000      0.0000    666.6177      6.9374     91.2578
   511.2500      0.0000    679.4149      7.0026     92.6337
   511.5000      0.0000    697.2447      7.1096     93.2501
   511.7500      0.0000    719.4365      7.2725     93.3662
   512.0000     -2.0000    744.4373      7.4904     92.7220
   512.2500      2.0000    769.1493      7.7576     91.1091
   512.5000      0.0000    786.9835      8.0773     88.8428
   512.7500      0.0000    787.4637      8.4446     86.3809
   513.0000      0.0000    762.7247      8.8174     83.7636
   513.2500      0.0000    718.4959      9.1366     80.9468
   513.5000      0.0000    675.0909      9.3972     78.5530
   513.7500      0.0000    651.7542      9.6732     77.5661
   514.0000      0.0000    651.0361     10.0346     77.9824
   514.2500      0.0000    661.1927     10.4576     78.3532
   514.5000      0.0000    670.3818     10.8584     77.2825
   514.7500      0.0000    674.6912     11.2000     75.1072
   515.0000      0.0000    675.3750     11.5233     73.5527
   515.2500      0.0000    673.7888     11.8847     74.0345
   515.5000      0.0000    670.2691     12.2925     76.9693
   515.7500      0.0000    665.2593     12.6959     82.2115
   516.0000      0.0000    658.8159     13.0118     88.9352
   516.2500      0.0000    648.2461     13.1618     95.1476
   516.5000      0.0000    627.8824     13.0996     98.5317
   516.7500      0.0000    593.6237     12.8210     98.1604
   517.0000      0.0000    547.9982     12.3586     94.9916
   517.2500      0.0000    500.0674     11.7646     90.8488
   517.5000      0.0000    461.2062     11.0784     87.3654
   517.7500      0.0000    441.3568     10.3083     85.6128
   518.0000      0.0000    445.9510      9.4529     85.9581
   518.2500      0.0000    472.2931      8.5441     87.8756
   518.5000      0.0000    508.1658      7.6648     90.0776
   518.7500      0.0000    536.6235      6.9249     91.2324
   519.0000      0.0000    545.9533      6.4129     90.7205
   519.2500      0.0000    537.2898      6.1545     88.6292
   519.5000      0.0000    521.8892      6.1133     85.2741
   519.7500      0.0000    509.3349      6.2363     81.0962
   520.0000      0.0000    498.5556      6.4985     76.7574
   520.2500      0.0000    481.8002      6.9054     72.7892
   520.5000      0.0000    456.0916      7.4700     69.1803
   520.7500      0.0000    427.6402      8.2099     65.6551
   521.0000      0.0000    405.0389      9.1675     62.4037
   521.2500      0.0000    391.1284     10.4087     60.2743
   521.5000      0.0000    382.3006     11.9803     60.0970
   521.7500      0.0000    373.5816     13.8514     61.9249
   522.0000      0.0000    362.9936     15.8916     65.0303
   522.2500      0.0000    351.9396     17.9063     68.5175
   522.5000      0.0000    342.8674     19.7048     71.7576
   522.7500      0.0000    337.0739     21.1507     74.4171
   523.0000      0.0000    334.2142     22.1783     76.4701
   523.2500      0.0000    333.0850     22.8012     78.1611
   523.5000      0.0000    332.4711     23.1105     79.6058
   523.7500      0.0000    331.5466     23.2253     80.4347
   524.0000      0.0000    330.0881     23.1998     80.0305
   524.2500      0.0000    328.6082     22.9780     78.0639
