~Version Information
VERS.                      2.0: CWLS Log ASCII Standard - VERSION 2.0
WRAP.                       NO: One line per depth step
~Well Information Block
STRT.FT               294.3000: 
STOP.FT              1461.0000: 
STEP.FT                 0.1000: 
NULL.                -999.2500: 
COMP.          Pioneer Natural Resources: COMPANY
WELL.              Lucky 21-36: WELL
FLD.           Purgatoire River: FIELD
CDN. :
PROV. :
UWI. :
STAT. :
CNTY. :
CTRY. :
API. :
COMP. :
WELL. :
FLD. :
LOC. :
DATE. :
SRVC. :
LOC.           799' FNL & 1578' FWL--: LOCATION
CNTY.               Las Animas: COUNTY
SRVC.          Superior Well Services: SERVICE COMPANY
DATE.          Tue Jul 08 08-29-33 2008: LOG DATE
UWI.           05 071 08456 00: UNIQUE WELL ID
STAT.                 Colorado: STATE
~Curve Information Block
DEPT.FT            0 000 00 00: Depth
DCAL.in                       : CDL Caliper
RHOB.g/cc                     : CDL Bulk Density
RHOC.g/cc                     : CDL Density Correction
DPOR.pu                       : CDL Density Porosity
NPOR.pu                       : Neutron Porosity
GR.GAPI                       : Gamma Ray
~Parameter Information Block
~A  Depth       DCAL        RHOB        RHOC        DPOR        NPOR         GR     
# ...
   457.5000      8.0275      2.5106      0.0286      8.4469     25.2022    120.4976
   457.6000      8.0294      2.4976      0.0464      9.2374     24.5689    120.5583
   457.7000      8.0317      2.4956      0.0053      9.3577     24.1730    120.9998
   457.8000      8.0343      2.5123      0.0367      8.3484     24.2226    117.2198
   457.9000      8.0374      2.5395      0.0769      6.6957     24.2778    109.8947
   458.0000      8.0410      2.5530      0.0962      5.8758     24.0816    106.3709
   458.1000      8.0451      2.5424      0.0338      6.5194     23.8548    110.1262
   458.2000      8.0496      2.5271      0.0376      7.4485     23.9838    116.4406
   458.3000      8.0541      2.5237      0.0287      7.6546     24.4298    120.7123
   458.4000      8.0583      2.5287      0.0469      7.3506     24.7913    125.9164
   458.5000      8.0619      2.5373      0.0408      6.8295     25.0650    132.6907
   458.6000      8.0649      2.5531      0.0619      5.8711     25.5406    135.7018
   458.7000      8.0673      2.5733      0.0797      4.6465     26.1567    134.0404
   458.8000      8.0692      2.5929      0.0507      3.4583     26.5403    132.0724
   458.9000      8.0708      2.6183      0.0360      1.9228     26.4155    131.6222
   459.0000      8.0720      2.6440      0.1000      0.3619     26.0320    130.3734
   459.1000      8.0731      2.6523      0.0691     -0.1372     25.9810    129.5426
   459.2000      8.0746      2.6452      0.0519      0.2926     26.3243    129.4189
   459.3000      8.0768      2.6321      0.0742      1.0836     26.5578    126.9326
   459.4000      8.0802      2.6091      0.0441      2.4780     26.5391    122.0949
   459.5000      8.0847      2.5768     -0.0004      4.4376     26.5782    118.1520
   459.6000      8.0896      2.5471     -0.0356      6.2336     26.7867    118.2591
   459.7000      8.0944      2.5279     -0.0279      7.4007     26.9871    121.6454
   459.8000      8.0986      2.5224     -0.0595      7.7339     26.8874    124.0836
   459.9000      8.1020      2.5381     -0.0497      6.7841     26.4259    124.8211
   460.0000      8.1048      2.5685      0.0460      4.9367     25.8839    125.4196
   460.1000      8.1071      2.5876      0.0526      3.7823     25.6731    126.3027
   460.2000      8.1089      2.5817      0.0281      4.1380     25.8323    127.6113
   460.3000      8.1099      2.5659     -0.0047      5.0955     25.9839    129.9482
   460.4000      8.1100      2.5612      0.0378      5.3830     25.9725    133.3508
   460.5000      8.1093      2.5620      0.0448      5.3347     25.9477    135.9928
   460.6000      8.1082      2.5498      0.0425      6.0746     25.9851    137.0600
   460.7000      8.1070      2.5256      0.0460      7.5396     25.8087    138.3671
   460.8000      8.1062      2.4988      0.0286      9.1627     25.2856    138.5198
   460.9000      8.1059      2.4700      0.0073     10.9064     24.8065    135.3991
   461.0000      8.1061      2.4388     -0.0044     12.8026     24.5569    133.9105
   461.1000      8.1069      2.4109     -0.0053     14.4925     24.2685    138.0014
   461.2000      8.1082      2.3938     -0.0265     15.5245     23.9393    144.3954
   461.3000      8.1098      2.3804      0.0200     16.3371     23.8026    146.7138
   461.4000      8.1113      2.3488      0.0133     18.2547     23.6579    143.3555
   461.5000      8.1119      2.2865     -0.0003     22.0302     23.3271    139.0087
   461.6000      8.1101      2.2033     -0.0443     27.0733     22.9091    134.9763
   461.7000      8.1047      2.1307     -0.0722     31.4737     22.3850    128.2968
   461.8000      8.0948      2.0980     -0.0207     33.4521     21.5170    122.9715
   461.9000      8.0803      2.0988      0.0558     33.4047     20.3410    125.0207
   462.0000      8.0626      2.1124      0.0508     32.5847     19.3664    133.7515
   462.1000      8.0438      2.1370      0.0607     31.0904     18.7530    144.6136
   462.2000      8.0262      2.1768      0.0926     28.6797     18.2281    149.0348
   462.3000      8.0113      2.2257      0.1310     25.7151     17.7330    146.9070
   462.4000      7.9996      2.2714      0.1534     22.9454     17.4333    147.7473
   462.5000      7.9908      2.3053      0.1834     20.8936     17.5760    149.8242
   462.6000      7.9843      2.3345      0.1660     19.1192     18.0388    147.7053
   462.7000      7.9794      2.3742      0.1551     16.7134     18.3293    142.1488
   462.8000      7.9758      2.4187      0.1839     14.0192     18.3338    136.0087
   462.9000      7.9733      2.4486      0.1277     12.2045     18.5978    134.2396
   463.0000      7.9717      2.4581      0.1268     11.6325     19.3434    138.0359
   463.1000      7.9708      2.4541      0.1028     11.8735     20.1878    142.8724
   463.2000      7.9705      2.4432      0.0989     12.5355     20.8635    144.6117
   463.3000      7.9703      2.4261      0.0749     13.5690     21.2276    142.8268
   463.4000      7.9701      2.4144      0.0289     14.2759     21.3251    141.4953
   463.5000      7.9694      2.4247      0.0491     13.6541     21.3033    144.2307
   463.6000      7.9683      2.4483      0.1030     12.2272     21.2561    146.8026
   463.7000      7.9670      2.4652      0.0958     11.1976     21.3407    143.7949
   463.8000      7.9658      2.4735      0.0884     10.6951     21.6083    141.2408
   463.9000      7.9650      2.4707      0.1093     10.8688     21.9643    142.1029
   464.0000      7.9648      2.4507      0.0728     12.0782     22.4509    139.3751
   464.1000      7.9651      2.4260      0.0603     13.5771     22.9624    133.2828
   464.2000      7.9654      2.4056      0.0628     14.8121     23.2262    131.8387
   464.3000      7.9655      2.3888      0.0417     15.8309     23.2812    136.8385
   464.4000      7.9650      2.3806      0.0369     16.3256     23.1859    142.1558
   464.5000      7.9641      2.3800      0.0629     16.3629     22.9544    143.7409
   464.6000      7.9629      2.3811      0.0310     16.2975     22.6514    142.3241
   464.7000      7.9619      2.3855      0.0454     16.0302     22.3476    140.2738
   464.8000      7.9613      2.3952      0.0339     15.4411     22.1333    141.4564
   464.9000      7.9608      2.4071      0.0633     14.7209     21.9448    146.1557
   465.0000      7.9605      2.4120      0.1030     14.4262     21.8034    147.2907
   465.1000      7.9600      2.4023      0.0932     15.0102     21.7868    140.8093
   465.2000      7.9594      2.3920      0.0134     15.6362     21.7243    133.3032
   465.3000      7.9585      2.3973      0.0482     15.3130     21.6394    131.9225
   465.4000      7.9576      2.4078      0.0532     14.6761     21.4540    135.7373
   465.5000      7.9566      2.4098      0.0629     14.5586     20.7741    138.1028
   465.6000      7.9555      2.4015      0.0755     15.0596     19.6841    133.6496
   465.7000      7.9543      2.3835      0.0593     16.1535     18.6478    127.1759
   465.8000      7.9531      2.3635      0.0264     17.3634     17.9342    127.0526
   465.9000      7.9518      2.3584      0.0244     17.6753     17.4788    130.7913
   466.0000      7.9509      2.3807      0.0508     16.3241     17.1052    130.2426
   466.1000      7.9504      2.4235      0.1009     13.7280     16.7769    125.2201
   466.2000      7.9504      2.4619      0.1603     11.4003     16.5453    119.6200
   466.3000      7.9508      2.4835      0.0746     10.0923     16.5160    114.1501
   466.4000      7.9514      2.4942      0.1106      9.4452     16.8109    108.4510
   466.5000      7.9519      2.4955      0.0934      9.3641     17.4382    102.8839
   466.6000      7.9524      2.4924      0.0586      9.5540     18.2286     98.2748
   466.7000      7.9525      2.4994      0.0680      9.1267     19.2141     97.3116
   466.8000      7.9523      2.5231      0.0528      7.6925     20.5206     99.8982
   466.9000      7.9519      2.5488      0.0598      6.1344     21.8249    100.6778
   467.0000      7.9513      2.5602      0.0445      5.4443     22.4856     97.3267
