~Version Information
VERS.                      2.0: CWLS Log ASCII Standard - VERSION 2.0
WRAP.                       NO: One line per depth step
~Well Information Block
STRT.FT                -9.2500: 
STOP.FT              1854.7500: 
STEP.FT                 0.2500: 
NULL.                -999.2500: 
COMP.          Pioneer Natural Resources: COMPANY
WELL.          State Wildlife 32-16 Tr: WELL
FLD.           Purgatoire River: FIELD
LOC.           1838' FNL & 1850' FEL--: LOCATION
STAT.                       CO: State
CNTY.               Las Animas: COUNTY
CTRY. USA : Country
SECT. 16 : Section
TOWN. 32S : Township
RANG. 66W : Range
SRVC.          Patterson Wireline: SERVICE COMPANY
DATE.          Tue Nov 22 10:17:13 2005: LOG DATE
API.           05 071 08568 00: UNIQUE WELL ID
~Curve Information Block
DEPT.FT            0 000 00 00: Depth
CCL.                          : Casing Collar Locator
TT3.usec                      : CBL 3' Travel Time
AMP3.mV                       : CBL 3' Amplitude
GR.GAPI                       : Gamma Ray
~Parameter Information Block
~A  Depth       CCL         TT3         AMP3         GR     
# ...
   124.7500      0.0000   1112.8662      5.9925     50.4690
   125.0000      0.0000   1129.0447      5.7125     48.8062
   125.2500      0.0000   1142.1486      5.3823     46.3875
   125.5000      0.0000   1150.7552      5.0360     44.4636
   125.7500      0.0000   1155.2943      4.7579     43.4433
   126.0000      0.0000   1157.1875      4.6465     43.3131
   126.2500      0.0000   1157.7841      4.7649     44.0558
   126.5000      0.0000   1157.8060      5.1034     45.5423
   126.7500      0.0000   1157.1951      5.5742     47.3614
   127.0000      0.0000   1154.8356      6.0536     49.0005
   127.2500      0.0000   1148.2527      6.4448     50.4426
   127.5000      0.0000   1134.6174      6.7170     52.6804
   127.7500      0.0000   1114.3157      6.8966     57.2047
   128.0000      0.0000   1094.4396      7.0326     64.4489
   128.2500      0.0000   1085.9767      7.1670     72.8027
   128.5000      0.0000   1094.4396      7.3127     79.6221
   128.7500      0.0000   1114.3157      7.4412     83.4535
   129.0000      0.0000   1134.6174      7.4939     85.0959
   129.2500      0.0000   1148.2527      7.4244     86.4546
   129.5000      0.0000   1154.8356      7.2366     88.6655
   129.7500      0.0000   1157.2000      6.9787     91.4974
   130.0000      0.0000   1157.8424      6.7077     94.1436
   130.2500      0.0000   1157.9758      6.4673     96.1157
   130.5000      0.0000   1158.0000      6.2927     97.4814
   130.7500      0.0000   1158.0000      6.2224     98.6583
   131.0000      0.0000   1158.0000      6.2830     99.9898
   131.2500      0.0000   1158.0000      6.4529    101.2793
   131.5000      0.0000   1158.0000      6.6504    101.7169
   131.7500      0.0000   1158.0000      6.7825    100.5105
   132.0000      0.0000   1158.0000      6.8185     97.6301
   132.2500      0.0000   1158.0000      6.8122     93.8005
   132.5000      0.0000   1158.0000      6.8506     89.9403
   132.7500      0.0000   1158.0000      6.9838     86.8046
   133.0000      0.0000   1158.0000      7.2006     84.8710
   133.2500      0.0000   1158.0000      7.4604     84.2493
   133.5000      0.0000   1158.0000      7.7402     84.7285
   133.7500      0.0000   1158.0000      8.0438     86.0532
   134.0000      0.0000   1158.0000      8.3632     88.2352
   134.2500      0.0000   1158.0000      8.6477     91.6642
   134.5000      0.0000   1158.0000      8.8348     96.6911
   134.7500      0.0000   1158.0000      8.9140    102.7268
   135.0000      0.0000   1158.0000      8.9416    107.8629
   135.2500      0.0000   1158.0000      8.9838    109.8851
   135.5000      0.0000   1158.0000      9.0525    107.9098
   135.7500      0.0000   1157.9845      9.0979    103.0553
   136.0000      0.0000   1157.8990      9.0481     97.6978
   136.2500      0.0000   1157.4873      8.8607     94.2743
   136.5000      0.0000   1155.9480      8.5592     94.3862
   136.7500      0.0000   1151.5957      8.2332     98.1302
   137.0000      0.0000   1142.2124      7.9991    103.8393
   137.2500      0.0000   1126.8262      7.9451    108.8315
   137.5000      0.0000   1107.4711      8.0873    110.8409
   137.7500      0.0000   1088.3381      8.3592    109.0897
   138.0000      0.0000   1073.3478      8.6403    104.5063
   138.2500      0.0000   1066.0989      8.8155     99.2281
   138.5000      0.0000   1070.5985      8.8306     95.4544
   138.7500      0.0000   1087.8451      8.7026     94.0822
   139.0000      0.0000   1112.0482      8.4805     94.1886
   139.2500      0.0000   1133.9764      8.2092     93.8687
   139.5000      0.0000   1148.0983      7.9345     91.8419
   139.7500      0.0000   1154.8026      7.7187     88.6366
   140.0000      0.0000   1157.1768      7.6165     86.3163
   140.2500      0.0000   1157.7196      7.6250     86.7900
   140.5000      0.0000   1157.3563      7.6759     90.1633
   140.7500      0.0000   1155.5503      7.6850     94.6291
   141.0000      0.0000   1150.4545      7.6108     97.9576
   141.2500      0.0000   1139.8992      7.4733     99.2324
   141.5000      0.0000   1124.1832      7.3278     99.2617
   141.7500      0.0000   1108.7969      7.2198     99.5104
   142.0000      0.0000   1102.2456      7.1605    100.8407
   142.2500      0.0000   1108.7678      7.1451    103.2028
   142.5000      0.0000   1123.9646      7.1766    106.1007
   142.7500      0.0000   1138.7468      7.2462    109.0550
   143.0000      0.0000   1145.6836      7.2958    111.6877
   143.2500      0.0000   1140.0118      7.2400    113.6042
   143.5000      0.0000   1117.5081      7.0471    114.3307
   143.7500      0.0000   1077.1549      6.7849    113.3001
   144.0000      0.0000   1028.8882      6.5661    109.9813
   144.2500      0.0000    994.7799      6.4567    104.4482
   144.5000      0.0000    994.7650      6.4461     97.8534
   144.7500      0.0000   1028.8718      6.4958     91.8710
   145.0000      0.0000   1077.2411      6.5953     87.5325
   145.2500      0.0000   1118.1034      6.7675     84.7643
   145.5000      0.0000   1142.4498      7.0279     82.8250
   145.7500      0.0000   1153.2250      7.3411     80.9102
   146.0000      0.0000   1156.8466      7.6193     78.6419
   146.2500      0.0000   1157.7811      7.7758     76.4961
   146.5000      0.0000   1157.9709      7.7883     75.7179
   146.7500      0.0000   1158.0000      7.7054     77.3465
   147.0000      0.0000   1158.0000      7.5954     80.9246
   147.2500      0.0000   1158.0000      7.4991     83.9943
   147.5000      0.0000   1157.9738      7.4273     83.3579
   147.7500      0.0000   1157.8292      7.3790     77.7573
   148.0000      0.0000   1157.1324      7.3393     69.4218
   148.2500      0.0000   1154.5690      7.2715     62.3770
   148.5000      0.0000   1147.4318      7.1470     59.1616
   148.7500      0.0000   1132.6481      6.9966     59.4964
   149.0000      0.0000   1110.6365      6.8895     61.6137
   149.2500      0.0000   1089.0864      6.8316     63.9958
   149.5000      0.0000   1079.9106      6.7296     65.9792
   149.7500      0.0000   1089.0864      6.5064     67.5869
   150.0000      0.0000   1110.6365      6.2074     69.1678
   150.2500      0.0000   1132.6481      5.9511     71.0473
   150.5000      0.0000   1147.4318      5.8174     73.4055
   150.7500     -2.0000   1154.5400      5.8173     76.2577
   151.0000      0.0000   1156.9438      5.9334     79.4689
   151.2500      0.0000   1156.8710      6.1642     82.8904
   151.5000      0.0000   1154.1840      6.5402     86.2998
   151.7500      0.0000   1146.3264      7.0837     88.8921
   152.0000      0.0000   1129.9965      7.7304     89.1156
   152.2500      0.0000   1105.6825      8.3214     85.6722
   152.5000      0.0000   1081.8785      8.7283     78.8226
   152.7500      0.0000   1071.7430      8.9604     70.4787
   153.0000      0.0000   1081.8785      9.1015     63.0265
   153.2500      0.0000   1105.6825      9.1862     58.0350
   153.5000      0.0000   1129.9965      9.1885     55.6878
   153.7500      0.0000   1146.3264      9.0912     55.0997
   154.0000      0.0000   1154.2101      8.9158     55.1999
   154.2500      0.0000   1157.0417      8.7047     55.4764
   154.5000      0.0000   1157.8113      8.5036     56.1118
   154.7500      0.0000   1157.9711      8.3606     57.5914
   155.0000      0.0000   1158.0000      8.3206     60.1470
   155.2500      0.0000   1158.0000      8.4117     63.3025
   155.5000      0.0000   1158.0000      8.6281     65.7925
   155.7500      0.0000   1158.0000      8.9248     66.0400
   156.0000      0.0000   1158.0000      9.2387     63.1265
   156.2500      0.0000   1158.0000      9.5230     57.6216
   156.5000      0.0000   1158.0000      9.7663     51.4009
   156.7500      0.0000   1157.9758      9.9815     46.4355
   157.0000      0.0000   1157.8423     10.1880     43.6928
   157.2500      0.0000   1157.1749     10.4117     43.0163
   157.5000      0.0000   1154.6744     10.6906     43.6255
   157.7500      0.0000   1147.4172     11.0637     44.6296
   158.0000      0.0000   1131.2427     11.5457     45.3939
