~Version Information
VERS.                      2.0: CWLS Log ASCII Standard - VERSION 2.0
WRAP.                       NO: One line per depth step
~Well Information Block
STRT.FT               695.5000: 
STOP.FT              1499.5000: 
STEP.FT                 0.2500: 
NULL.                -999.2500: 
COMP.          Pioneer Natural Resources: COMPANY
WELL.          Pallet Ranch 34-25 Tr: WELL
FLD.           Purgatoire River: FIELD
LOC.           465' FSL & 2138' FEL: LOCATION
PROV.                 Colorado: PROVINCE
CNTY.               Las Animas: COUNTRY
SRVC.                Patterson: SERVICE COMPANY
DATE.          Wed Jan 18 18:58:46 2006: LOG DATE
UWI.           05 071 08657 00: UNIQUE WELL ID
~Curve Information Block
DEPT.FT            0 000 00 00: Depth
SN.Ohm-m                      : IEL Short Normal
SP.mV                         : IEL Spontaneous Potential
DIR.Ohm-m                     : IEL Induction Resistivity
GR.GAPI                       : Gamma Ray
~Parameter Information Block
~A  Depth        SN          SP         DIR          GR     
# ...
  1365.5000     19.9184     52.8841     16.9693    111.7546
  1365.7500     20.0227     52.9796     16.7877    114.3487
  1366.0000     19.9448     53.0613     16.4673    117.4285
  1366.2500     19.6330     53.1472     16.0492    118.3443
  1366.5000     19.1349     53.2576     15.5909    117.9607
  1366.7500     18.5538     53.4094     15.1391    117.3948
  1367.0000     17.9944     53.6089     14.7183    118.2264
  1367.2500     17.4532     53.8470     14.3335    120.7453
  1367.5000     16.8764     54.0990     13.9790    127.3302
  1367.7500     16.2987     54.3321     13.6460    132.6434
  1368.0000     15.7739     54.5181     13.3239    139.7497
  1368.2500     15.2606     54.6426     12.9972    142.8802
  1368.5000     14.6962     54.7086     12.6453    144.6514
  1368.7500     14.0854     54.7326     12.2507    144.2582
  1369.0000     13.4857     54.7385     11.8121    142.5979
  1369.2500     12.9590     54.7486     11.3501    141.7410
  1369.5000     12.5595     54.7753     10.8978    142.4580
  1369.7500     12.3276     54.8188     10.4847    144.7866
  1370.0000     12.2252     54.8717     10.1265    150.5949
  1370.2500     12.1104     54.9267      9.8241    155.1113
  1370.5000     11.8455     54.9804      9.5686    161.3300
  1370.7500     11.4337     55.0320      9.3478    164.7192
  1371.0000     11.0095     55.0789      9.1503    168.3925
  1371.2500     10.7127     55.1135      8.9677    169.4102
  1371.5000     10.5779     55.1220      8.7955    167.6216
  1371.7500     10.5211     55.0878      8.6331    164.1239
  1372.0000     10.4908     55.0003      8.4839    157.0526
  1372.2500     10.5381     54.8681      8.3537    152.7438
  1372.5000     10.6319     54.7235      8.2476    149.0891
  1372.7500     10.6137     54.6103      8.1660    148.6306
  1373.0000     10.4290     54.5570      8.1036    149.2393
  1373.2500     10.1850     54.5562      8.0505    149.4635
  1373.5000      9.9786     54.5702      7.9972    148.9380
  1373.7500      9.8270     54.5613      7.9379    148.1581
  1374.0000      9.7074     54.5169      7.8728    146.5962
  1374.2500      9.6001     54.4472      7.8067    145.3648
  1374.5000      9.5117     54.3701      7.7470    143.4435
  1374.7500      9.4620     54.3061      7.7015    142.3565
  1375.0000      9.4843     54.2786      7.6767    141.8203
  1375.2500      9.6041     54.3088      7.6767    142.8261
  1375.5000      9.7654     54.4040      7.7028    147.0216
  1375.7500      9.8435     54.5513      7.7516    151.3654
  1376.0000      9.8004     54.7221      7.8157    158.8466
  1376.2500      9.7665     54.8829      7.8845    163.3863
  1376.5000      9.8670     55.0079      7.9484    167.3802
  1376.7500     10.0165     55.0863      8.0041    167.0959
  1377.0000     10.0327     55.1241      8.0582    162.0670
  1377.2500      9.9213     55.1382      8.1274    156.9428
  1377.5000      9.9100     55.1483      8.2339    150.2452
  1377.7500     10.1861     55.1705      8.3980    148.1297
  1378.0000     10.6727     55.2119      8.6335    148.7667
  1378.2500     11.1360     55.2682      8.9455    150.4427
  1378.5000     11.5030     55.3268      9.3303    152.0178
  1378.7500     11.9328     55.3743      9.7767    151.3897
  1379.0000     12.5119     55.4043     10.2665    147.2914
  1379.2500     13.0895     55.4178     10.7783    142.4029
  1379.5000     13.5644     55.4186     11.2924    132.3283
  1379.7500     14.0623     55.4089     11.7992    124.6407
  1380.0000     14.7266     55.3873     12.3027    113.7685
  1380.2500     15.5850     55.3480     12.8186    108.0301
  1380.5000     16.5687     55.2828     13.3646    102.5056
  1380.7500     17.5403     55.1882     13.9506    100.7283
  1381.0000     18.4126     55.0713     14.5706    100.0170
  1381.2500     19.2016     54.9489     15.1972    100.3526
  1381.5000     19.8783     54.8430     15.7780    101.8309
  1381.7500     20.2623     54.7728     16.2372    103.5166
  1382.0000     20.2016     54.7489     16.4956    106.7922
  1382.2500     19.7474     54.7716     16.5050    109.0545
  1382.5000     19.0442     54.8324     16.2740    112.3361
  1382.7500     18.2195     54.9167     15.8607    114.8982
  1383.0000     17.3890     55.0080     15.3412    120.3418
  1383.2500     16.6057     55.0936     14.7800    125.1204
  1383.5000     15.8647     55.1713     14.2198    132.9341
  1383.7500     15.2101     55.2505     13.6832    137.7068
  1384.0000     14.7167     55.3475     13.1807    143.2521
  1384.2500     14.3438     55.4759     12.7182    145.7371
  1384.5000     13.9380     55.6372     12.3008    147.9493
  1384.7500     13.4239     55.8166     11.9325    148.7415
  1385.0000     12.8769     55.9886     11.6134    149.1719
  1385.2500     12.4173     56.1290     11.3387    148.7669
  1385.5000     12.1675     56.2232     11.1022    146.9115
  1385.7500     12.1942     56.2662     10.8996    145.3290
  1386.0000     12.3527     56.2621     10.7253    143.9512
  1386.2500     12.3528     56.2251     10.5674    144.1281
  1386.5000     12.0893     56.1765     10.4058    145.1402
  1386.7500     11.7539     56.1350     10.2204    145.2895
  1387.0000     11.5400     56.1084     10.0050    143.5425
  1387.2500     11.4460     56.0948      9.7730    141.1563
  1387.5000     11.3570     56.0888      9.5491    137.1933
  1387.7500     11.1387     56.0859      9.3552    135.5350
  1388.0000     10.8209     56.0832      9.2026    136.3230
  1388.2500     10.6853     56.0768      9.0927    139.3447
  1388.5000     10.9091     56.0593      9.0218    146.5058
  1388.7500     11.2315     56.0226      8.9832    151.7951
  1389.0000     11.2665     55.9617      8.9675    158.6398
  1389.2500     11.0012     55.8729      8.9631    161.8873
  1389.5000     10.6777     55.7521      8.9579    164.5432
  1389.7500     10.4232     55.5993      8.9425    164.9571
  1390.0000     10.2497     55.4309      8.9108    163.7814
  1390.2500     10.1611     55.2794      8.8589    161.8168
  1390.5000     10.1329     55.1774      8.7852    157.3072
  1390.7500     10.1249     55.1393      8.6908    153.7266
  1391.0000     10.0919     55.1564      8.5810    148.6156
  1391.2500     10.0218     55.2036      8.4650    145.8870
  1391.5000     10.0078     55.2517      8.3533    143.0999
  1391.7500     10.1694     55.2779      8.2542    141.9364
  1392.0000     10.4730     55.2735      8.1707    140.8139
  1392.2500     10.6604     55.2448      8.1012    140.5991
  1392.5000     10.4707     55.2112      8.0423    141.9983
  1392.7500      9.9764     55.1995      7.9919    144.4754
  1393.0000      9.4997     55.2336      7.9499    149.9147
  1393.2500      9.2137     55.3255      7.9162    153.6693
  1393.5000      9.0583     55.4705      7.8891    157.7000
  1393.7500      8.9712     55.6474      7.8646    158.8262
  1394.0000      8.9469     55.8246      7.8361    158.4373
  1394.2500      8.9384     55.9688      7.7956    157.2795
  1394.5000      8.9288     56.0565      7.7361    155.1151
  1394.7500      9.0226     56.0838      7.6567    153.8599
  1395.0000      9.3031     56.0664      7.5671    152.7224
  1395.2500      9.6602     56.0304      7.4864    152.4832
  1395.5000      9.8831     55.9976      7.4364    152.9412
  1395.7500      9.9116     55.9781      7.4332    153.9871
  1396.0000      9.8974     55.9733      7.4827    156.9600
  1396.2500      9.9906     55.9825      7.5808    159.7554
  1396.5000     10.1212     56.0061      7.7168    164.4384
  1396.7500     10.0756     56.0416      7.8783    167.2857
  1397.0000      9.7789     56.0815      8.0553    170.0400
  1397.2500      9.3986     56.1131      8.2425    170.3829
  1397.5000      9.1920     56.1220      8.4384    168.5692
  1397.7500      9.3172     56.0954      8.6429    166.1398
  1398.0000      9.8202     56.0276      8.8577    161.2591
  1398.2500     10.6881     55.9256      9.0880    157.4075
  1398.5000     11.7602     55.8093      9.3458    151.1385
  1398.7500     12.7339     55.7048      9.6471    146.7410
