~Version Information
VERS.                      2.0: CWLS Log ASCII Standard - VERSION 2.0
WRAP.                       NO: One line per depth step
~Well Information Block
STRT.FT                10.0000: 
STOP.FT              1380.7500: 
STEP.FT                 0.2500: 
NULL.                -999.2500: 
COMP.          Pioneer Natural Resources: COMPANY
WELL.          Baa Baa 34-1 Tr: WELL
FLD.           Purgatoire River: FIELD
LOC.           785' FSL & 2304' FEL: LOCATION
CNTY.               Las Animas: COUNTY
SRVC.                Patterson: SERVICE COMPANY
DATE.          Tue Mar 07 13:08:19 2006: LOG DATE
UWI.           05 071 08710 00: UNIQUE WELL ID
STAT.                 Colorado: STATE
~Curve Information Block
DEPT.FT            0 000 00 00: Depth
GR.GAPI                       : Gamma Ray
CCL.                          : Casing Collar Locator
TT3.usec                      : CBL 3' Travel Time
AMP3.mV                       : CBL 3' Amplitude
~Parameter Information Block
~A  Depth        GR         CCL         TT3         AMP3    
# ...
   110.5000     73.3876      0.0000    814.1964     16.8357
   110.7500     75.6465      0.0000    818.9718     16.2226
   111.0000     76.8100      0.0000    824.2892     15.5343
   111.2500     76.1580      0.0000    833.8604     14.6835
   111.5000     73.4003      0.0000    853.8420     13.6136
   111.7500     69.2221      0.0000    890.6520     12.3696
   112.0000     64.9123      0.0000    943.2642     11.1211
   112.2500     61.7646      0.0000    996.4146     10.0630
   112.5000     60.8633      0.0000   1026.9415      9.2823
   112.7500     62.8052      0.0000   1022.0198      8.7537
   113.0000     67.1469      0.0000    989.7117      8.4389
   113.2500     72.4855      0.0000    949.8367      8.3291
   113.5000     77.5052      0.0000    917.7344      8.4110
   113.7500     81.7997      0.0000    898.0455      8.6564
   114.0000     85.5348      0.0000    888.7983      9.0648
   114.2500     88.6544      0.0000    887.0248      9.7226
   114.5000     90.6777      0.0000    891.1929     10.8074
   114.7500     91.0682      0.0000    900.1208     12.4574
   115.0000     89.7264      0.0000    910.0522     14.5524
   115.2500     87.4109      0.0000    914.2597     16.6648
   115.5000     85.5916      0.0000    908.1177     18.3290
   115.7500     85.3578      0.0000    894.0185     19.3462
   116.0000     86.3554      0.0000    879.1279     19.8069
   116.2500     87.2410      0.0000    868.8220     19.9115
   116.5000     87.2312      0.0000    863.7694     19.8297
   116.7500     86.7265      0.0000    861.9225     19.6582
   117.0000     86.4455      0.0000    861.1445     19.4279
   117.2500     86.6188      0.0000    859.9939     19.1314
   117.5000     87.2301      0.0000    857.4117     18.7494
   117.7500     88.3673      0.0000    852.6714     18.2700
   118.0000     89.8526      0.0000    845.8434     17.7041
   118.2500     90.9364      0.0000    838.1486     17.0955
   118.5000     90.9296      0.0000    831.3398     16.5066
   118.7500     89.9304      0.0000    826.5566     15.9914
   119.0000     88.4109      0.0000    823.8039     15.5782
   119.2500     86.3934      0.0000    822.4077     15.2634
   119.5000     83.7765      0.0000    821.7065     15.0051
   119.7500     81.3384      0.0000    821.3371     14.7243
   120.0000     80.4915      0.0000    821.1608     14.3353
   120.2500     81.8111      0.0000    821.1175     13.7961
   120.5000     84.3518      0.0000    821.1392     13.1406
   120.7500     86.5594      0.0000    821.1310     12.4654
   121.0000     87.4457      0.0000    821.0096     11.8840
   121.2500     86.8651      0.0000    820.7223     11.4777
   121.5000     85.1015      0.0000    820.2306     11.2682
   121.7500     82.4060      0.0000    819.4824     11.2226
   122.0000     78.8896      0.0000    818.5601     11.2783
   122.2500     74.8662      0.0000    818.0248     11.3642
   122.5000     71.2155      0.0000    818.9788     11.4168
   122.7500     69.1197      0.0000    822.2491     11.3967
   123.0000     69.2966      0.0000    827.2672     11.3038
   123.2500     71.4625      0.0000    832.2001     11.1707
   123.5000     74.3351      0.0000    835.5264     11.0413
   123.7500     76.0755      0.0000    837.0250     10.9588
   124.0000     75.2099      0.0000    836.8548     10.9624
   124.2500     71.8382      0.0000    834.3865     11.0740
   124.5000     67.9651      0.0000    828.8943     11.2797
   124.7500     66.1377      0.0000    821.0598     11.5376
   125.0000     67.5037      0.0000    812.7147     11.8151
   125.2500     71.1660      0.0000    805.1612     12.1169
   125.5000     75.1095      0.0000    798.5204     12.4671
   125.7500     77.5568      0.0000    792.6112     12.8681
   126.0000     77.9364      0.0000    787.9701     13.2906
   126.2500     77.2736      0.0000    785.9384     13.7003
   126.5000     77.6292      0.0000    787.7789     14.0788
   126.7500     80.5409      0.0000    793.5380     14.4158
   127.0000     85.6515      0.0000    801.8125     14.6966
   127.2500     90.9816      0.0000    810.7178     14.9107
   127.5000     94.6212      0.0000    818.9952     15.0693
   127.7500     96.0192      0.0000    826.1174     15.2027
   128.0000     95.7100      0.0000    831.7780     15.3341
   128.2500     94.4135      0.0000    835.7772     15.4681
   128.5000     92.9103      0.0000    838.3304     15.6136
   128.7500     92.3251      0.0000    840.1813     15.8083
   129.0000     93.5151      0.0000    842.3129     16.1011
   129.2500     96.0663      0.0000    845.4260     16.5073
   129.5000     98.5798      0.0000    849.4156     16.9860
   129.7500    100.1829      0.0000    853.3135     17.4598
   130.0000    101.2834      0.0000    855.9009     17.8564
   130.2500    102.5597      0.0000    856.4877     18.1470
   130.5000    103.6340      0.0000    855.3327     18.3564
   130.7500    103.3392      0.0000    853.6180     18.5359
   131.0000    101.2135      0.0000    852.8614     18.7281
   131.2500     98.1254      0.0000    853.8240     18.9643
   131.5000     95.3346      0.0000    855.8855     19.2821
   131.7500     93.4803      0.0000    857.6003     19.6985
   132.0000     92.5723      0.0000    857.8305     20.1450
   132.2500     92.3992      0.0000    856.4747     20.4572
   132.5000     92.6890      0.0000    854.5110     20.4706
   132.7500     93.2688      0.0000    853.2908     20.1497
   133.0000     94.2873      0.0000    853.3022     19.6399
   133.2500     96.0594      0.0000    853.5570     19.2125
   133.5000     98.5394      0.0000    852.4560     19.1433
   133.7500    101.0281      0.0000    849.2397     19.5905
   134.0000    102.3921      0.0000    844.5043     20.5302
   134.2500    101.6288      0.0000    839.7320     21.7781
   134.5000     98.4636      0.0000    836.7410     23.0657
   134.7500     93.6148      0.0000    837.1098     24.1167
   135.0000     88.4104      0.0000    841.1480     24.7029
   135.2500     83.9291      0.0000    847.1818     24.7039
   135.5000     80.4078      0.0000    852.4158     24.1625
   135.7500     77.4495      0.0000    854.9298     23.2825
   136.0000     74.6460      0.0000    854.8659     22.3411
   136.2500     71.9101      0.0000    853.7431     21.5599
   136.5000     69.4318      0.0000    852.9331     21.0097
   136.7500     67.5749      0.0000    852.9861     20.6044
   137.0000     66.6579      0.0000    853.9248     20.1858
   137.2500     66.6013      0.0000    855.3262     19.6371
   137.5000     67.0074      0.0000    856.1008     18.9516
   137.7500     67.8169      0.0000    854.9748     18.2201
   138.0000     69.5747      0.0000    851.5195     17.5638
   138.2500     72.6972      0.0000    846.5248     17.0692
   138.5000     76.6237      0.0000    841.5265     16.7644
   138.7500     80.0926      0.0000    838.2568     16.6263
   139.0000     82.2873      0.0000    838.0575     16.5991
   139.2500     83.3479      0.0000    840.8267     16.6206
   139.5000     83.6396      0.0000    844.3647     16.6531
   139.7500     83.0607      0.0000    845.5220     16.6891
   140.0000     81.4857      0.0000    842.5958     16.7230
   140.2500     79.4393      0.0000    836.6127     16.7227
   140.5000     77.7726      0.0000    830.2168     16.6337
   140.7500     76.8464      0.0000    825.5034     16.4076
   141.0000     76.3736      0.0000    822.9387     16.0288
   141.2500     75.8321      0.0000    821.8668     15.5287
   141.5000     74.9111      0.0000    821.5146     14.9840
   141.7500     73.8982      0.0000    821.4682     14.4964
   142.0000     73.7990      0.0000    821.5781     14.1647
   142.2500     75.7370      0.0000    821.7365     14.0589
   142.5000     79.8953      0.0000    821.7925     14.1997
   142.7500     85.0431      0.0000    821.5589     14.5521
   143.0000     89.3053      0.0000    820.7628     15.0467
   143.2500     91.5754      0.0000    818.9303     15.6151
   143.5000     92.1903      0.0000    815.4435     16.2129
   143.7500     92.2563      0.0000    810.2339     16.8137
