~Version Information
VERS.                      2.0: CWLS Log ASCII Standard - VERSION 2.0
WRAP.                       NO: One line per depth step
~Well Information Block
STRT.FT               294.3000: 
STOP.FT              1461.0000: 
STEP.FT                 0.1000: 
NULL.                -999.2500: 
COMP.          Pioneer Natural Resources: COMPANY
WELL.              Lucky 21-36: WELL
FLD.           Purgatoire River: FIELD
CDN. :
PROV. :
UWI. :
STAT. :
CNTY. :
CTRY. :
API. :
COMP. :
WELL. :
FLD. :
LOC. :
DATE. :
SRVC. :
LOC.           799' FNL & 1578' FWL--: LOCATION
CNTY.               Las Animas: COUNTY
SRVC.          Superior Well Services: SERVICE COMPANY
DATE.          Tue Jul 08 08-29-33 2008: LOG DATE
UWI.           05 071 08456 00: UNIQUE WELL ID
STAT.                 Colorado: STATE
~Curve Information Block
DEPT.FT            0 000 00 00: Depth
DCAL.in                       : CDL Caliper
RHOB.g/cc                     : CDL Bulk Density
RHOC.g/cc                     : CDL Density Correction
DPOR.pu                       : CDL Density Porosity
NPOR.pu                       : Neutron Porosity
GR.GAPI                       : Gamma Ray
~Parameter Information Block
~A  Depth       DCAL        RHOB        RHOC        DPOR        NPOR         GR     
# ...
  1129.5000      7.8990      2.5099     -0.0177      8.4886     19.0475     59.5633
  1129.6000      7.8972      2.5225      0.0256      7.7263     19.7522     63.0241
  1129.7000      7.8956      2.5442      0.0367      6.4103     20.0384     66.0691
  1129.8000      7.8945      2.5597      0.0419      5.4710     19.8192     66.7127
  1129.9000      7.8941      2.5616      0.0441      5.3591     19.2637     66.4674
  1130.0000      7.8941      2.5554      0.0248      5.7338     18.7470     66.2063
  1130.1000      7.8942      2.5563      0.0028      5.6812     18.4219     65.0499
  1130.2000      7.8943      2.5628      0.0476      5.2845     18.1701     64.0264
  1130.3000      7.8945      2.5594      0.0103      5.4930     18.2283     63.8917
  1130.4000      7.8947      2.5455      0.0268      6.3309     18.9250     67.5018
  1130.5000      7.8948      2.5371     -0.0163      6.8417     19.7709     75.5651
  1130.6000      7.8945      2.5502      0.0216      6.0483     20.1467     80.9959
  1130.7000      7.8938      2.5775      0.0702      4.3933     20.1637     78.7225
  1130.8000      7.8928      2.5883      0.0987      3.7409     19.9705     73.7285
  1130.9000      7.8918      2.5674      0.0113      5.0053     19.5938     72.7380
  1131.0000      7.8912      2.5356      0.0187      6.9320     19.3550     73.4033
  1131.1000      7.8912      2.5174     -0.0065      8.0350     19.5230     71.4729
  1131.2000      7.8917      2.5200      0.0179      7.8805     19.8618     72.4412
  1131.3000      7.8927      2.5373      0.0289      6.8318     20.0256     78.7774
  1131.4000      7.8939      2.5523      0.0548      5.9212     19.9402     83.5000
  1131.5000      7.8948      2.5492      0.0539      6.1120     19.7838     84.0596
  1131.6000      7.8954      2.5390      0.0042      6.7281     19.8765     79.6240
  1131.7000      7.8958      2.5400      0.0692      6.6673     19.9633     68.8553
  1131.8000      7.8964      2.5455      0.0604      6.3349     19.6128     58.0517
  1131.9000      7.8974      2.5536      0.0133      5.8420     19.2705     52.9067
  1132.0000      7.8988      2.5685      0.0755      4.9416     19.4247     53.8055
  1132.1000      7.9003      2.5777      0.0493      4.3826     19.6095     57.9539
  1132.2000      7.9012      2.5743      0.0543      4.5875     19.4894     61.3231
  1132.3000      7.9012      2.5586      0.0747      5.5408     19.2986     62.8362
  1132.4000      7.8999      2.5326      0.0469      7.1175     19.2446     62.0530
  1132.5000      7.8972      2.5109     -0.0022      8.4280     19.6180     60.2377
  1132.6000      7.8936      2.5077      0.0083      8.6264     20.2517     62.4217
  1132.7000      7.8897      2.5147      0.0392      8.1985     20.3617     67.1376
  1132.8000      7.8859      2.5124      0.0351      8.3400     19.7009     69.0570
  1132.9000      7.8828      2.5000      0.0208      9.0898     18.7615     70.4956
  1133.0000      7.8804      2.4958      0.0324      9.3432     18.3128     73.1016
  1133.1000      7.8786      2.5135      0.0310      8.2750     18.6633     74.5205
  1133.2000      7.8774      2.5487      0.0933      6.1384     19.3153     74.3226
  1133.3000      7.8768      2.5797      0.0748      4.2592     19.6934     72.4090
  1133.4000      7.8769      2.5886      0.0916      3.7219     19.7318     68.1714
  1133.5000      7.8778      2.5782      0.0858      4.3511     19.5081     65.5636
  1133.6000      7.8794      2.5648      0.0973      5.1646     19.0945     68.6193
  1133.7000      7.8818      2.5628      0.0590      5.2863     18.7433     74.5089
  1133.8000      7.8849      2.5783      0.0760      4.3450     18.6488     78.0258
  1133.9000      7.8885      2.6017      0.1064      2.9271     18.6991     76.3278
  1134.0000      7.8923      2.6125      0.0800      2.2714     18.7052     70.0612
  1134.1000      7.8959      2.6039      0.0541      2.7950     18.7773     63.0824
  1134.2000      7.8987      2.5855      0.0438      3.9084     19.1708     60.0986
  1134.3000      7.9007      2.5683      0.0413      4.9528     19.5920     62.6592
  1134.4000      7.9019      2.5561      0.0247      5.6885     19.6428     68.0048
  1134.5000      7.9027      2.5470      0.0426      6.2415     19.7643     72.8839
  1134.6000      7.9032      2.5408      0.0376      6.6174     20.3142     74.7600
  1134.7000      7.9035      2.5412      0.0380      6.5924     20.7464     72.9556
  1134.8000      7.9035      2.5509      0.0307      6.0089     20.5927     70.0302
  1134.9000      7.9032      2.5714      0.0173      4.7647     20.2435     69.7943
  1135.0000      7.9025      2.5956      0.0766      3.2945     20.0529     71.9390
  1135.1000      7.9017      2.6105      0.0524      2.3914     19.7706     72.7649
  1135.2000      7.9007      2.6153      0.0658      2.1022     19.2064     71.8243
  1135.3000      7.8993      2.6121      0.0653      2.2959     18.5974     71.1336
  1135.4000      7.8975      2.6029      0.0629      2.8556     18.0916     69.0082
  1135.5000      7.8951      2.5991      0.0359      3.0844     17.9042     64.5389
  1135.6000      7.8921      2.6057      0.0685      2.6858     18.4787     60.8923
  1135.7000      7.8891      2.6058      0.0903      2.6804     19.6152     62.4948
  1135.8000      7.8863      2.5859      0.0621      3.8878     20.4808     70.7066
  1135.9000      7.8841      2.5603      0.0214      5.4367     20.8297     79.9546
  1136.0000      7.8823      2.5495      0.0070      6.0918     21.2449     83.5195
  1136.1000      7.8810      2.5508      0.0414      6.0123     22.0145     84.1927
  1136.2000      7.8799      2.5484      0.0368      6.1548     22.8544     85.9375
  1136.3000      7.8793      2.5390      0.0233      6.7284     23.3613     88.5769
  1136.4000      7.8794      2.5290      0.0497      7.3354     23.4187     93.6482
  1136.5000      7.8801      2.5215     -0.0047      7.7889     23.2080    101.4758
  1136.6000      7.8813      2.5201     -0.0206      7.8745     23.2412    110.6330
  1136.7000      7.8825      2.5290      0.0186      7.3339     23.7465    118.6441
  1136.8000      7.8834      2.5456      0.0345      6.3285     24.1551    120.9668
  1136.9000      7.8838      2.5619      0.0512      5.3384     24.2077    119.2501
  1137.0000      7.8837      2.5700      0.0583      4.8497     24.1942    120.7789
  1137.1000      7.8835      2.5677      0.0723      4.9882     23.9968    128.2044
  1137.2000      7.8832      2.5586      0.0627      5.5380     23.3473    138.0393
  1137.3000      7.8831      2.5481      0.0605      6.1729     22.6491    143.0982
  1137.4000      7.8833      2.5379      0.0497      6.7923     22.6210    140.0297
  1137.5000      7.8839      2.5300      0.0255      7.2740     23.3147    133.8082
  1137.6000      7.8848      2.5318      0.0313      7.1638     23.8520    128.8502
  1137.7000      7.8856      2.5400      0.0405      6.6696     23.8705    125.7572
  1137.8000      7.8859      2.5396      0.0390      6.6901     24.0238    127.2352
  1137.9000      7.8852      2.5282      0.0368      7.3824     24.5014    136.2246
  1138.0000      7.8835      2.5162      0.0634      8.1089     24.8737    147.6225
  1138.1000      7.8810      2.5160      0.0190      8.1219     24.9694    153.0229
  1138.2000      7.8782      2.5345      0.0334      6.9993     24.8059    152.1333
  1138.3000      7.8758      2.5574      0.0640      5.6104     24.4030    148.0243
  1138.4000      7.8739      2.5662      0.0323      5.0771     23.9789    139.8317
  1138.5000      7.8727      2.5663      0.0286      5.0753     23.9515    130.6434
  1138.6000      7.8723      2.5701      0.0520      4.8452     24.2845    126.4341
  1138.7000      7.8727      2.5734      0.0954      4.6421     24.2745    126.9799
  1138.8000      7.8738      2.5737      0.0164      4.6265     23.6212    128.1699
  1138.9000      7.8757      2.5777      0.0637      4.3822     23.0049    126.1079
  1139.0000      7.8780      2.5811      0.0688      4.1763     22.9349    120.6521
