~Version Information
VERS.                      2.0: CWLS Log ASCII Standard - VERSION 2.0
WRAP.                       NO: One line per depth step
~Well Information Block
STRT.FT               400.0000: 
STOP.FT              2232.0000: 
STEP.FT                 0.2500: 
NULL.                -999.2500: 
COMP.          Evergreen Operating Corporation: COMPANY
WELL.                Croc 42-9: WELL
FLD.           Purgatorie River: FIELD
LOC.           2262' FNL & 238' FEL: LOCATION
STAT.                 Colorado: State
CNTY.               Las Animas: COUNTY
CTRY. USA : Country
SECT. 9 : Section
TOWN. 32S : Township
RANG. 66W : Range
SRVC.                Patterson: SERVICE COMPANY
DATE.          Wed Jul 21 23:25:54 2004: LOG DATE
API.           05 071 08106 00: UNIQUE WELL ID
~Curve Information Block
DEPT.FT            0 000 00 00: Depth
SN.Ohm-m                      : IEL Short Normal
SP.mV                         : IEL Spontaneous Potential
DIR.Ohm-m                     : IEL Induction Resistivity
GR.GAPI                       : Gamma Ray
~Parameter Information Block
~A  Depth        SN          SP         DIR          GR     
# ...
   869.0000     20.5072     51.5498     16.7203    119.5649
   869.2500     21.3208     51.5349     17.0583    116.9231
   869.5000     22.0780     51.5925     17.4465    111.1292
   869.7500     22.8122     51.7527     17.8988    106.9441
   870.0000     23.5689     51.9796     18.4183    102.3285
   870.2500     24.3478     52.1848     19.0022    101.0793
   870.5000     25.1024     52.2858     19.6472    101.4224
   870.7500     25.7484     52.2587     20.3555    102.1922
   871.0000     26.2347     52.1433     21.1350    102.7581
   871.2500     26.6239     52.0036     21.9994    102.4122
   871.5000     27.0363     51.8829     22.9681    100.9831
   871.7500     27.5430     51.7880     24.0639     99.7548
   872.0000     28.1768     51.6976     25.3013     98.1229
   872.2500     28.9976     51.5795     26.6654     97.4142
   872.5000     30.0848     51.4076     28.0940     96.8244
   872.7500     31.4483     51.1784     29.4782     96.3208
   873.0000     33.0113     50.9154     30.6813     94.4142
   873.2500     34.7348     50.6531     31.5694     92.1020
   873.5000     36.6485     50.4147     32.0427     87.5575
   873.7500     38.6819     50.2005     32.0590     84.3873
   874.0000     40.5280     49.9960     31.6333     80.0920
   874.2500     41.7205     49.7846     30.8127     77.5858
   874.5000     41.8590     49.5574     29.6537     74.2714
   874.7500     40.7856     49.3189     28.2263     72.5269
   875.0000     38.6085     49.0975     26.6288     71.5538
   875.2500     35.6261     48.9558     24.9778     72.7877
   875.5000     32.2279     48.9803     23.3724     78.5790
   875.7500     28.8124     49.2421     21.8661     85.2306
   876.0000     25.7276     49.7476     20.4686     98.3584
   876.2500     23.2099     50.4131     19.1670    107.7213
   876.5000     21.3268     51.0878     17.9502    119.1981
   876.7500     19.9718     51.6150     16.8220    123.5253
   877.0000     18.9410     51.8979     15.8024    124.9109
   877.2500     18.0534     51.9308     14.9186    123.9803
   877.5000     17.2223     51.7846     14.1918    123.0552
   877.7500     16.4381     51.5642     13.6267    123.6342
   878.0000     15.7119     51.3617     13.2078    125.5395
   878.2500     15.0595     51.2252     12.9026    126.4624
   878.5000     14.5256     51.1536     12.6697    125.8615
   878.7500     14.1828     51.1145     12.4654    123.7617
   879.0000     14.0797     51.0694     12.2495    118.4784
   879.2500     14.1972     50.9934     11.9875    114.3594
   879.5000     14.4590     50.8825     11.6535    109.0675
   879.7500     14.7511     50.7507     11.2362    106.9667
   880.0000     14.9563     50.6210     10.7469    106.6818
   880.2500     15.0217     50.5122     10.2233    108.3781
   880.5000     14.9712     50.4290      9.7236    112.9636
   880.7500     14.8370     50.3573      9.3115    116.5679
   881.0000     14.6187     50.2701      9.0425    121.2455
   881.2500     14.3055     50.1437      8.9588    123.2552
   881.5000     13.9326     49.9744      9.0947    124.5382
   881.7500     13.6045     49.7840      9.4886    124.6535
   882.0000     13.4472     49.6072     10.1977    124.4197
   882.2500     13.5504     49.4700     11.3107    124.2333
   882.5000     13.9439     49.3749     12.9487    124.4062
   882.7500     14.5846     49.3036     15.2250    125.1655
   883.0000     15.3476     49.2332     18.1001    127.1214
   883.2500     16.0640     49.1513     21.1252    128.2611
   883.5000     16.6178     49.0622     23.4555    128.3574
   883.7500     17.0092     48.9803     24.6995    126.9704
   884.0000     17.3177     48.9208     25.7428    122.9365
   884.2500     17.6129     48.8908     28.4715    119.5770
   884.5000     17.8743     48.8869     36.1359    115.3724
   884.7500     17.9798     48.8986     59.0718    114.1166
   885.0000     17.8095     48.9103    190.5859    114.9020
   885.2500     17.3609     48.8989 100000.0000    116.6836
   885.5000     16.7407     48.8310 100000.0000    120.2357
   885.7500     16.0759     48.6654 100000.0000    122.8104
   886.0000     15.4670     48.3615 100000.0000    126.2627
   886.2500     14.9878     47.8865 100000.0000    127.7964
   886.5000     14.6682     47.2174 100000.0000    128.6575
   886.7500     14.4930     46.3386 100000.0000    128.5781
   887.0000     14.4405     45.2362 100000.0000    128.1691
   887.2500     14.4931     43.8950 100000.0000    127.9382
   887.5000     14.6273     42.2960 100000.0000    128.0961
   887.7500     14.8344     40.4095 100000.0000    128.8664
   888.0000     15.1531     38.1804 100000.0000    130.9474
   888.2500     15.6625     35.5090 100000.0000    132.3011
   888.5000     16.4011     32.2341 100000.0000    133.0937
   888.7500     17.2661     28.1098 100000.0000    132.7943
   889.0000     18.0075     22.7750 100000.0000    132.3716
   889.2500     18.3130     15.7373      6.0435    132.8545
   889.5000     17.9044      6.4086      3.1806    134.6344
   889.7500     16.6162     -5.8030      2.5964    135.6976
   890.0000     14.4236    -21.3829      2.8781    135.9570
   890.2500     11.4663    -40.6093      4.4761    135.3625
   890.5000      8.1616    -63.4027     12.2723    134.0815
   890.7500      5.1807    -89.0390 100000.0000    132.8902
   891.0000      3.0671   -115.8059 100000.0000    129.4464
   891.2500      1.8936   -140.9744     10.4436    125.3826
   891.5000      1.3693   -161.5052      3.6624    116.0571
   891.7500      1.1838   -175.2960      2.2058    107.6248
   892.0000      1.1619   -181.9837      1.8471     92.4268
   892.2500      1.2036   -182.5571      2.0815     81.8623
   892.5000      1.2688   -178.3669      3.4355     68.2997
   892.7500      1.4425   -170.7088     18.6741     62.0400
   893.0000      1.9932   -161.0720 100000.0000     57.1433
   893.2500      3.4080   -151.1877 100000.0000     56.1614
   893.5000      6.3421   -142.5605 100000.0000     56.4298
   893.7500     11.4226   -136.0116 100000.0000     57.0389
   894.0000     18.8028   -131.6475 100000.0000     58.0376
   894.2500     27.5529   -129.1335 100000.0000     58.6061
   894.5000     35.7045   -127.9952 100000.0000     58.7908
   894.7500     41.2965   -127.8174 100000.0000     58.0582
   895.0000     43.2352   -128.3188 100000.0000     55.5099
   895.2500     41.2234   -129.3479 100000.0000     53.2838
   895.5000     35.5171   -130.8851 100000.0000     50.3051
   895.7500     27.1128   -133.0946 100000.0000     49.0191
   896.0000     17.9104   -136.3409 100000.0000     48.3489
   896.2500     10.1021   -141.0194 100000.0000     48.6849
   896.5000      4.9820   -147.1934      5.2306     50.2445
   896.7500      2.4036   -154.2464      1.5682     52.0355
   897.0000      1.4097   -160.7811      0.8375     56.3932
   897.2500      1.1223   -164.8209      0.5830     60.9524
   897.5000      1.0680   -164.2287      0.5027     71.0970
   897.7500      1.0774   -157.2655      0.5338     80.1827
   898.0000      1.1397   -143.1913      0.6921     96.3742
   898.2500      1.3640   -122.6925      1.0907    107.4879
   898.5000      2.0287    -97.8809      2.1591    121.3160
   898.7500      3.5626    -71.7576      5.9546    126.9962
   899.0000      6.2604    -47.2704     27.7918    129.2950
   899.2500      9.8760    -26.3888     50.9904    127.3416
   899.5000     13.6542     -9.7240     17.0927    121.6246
   899.7500     16.9024      3.1520     10.8663    117.6460
   900.0000     19.3717     13.0799     13.5650    113.6852
   900.2500     21.0740     20.8745 100000.0000    112.8274
   900.5000     22.0284     27.1915 100000.0000    113.6101
   900.7500     22.3091     32.5210 100000.0000    114.9910
   901.0000     22.1046     37.1705 100000.0000    117.9495
   901.2500     21.5637     41.2475 100000.0000    120.3840
   901.5000     20.6960     44.6960 100000.0000    124.2526
   901.7500     19.4926     47.4057 100000.0000    126.8067
   902.0000     18.0913     49.3608 100000.0000    130.9125
   902.2500     16.7902     50.7175 100000.0000    133.9635
