~Version Information
VERS.                      2.0: CWLS Log ASCII Standard - VERSION 2.0
WRAP.                       NO: One line per depth step
~Well Information Block
STRT.FT               428.8000: 
STOP.FT               951.7000: 
STEP.FT                 0.1000: 
NULL.                -999.2500: 
COMP.          Pioneer Natural Resources: COMPANY
WELL.          Sculpin 32-30 Tr: WELL
FLD.           Purgatoire River: FIELD
LOC.           1600' FNL & 1857' FEL--: LOCATION
CNTY.               Las Animas: COUNTY
SRVC.                Patterson: SERVICE COMPANY
DATE.          Wed Jul 19 09:12:32 2006: LOG DATE
UWI.           05 071 08706 00: UNIQUE WELL ID
STAT.                 Colorado: STATE
~Curve Information Block
DEPT.FT            0 000 00 00: Depth
DCAL.in                       : CDL Caliper
RHOB.g/cc                     : CDL Bulk Density
RHOC.g/cc                     : CDL Density Correction
DPOR.pu                       : CDL Density Porosity
GR.GAPI                       : Gamma Ray
~Parameter Information Block
~A  Depth       DCAL        RHOB        RHOC        DPOR         GR     
# ...
   888.0000      7.7726      2.5463      0.0207      6.2832    119.4684
   888.1000      7.7726      2.5392      0.0257      6.7173    115.9965
   888.2000      7.7726      2.5423      0.0212      6.5282    114.4020
   888.3000      7.7580      2.5572      0.0660      5.6257    111.0926
   888.4000      7.7580      2.5710      0.0542      4.7898    108.3839
   888.5000      7.7418      2.5732      0.0710      4.6526    109.9180
   888.6000      7.7418      2.5704      0.1116      4.8223    112.3794
   888.7000      7.7418      2.5777      0.0938      4.3829    114.5442
   888.8000      7.7259      2.5969      0.1204      3.2163    115.6638
   888.9000      7.7259      2.6077      0.1572      2.5638    111.0236
   889.0000      7.7172      2.5960      0.1389      3.2750    102.1969
   889.1000      7.7172      2.5764      0.0745      4.4621     99.6361
   889.2000      7.7172      2.5659      0.1029      5.0989    106.7594
   889.3000      7.7220      2.5563      0.1114      5.6797    116.0700
   889.4000      7.7220      2.5389      0.0489      6.7355    122.0629
   889.5000      7.7304      2.5256      0.0645      7.5400    126.4463
   889.6000      7.7304      2.5324      0.0475      7.1271    131.0127
   889.7000      7.7304      2.5582      0.0999      5.5614    134.8050
   889.8000      7.7415      2.5846      0.1060      3.9614    136.6259
   889.9000      7.7415      2.5976      0.1162      3.1753    134.0387
   890.0000      7.7595      2.5991      0.1079      3.0857    125.7905
   890.1000      7.7595      2.5961      0.1013      3.2696    115.3584
   890.2000      7.7595      2.5842      0.1120      3.9877    108.0249
   890.3000      7.7744      2.5587      0.0657      5.5306    107.4740
   890.4000      7.7744      2.5326      0.0431      7.1179    113.9283
   890.5000      7.7821      2.5212      0.0497      7.8077    120.2173
   890.6000      7.7821      2.5297      0.0146      7.2894    118.4317
   890.7000      7.7821      2.5498      0.0348      6.0710    114.7410
   890.8000      7.7873      2.5648      0.0854      5.1617    116.9756
   890.9000      7.7873      2.5703      0.0847      4.8323    118.3480
   891.0000      7.7850      2.5724      0.0919      4.7058    113.7420
   891.1000      7.7850      2.5744      0.1183      4.5837    109.1125
   891.2000      7.7850      2.5786      0.0661      4.3281    108.4026
   891.3000      7.7685      2.5862      0.1109      3.8673    109.5514
   891.4000      7.7685      2.5908      0.1025      3.5854    111.1956
   891.5000      7.7562      2.5898      0.1022      3.6501    114.6751
   891.6000      7.7562      2.5877      0.1028      3.7779    118.0182
   891.7000      7.7562      2.5855      0.0971      3.9108    116.0046
   891.8000      7.7602      2.5814      0.0847      4.1592    108.3277
   891.9000      7.7602      2.5788      0.0758      4.3171    101.3200
   892.0000      7.7693      2.5839      0.0776      4.0080    100.9510
   892.1000      7.7693      2.5944      0.0945      3.3683    104.7902
   892.2000      7.7693      2.5993      0.0964      3.0706    103.6809
   892.3000      7.7743      2.5958      0.0556      3.2858     96.9472
   892.4000      7.7743      2.5973      0.0476      3.1937     90.8909
   892.5000      7.7733      2.6069      0.1129      2.6129     85.0640
   892.6000      7.7733      2.6148      0.0522      2.1343     78.6982
   892.7000      7.7733      2.6178      0.0878      1.9506     74.5196
   892.8000      7.7676      2.6140      0.0707      2.1792     74.0196
   892.9000      7.7676      2.6094      0.0597      2.4613     77.0483
   893.0000      7.7609      2.6119      0.0669      2.3104     79.9845
   893.1000      7.7609      2.6176      0.0885      1.9658     80.5135
   893.2000      7.7609      2.6214      0.0584      1.7306     81.0452
   893.3000      7.7583      2.6237      0.0593      1.5961     84.1686
   893.4000      7.7583      2.6202      0.0627      1.8072     88.3778
   893.5000      7.7573      2.6037      0.0951      2.8032     90.3441
   893.6000      7.7573      2.5787      0.0162      4.3190     90.6478
   893.7000      7.7573      2.5612      0.0631      5.3836     91.1139
   893.8000      7.7523      2.5547      0.0500      5.7740     92.4490
   893.9000      7.7523      2.5488      0.0813      6.1336     95.0159
   894.0000      7.7442      2.5372      0.0374      6.8351     96.6775
   894.1000      7.7442      2.5283      0.0504      7.3736     96.1534
   894.2000      7.7442      2.5326      0.0669      7.1166     93.9400
   894.3000      7.7390      2.5445      0.0897      6.3942     91.5307
   894.4000      7.7390      2.5526      0.0763      5.9020     93.6782
   894.5000      7.7356      2.5611      0.0917      5.3858    104.5426
   894.6000      7.7356      2.5727      0.1414      4.6849    121.9898
   894.7000      7.7356      2.5765      0.1631      4.4536    134.9467
   894.8000      7.7319      2.5755      0.1147      4.5151    134.4711
   894.9000      7.7319      2.5808      0.1475      4.1954    127.4532
   895.0000      7.7341      2.5870      0.1221      3.8155    123.2063
   895.1000      7.7341      2.5907      0.0984      3.5917    122.1135
   895.2000      7.7341      2.5943      0.1408      3.3733    120.5430
   895.3000      7.7452      2.5888      0.1334      3.7080    117.5291
   895.4000      7.7452      2.5678      0.0850      4.9830    114.9830
   895.5000      7.7604      2.5429      0.0525      6.4929    112.6872
   895.6000      7.7604      2.5213      0.0590      7.8003    108.8221
   895.7000      7.7604      2.4923      0.0767      9.5551    105.8361
   895.8000      7.7701      2.4566      0.0228     11.7198    106.8035
   895.9000      7.7701      2.4366      0.0072     12.9326    110.7400
   896.0000      7.7693      2.4392      0.0666     12.7767    115.8533
   896.1000      7.7693      2.4558      0.0332     11.7675    118.6672
   896.2000      7.7693      2.4867      0.0861      9.8982    116.1062
   896.3000      7.7664      2.5276      0.1166      7.4171    113.6220
   896.4000      7.7664      2.5646      0.1765      5.1764    116.1911
   896.5000      7.7709      2.5870      0.1803      3.8209    122.5307
   896.6000      7.7709      2.5988      0.1540      3.1032    129.8236
   896.7000      7.7709      2.6130      0.1722      2.2428    129.5676
   896.8000      7.7807      2.6309      0.2260      1.1581    118.4668
   896.9000      7.7807      2.6384      0.2221      0.7058    105.7130
   897.0000      7.7812      2.6271      0.1399      1.3878     97.6904
   897.1000      7.7812      2.6074      0.0434      2.5805     94.4410
   897.2000      7.7812      2.5955      0.0338      3.3057     96.6465
   897.3000      7.7690      2.5942      0.0287      3.3823    102.0135
   897.4000      7.7690      2.5897      0.0643      3.6548    103.9927
   897.5000      7.7585      2.5687      0.0529      4.9294     99.6651
   897.6000      7.7585      2.5366      0.0460      6.8707     94.9619
   897.7000      7.7585      2.5063      0.0425      8.7100     94.3585
   897.8000      7.7515      2.4856      0.0419      9.9652     92.0300
   897.9000      7.7515      2.4823     -0.0104     10.1638     86.2577
   898.0000      7.7477      2.4948      0.0641      9.4043     83.1794
   898.1000      7.7477      2.5071      0.0559      8.6633     85.9156
   898.2000      7.7477      2.5176      0.0365      8.0238     93.7958
   898.3000      7.7477      2.5381      0.0681      6.7840    103.1966
   898.4000      7.7477      2.5637      0.0827      5.2332    109.5786
   898.5000      7.7431      2.5801      0.1419      4.2369    115.0313
   898.6000      7.7431      2.5847      0.1154      3.9569    121.7245
   898.7000      7.7431      2.5871      0.1117      3.8110    123.6366
   898.8000      7.7357      2.5860      0.1383      3.8803    117.8556
   898.9000      7.7357      2.5740      0.0946      4.6047    110.7627
   899.0000      7.7369      2.5602      0.0582      5.4452    108.0546
   899.1000      7.7369      2.5501      0.1107      6.0556    108.1656
