~Version Information
VERS.                      2.0: CWLS Log ASCII Standard - VERSION 2.0
WRAP.                       NO: One line per depth step
~Well Information Block
STRT.FT               -12.2500: 
STOP.FT              1442.2500: 
STEP.FT                 0.2500: 
NULL.                -999.2500: 
COMP.          Pioneer Natural Resources: COMPANY
WELL.              Lucky 21-36: WELL
FLD.           Purgatorie River: FIELD
LOC.           799' FNL & 1578' FWL--: LOCATION
CDN. :
PROV. :
UWI. :
STAT. :
CNTY. :
CTRY. :
API. :
COMP. :
WELL. :
FLD. :
LOC. :
DATE. :
SRVC. :
CNTY.               Las Animas: COUNTY
SRVC.          Superior Well Services: SERVICE COMPANY
DATE.          Mon Jul 21 12-16-21 2008: LOG DATE
UWI.           05 071 08456 00: UNIQUE WELL ID
STAT.                       CO: STATE
~Curve Information Block
DEPT.FT            0 000 00 00: Depth
CCL.                          : Casing Collar Locator
TT3.usec                      : CBL 3' Travel Time
AMP3.mV                       : CBL 3' Amplitude
GR.GAPI                       : Gamma Ray
~Parameter Information Block
~A  Depth       CCL         TT3         AMP3         GR     
# ...
    88.2500      0.0000    266.3831     72.9038     70.6323
    88.5000      0.0000    266.2679     73.5387     72.3067
    88.7500      0.0000    266.1529     74.1151     75.7764
    89.0000      0.0000    266.0371     74.6549     79.7827
    89.2500      0.0000    265.9189     75.1732     83.0043
    89.5000      0.0000    265.7966     75.6735     85.5473
    89.7500      0.0000    265.6709     76.1517     88.1429
    90.0000      0.0000    265.5455     76.6031     90.7393
    90.2500      0.0000    265.4250     77.0315     92.7266
    90.5000      0.0000    265.3112     77.4493     93.9989
    90.7500      0.0000    265.2024     77.8701     95.0529
    91.0000      0.0000    265.0952     78.3041     96.2314
    91.2500      0.0000    264.9878     78.7658     97.2465
    91.5000      0.0000    264.8803     79.2788     97.4491
    91.7500      0.0000    264.7722     79.8607     96.5676
    92.0000      0.0000    264.6631     80.4990     95.1387
    92.2500      0.0000    264.5548     81.1488     94.0802
    92.5000      0.0000    264.4517     81.7591     94.0052
    92.7500      0.0000    264.3572     82.3030     95.0686
    93.0000      0.0000    264.2711     82.7826     97.0878
    93.2500      0.0000    264.1913     83.2083     99.5731
    93.5000      0.0000    264.1160     83.5811    101.9514
    93.7500      0.0000    264.0432     83.8935    103.7912
    94.0000      0.0000    263.9717     84.1446    104.7610
    94.2500      0.0000    263.9032     84.3453    104.7729
    94.5000      0.0000    263.8421     84.5087    104.2996
    94.7500      0.0000    263.7930     84.6402    104.0092
    95.0000      0.0000    263.7557     84.7400    103.9677
    95.2500      0.0000    263.7265     84.8112    103.6990
    95.5000      0.0000    263.7013     84.8590    102.9934
    95.7500      0.0000    263.6776     84.8815    102.3281
    96.0000      0.0000    263.6530     84.8659    102.3816
    96.2500      0.0000    263.6242     84.7983    103.0397
    96.5000      0.0000    263.5889     84.6811    102.9477
    96.7500      0.0000    263.5495     84.5391    100.5883
    97.0000      0.0000    263.5115     84.4085     96.0648
    97.2500      0.0000    263.4789     84.3167     91.4032
    97.5000      0.0000    263.4514     84.2735     88.8555
    97.7500      0.0000    263.4263     84.2759     89.3189
    98.0000      0.0000    263.4026     84.3177     92.4514
    98.2500      0.0000    263.3817     84.3919     97.3738
    98.5000      0.0000    263.3657     84.4889    102.6414
    98.7500      0.0000    263.3552     84.5976    106.2282
    99.0000      0.0000    263.3506     84.7168    106.5653
    99.2500      0.0000    263.3533     84.8624    103.8233
    99.5000      0.0000    263.3643     85.0562    100.0301
    99.7500      0.0000    263.3829     85.3002     97.9041
   100.0000      0.0000    263.4055     85.5611     99.1320
   100.2500      0.0000    263.4284     85.7860    103.0968
   100.5000      0.0000    263.4488     85.9388    107.1758
   100.7500      0.0000    263.4643     86.0221    108.7026
   101.0000      0.0000    263.4727     86.0663    106.8417
   101.2500      0.0000    263.4727     86.1021    102.6681
   101.5000      0.0000    263.4658     86.1425     97.9320
   101.7500      0.0000    263.4550     86.1829     94.0533
   102.0000      0.0000    263.4441     86.2135     91.7725
   102.2500      0.0000    263.4348     86.2309     91.0734
   102.5000      0.0000    263.4269     86.2391     91.3800
   102.7500      0.0000    263.4203     86.2441     92.0232
   103.0000      0.0000    263.4165     86.2477     92.5971
   103.2500      0.0000    263.4178     86.2476     92.9894
   103.5000      0.0000    263.4240     86.2425     93.3016
   103.7500      0.0000    263.4317     86.2334     93.7046
   104.0000      0.0000    263.4360     86.2221     94.0760
   104.2500      0.0000    263.4336     86.2076     93.7796
   104.5000      0.0000    263.4253     86.1858     92.2218
   104.7500      0.0000    263.4135     86.1498     89.6885
   105.0000      0.0000    263.3990     86.0831     87.2486
   105.2500      0.0000    263.3797     85.9480     85.6781
   105.5000      0.0000    263.3540     85.6837     84.6794
   105.7500      0.0000    263.3243     85.2226     83.2243
   106.0000      0.0000    263.2958     84.5137     80.6189
   106.2500      0.0000    263.2734     83.5363     77.1919
   106.5000      0.0000    263.2603     82.3033     74.0603
   106.7500      0.0000    263.2576     80.8566     72.2867
   107.0000      0.0000    263.2650     79.2549     72.0930
   107.2500      0.0000    263.2818     77.5484     72.6256
   107.5000      0.0000    263.3072     75.7542     72.5882
   107.7500      0.0000    263.3401     73.8568     71.4662
   108.0000      0.0000    263.3801     71.8405     70.1760
   108.2500      0.0000    263.4266     69.7295     70.2861
   108.5000      0.0000    263.4789     67.6028     72.6204
   108.7500      0.0000    263.5356     65.5748     76.6260
   109.0000      0.0000    263.5948     63.7591     80.9104
   109.2500      0.0000    263.6549     62.2342     84.4193
   109.5000      0.0000    263.7146     61.0268     87.2708
   109.7500      0.0000    263.7712     60.1217     90.3774
   110.0000      0.0000    263.8209     59.4841     94.1021
   110.2500      0.0000    263.8596     59.0700     97.4550
   110.5000      0.0000    263.8849     58.8261     99.0011
   110.7500      0.0000    263.8967     58.6972     98.5035
   111.0000      0.0000    263.8992     58.6399     97.1698
   111.2500      0.0000    263.9009     58.6144     96.1472
   111.5000      0.0000    263.9220     58.5401     95.3497
   111.7500      0.0000    264.0076     58.2441     94.3181
   112.0000      0.0000    264.2674     57.4694     93.7468
   112.2500      0.0000    264.9217     56.0324     95.0639
   112.5000      0.0000    266.3130     54.0553     98.3255
   112.7500      0.0000    268.7526     51.9764    101.4749
   113.0000      0.0000    272.1159     50.2093    102.1252
   113.2500      0.0000    275.4889     48.8507     99.5663
   113.5000      0.0000    277.5173     47.8138     94.8670
   113.7500      0.0000    277.4741     47.0968     89.7252
   114.0000      0.0000    275.9056     46.7636     85.6705
   114.2500      0.0000    274.0674     46.7695     83.9751
   114.5000      2.0000    272.9300     46.9577     85.4633
   114.7500     -2.0000    272.8644     47.1928     89.7119
   115.0000      0.0000    273.8718     47.4866     94.5670
   115.2500      0.0000    275.5779     48.0485     97.2115
   115.5000      0.0000    277.0024     49.1768     96.1877
   115.7500      0.0000    276.8878     50.9827     92.3566
   116.0000      0.0000    274.7189     53.2577     87.7841
   116.2500      0.0000    271.2848     55.7166     83.9490
   116.5000      0.0000    267.9810     58.2276     81.1968
   116.7500      0.0000    265.6937     60.6493     79.3716
   117.0000      0.0000    264.4701     62.6471     78.1802
   117.2500      0.0000    263.9392     63.9007     77.1193
   117.5000      0.0000    263.7473     64.3881     75.8216
   117.7500      0.0000    263.6930     64.3502     74.6834
   118.0000      0.0000    263.6893     64.0637     74.8420
   118.2500      0.0000    263.7072     63.7044     77.3193
   118.5000      0.0000    263.7364     63.3477     82.0315
   118.7500      0.0000    263.7717     63.0062     87.5083
   119.0000      0.0000    263.8076     62.6674     91.6016
   119.2500      0.0000    263.8404     62.3187     92.6120
   119.5000      0.0000    263.8707     61.9569     90.1763
   119.7500      0.0000    263.9023     61.5766     85.6245
   120.0000      0.0000    263.9406     61.1588     81.3643
   120.2500      0.0000    263.9894     60.6823     79.3556
   120.5000      0.0000    264.0495     60.1542     79.9657
   120.7500      0.0000    264.1184     59.6225     82.2136
   121.0000      0.0000    264.1919     59.1481     84.7088
   121.2500      0.0000    264.2652     58.7567     86.3162
   121.5000      0.0000    264.3348     58.4149     86.4592
