~Version Information
VERS.                      2.0: CWLS Log ASCII Standard - VERSION 2.0
WRAP.                       NO: One line per depth step
~Well Information Block
STRT.FT               580.0000: 
STOP.FT              1179.0000: 
STEP.FT                 0.1000: 
NULL.                -999.2500: 
COMP.          Pioneer Natural Resources: COMPANY
WELL.          Tin Barn 14-20 TR: WELL
FLD.           Purgatorie River: FIELD
LOC.           925 FSL & 1151 FWL: LOCATION
PROV.                 Colorado: PROVINCE
CNTY.               Las Animas: COUNTRY
SRVC.                Patterson: SERVICE COMPANY
DATE.          Thu Jan 12 12:02:37 2006: LOG DATE
UWI.                          : UNIQUE WELL ID
~Curve Information Block
DEPT.FT            0 000 00 00: Depth
DCAL.in                       : CDL Caliper
RHOB.g/cc                     : CDL Bulk Density
RHOC.g/cc                     : CDL Density Correction
DPOR.pu                       : CDL Density Porosity
GR.GAPI                       : Gamma Ray
~Parameter Information Block
~A  Depth       DCAL        RHOB        RHOC        DPOR         GR     
# ...
   893.6000      7.8188      2.6452      0.1064      0.2918     70.0946
   893.7000      7.8188      2.6466      0.0957      0.2073     69.5317
   893.8000      7.7955      2.6375      0.1073      0.7569     71.1217
   893.9000      7.7955      2.6176      0.0652      1.9646     74.8290
   894.0000      7.8314      2.6025      0.0340      2.8763     79.1177
   894.1000      7.8314      2.6004      0.0641      3.0082     81.9464
   894.2000      7.8314      2.5908      0.0521      3.5898     81.0573
   894.3000      7.8610      2.5693     -0.0053      4.8924     77.3903
   894.4000      7.8610      2.5547      0.0343      5.7775     74.3910
   894.5000      7.9089      2.5454      0.0421      6.3414     72.8742
   894.6000      7.9089      2.5338      0.0143      7.0435     72.5096
   894.7000      7.9089      2.5348     -0.0016      6.9828     72.6248
   894.8000      7.8650      2.5518      0.0762      5.9518     72.8820
   894.9000      7.8650      2.5646      0.0219      5.1735     74.6290
   895.0000      7.8725      2.5653      0.0111      5.1308     77.7352
   895.1000      7.8725      2.5593      0.0349      5.4946     80.3597
   895.2000      7.8725      2.5492      0.0249      6.1118     82.1961
   895.3000      7.8316      2.5362      0.0122      6.8940     84.2992
   895.4000      7.8316      2.5252      0.0292      7.5619     87.2691
   895.5000      7.8341      2.5231     -0.0175      7.6931     90.1121
   895.6000      7.8341      2.5309      0.0110      7.2164     92.2715
   895.7000      7.8341      2.5336      0.0536      7.0556     94.0080
   895.8000      7.8579      2.5170      0.0443      8.0608     95.0031
   895.9000      7.8579      2.4947     -0.0074      9.4109     94.1065
   896.0000      7.9092      2.4940     -0.0096      9.4568     91.8678
   896.1000      7.9092      2.5106      0.0676      8.4496     90.4328
   896.2000      7.9092      2.5137      0.0956      8.2583     89.6446
   896.3000      7.9193      2.4996      0.0455      9.1126     89.1307
   896.4000      7.9193      2.4966      0.0579      9.2960     89.8718
   896.5000      7.8587      2.5187      0.1007      7.9600     90.6460
   896.6000      7.8587      2.5528      0.1356      5.8889     89.8268
   896.7000      7.8587      2.5844      0.1435      3.9741     88.0711
   896.8000      7.8106      2.6082      0.1916      2.5342     87.5446
   896.9000      7.8106      2.6214      0.2214      1.7333     90.3118
   897.0000      7.7999      2.6201      0.2086      1.8114     96.6156
   897.1000      7.7999      2.6084      0.1372      2.5185    105.1901
   897.2000      7.7999      2.5981      0.1541      3.1447    112.4428
   897.3000      7.8214      2.5932      0.1240      3.4423    113.7006
   897.4000      7.8214      2.5876      0.1632      3.7813    110.1232
   897.5000      7.8297      2.5766      0.1219      4.4491    107.1955
   897.6000      7.8297      2.5727      0.1054      4.6854    107.4318
   897.7000      7.8297      2.5886      0.1436      3.7193    109.5972
   897.8000      7.8240      2.6099      0.1139      2.4309    112.1891
   897.9000      7.8240      2.6163      0.0826      2.0450    114.5959
   898.0000      7.8726      2.6108      0.0723      2.3757    115.8021
   898.1000      7.8726      2.6104      0.0902      2.4022    115.5630
   898.2000      7.8726      2.6225      0.1020      1.6641    114.4047
   898.3000      7.8253      2.6409      0.1160      0.5534    112.8667
   898.4000      7.8253      2.6524      0.0636     -0.1465    112.3222
   898.5000      7.8181      2.6488      0.0434      0.0732    113.4974
   898.6000      7.8181      2.6363      0.0406      0.8283    114.4076
   898.7000      7.8181      2.6226      0.0895      1.6612    113.8929
   898.8000      7.8390      2.6044      0.0295      2.7663    114.0911
   898.9000      7.8390      2.5830      0.0610      4.0590    115.8068
   899.0000      7.8772      2.5634      0.0321      5.2478    117.4305
   899.1000      7.8772      2.5473     -0.0211      6.2249    117.5245
   899.2000      7.8772      2.5335     -0.0545      7.0590    115.7918
   899.3000      7.8994      2.5181     -0.0498      7.9922    114.8473
   899.4000      7.8994      2.5007      0.0020      9.0473    115.3098
   899.5000      7.9326      2.4871      0.0148      9.8712    115.4163
   899.6000      7.9326      2.4806      0.0035     10.2679    116.0678
   899.7000      7.9326      2.4824     -0.0084     10.1597    117.6916
   899.8000      7.9424      2.4945      0.0260      9.4249    118.0146
   899.9000      7.9424      2.5032      0.0485      8.8994    115.0987
   900.0000      7.9695      2.4912      0.0772      9.6257    110.4773
   900.1000      7.9695      2.4711      0.0065     10.8401    108.1876
   900.2000      7.9695      2.4680      0.0707     11.0293    109.8502
   900.3000      7.9664      2.4840      0.0941     10.0628    112.5149
   900.4000      7.9664      2.5065      0.1007      8.6993    114.4549
   900.5000      7.8724      2.5236      0.1292      7.6617    118.2773
   900.6000      7.8724      2.5298      0.0991      7.2861    123.0147
   900.7000      7.8724      2.5304      0.1229      7.2492    124.5511
   900.8000      7.9129      2.5318      0.0966      7.1623    124.0112
   900.9000      7.9129      2.5350      0.0961      6.9723    123.3939
   901.0000      7.9172      2.5306      0.1385      7.2362    122.3713
   901.1000      7.9172      2.5119      0.0893      8.3684    121.5923
   901.2000      7.9172      2.4927      0.0265      9.5315    121.1318
   901.3000      7.9183      2.4849      0.0468     10.0052    121.4206
   901.4000      7.9183      2.4768      0.0735     10.4965    124.7654
   901.5000      7.9283      2.4550      0.0355     11.8166    129.5630
   901.6000      7.9283      2.4288      0.0067     13.4070    131.0852
   901.7000      7.9283      2.4202      0.0041     13.9294    129.6119
   901.8000      7.9185      2.4374      0.0332     12.8856    127.7330
   901.9000      7.9185      2.4707      0.0661     10.8692    125.5119
   902.0000      7.9106      2.5042      0.0820      8.8354    124.1160
   902.1000      7.9106      2.5229      0.1498      7.7003    125.5899
   902.2000      7.9106      2.5236      0.1006      7.6615    128.6011
   902.3000      7.9144      2.5207      0.1060      7.8371    129.6858
   902.4000      7.9144      2.5237      0.1153      7.6543    129.2178
   902.5000      7.9135      2.5240      0.0982      7.6363    129.5721
   902.6000      7.9135      2.5121      0.0831      8.3550    129.8221
   902.7000      7.9135      2.4882      0.1154      9.8033    128.9066
   902.8000      7.9250      2.4640      0.0487     11.2752    127.0149
   902.9000      7.9250      2.4576      0.0328     11.6596    123.7220
   903.0000      7.9298      2.4656      0.0737     11.1739    121.6839
   903.1000      7.9298      2.4688      0.0977     10.9796    123.6030
   903.2000      7.9298      2.4672      0.0750     11.0774    126.0990
   903.3000      7.9242      2.4731      0.0907     10.7223    127.2391
   903.4000      7.9242      2.4907      0.0784      9.6551    128.5436
   903.5000      7.9227      2.5108      0.1279      8.4381    129.2216
   903.6000      7.9227      2.5188      0.1209      7.9521    128.4309
   903.7000      7.9227      2.5156      0.0821      8.1437    128.2516
   903.8000      7.9180      2.5089      0.0762      8.5494    129.4684
   903.9000      7.9180      2.4978      0.0715      9.2229    129.7295
   904.0000      7.9205      2.4851      0.0598      9.9941    129.5650
   904.1000      7.9205      2.4786      0.0503     10.3849    131.0460
   904.2000      7.9205      2.4741      0.0756     10.6602    132.8919
   904.3000      7.9158      2.4592      0.0441     11.5610    133.1058
   904.4000      7.9158      2.4311      0.0509     13.2649    132.5395
   904.5000      7.9323      2.3995      0.0023     15.1810    131.7335
   904.6000      7.9323      2.3814     -0.0596     16.2760    128.6712
   904.7000      7.9323      2.3829     -0.0240     16.1863    124.9885
