~Version Information
VERS.                      2.0: CWLS Log ASCII Standard - VERSION 2.0
WRAP.                       NO: One line per depth step
~Well Information Block
STRT.FT               570.0000: 
STOP.FT              2094.0000: 
STEP.FT                 0.2500: 
NULL.                -999.2500: 
COMP.          XTO Energy Inc.: COMPANY
WELL.          Golden Eagle 19-10: WELL
FLD.           Purgatoire River: FIELD
LOC.           2684' FSL & 1825' FEL: LOCATION
CNTY.               Las Animas: COUNTY
CTRY.                      USA: COUNTRY
API.               05 071 08697:  
SRVC.                Patterson: SERVICE COMPANY
DATE.          Sun Mar 05 02:13:24 2006: LOG DATE
UWI.           05 071 08697 00: UNIQUE WELL ID
STAT.                 Colorado: STATE
~Curve Information Block
DEPT.FT            0 000 00 00: Depth
SP.mV                         : DIL Spontaneous Potential
RILD.Ohm-m                    : DIL Deep Resistivity
RILM.Ohm-m                    : DIL Medium Resistivity
RLL3.Ohm-m                    : DIL Shallow Resistivity
GR.GAPI                       : Gamma Ray
~Parameter Information Block
~A  Depth        SP         RILD        RILM        RLL3         GR     
# ...
  1550.0000     30.0643      9.1295      9.2242     10.6822    124.7731
  1550.2500     29.2815      9.2644      9.2752     11.5006    125.1647
  1550.5000     28.5862      9.4649      9.4147     12.3464    126.7589
  1550.7500     28.0076      9.7388      9.6527     12.8705    127.5100
  1551.0000     27.5600     10.0924     10.0048     13.0729    126.3947
  1551.2500     27.2500     10.5302     10.4932     13.5917    123.4496
  1551.5000     27.0834     11.0515     11.1464     15.7810    115.5251
  1551.7500     27.0675     11.6477     11.9975     21.3099    108.4703
  1552.0000     27.2096     12.2998     13.0798     31.1708     97.0547
  1552.2500     27.5124     12.9800     14.4190     44.6230     89.9739
  1552.5000     27.9679     13.6569     16.0206     59.3982     81.1298
  1552.7500     28.5549     14.3062     17.8529     74.1489     76.4049
  1553.0000     29.2423     14.9230     19.8297     91.8628     70.7526
  1553.2500     29.9985     15.5259     21.8029    120.4898     67.9042
  1553.5000     30.7981     16.1437     23.5775    167.5684     65.0244
  1553.7500     31.6233     16.7896     24.9542    230.5612     63.8963
  1554.0000     32.4618     17.4414     25.7869    291.0953     63.2000
  1554.2500     33.3016     18.0480     26.0296    321.9749     63.5835
  1554.5000     34.1249     18.5559     25.7470    305.2268     66.1218
  1554.7500     34.9026     18.9318     25.0869    246.0327     69.3233
  1555.0000     35.5973     19.1630     24.2292    168.9021     75.7261
  1555.2500     36.1764     19.2417     23.3366    100.1927     80.1221
  1555.5000     36.6276     19.1531     22.5228     53.7152     85.2241
  1555.7500     36.9645     18.8786     21.8415     29.3947     87.1291
  1556.0000     37.2199     18.4113     21.2903     20.5289     87.9258
  1556.2500     37.4361     17.7713     20.8220     20.4017     87.4892
  1556.5000     37.6564     17.0111     20.3631     24.4064     86.0800
  1556.7500     37.9133     16.2052     19.8378     29.4570     85.0483
  1557.0000     38.2151     15.4295     19.1937     33.3506     84.2122
  1557.2500     38.5399     14.7423     18.4204     34.8415     84.6127
  1557.5000     38.8469     14.1743     17.5499     33.7797     87.1054
  1557.7500     39.0960     13.7289     16.6410     30.7961     89.9561
  1558.0000     39.2614     13.3906     15.7567     26.7648     95.2933
  1558.2500     39.3383     13.1340     14.9471     22.4667     98.9245
  1558.5000     39.3418     12.9319     14.2425     18.5143    103.5388
  1558.7500     39.3007     12.7597     13.6546     15.3573    105.8083
  1559.0000     39.2450     12.5968     13.1809     13.2576    107.9686
  1559.2500     39.1921     12.4283     12.8112     12.2543    108.6451
  1559.5000     39.1381     12.2475     12.5316     12.1640    108.9671
  1559.7500     39.0615     12.0586     12.3290     12.6391    109.3135
  1560.0000     38.9336     11.8782     12.1934     13.2757    110.9096
  1560.2500     38.7320     11.7311     12.1196     13.7365    112.4555
  1560.5000     38.4492     11.6415     12.1070     13.8486    113.7678
  1560.7500     38.0950     11.6248     12.1586     13.6478    113.0624
  1561.0000     37.6952     11.6827     12.2787     13.3499    109.6711
  1561.2500     37.2873     11.8044     12.4704     13.2581    106.5774
  1561.5000     36.9072     11.9709     12.7328     13.6464    101.6209
  1561.7500     36.5704     12.1593     13.0574     14.6449     98.1581
  1562.0000     36.2686     12.3458     13.4270     16.1626     92.8174
  1562.2500     35.9892     12.5089     13.8141     17.9108     89.6188
  1562.5000     35.7339     12.6319     14.1829     19.5543     86.3606
  1562.7500     35.5156     12.7068     14.4944     20.8864     85.3805
  1563.0000     35.3400     12.7379     14.7135     21.8740     85.0318
  1563.2500     35.1927     12.7450     14.8183     22.5470     84.9528
  1563.5000     35.0413     12.7601     14.8066     22.8512     84.5732
  1563.7500     34.8484     12.8172     14.6975     22.5970     84.4516
  1564.0000     34.5871     12.9362     14.5260     21.5677     85.5782
  1564.2500     34.2522     13.1114     14.3347     19.7383     87.5228
  1564.5000     33.8617     13.3101     14.1638     17.4265     91.4296
  1564.7500     33.4465     13.4842     14.0449     15.2101     93.6964
  1565.0000     33.0340     13.5885     13.9975     13.6595     95.1546
  1565.2500     32.6378     13.6003     14.0287     13.1122     94.5572
  1565.5000     32.2620     13.5300     14.1345     13.6272     91.7279
  1565.7500     31.9101     13.4153     14.3013     15.0456     89.0407
  1566.0000     31.5839     13.3025     14.5083     17.0275     84.6233
  1566.2500     31.2776     13.2255     14.7307     19.0739     81.8251
  1566.5000     30.9812     13.1984     14.9436     20.6580     78.5682
  1566.7500     30.6915     13.2194     15.1261     21.4703     77.4767
  1567.0000     30.4176     13.2804     15.2641     21.5527     77.9111
  1567.2500     30.1743     13.3706     15.3515     21.1521     79.4760
  1567.5000     29.9703     13.4760     15.3874     20.4659     83.1252
  1567.7500     29.8014     13.5784     15.3734     19.5985     86.0406
  1568.0000     29.6545     13.6588     15.3107     18.7125     90.5120
  1568.2500     29.5188     13.7047     15.1999     18.0713     93.1735
  1568.5000     29.3920     13.7163     15.0435     17.8567     96.1614
  1568.7500     29.2797     13.7092     14.8483     17.9861     97.4481
  1569.0000     29.1893     13.7094     14.6276     18.1541     98.7278
  1569.2500     29.1251     13.7415     14.4003     18.0677     99.3841
  1569.5000     29.0856     13.8142     14.1884     17.6644    100.0608
  1569.7500     29.0661     13.9095     14.0138     17.1242    100.2143
  1570.0000     29.0622     13.9871     13.8953     16.6853    100.2904
  1570.2500     29.0719     14.0056     13.8471     16.4704    100.6175
  1570.5000     29.0926     13.9529     13.8777     16.4934    101.6161
  1570.7500     29.1172     13.8595     13.9902     16.7751    102.0233
  1571.0000     29.1327     13.7829     14.1822     17.3906    100.7549
  1571.2500     29.1211     13.7762     14.4455     18.4038     98.2638
  1571.5000     29.0633     13.8652     14.7661     19.7825     92.8659
  1571.7500     28.9460     14.0450     15.1252     21.3795     89.1807
  1572.0000     28.7718     14.2906     15.5000     22.9599     85.1004
  1572.2500     28.5639     14.5726     15.8667     24.2353     83.7648
  1572.5000     28.3629     14.8676     16.2030     24.9265     83.7082
  1572.7500     28.2180     15.1597     16.4907     24.8942     84.6985
  1573.0000     28.1736     15.4354     16.7169     24.2455     87.4223
  1573.2500     28.2579     15.6788     16.8741     23.2695     89.9199
  1573.5000     28.4744     15.8681     16.9593     22.2503     93.9780
  1573.7500     28.8016     15.9762     16.9720     21.3871     96.1509
  1574.0000     29.2020     15.9743     16.9128     20.8853     97.5393
  1574.2500     29.6338     15.8420     16.7830     21.0113     97.1485
  1574.5000     30.0597     15.5795     16.5846     21.9306     95.3648
  1574.7500     30.4488     15.2123     16.3222     23.4355     94.1022
  1575.0000     30.7773     14.7796     16.0058     24.8525     93.6644
  1575.2500     31.0317     14.3137     15.6522     25.3322     95.2024
  1575.5000     31.2154     13.8241     15.2850     24.3928    100.3270
  1575.7500     31.3495     13.2919     14.9309     22.2934    104.4272
  1576.0000     31.4636     12.6736     14.6139     19.8972    108.7111
  1576.2500     31.5800     11.9096     14.3503     18.1315    109.3905
  1576.5000     31.7042     10.9448     14.1450     17.4848    107.7178
  1576.7500     31.8244      9.7681     13.9907     17.8835    105.7812
  1577.0000     31.9211      8.4480     13.8694     18.8944    102.9062
  1577.2500     31.9774      7.1213     13.7573     19.9772    101.3246
  1577.5000     31.9846      5.9306     13.6304     20.6423     99.7554
  1577.7500     31.9396      4.9662     13.4704     20.6088     99.4079
