~Version Information
VERS.                      2.0: CWLS Log ASCII Standard - VERSION 2.0
WRAP.                       NO: One line per depth step
~Well Information Block
STRT.FT               875.0000: 
STOP.FT              2053.0000: 
STEP.FT                 0.1000: 
NULL.                -999.2500: 
COMP.          Pioneer Natural Resources: COMPANY
WELL.          Woodstock 43-19: WELL
FLD.           Purgatoire River: FIELD
LOC.           2195' FSL & 250' FEL: LOCATION
CNTY.               Las Animas: COUNTY
SRVC.                Patterson: SERVICE COMPANY
DATE.          Thu Feb 02 12:45:04 2006: LOG DATE
UWI.           05 071 08677 00: UNIQUE WELL ID
STAT.                 Colorado: STATE
~Curve Information Block
DEPT.FT            0 000 00 00: Depth
DCAL.in                       : CDL Caliper
RHOB.g/cc                     : CDL Bulk Density
RHOC.g/cc                     : CDL Density Correction
DPOR.pu                       : CDL Density Porosity
GR.GAPI                       : Gamma Ray
NPOR.pu                       : Neutron Porosity
~Parameter Information Block
~A  Depth       DCAL        RHOB        RHOC        DPOR         GR         NPOR    
# ...
  1259.0000      7.9658      2.5191      0.0160      7.9341     83.9619     24.1052
  1259.1000      7.9658      2.5255     -0.0554      7.5455     81.7085     24.4729
  1259.2000      7.9658      2.5559      0.0470      5.7001     74.0272     24.7747
  1259.3000      8.0058      2.5935      0.0740      3.4266     67.6402     25.0322
  1259.4000      8.0058      2.6136      0.0993      2.2082     68.0760     24.9175
  1259.5000      7.9663      2.6129      0.0438      2.2501     72.3983     24.6757
  1259.6000      7.9663      2.6008      0.0434      2.9790     75.2222     24.7111
  1259.7000      7.9663      2.5806      0.0634      4.2072     75.8063     24.8073
  1259.8000      7.9651      2.5549      0.0673      5.7658     74.6195     24.6174
  1259.9000      7.9651      2.5263      0.0624      7.4972     71.2913     24.4900
  1260.0000      7.9490      2.4866      0.0483      9.9028     70.7662     24.6779
  1260.1000      7.9490      2.4321      0.0235     13.2034     76.4437     24.8322
  1260.2000      7.9490      2.3728     -0.0082     16.8012     81.9711     24.7056
  1260.3000      7.9572      2.3208      0.0394     19.9519     83.2228     24.3876
  1260.4000      7.9572      2.2897     -0.0192     21.8374     82.5611     24.0038
  1260.5000      7.9772      2.2980      0.0526     21.3311     80.9606     23.6291
  1260.6000      7.9772      2.3558      0.0649     17.8310     80.7197     23.3859
  1260.7000      7.9772      2.4649      0.1506     11.2153     84.4020     23.3874
  1260.8000      7.9098      2.6115      0.2818      2.3306     91.1800     23.3869
  1260.9000      7.9098      2.7515      0.4093     -6.1537     97.7609     23.0824
  1261.0000      7.7851      2.8356      0.5286    -11.2488    100.3605     22.8979
  1261.1000      7.7851      2.8446      0.4738    -11.7966     98.3962     23.1249
  1261.2000      7.7851      2.7910      0.4083     -8.5464     95.9283     23.1472
  1261.3000      7.7571      2.7014      0.2370     -3.1139     97.4987     23.0289
  1261.4000      7.7571      2.6147      0.1573      2.1420    102.3519     23.5989
  1261.5000      7.7936      2.5618      0.0494      5.3447    108.2081     24.7476
  1261.6000      7.7936      2.5523      0.0292      5.9241    114.3715     25.6401
  1261.7000      7.7936      2.5814     -0.0107      4.1565    118.2737     25.8623
  1261.8000      7.9103      2.6287      0.0965      1.2888    119.0850     25.8051
  1261.9000      7.9103      2.6616      0.1464     -0.7044    122.5053     25.9130
  1262.0000      8.0570      2.6660      0.1420     -0.9679    132.4374     26.1358
  1262.1000      8.0570      2.6452      0.1901      0.2911    145.6533     26.3963
  1262.2000      8.0570      2.6016      0.1740      2.9311    155.8308     26.5717
  1262.3000      8.0929      2.5497      0.1240      6.0787    158.0384     26.4347
  1262.4000      8.0929      2.5121      0.0263      8.3600    153.4154     25.8987
  1262.5000      8.0575      2.4926      0.1000      9.5381    149.9790     25.3482
  1262.6000      8.0575      2.4839      0.0334     10.0674    152.8050     25.2946
  1262.7000      8.0575      2.4865      0.0979      9.9104    158.1378     25.7599
  1262.8000      8.0582      2.5005      0.0425      9.0578    161.0556     26.3366
  1262.9000      8.0582      2.5202      0.0893      7.8677    162.9367     26.6308
  1263.0000      8.0839      2.5318      0.1346      7.1646    169.8307     26.8157
  1263.1000      8.0839      2.5322      0.0680      7.1368    182.9683     27.3103
  1263.2000      8.0839      2.5391      0.0506      6.7231    194.6051     28.0138
  1263.3000      8.0680      2.5580      0.0978      5.5743    196.5121     28.4821
  1263.4000      8.0680      2.5703      0.0698      4.8276    187.2647     28.6526
  1263.5000      8.0563      2.5674      0.0894      5.0034    175.0343     28.7268
  1263.6000      8.0563      2.5631      0.0652      5.2674    171.2942     28.6513
  1263.7000      8.0563      2.5625      0.0586      5.3002    176.1261     28.3617
  1263.8000      8.0701      2.5516      0.0595      5.9613    181.1318     28.1803
  1263.9000      8.0701      2.5304      0.0222      7.2475    182.6419     28.3109
  1264.0000      8.0846      2.5194      0.0086      7.9122    182.9046     28.4463
  1264.1000      8.0846      2.5248      0.0821      7.5898    183.7049     28.4342
  1264.2000      8.0846      2.5357      0.0538      6.9283    186.3062     28.5364
  1264.3000      8.0710      2.5439      0.0916      6.4282    191.9354     28.8118
  1264.4000      8.0710      2.5473      0.0495      6.2236    196.0457     28.8114
  1264.5000      8.0822      2.5496      0.0796      6.0848    191.5740     28.2870
  1264.6000      8.0822      2.5552      0.0628      5.7455    180.3565     27.8106
  1264.7000      8.0822      2.5653      0.0609      5.1310    172.5705     27.8152
  1264.8000      8.0718      2.5758      0.0716      4.4996    171.1307     28.0638
  1264.9000      8.0718      2.5817      0.0911      4.1384    170.8724     28.2435
  1265.0000      8.0831      2.5809      0.1017      4.1896    171.0319     28.2345
  1265.1000      8.0831      2.5676      0.1301      4.9960    172.9158     28.1055
  1265.2000      8.0831      2.5432      0.0456      6.4748    174.8949     27.9119
  1265.3000      8.0918      2.5226      0.0688      7.7206    177.0625     27.8616
  1265.4000      8.0918      2.5119      0.0386      8.3693    179.8105     28.0237
  1265.5000      8.0975      2.5065      0.0266      8.6962    180.4726     27.8053
  1265.6000      8.0975      2.5046      0.0075      8.8142    177.0743     27.0760
  1265.7000      8.0975      2.5102      0.0443      8.4709    171.2852     26.6862
  1265.8000      8.0943      2.5317      0.0521      7.1699    165.3818     27.1245
  1265.9000      8.0943      2.5703      0.1231      4.8309    160.6377     27.8054
  1266.0000      8.1120      2.6129      0.1401      2.2497    158.1468     28.1049
  1266.1000      8.1120      2.6444      0.1418      0.3423    157.7193     28.1862
  1266.2000      8.1120      2.6505      0.1746     -0.0273    158.4878     28.5883
  1266.3000      8.1254      2.6174      0.1725      1.9765    159.1602     29.1986
  1266.4000      8.1254      2.5592      0.0659      5.5033    159.7421     29.3762
  1266.5000      8.0940      2.5186      0.0592      7.9636    163.3672     28.9951
  1266.6000      8.0940      2.5214      0.0132      7.7916    171.5840     28.4689
  1266.7000      8.0940      2.5532      0.0561      5.8681    178.5231     28.1179
  1266.8000      8.0963      2.5801      0.0675      4.2362    179.2047     28.0061
  1266.9000      8.0963      2.5888      0.0807      3.7066    177.3176     28.0609
  1267.0000      8.0763      2.5836      0.0496      4.0237    178.7568     28.2327
  1267.1000      8.0763      2.5637      0.0670      5.2326    181.7900     28.3598
  1267.2000      8.0763      2.5347      0.0370      6.9888    178.0237     28.1970
  1267.3000      8.0923      2.5098      0.0175      8.4998    168.3606     27.9999
  1267.4000      8.0923      2.4888     -0.0115      9.7706    163.0056     27.9955
  1267.5000      8.1192      2.4644     -0.0324     11.2461    164.1851     27.7702
  1267.6000      8.1192      2.4308     -0.0177     13.2865    167.2340     27.2491
  1267.7000      8.1192      2.3950     -0.0848     15.4547    167.3706     26.8154
  1267.8000      8.1071      2.3895     -0.1042     15.7866    163.9931     26.4858
  1267.9000      8.1071      2.4310     -0.0544     13.2702    163.4707     26.3507
  1268.0000      8.1127      2.4915     -0.0124      9.6059    168.3541     26.5492
  1268.1000      8.1127      2.5349      0.0487      6.9747    173.9265     26.9640
  1268.2000      8.1127      2.5536      0.0179      5.8409    175.5894     27.6472
  1268.3000      8.1680      2.5626      0.0248      5.2969    173.0173     28.3598
  1268.4000      8.1680      2.5697      0.1065      4.8662    168.9176     28.6223
  1268.5000      8.2196      2.5762      0.0600      4.4741    165.7935     28.4391
