~Version Information
VERS.                      2.0: CWLS Log ASCII Standard - VERSION 2.0
WRAP.                       NO: One line per depth step
~Well Information Block
STRT.FT               260.0000: 
STOP.FT               713.2000: 
STEP.FT                 0.1000: 
NULL.                -999.2500: 
COMP.          Pioneer Natural Resources: COMPANY
WELL.           Quintessa 23-7: WELL
FLD.           Purgatoire River: FIELD
LOC.           1964' FSL & 2589' FWL--: LOCATION
PROV.                 Colorado: PROVINCE
CNTY.               Las Animas: COUNTRY
SRVC.                Patterson: SERVICE COMPANY
DATE.          Sat Nov 19 09:15:07 2005: LOG DATE
UWI.           05 071 08558 00: UNIQUE WELL ID
~Curve Information Block
DEPT.FT            0 000 00 00: Depth
DCAL.in                       : CDL Caliper
RHOB.g/cc                     : CDL Bulk Density
RHOC.g/cc                     : CDL Density Correction
DPOR.pu                       : CDL Density Porosity
NPOR.pu                       : Neutron Porosity
GR.GAPI                       : Gamma Ray
~Parameter Information Block
~A  Depth       DCAL        RHOB        RHOC        DPOR        NPOR         GR     
# ...
   538.4000      8.0123      2.5940      0.0147      3.3910     20.9618     59.7303
   538.5000      8.0120      2.6066      0.1062      2.6296     20.7019     58.5669
   538.6000      8.0120      2.6008      0.0388      2.9810     19.8277     57.2395
   538.7000      8.0120      2.5798      0.0237      4.2541     19.4562     58.5716
   538.8000      8.0151      2.5676     -0.0274      4.9944     20.0814     62.5595
   538.9000      8.0151      2.5696      0.0253      4.8717     20.9110     67.2004
   539.0000      8.0162      2.5751      0.0321      4.5400     21.0788     70.9793
   539.1000      8.0162      2.5747      0.0326      4.5618     20.6597     70.1338
   539.2000      8.0162      2.5690      0.0207      4.9062     19.9083     63.9762
   539.3000      8.0143      2.5643      0.0306      5.1968     19.2954     58.4408
   539.4000      8.0143      2.5615      0.0285      5.3610     19.2966     57.8541
   539.5000      8.0141      2.5662     -0.0127      5.0813     19.6930     59.1202
   539.6000      8.0141      2.5852      0.0523      3.9302     20.2605     58.6920
   539.7000      8.0141      2.6040      0.0566      2.7858     20.8337     59.1433
   539.8000      8.0154      2.6006      0.0934      2.9961     20.8561     64.2061
   539.9000      8.0154      2.5805      0.0119      4.2134     20.4613     71.5417
   540.0000      8.0133      2.5707      0.0091      4.8066     20.2126     74.1073
   540.1000      8.0133      2.5793      0.0160      4.2863     20.0866     69.8384
   540.2000      8.0133      2.5980      0.0276      3.1542     20.0595     64.5944
   540.3000      8.0107      2.6160      0.0714      2.0581     20.2480     63.0366
   540.4000      8.0107      2.6202      0.0742      1.8079     20.5663     64.5051
   540.5000      8.0117      2.6107      0.0353      2.3847     20.8742     69.2599
   540.6000      8.0117      2.5969      0.0461      3.2207     20.9635     77.6274
   540.7000      8.0117      2.5793      0.0258      4.2861     20.8049     84.8714
   540.8000      8.0134      2.5621      0.0016      5.3286     20.4584     85.9807
   540.9000      8.0134      2.5595      0.0240      5.4826     19.7670     83.2389
   541.0000      8.0118      2.5715      0.0162      4.7563     19.1857     80.1138
   541.1000      8.0118      2.5769      0.0523      4.4322     19.3095     74.5610
   541.2000      8.0118      2.5661     -0.0036      5.0849     19.7750     66.9975
   541.3000      8.0099      2.5570      0.0066      5.6378     19.7495     61.6696
   541.4000      8.0099      2.5625      0.0353      5.3026     19.4030     59.6655
   541.5000      8.0117      2.5765      0.0325      4.4517     19.6005     57.4554
   541.6000      8.0117      2.5907      0.0533      3.5937     19.9675     55.2375
   541.7000      8.0117      2.6022      0.0147      2.8940     19.5385     57.4964
   541.8000      8.0106      2.6120      0.0279      2.3045     18.6998     59.8650
   541.9000      8.0106      2.6136      0.0598      2.2075     18.3379     55.9510
   542.0000      8.0082      2.6008      0.0519      2.9802     18.7115     52.5613
   542.1000      8.0082      2.5837      0.0162      4.0158     19.3743     54.8464
   542.2000      8.0082      2.5770      0.0343      4.4229     19.6250     58.6364
   542.3000      8.0118      2.5849      0.0311      3.9471     19.3522     62.1433
   542.4000      8.0118      2.5989      0.0462      3.0974     18.9262     63.4418
   542.5000      8.0154      2.6055      0.0520      2.6951     18.7148     60.7011
   542.6000      8.0154      2.5990      0.0468      3.0880     18.8349     56.0894
   542.7000      8.0154      2.5831      0.0437      4.0528     18.9958     50.8341
   542.8000      8.0151      2.5659      0.0201      5.0993     18.9111     44.7439
   542.9000      8.0151      2.5570      0.0388      5.6338     18.7465     41.2067
   543.0000      8.0116      2.5630     -0.0013      5.2739     18.6004     44.2762
   543.1000      8.0116      2.5800      0.0465      4.2401     18.2000     51.8590
   543.2000      8.0116      2.5953      0.0560      3.3145     17.6608     56.6865
   543.3000      8.0056      2.6032      0.0465      2.8346     17.5621     56.5556
   543.4000      8.0056      2.6029      0.0626      2.8558     18.1567     56.3617
   543.5000      7.9986      2.5931      0.0558      3.4486     18.9504     56.6348
   543.6000      7.9986      2.5852      0.0127      3.9255     19.2396     56.2192
   543.7000      7.9986      2.5927      0.0275      3.4699     18.8216     57.6283
   543.8000      7.9962      2.6090      0.0551      2.4873     18.0863     59.6254
   543.9000      7.9962      2.6163      0.0678      2.0409     17.4868     58.9059
   544.0000      7.9999      2.6085      0.0573      2.5134     17.2474     55.6824
   544.1000      7.9999      2.5914      0.0569      3.5531     17.4287     53.2211
   544.2000      7.9999      2.5746      0.0131      4.5722     18.0074     54.1476
   544.3000      8.0048      2.5710      0.0079      4.7881     18.8671     57.6799
   544.4000      8.0048      2.5820      0.0564      4.1242     19.7027     58.3595
   544.5000      8.0090      2.5890      0.0774      3.6942     20.2458     55.0222
   544.6000      8.0090      2.5806      0.0513      4.2073     20.4992     55.0264
   544.7000      8.0090      2.5643      0.0284      5.1933     20.4880     59.5892
   544.8000      8.0137      2.5529     -0.0101      5.8822     20.3039     61.3858
   544.9000      8.0137      2.5508      0.0137      6.0110     20.1177     59.7393
   545.0000      8.0163      2.5550      0.0115      5.7553     19.8986     59.3543
   545.1000      8.0163      2.5650      0.0174      5.1513     19.5182     60.9114
   545.2000      8.0163      2.5760      0.0513      4.4846     19.1894     65.0070
   545.3000      8.0148      2.5801      0.0165      4.2383     18.9415     71.4630
   545.4000      8.0148      2.5798      0.0230      4.2548     18.6468     75.2298
   545.5000      8.0129      2.5751      0.0335      4.5412     18.4908     74.5589
   545.6000      8.0129      2.5590      0.0579      5.5170     18.3627     72.0003
   545.7000      8.0129      2.5389     -0.0084      6.7346     18.1002     67.6865
   545.8000      8.0144      2.5323     -0.0285      7.1358     18.1297     62.8316
   545.9000      8.0144      2.5394      0.0323      6.7056     18.8453     60.2341
   546.0000      8.0152      2.5471      0.0369      6.2336     19.8622     59.0114
   546.1000      8.0152      2.5492      0.0228      6.1067     20.3308     58.1869
   546.2000      8.0152      2.5453      0.0033      6.3436     20.3458     57.6250
   546.3000      8.0142      2.5359      0.0128      6.9172     20.5619     57.3296
   546.4000      8.0142      2.5225      0.0165      7.7255     20.7240     58.4541
   546.5000      8.0142      2.5199     -0.0149      7.8830     20.6403     62.2438
   546.6000      8.0142      2.5420      0.0128      6.5462     20.8299     66.3836
   546.7000      8.0142      2.5675      0.0723      5.0023     21.1576     67.9087
   546.8000      8.0115      2.5668      0.0570      5.0426     20.9571     68.3384
   546.9000      8.0115      2.5498      0.0284      6.0711     20.6487     68.7863
   547.0000      8.0030      2.5459      0.0240      6.3065     20.7348     67.8249
   547.1000      8.0030      2.5611      0.0222      5.3879     20.5515     66.3327
   547.2000      8.0030      2.5752      0.0815      4.5349     19.8519     66.7853
   547.3000      7.9951      2.5717      0.0384      4.7483     19.4192     67.7850
   547.4000      7.9951      2.5577      0.0230      5.5915     19.6179     66.1937
   547.5000      7.9903      2.5470     -0.0086      6.2452     19.8942     64.0743
   547.6000      7.9903      2.5421     -0.0019      6.5392     19.8971     64.2801
   547.7000      7.9903      2.5421     -0.0020      6.5396     19.8224     65.7848
   547.8000      7.9894      2.5499     -0.0085      6.0684     19.6734     66.3079
   547.9000      7.9894      2.5660      0.0275      5.0882     19.2603     65.0032
