~Version Information
VERS.                      2.0: CWLS Log ASCII Standard - VERSION 2.0
WRAP.                       NO: One line per depth step
~Well Information Block
STRT.FT               230.2000: 
STOP.FT              1518.7000: 
STEP.FT                 0.1000: 
NULL.                -999.2500: 
COMP.          Pioneer Natural Resources: COMPANY
WELL.          Mow 8-14-33-67 Tr: WELL
FLD.           Purgatoire River: FIELD
LOC.           2258' FNL & 929' FEL: LOCATION
PROV.                 Colorado: PROVINCE
CNTY.               Las Animas: COUNTRY
SRVC.                Patterson: SERVICE COMPANY
DATE.          Mon Jan 30 11:22:55 2006: LOG DATE
UWI.           05 071 08684 00: UNIQUE WELL ID
~Curve Information Block
DEPT.FT            0 000 00 00: Depth
DCAL.in                       : CDL Caliper
DPOR.pu                       : CDL Density Porosity
RHOB.g/cc                     : CDL Bulk Density
RHOC.g/cc                     : CDL Density Correction
GR.GAPI                       : Gamma Ray
~Parameter Information Block
~A  Depth       DCAL        DPOR        RHOB        RHOC         GR     
# ...
  1014.2000      7.8309      6.7904      2.5380      0.0340    121.9580
  1014.3000      7.8346      6.5451      2.5420     -0.0287    136.5911
  1014.4000      7.8346      4.6573      2.5732      0.0041    135.0866
  1014.5000      7.8494      2.2410      2.6130      0.1208    120.5687
  1014.6000      7.8494      1.4015      2.6269      0.1182    110.4525
  1014.7000      7.8494      2.5321      2.6082      0.0991    108.7396
  1014.8000      7.8658      3.7074      2.5888      0.0428    117.9229
  1014.9000      7.8658      3.6655      2.5895      0.0629    138.9381
  1015.0000      7.8741      3.5375      2.5916      0.0984    159.2283
  1015.1000      7.8741      4.4028      2.5774      0.0251    158.7822
  1015.2000      7.8741      5.5073      2.5591      0.0329    136.2624
  1015.3000      7.8701      5.7817      2.5546     -0.0038    117.2858
  1015.4000      7.8701      5.2510      2.5634      0.0678    114.0728
  1015.5000      7.8595      4.8887      2.5693      0.0650    114.5237
  1015.6000      7.8595      5.3508      2.5617      0.0480    106.2982
  1015.7000      7.8595      6.3438      2.5453      0.0428     91.2177
  1015.8000      7.8600      7.3442      2.5288      0.0198     84.2886
  1015.9000      7.8600      8.2480      2.5139      0.0580     93.3765
  1016.0000      7.8715      8.9028      2.5031      0.0118    106.1145
  1016.1000      7.8715      8.8601      2.5038      0.0399    111.4344
  1016.2000      7.8715      8.2316      2.5142      0.0391    111.3675
  1016.3000      7.8777      7.2923      2.5297      0.0429    111.6296
  1016.4000      7.8777      6.2757      2.5465      0.0783    115.1961
  1016.5000      7.8768      5.8423      2.5536      0.0674    120.2496
  1016.6000      7.8768      6.2741      2.5465      0.0859    126.2091
  1016.7000      7.8768      7.3365      2.5289      0.0745    133.2536
  1016.8000      7.8750      8.6589      2.5071      0.0719    140.0480
  1016.9000      7.8750      9.6808      2.4903      0.0241    146.1405
  1017.0000      7.8749      9.9696      2.4855      0.0208    146.4991
  1017.1000      7.8749      9.4435      2.4942      0.0036    138.3121
  1017.2000      7.8749      7.9421      2.5190      0.0365    127.2086
  1017.3000      7.8726      5.4628      2.5599      0.0730    123.6587
  1017.4000      7.8726      2.9650      2.6011      0.1319    131.9545
  1017.5000      7.8633      1.6928      2.6221      0.1517    139.8856
  1017.6000      7.8633      1.3000      2.6285      0.1253    140.0049
  1017.7000      7.8633      0.9260      2.6347      0.2007    134.2135
  1017.8000      7.8450      1.1374      2.6312      0.1751    123.1569
  1017.9000      7.8450      2.2728      2.6125      0.1485    111.3037
  1018.0000      7.8221      3.4277      2.5934      0.1097    109.5010
  1018.1000      7.8221      3.9102      2.5855      0.1157    122.0358
  1018.2000      7.8221      3.9271      2.5852      0.0851    135.5674
  1018.3000      7.8199      4.0293      2.5835      0.0836    137.2414
  1018.4000      7.8199      4.7820      2.5711      0.0680    125.0073
  1018.5000      7.8388      6.0428      2.5503      0.0633    109.2984
  1018.6000      7.8388      7.0058      2.5344      0.0512    105.0166
  1018.7000      7.8388      7.2649      2.5301      0.0583    114.1715
  1018.8000      7.8576      6.8742      2.5366      0.0688    126.8519
  1018.9000      7.8576      6.2489      2.5469      0.0943    131.0337
  1019.0000      7.8763      5.6530      2.5567      0.0527    126.9752
  1019.1000      7.8763      4.5593      2.5748      0.0928    122.3202
  1019.2000      7.8763      2.4996      2.6088      0.0958    117.2059
  1019.3000      7.8936      0.0000      2.6500      0.1243    112.6558
  1019.4000      7.8936     -1.6221      2.6768      0.1169    108.6721
  1019.5000      7.9009     -1.7554      2.6790      0.1107    100.8897
  1019.6000      7.9009     -0.9291      2.6653      0.1049     92.4335
  1019.7000      7.9009      0.4000      2.6434      0.1096     89.2357
  1019.8000      7.9023      1.6995      2.6220      0.0263     91.0103
  1019.9000      7.9023      1.8758      2.6190      0.0123     96.5491
  1020.0000      7.9014      1.0470      2.6327      0.0310    106.5662
  1020.1000      7.9014      1.1370      2.6312      0.0596    119.2646
  1020.2000      7.9014      2.9898      2.6007      0.0229    131.5918
  1020.3000      7.8932      4.8396      2.5701      0.0045    139.4697
  1020.4000      7.8932      5.2920      2.5627      0.0221    135.9758
  1020.5000      7.8777      5.3695      2.5614      0.0744    124.0350
  1020.6000      7.8777      6.4740      2.5432      0.1020    121.4520
  1020.7000      7.8777      8.1850      2.5149      0.0459    130.3277
  1020.8000      7.8630      8.9937      2.5016      0.0525    133.7431
  1020.9000      7.8630      8.4548      2.5105      0.0649    129.1200
  1021.0000      7.8591      7.2562      2.5303      0.0637    120.9116
  1021.1000      7.8591      5.8757      2.5531      0.0583    114.9593
  1021.2000      7.8591      4.4144      2.5772      0.1106    124.1463
  1021.3000      7.8680      2.8946      2.6022      0.0872    141.4805
  1021.4000      7.8680      1.4744      2.6257      0.0885    150.8238
  1021.5000      7.8810      0.8401      2.6361      0.0951    151.7183
  1021.6000      7.8810      1.3251      2.6281      0.0787    146.1831
  1021.7000      7.8810      2.1677      2.6142      0.0559    137.9829
  1021.8000      7.8950      2.3760      2.6108      0.0868    132.7561
  1021.9000      7.8950      1.9885      2.6172      0.0681    134.3659
  1022.0000      7.9039      2.3871      2.6106      0.1012    144.5274
  1022.1000      7.9039      4.3376      2.5784      0.0431    153.9083
  1022.2000      7.9039      6.6110      2.5409      0.0038    152.0924
  1022.3000      7.9055      8.3949      2.5115      0.0266    142.7491
  1022.4000      7.9055     10.2829      2.4803      0.0157    133.3553
  1022.5000      7.9053     12.4008      2.4454     -0.0274    125.8935
  1022.6000      7.9053     14.3954      2.4125      0.0360    121.1155
  1022.7000      7.9053     15.9202      2.3873     -0.0387    121.8720
  1022.8000      7.9099     16.4764      2.3781      0.0424    126.9258
  1022.9000      7.9099     16.1873      2.3829      0.0434    130.4513
  1023.0000      7.9166     15.5000      2.3943      0.0756    136.0527
  1023.1000      7.9166     14.6934      2.4076      0.1003    143.1180
  1023.2000      7.9166     13.8213      2.4219      0.0694    135.6200
  1023.3000      7.9154     12.8215      2.4384      0.0854    107.7344
  1023.4000      7.9154     12.0034      2.4519      0.0789     84.5059
  1023.5000      7.9065     11.8322      2.4548      0.1048     90.4998
  1023.6000      7.9065     12.3492      2.4462      0.0786    119.4342
  1023.7000      7.9065     12.9728      2.4359      0.0300    148.1231
  1023.8000      7.8946     13.5706      2.4261      0.0731    164.0220
  1023.9000      7.8946     14.8409      2.4051      0.0790    168.5739
  1024.0000      7.8862     16.3946      2.3795      0.0140    162.3091
  1024.1000      7.8862     17.4600      2.3619      0.0589    147.5272
  1024.2000      7.8862     18.9099      2.3380      0.0477    136.9204
  1024.3000      7.8883     21.3475      2.2978      0.0069    138.5239
  1024.4000      7.8883     24.2815      2.2494      0.0679    144.2867
  1024.5000      7.9026     27.3088      2.1994      0.0057    142.5394
  1024.6000      7.9026     29.5512      2.1624     -0.0062    135.6880
  1024.7000      7.9026     30.1211      2.1530      0.0000    130.9399
  1024.8000      7.9203     29.5339      2.1627      0.0673    125.4060
  1024.9000      7.9203     29.2704      2.1670      0.0654    122.9322
  1025.0000      7.9321     30.1782      2.1521      0.0309    129.5706
  1025.1000      7.9321     32.1694      2.1192      0.0401    135.4881
  1025.2000      7.9321     34.7412      2.0768      0.0262    134.3665
  1025.3000      7.9364     37.1558      2.0369      0.0276    133.5407
