~Version Information
VERS.                      2.0: CWLS Log ASCII Standard - VERSION 2.0
WRAP.                       NO: One line per depth step
~Well Information Block
STRT.FT               335.0000: 
STOP.FT              1013.5000: 
STEP.FT                 0.1000: 
NULL.                -999.2500: 
COMP.          Pioneer Natural Resources: COMPANY
WELL.             Giggle 21-22: WELL
FLD.           Purgatoire River: FIELD
LOC.           950' FNL & 2094' FWL: LOCATION
CNTY.               Las Animas: COUNTY
SRVC.                Patterson: SERVICE COMPANY
DATE.          Thu Apr 13 09:31:38 2006: LOG DATE
UWI.           05 071 08726 00: UNIQUE WELL ID
STAT.                 Colorado: STATE
~Curve Information Block
DEPT.FT            0 000 00 00: Depth
DCAL.in                       : CDL Caliper
RHOB.g/cc                     : CDL Bulk Density
RHOC.g/cc                     : CDL Density Correction
DPOR.pu                       : CDL Density Porosity
GR.GAPI                       : Gamma Ray
NPOR.pu                       : Neutron Porosity
~Parameter Information Block
~A  Depth       DCAL        RHOB        RHOC        DPOR         GR         NPOR    
# ...
   469.4000      8.1125      2.4593      0.0288     11.5553     48.0385     17.1471
   469.5000      8.1100      2.4521      0.0172     11.9934     46.4373     17.2595
   469.6000      8.1100      2.4469      0.0204     12.3066     46.0988     17.1345
   469.7000      8.1100      2.4533     -0.0177     11.9191     47.2366     16.9008
   469.8000      8.1045      2.4793      0.0588     10.3438     49.6209     16.7263
   469.9000      8.1045      2.5036      0.0305      8.8728     53.0874     16.6057
   470.0000      8.1077      2.5011      0.0603      9.0221     57.1398     16.3109
   470.1000      8.1077      2.4822      0.0064     10.1692     61.3236     16.1417
   470.2000      8.1077      2.4722      0.0363     10.7747     64.2213     16.6785
   470.3000      8.1049      2.4767      0.0235     10.5031     64.5899     17.6268
   470.4000      8.1049      2.4935     -0.0200      9.4844     65.1661     18.2951
   470.5000      8.1123      2.5130      0.0642      8.3046     68.7135     18.5821
   470.6000      8.1123      2.5170      0.0732      8.0579     74.8239     18.8176
   470.7000      8.1123      2.5109      0.0209      8.4321     81.7743     19.1183
   470.8000      8.1114      2.5182      0.0323      7.9887     87.6976     19.2682
   470.9000      8.1114      2.5386      0.0755      6.7513     91.2688     19.4929
   471.0000      8.1133      2.5479      0.0435      6.1876     93.5805     20.1906
   471.1000      8.1133      2.5406      0.0675      6.6330     96.4984     21.0292
   471.2000      8.1133      2.5330      0.0202      7.0918     96.9108     21.6292
   471.3000      8.1139      2.5355      0.0005      6.9404     91.9668     22.0791
   471.4000      8.1139      2.5413     -0.0273      6.5893     86.9766     22.2990
   471.5000      8.1104      2.5372      0.0148      6.8343     88.9903     22.0914
   471.6000      8.1104      2.5135     -0.0294      8.2709     93.5118     21.6965
   471.7000      8.1104      2.4725     -0.0371     10.7596     90.7724     21.9320
   471.8000      8.1110      2.4294     -0.0256     13.3723     84.0855     22.8477
   471.9000      8.1110      2.4121     -0.0400     14.4197     81.9555     23.5000
   472.0000      8.1083      2.4386     -0.0320     12.8121     85.5318     23.4495
   472.1000      8.1083      2.4856      0.0191      9.9631     90.9955     23.1469
   472.2000      8.1083      2.5190     -0.0207      7.9385     95.2043     23.0655
   472.3000      8.1089      2.5369     -0.0061      6.8554     97.4277     23.3003
   472.4000      8.1089      2.5492      0.0399      6.1109    100.1656     23.8906
   472.5000      8.0966      2.5677      0.0880      4.9849    104.9433     24.6838
   472.6000      8.0966      2.6045      0.1448      2.7594    108.3775     25.1991
   472.7000      8.0966      2.6398      0.2190      0.6194    107.7324     24.9843
   472.8000      8.0892      2.6450      0.1754      0.3016    104.2797     24.2178
   472.9000      8.0892      2.6260      0.1492      1.4541    101.4897     23.6205
   473.0000      8.0892      2.6052      0.0698      2.7122    103.3312     23.4985
   473.1000      8.0892      2.5909      0.0844      3.5846    109.5128     23.3181
   473.2000      8.0892      2.5727      0.0983      4.6830    115.1191     22.8659
   473.3000      8.0922      2.5486      0.0606      6.1464    117.9045     22.7677
   473.4000      8.0922      2.5315      0.0898      7.1803    121.0590     23.1303
   473.5000      8.1029      2.5277      0.0807      7.4114    126.0663     23.4657
   473.6000      8.1029      2.5284      0.0880      7.3686    129.2789     23.6598
   473.7000      8.1029      2.5266      0.0550      7.4783    126.0964     23.8747
   473.8000      8.1055      2.5257      0.0928      7.5350    119.1357     24.1381
   473.9000      8.1055      2.5271      0.0858      7.4476    116.9568     24.1877
   474.0000      8.1102      2.5354      0.0533      6.9424    123.0879     23.9290
   474.1000      8.1102      2.5512      0.1378      5.9906    133.2586     23.6658
   474.2000      8.1102      2.5618      0.1055      5.3425    139.7825     23.6825
   474.3000      8.1136      2.5656      0.1357      5.1130    141.8884     24.0418
   474.4000      8.1136      2.5660      0.1085      5.0892    146.3905     24.5658
   474.5000      8.1196      2.5627      0.0710      5.2915    151.5529     24.9848
   474.6000      8.1196      2.5569      0.1210      5.6440    150.4818     25.1297
   474.7000      8.1196      2.5491      0.0856      6.1154    145.4707     25.0226
   474.8000      8.1192      2.5360      0.1238      6.9071    141.4453     24.8661
   474.9000      8.1192      2.5133      0.0577      8.2852    139.4693     24.8180
   475.0000      8.1288      2.4889      0.0709      9.7663    141.3545     24.9371
   475.1000      8.1288      2.4752      0.0584     10.5956    146.2808     25.1668
   475.2000      8.1288      2.4765      0.0518     10.5163    151.0805     25.3371
   475.3000      8.1291      2.4940      0.0421      9.4557    153.3188     25.5295
   475.4000      8.1291      2.5203      0.1187      7.8610    151.7801     25.6819
   475.5000      8.1310      2.5353      0.0801      6.9511    151.3019     25.5507
   475.6000      8.1310      2.5315      0.0587      7.1818    156.6656     25.2334
   475.7000      8.1310      2.5118      0.1133      8.3783    163.5799     24.9705
   475.8000      8.1281      2.4804      0.0975     10.2770    165.8891     24.7614
   475.9000      8.1281      2.4616      0.0092     11.4181    160.8726     24.6168
   476.0000      8.1294      2.4861      0.0689      9.9327    149.9839     24.6320
   476.1000      8.1294      2.5405      0.1181      6.6366    140.0406     24.8718
   476.2000      8.1294      2.5862      0.1018      3.8678    136.5639     25.4346
   476.3000      8.1319      2.6118      0.1398      2.3165    136.2675     26.0041
   476.4000      8.1319      2.6207      0.1599      1.7783    133.8974     26.0038
   476.5000      8.1316      2.6176      0.1684      1.9634    133.1047     25.5492
   476.6000      8.1316      2.6124      0.1316      2.2801    135.4849     24.9107
   476.7000      8.1316      2.6120      0.1192      2.3030    136.5490     23.9689
   476.8000      8.1292      2.6102      0.0860      2.4121    137.2945     23.1886
   476.9000      8.1292      2.5929      0.0587      3.4609    140.0632     22.7529
   477.0000      8.1269      2.5439      0.0291      6.4294    143.4377     22.1231
   477.1000      8.1269      2.4656     -0.0095     11.1756    145.7172     21.3330
   477.2000      8.1269      2.4024     -0.1018     15.0076    145.9561     20.9694
   477.3000      8.1191      2.3912     -0.0034     15.6839    143.3909     21.5938
   477.4000      8.1191      2.4102      0.0179     14.5362    138.7050     23.0508
   477.5000      8.1548      2.4313      0.0458     13.2527    132.5983     24.4868
   477.6000      8.1548      2.4584      0.0465     11.6135    127.6442     25.5561
   477.7000      8.1548      2.4983      0.0500      9.1923    124.6425     26.4013
   477.8000      8.1554      2.5444      0.1803      6.3984    121.4857     27.1332
   477.9000      8.1554      2.5795      0.1386      4.2743    117.6325     27.7590
   478.0000      8.1168      2.5907      0.2033      3.5968    113.4027     28.0873
   478.1000      8.1168      2.5846      0.1333      3.9639    108.3610     28.1915
   478.2000      8.1168      2.5847      0.1088      3.9559    103.3235     28.4675
   478.3000      8.0849      2.5922      0.0806      3.5047    102.5237     28.5217
   478.4000      8.0849      2.5836      0.0229      4.0255    108.0569     27.7528
   478.5000      8.0583      2.5559     -0.0395      5.7034    118.3524     26.5929
   478.6000      8.0583      2.5256      0.0359      7.5386    132.5981     25.6090
   478.7000      8.0583      2.5041     -0.0133      8.8446    145.2312     24.8685
   478.8000      8.0662      2.4996      0.0352      9.1126    149.0836     24.3317
   478.9000      8.0662      2.5065      0.1113      8.6946    147.7153     23.9422
