~Version Information
VERS.                      2.0: CWLS Log ASCII Standard - VERSION 2.0
WRAP.                       NO: One line per depth step
~Well Information Block
STRT.FT                -6.5000: 
STOP.FT              1773.5000: 
STEP.FT                 0.2500: 
NULL.                -999.2500: 
COMP.          Pioneer Natural Resources: COMPANY
WELL.           Lynch 43-30 Tr: WELL
FLD.           Purgatorie River: FIELD
LOC.           1431' FSL & 296' FEL--: LOCATION
PROV.                       CO: PROVINCE
CNTY.               Las Animas: COUNTRY
SRVC.          Patterson Wireline: SERVICE COMPANY
DATE.          Tue Aug 02 09:28:21 2005: LOG DATE
UWI.           05 071 08447 00: UNIQUE WELL ID
~Curve Information Block
DEPT.FT            0 000 00 00: Depth
CCL.                          : Casing Collar Locator
TT3.usec                      : CBL 3' Travel Time
AMP3.mV                       : CBL 3' Amplitude
GR.GAPI                       : Gamma Ray
~Parameter Information Block
MINAMPL.mV              1.0000: Minimum Amplitude
~A  Depth       CCL         TT3         AMP3         GR     
# ...
  1400.5000      0.0000    613.7386      8.2550     81.4548
  1400.7500      0.0000    618.2910      8.1929     77.3979
  1401.0000      0.0000    583.6205      8.1945     71.6853
  1401.2500      0.0000    530.6364      8.2550     66.2962
  1401.5000      0.0000    487.5698      8.3261     62.4853
  1401.7500     -2.0000    470.3531      8.3432     60.3747
  1402.0000     -2.0000    474.0874      8.3012     59.5304
  1402.2500      0.0000    482.8838      8.2892     59.5223
  1402.5000      0.0000    487.5803      8.4406     60.1195
  1402.7500      0.0000    491.3006      8.8165     61.1874
  1403.0000      0.0000    497.9472      9.3090     62.4643
  1403.2500      0.0000    503.0164      9.7002     63.6299
  1403.5000      0.0000    502.1664      9.8661     64.7686
  1403.7500      0.0000    504.0634      9.8832     66.4966
  1404.0000      0.0000    526.2321      9.9070     69.1955
  1404.2500      0.0000    576.9514     10.0046     72.0377
  1404.5000      0.0000    644.7853     10.1404     73.1572
  1404.7500      0.0000    706.5046     10.2572     71.2987
  1405.0000      0.0000    742.2438     10.3232     67.4601
  1405.2500      0.0000    742.6420     10.3329     64.5909
  1405.5000      0.0000    707.5950     10.2995     65.3640
  1405.7500      0.0000    646.1831     10.2459     70.2376
  1406.0000      0.0000    578.7765     10.1877     77.6282
  1406.2500      0.0000    532.8500     10.1259     85.7871
  1406.5000      0.0000    529.6870     10.0582     94.3268
  1406.7500      0.0000    571.2762      9.9972    103.7731
  1407.0000      0.0000    638.7474      9.9718    113.7453
  1407.2500      0.0000    704.5649     10.0015    121.9792
  1407.5000      0.0000    748.2484     10.0731    125.5197
  1407.7500      0.0000    762.8971     10.1495    123.0919
  1408.0000      0.0000    751.3763     10.2017    116.3958
  1408.2500      0.0000    721.2764     10.2261    109.0092
  1408.5000      0.0000    683.6571     10.2323    103.9293
  1408.7500      0.0000    651.5287     10.2253    102.1695
  1409.0000      0.0000    633.7128     10.2046    103.4682
  1409.2500      0.0000    628.1224     10.1761    107.4817
  1409.5000      0.0000    623.2572     10.1563    113.5841
  1409.7500      0.0000    608.9420     10.1635    120.0635
  1410.0000      0.0000    585.6088     10.2041    124.7282
  1410.2500      0.0000    563.5128     10.2666    126.6934
  1410.5000      0.0000    554.3322     10.3302    127.0561
  1410.7500      0.0000    561.8431     10.3786    127.5639
  1411.0000      0.0000    578.1840     10.4058    128.8515
  1411.2500      0.0000    590.3091     10.4128    130.1608
  1411.5000      0.0000    592.2103     10.4035    130.5967
  1411.7500      0.0000    589.7970     10.3855    130.4269
  1412.0000      0.0000    592.6331     10.3707    130.9674
  1412.2500      0.0000    602.5684     10.3719    132.9882
  1412.5000      0.0000    611.5037     10.3965    135.3882
  1412.7500      0.0000    608.0964     10.4409    135.9795
  1413.0000      0.0000    585.3416     10.4936    133.6937
  1413.2500      0.0000    544.5195     10.5430    129.4883
  1413.5000      0.0000    494.8664     10.5830    124.9727
  1413.7500      0.0000    448.7290     10.6120    120.8768
  1414.0000      0.0000    414.7430     10.6292    117.2609
  1414.2500      0.0000    394.5428     10.6331    114.4349
  1414.5000      0.0000    384.7947     10.6238    113.0017
  1414.7500      0.0000    381.4628     10.6059    113.3632
  1415.0000      0.0000    383.0623     10.5871    115.5187
  1415.2500      0.0000    392.2645     10.5733    118.9553
  1415.5000      0.0000    415.7096     10.5645    122.5064
  1415.7500      0.0000    460.0862     10.5554    124.9104
  1416.0000      0.0000    524.9003     10.5390    125.6848
  1416.2500      0.0000    598.1553     10.5116    124.9261
  1416.5000      0.0000    661.9727     10.4741    122.4659
  1416.7500      0.0000    704.8392     10.4302    118.1926
  1417.0000      0.0000    728.5604     10.3833    113.1826
  1417.2500      0.0000    743.5106     10.3365    109.3546
  1417.5000      0.0000    758.1867     10.2937    107.4960
  1417.7500      0.0000    773.6780     10.2594    106.3042
  1418.0000      0.0000    786.5637     10.2368    103.8447
  1418.2500      0.0000    794.3851     10.2247     99.4269
  1418.5000      0.0000    797.1401     10.2178     93.8088
  1418.7500      0.0000    794.7169     10.2095     88.3345
  1419.0000      0.0000    783.6563     10.1965     84.3902
  1419.2500      0.0000    756.3806     10.1812     83.0189
  1419.5000      0.0000    705.2861     10.1694     84.1917
  1419.7500      0.0000    630.9105     10.1614     86.3809
  1420.0000      0.0000    546.6732     10.1485     87.1189
  1420.2500      0.0000    472.5168     10.1174     84.3771
  1420.5000      0.0000    422.2225     10.0610     77.8959
  1420.7500      0.0000    397.6215      9.9830     69.3534
  1421.0000      0.0000    394.0340      9.8922     61.0691
  1421.2500      0.0000    407.8941      9.7968     54.4303
  1421.5000      0.0000    437.1689      9.7037     49.5641
  1421.7500      0.0000    475.7275      9.6223     46.3251
  1422.0000      0.0000    511.7897      9.5644     45.0482
  1422.2500      0.0000    536.5043      9.5384     46.0034
  1422.5000      0.0000    553.2964      9.5445     48.5288
  1422.7500      0.0000    574.0034      9.5736     51.2969
  1423.0000      0.0000    605.5084      9.6120     53.4090
  1423.2500      0.0000    644.2821      9.6466     55.0034
  1423.5000      0.0000    683.1827      9.6677     56.8995
  1423.7500      0.0000    718.1705      9.6692     59.8014
  1424.0000      0.0000    747.5840      9.6465     63.5954
  1424.2500      0.0000    769.4377      9.5973     67.1119
  1424.5000      0.0000    781.7873      9.5242     68.6465
  1424.7500      0.0000    784.2339      9.4359     66.9896
  1425.0000      0.0000    778.1760      9.3440     62.2701
  1425.2500      0.0000    766.4458      9.2578     56.0744
  1425.5000      0.0000    753.0633      9.1832     50.7206
  1425.7500      0.0000    742.7241      9.1238     47.9934
  1426.0000      0.0000    739.6967      9.0812     48.0372
  1426.2500      0.0000    745.8812      9.0527     49.3133
  1426.5000      0.0000    758.9648      9.0323     49.7935
  1426.7500      0.0000    773.1410      9.0162     48.4584
  1427.0000      0.0000    782.5705      9.0048     45.9753
  1427.2500      0.0000    784.1353      9.0009     44.1506
  1427.5000      0.0000    777.5908      9.0065     44.5444
  1427.7500      0.0000    764.7095      9.0244     47.3427
  1428.0000      0.0000    748.5093      9.0610     51.5384
  1428.2500      0.0000    731.9738      9.1233     56.3445
  1428.5000      0.0000    716.8974      9.2122     62.3974
  1428.7500      0.0000    704.1848      9.3198     71.3143
  1429.0000      0.0000    694.5789      9.4352     83.8118
  1429.2500      0.0000    687.7023      9.5499     98.4121
  1429.5000      0.0000    680.0969      9.6571    112.3873
  1429.7500      0.0000    665.6653      9.7495    123.8753
  1430.0000      0.0000    640.2743      9.8230    132.5807
  1430.2500      0.0000    606.6541      9.8814    138.6078
  1430.5000      0.0000    573.2520      9.9347    141.6196
  1430.7500      0.0000    547.5074      9.9896    141.6074
  1431.0000      0.0000    531.3279     10.0432    139.7689
  1431.2500      0.0000    522.6771     10.0859    137.9080
  1431.5000      0.0000    519.2082     10.1099    137.1267
  1431.7500      0.0000    519.7386     10.1148    137.3027
  1432.0000      0.0000    523.7440     10.1051    137.6140
  1432.2500      0.0000    530.4235     10.0853    137.6314
  1432.5000      0.0000    538.2136     10.0598    138.0704
  1432.7500      0.0000    545.1713     10.0344    140.1661
  1433.0000      0.0000    549.9704     10.0177    144.0784
  1433.2500      0.0000    552.4477     10.0197    148.4129
  1433.5000      0.0000    553.2885     10.0489    151.6075
  1433.7500      0.0000    553.3966     10.1068    153.2418
