~Version Information
VERS.                      2.0: CWLS Log ASCII Standard - VERSION 2.0
WRAP.                       NO: One line per depth step
~Well Information Block
STRT.FT               240.0000: 
STOP.FT              1252.5000: 
STEP.FT                 0.2500: 
NULL.                -999.2500: 
COMP.          Pioneer Natural Resources: COMPANY
WELL.             Margaux 11-1: WELL
FLD.           Purgatoire River: FIELD
LOC.           1154' FNL & 472' FWL: LOCATION
PROV.                 Colorado: PROVINCE
CNTY.               Las Animas: COUNTRY
SRVC.                Patterson: SERVICE COMPANY
DATE.          Mon Dec 19 04:21:59 2005: LOG DATE
UWI.           05 071 08639 00: UNIQUE WELL ID
~Curve Information Block
DEPT.FT            0 000 00 00: Depth
SN.Ohm-m                      : IEL Short Normal
SP.mV                         : IEL Spontaneous Potential
DIR.Ohm-m                     : IEL Induction Resistivity
GR.GAPI                       : Gamma Ray
~Parameter Information Block
~A  Depth        SN          SP         DIR          GR     
# ...
   508.0000   2000.0000   2000.0000     12.1139    161.3709
   508.2500   2000.0000   2000.0000     11.8793    161.6851
   508.5000   2000.0000   2000.0000     11.6794    162.4508
   508.7500   2000.0000   2000.0000     11.5099    162.8844
   509.0000   2000.0000   2000.0000     11.3674    162.6553
   509.2500   2000.0000   2000.0000     11.2490    161.3821
   509.5000   2000.0000   2000.0000     11.1494    157.5729
   509.7500   2000.0000   2000.0000     11.0593    154.3650
   510.0000   2000.0000   2000.0000     10.9671    150.3895
   510.2500   2000.0000   2000.0000     10.8647    149.1495
   510.5000   2000.0000   2000.0000     10.7551    149.5049
   510.7500   2000.0000   2000.0000     10.6533    150.6629
   511.0000   2000.0000   2000.0000     10.5824    152.9901
   511.2500   2000.0000   2000.0000     10.5648    154.8537
   511.5000   2000.0000   2000.0000     10.6131    158.0247
   511.7500   2000.0000   2000.0000     10.7252    160.0208
   512.0000   2000.0000   2000.0000     10.8847    161.6838
   512.2500   2000.0000   2000.0000     11.0666    161.0999
   512.5000   2000.0000   2000.0000     11.2463    156.5779
   512.7500   2000.0000   2000.0000     11.4072    151.0059
   513.0000   2000.0000   2000.0000     11.5447    139.8271
   513.2500   2000.0000   2000.0000     11.6672    131.5742
   513.5000   2000.0000   2000.0000     11.7961    120.0170
   513.7500   2000.0000   2000.0000     11.9625    113.9615
   514.0000   2000.0000   2000.0000     12.2004    108.8617
   514.2500   2000.0000   2000.0000     12.5361    108.5038
   514.5000   2000.0000   2000.0000     12.9800    112.0257
   514.7500   2000.0000   2000.0000     13.5228    116.3263
   515.0000   2000.0000   2000.0000     14.1336    124.3218
   515.2500   2000.0000   2000.0000     14.7589    129.9938
   515.5000   2000.0000   2000.0000     15.3229    137.9602
   515.7500   2000.0000   2000.0000     15.7434    142.3291
   516.0000   2000.0000   2000.0000     15.9631    146.6145
   516.2500   2000.0000   2000.0000     15.9820    147.6522
   516.5000   2000.0000   2000.0000     15.8601    146.6495
   516.7500   2000.0000   2000.0000     15.6875    144.9314
   517.0000   2000.0000   2000.0000     15.5457    142.5082
   517.2500   2000.0000   2000.0000     15.4892    141.8412
   517.5000   2000.0000   2000.0000     15.5458    142.6953
   517.7500   2000.0000   2000.0000     15.7256    144.1834
   518.0000   2000.0000   2000.0000     16.0255    146.7504
   518.2500   2000.0000   2000.0000     16.4296    148.0288
   518.5000   2000.0000   2000.0000     16.9093    148.4817
   518.7500   2000.0000   2000.0000     17.4302    147.6470
   519.0000   2000.0000   2000.0000     17.9631    144.9089
   519.2500   2000.0000   2000.0000     18.4904    142.3542
   519.5000   2000.0000   2000.0000     19.0048    137.8374
   519.7500   2000.0000   2000.0000     19.5009    134.5148
   520.0000   2000.0000   2000.0000     19.9669    129.2220
   520.2500   2000.0000   2000.0000     20.3815    125.5895
   520.5000   2000.0000   2000.0000     20.7159    120.1039
   520.7500   2000.0000   2000.0000     20.9433    116.4791
   521.0000   2000.0000   2000.0000     21.0538    111.6014
   521.2500   2000.0000   2000.0000     21.0643    109.4442
   521.5000   2000.0000   2000.0000     21.0135    109.4164
   521.7500   2000.0000   2000.0000     20.9405    112.1452
   522.0000   2000.0000   2000.0000     20.8626    120.0789
   522.2500   2000.0000   2000.0000     20.7640    126.8896
   522.5000   2000.0000   2000.0000     20.6037    136.7651
   522.7500   2000.0000   2000.0000     20.3398    141.7545
   523.0000   2000.0000   2000.0000     19.9553    145.6299
   523.2500   2000.0000   2000.0000     19.4684    145.7767
   523.5000   2000.0000   2000.0000     18.9185    143.0552
   523.7500   2000.0000   2000.0000     18.3451    139.9598
   524.0000   2000.0000   2000.0000     17.7783    134.7384
   524.2500   2000.0000   2000.0000     17.2448    131.6549
   524.5000   2000.0000   2000.0000     16.7751    128.9078
   524.7500   2000.0000   2000.0000     16.4013    128.9819
   525.0000   2000.0000   2000.0000     16.1482    132.4488
   525.2500   2000.0000   2000.0000     16.0250    136.5735
   525.5000   2000.0000   2000.0000     16.0229    143.3435
   525.7500   2000.0000   2000.0000     16.1175    146.5163
   526.0000   2000.0000   2000.0000     16.2755    146.7067
   526.2500   2000.0000   2000.0000     16.4628    143.2296
   526.5000   2000.0000   2000.0000     16.6544    133.9461
   526.7500   2000.0000   2000.0000     16.8417    126.9607
   527.0000   2000.0000   2000.0000     17.0332    119.0205
   527.2500   2000.0000   2000.0000     17.2510    116.7857
   527.5000   2000.0000   2000.0000     17.5267    117.8108
   527.7500   2000.0000   2000.0000     17.8950    120.0836
   528.0000   2000.0000   2000.0000     18.3822    123.1550
   528.2500   2000.0000   2000.0000     18.9925    123.8388
   528.5000   2000.0000   2000.0000     19.6969    122.0765
   528.7500   2000.0000   2000.0000     20.4379    119.3467
   529.0000   2000.0000   2000.0000     21.1456    114.5352
   529.2500   2000.0000   2000.0000     21.7599    111.9840
   529.5000   2000.0000   2000.0000     22.2470    110.0186
   529.7500   2000.0000   2000.0000     22.6056    109.5145
   530.0000   2000.0000   2000.0000     22.8632    108.5729
   530.2500   2000.0000   2000.0000     23.0643    107.4013
   530.5000   2000.0000   2000.0000     23.2557    105.2930
   530.7500   2000.0000   2000.0000     23.4751    104.4538
   531.0000   2000.0000   2000.0000     23.7474    105.6427
   531.2500   2000.0000   2000.0000     24.0836    108.5014
   531.5000   2000.0000   2000.0000     24.4762    114.6707
   531.7500   2000.0000   2000.0000     24.8919    118.3110
   532.0000   2000.0000   2000.0000     25.2655    120.0322
   532.2500   2000.0000   2000.0000     25.5115    117.7394
   532.5000   2000.0000   2000.0000     25.5578    109.2407
   532.7500   2000.0000   2000.0000     25.3876    100.9829
   533.0000   2000.0000   2000.0000     25.0550     86.8714
   533.2500   2000.0000   2000.0000     24.6589     77.9564
   533.5000   2000.0000   2000.0000     24.2961     68.4068
   533.7500   2000.0000   2000.0000     24.0255     66.0860
   534.0000   2000.0000   2000.0000     23.8589     69.7093
   534.2500   2000.0000   2000.0000     23.7697     76.2629
   534.5000   2000.0000   2000.0000     23.7075     89.5064
   534.7500   2000.0000   2000.0000     23.6106     98.5433
   535.0000   2000.0000   2000.0000     23.4137    109.5705
   535.2500   2000.0000   2000.0000     23.0561    114.6348
   535.5000   2000.0000   2000.0000     22.4979    119.6855
   535.7500   2000.0000   2000.0000     21.7404    122.3795
   536.0000   2000.0000   2000.0000     20.8378    126.7125
   536.2500   2000.0000   2000.0000     19.8832    130.0130
   536.5000   2000.0000   2000.0000     18.9757    135.2863
   536.7500   2000.0000   2000.0000     18.1873    138.7291
   537.0000   2000.0000   2000.0000     17.5502    143.4476
   537.2500   2000.0000   2000.0000     17.0625    146.2957
   537.5000   2000.0000   2000.0000     16.7042    150.4470
   537.7500   2000.0000   2000.0000     16.4523    153.3649
   538.0000   2000.0000   2000.0000     16.2895    158.0194
   538.2500   2000.0000   2000.0000     16.2060    161.0231
   538.5000   2000.0000   2000.0000     16.1977    164.4742
   538.7500   2000.0000   2000.0000     16.2616    165.4055
   539.0000   2000.0000   2000.0000     16.3882    163.6590
   539.2500   2000.0000   2000.0000     16.5560    160.0787
   539.5000   2000.0000   2000.0000     16.7346    151.5185
   539.7500   2000.0000   2000.0000     16.9018    144.4762
   540.0000   2000.0000   2000.0000     17.0652    133.6819
   540.2500   2000.0000   2000.0000     17.2664    127.3078
   540.5000   2000.0000   2000.0000     17.5624    120.2513
   540.7500   2000.0000   2000.0000     17.9933    117.6808
   541.0000   2000.0000   2000.0000     18.5584    117.2005
   541.2500   2000.0000   2000.0000     19.2129    118.6392
