~Version Information
 VERS.                                  2.0 : CWLS LAS VERSION
 WRAP.                                   NO : WRAPING MODE
 SWARE .                 MController 2.5.0N : SOFTWARE VERSION
~Well Information
 WELL.                 Flying Horse 12-11Tr : WELL
 COMP.    Pioneer Natural Resources USA Inc : COMPANY
 FLD.                      Purgatoire River : FIELD
 LOC.                 SW/NW SEC11 T32S R66W : LOCATION
 DATE.                             09/03/05 : DATE(S) LOGGED
 SRVC.       Blanco Geological Services LLC : SERVICE COMPANY
 STAT.                             Colorado : STATE
 CNTY.                           Las Animas : COUNTY
 CTRY.                                 USA : COUNTRY
 API.                       05-071-08485-00 : API NUMBER
 STRT.FT                             565.00 : START DEPTH
 STOP.FT                            1978.00 : STOP DEPTH
 STEP.FT                               1.00 : DEPTH INCREMENT
 NULL.                                -9999 : NULL VALUE
~Curve information
 DEPTH.FT                                   :
 ROP.MIN/FT                                 :
 GAS.UNITS                                  :
~ASCII Log data
# ...
       765.0         0.17         10.9 
       766.0         0.17         10.5 
       767.0         0.20         11.1 
       768.0         0.17         11.1 
       769.0         0.17         11.0 
       770.0         0.18         11.5 
       771.0         0.17         10.8 
       772.0         0.13         10.9 
       773.0         0.17         11.4 
       774.0         0.23         10.5 
       775.0         0.50         11.0 
       776.0         0.70         10.7 
       777.0         0.30         10.8 
       778.0         0.23         10.8 
       779.0         0.20         10.3 
       780.0         0.23          9.8 
       781.0         0.20          9.7 
       782.0         0.18         10.4 
       783.0         0.13         10.3 
       784.0         0.13         10.3 
       785.0         0.17         10.3 
       786.0         0.13         10.6 
       787.0         0.13         10.6 
       788.0         0.13         10.1 
       789.0         0.13         10.1 
       790.0         0.13         10.3 
       791.0         0.17         10.3 
       792.0         0.17         10.3 
       793.0         0.20         10.8 
       794.0         0.20         10.4 
       795.0         0.17         10.2 
       796.0         0.20         10.8 
       797.0         0.20         10.7 
       798.0         0.17         10.8 
       799.0         0.20         10.5 
       800.0         0.17         10.5 
       801.0         0.17         10.8 
       802.0         0.18         10.4 
       803.0         0.17         10.5 
       804.0         0.17         10.5 
       805.0         1.67         38.2 
       806.0         0.33          9.6 
       807.0         0.47          8.9 
       808.0         0.47          9.8 
       809.0         0.28          9.2 
       810.0         0.23         10.0 
       811.0         0.20         10.1 
       812.0         0.20          9.1 
       813.0         0.20          9.5 
       814.0         0.20         10.1 
       815.0         0.20          9.5 
       816.0         0.20          9.5 
       817.0         0.13          9.8 
       818.0         0.20          9.5 
       819.0         0.13         10.2 
       820.0         0.20          9.9 
       821.0         0.23         10.5 
       822.0         0.13         10.5 
       823.0         0.17         10.8 
       824.0         0.17         10.8 
       825.0         0.17         10.3 
       826.0         0.13         10.2 
       827.0         0.15         10.2 
       828.0         0.17         10.9 
       829.0         0.17          9.8 
       830.0         0.17          9.8 
       831.0         0.17         10.3 
       832.0         0.13         10.3 
       833.0         0.13         10.3 
       834.0         0.20          9.6 
       835.0         0.23         10.4 
       836.0         1.67         10.3 
       837.0         0.65          9.6 
       838.0         0.30         10.2 
       839.0         0.23          9.9 
       840.0         0.23         10.4 
       841.0         0.23         10.7 
       842.0         0.17         10.7 
       843.0         0.20         10.7 
       844.0         0.23         10.2 
       845.0         0.23         10.2 
       846.0         0.23         10.4 
       847.0         0.23         10.7 
       848.0         0.23         10.3 
       849.0         0.17         10.4 
       850.0         0.22         10.6 
       851.0         0.23         10.5 
       852.0         0.27         10.5 
       853.0         0.13         10.5 
       854.0         0.20         10.3 
       855.0         0.23         10.5 
       856.0         0.20          9.9 
       857.0         0.17         10.1 
       858.0         0.23          9.9 
       859.0         0.13          9.9 
       860.0         0.13         10.3 
       861.0         0.20         10.4 
       862.0         0.20         10.7 
       863.0         0.17         10.2 
       864.0         0.30         10.3 
       865.0         0.23         10.7 
       866.0         1.65         10.5 
       867.0         0.57         10.2 
       868.0         0.33          9.9 
       869.0         0.37          9.5 
       870.0         0.37          9.9 
       871.0         0.23          9.9 
       872.0         0.28          9.4 
       873.0         0.20          9.8 
       874.0         0.17          9.2 
       875.0         0.17          9.1 
       876.0         0.20          9.2 
       877.0         0.23          9.6 
       878.0         0.17          9.3 
       879.0         0.17          9.2 
       880.0         0.27          9.4 
       881.0         0.13          9.4 
       882.0         0.20          9.1 
       883.0         0.20          9.1 
       884.0         0.20          9.4 
       885.0         0.17          9.4 
       886.0         0.17          9.4 
       887.0         0.17         10.0 
       888.0         0.20          9.9 
       889.0         0.28          9.6 
       890.0         0.13          9.8 
       891.0         0.27          9.5 
       892.0         0.17          9.5 
       893.0         0.17          9.8 
       894.0         0.20         10.6 
       895.0         0.17         10.6 
       896.0         1.27         10.4 
       897.0         0.30          9.2 
       898.0         0.13          9.6 
       899.0         0.52          9.5 
       900.0         0.20          9.5 
       901.0         0.27          9.8 
       902.0         0.50          9.9 
       903.0         0.33          9.3 
       904.0         0.33          9.4 
       905.0         0.30          8.8 
       906.0         0.23          9.1 
       907.0         0.17          9.3 
       908.0         0.20          9.7 
       909.0         0.17          9.4 
       910.0         0.17          9.9 
       911.0         0.13          9.2 
       912.0         0.13          9.3 
       913.0         0.18          9.3 
       914.0         0.17          9.8 
       915.0         0.20          9.6 
       916.0         0.17          9.9 
       917.0         0.13          9.9 
       918.0         0.17          9.7 
       919.0         0.20          9.6 
       920.0         0.20         10.0 
       921.0         0.23         10.0 
       922.0         0.20          9.5 
       923.0         0.20          9.5 
       924.0         0.23         10.0 
       925.0         0.23          9.8 
       926.0         3.82         11.1 
       927.0         0.13          9.2 
       928.0         0.23          9.6 
       929.0         0.22          9.2 
       930.0         0.20          8.9 
       931.0         0.27          9.1 
       932.0         0.27          9.1 
       933.0         0.27          9.6 
       934.0         0.53         10.3 
       935.0         0.53         13.0 
       936.0         0.27         13.3 
       937.0         0.10         14.3 
       938.0         0.40         15.6 
       939.0         0.27         13.9 
       940.0         0.32         12.2 
       941.0         0.30         11.6 
       942.0         0.27         11.1 
       943.0         0.23          9.1 
       944.0         0.20          8.8 
       945.0         0.20          8.5 
       946.0         0.20          9.8 
       947.0         0.30          9.7 
       948.0         0.23          8.9 
       949.0         0.23          8.9 
       950.0         0.20          9.0 
       951.0         0.20          9.1 
       952.0         0.23          9.3 
       953.0         0.20          9.0 
       954.0         0.22          9.2 
       955.0         0.70         14.8 
       956.0         1.73         12.7 
       957.0         0.33         10.3 
       958.0         0.27         10.1 
       959.0         0.20         10.3 
       960.0         0.25          9.0 
       961.0         0.23          9.5 
       962.0         0.27          9.6 
       963.0         0.27          9.1 
       964.0         0.23          9.2 
