~Version Information
VERS.                      2.0: CWLS Log ASCII Standard - VERSION 2.0
WRAP.                       NO: One line per depth step
~Well Information Block
STRT.FT               360.0000: 
STOP.FT              2475.0000: 
STEP.FT                 0.1000: 
NULL.                -999.2500: 
COMP.          Pioneer Natural Resources: COMPANY
WELL.          Hellzonfire 32-31: WELL
FLD.           Purgatoire River: FIELD
LOC.           1993' FNL & 2265' FEL: LOCATION
STAT.                 Colorado: State
CNTY.               Las Animas: COUNTY
CTRY. USA : Country
SECT. 31 : Section
TOWN. 32S : Township
RANG. 66W : Range
SRVC.                Patterson: SERVICE COMPANY
DATE.          Fri Sep 02 07:26:13 2005: LOG DATE
API.           05 071 08483 00: UNIQUE WELL ID
~Curve Information Block
DEPT.FT            0 000 00 00: Depth
DCAL.in                       : CDL Caliper
RHOB.g/cc                     : CDL Bulk Density
RHOC.g/cc                     : CDL Density Correction
DPOR.pu                       : CDL Density Porosity
GR.GAPI                       : Gamma Ray
NPOR.pu                       : Neutron Porosity
~Parameter Information Block
~A  Depth       DCAL        RHOB        RHOC        DPOR         GR         NPOR    
   360.0000      5.0835      2.3044     -0.4700     20.9479    124.0237     22.1364
   360.1000      5.0835      2.2889     -0.5318     21.8850    116.5616     22.3276
   360.2000      5.0835      2.2713     -0.4695     22.9533    100.9940     22.5631
   360.3000      5.0899      2.2629     -0.5614     23.4635     88.9571     22.7435
   360.4000      5.0899      2.2749     -0.5191     22.7304     83.8649     22.9000
   360.5000      5.0885      2.3024     -0.5012     21.0667     87.4806     22.8803
   360.6000      5.0885      2.3245     -0.5684     19.7290    100.3170     22.4156
   360.7000      5.0885      2.3402     -0.5231     18.7744    114.6124     21.5706
   360.8000      5.0859      2.3522     -0.4928     18.0482    119.3618     20.5916
   360.9000      5.0859      2.3512     -0.5322     18.1078    113.1243     19.9340
   361.0000      5.0984      2.3328     -0.4772     19.2213    105.0757     19.9711
   361.1000      5.0984      2.3084     -0.5356     20.7013    101.6077     20.3298
   361.2000      5.0984      2.2995     -0.5530     21.2408    103.1149     20.7343
   361.3000      5.1158      2.3124     -0.5558     20.4602    105.7780     21.3715
   361.4000      5.1158      2.3359     -0.5079     19.0375    102.9825     22.0295
   361.5000      5.0909      2.3629     -0.4519     17.4017     97.8408     22.1876
   361.6000      5.0909      2.3945     -0.5400     15.4870    104.0900     21.6679
   361.7000      5.0909      2.4107     -0.4309     14.5028    122.8985     21.1266
   361.8000      5.0889      2.3839     -0.5033     16.1282    142.2235     21.1943
   361.9000      5.0889      2.3290     -0.5793     19.4528    150.7667     21.2014
   362.0000      5.0915      2.2781     -0.5421     22.5424    145.0937     20.4544
   362.1000      5.0915      2.2422     -0.5792     24.7161    134.8237     19.9238
   362.2000      5.0915      2.2296     -0.6554     25.4771    127.2871     20.2054
   362.3000      5.0953      2.2430     -0.6249     24.6677    121.5190     20.4535
   362.4000      5.0953      2.2748     -0.6373     22.7394    116.9011     20.4194
   362.5000      5.0909      2.3118     -0.4958     20.4954    115.1522     20.7899
   362.6000      5.0909      2.3251     -0.4833     19.6923    116.6259     21.2906
   362.7000      5.0909      2.3013     -0.4701     21.1314    120.3509     21.1328
   362.8000      5.0927      2.2659     -0.6345     23.2784    123.8414     20.7751
   362.9000      5.0927      2.2507     -0.5691     24.2018    122.3124     20.6930
   363.0000      5.0954      2.2575     -0.5740     23.7853    115.5384     20.7973
   363.1000      5.0954      2.2685     -0.5155     23.1211    111.3021     21.2168
   363.2000      5.0954      2.2704     -0.4840     23.0061    116.0629     21.4001
   363.3000      5.0843      2.2746     -0.5117     22.7487    126.2196     20.7033
   363.4000      5.0843      2.2937     -0.5151     21.5932    134.3075     20.1331
   363.5000      5.0935      2.3131     -0.4467     20.4187    137.3643     20.2560
   363.6000      5.0935      2.3236     -0.5725     19.7844    135.7954     20.3564
   363.7000      5.0935      2.3329     -0.4644     19.2189    132.4370     20.4501
   363.8000      5.0938      2.3461     -0.5993     18.4191    130.8528     21.0342
   363.9000      5.0938      2.3673     -0.5078     17.1346    131.3816     21.7097
   364.0000      5.1011      2.3773     -0.4193     16.5272    131.4928     21.7073
   364.1000      5.1011      2.3628     -0.5414     17.4086    130.9396     21.5196
   364.2000      5.1011      2.3495     -0.5412     18.2118    133.0308     21.9967
   364.3000      5.0998      2.3498     -0.4798     18.1917    136.5658     22.8199
   364.4000      5.0998      2.3563     -0.5368     17.7986    135.1309     23.6486
   364.5000      5.0975      2.3725     -0.5153     16.8186    130.9532     24.4543
   364.6000      5.0975      2.3860     -0.4493     15.9983    130.5664     24.5624
   364.7000      5.0975      2.3681     -0.4377     17.0844    131.9343     23.4022
   364.8000      5.0886      2.3197     -0.4879     20.0159    127.3497     21.2946
   364.9000      5.0886      2.2779     -0.6648     22.5545    116.5842     19.6769
   365.0000      5.1005      2.2678     -0.5657     23.1662    109.9621     19.6911
   365.1000      5.1005      2.2700     -0.5856     23.0276    109.6527     20.6632
   365.2000      5.1005      2.2655     -0.5746     23.3039    109.4509     21.4284
   365.3000      5.0968      2.2529     -0.5790     24.0654    111.7337     21.0930
   365.4000      5.0968      2.2367     -0.5739     25.0471    117.8872     19.7788
   365.5000      5.0935      2.2444     -0.6234     24.5796    122.7628     18.7477
   365.6000      5.0935      2.2885     -0.5116     21.9076    124.0728     18.0711
   365.7000      5.0935      2.3271     -0.5260     19.5710    127.3752     17.4716
   365.8000      5.0976      2.3419     -0.5730     18.6700    129.8403     17.6840
   365.9000      5.0976      2.3686     -0.5240     17.0547    121.5488     18.4001
   366.0000      5.0937      2.4097     -0.4205     14.5634    105.9619     18.6093
   366.1000      5.0937      2.4286     -0.4285     13.4205     93.0979     18.5061
   366.2000      5.0937      2.4244     -0.4297     13.6738     90.2671     18.4115
   366.3000      5.0934      2.4237     -0.5183     13.7182     98.5684     18.2993
   366.4000      5.0934      2.4257     -0.4632     13.5947    111.4913     18.2906
   366.5000      5.0927      2.4171     -0.5048     14.1166    119.5046     18.0247
   366.6000      5.0927      2.4077     -0.5286     14.6842    120.0526     17.4956
   366.7000      5.0927      2.3954     -0.4832     15.4327    119.5603     17.4914
   366.8000      5.0995      2.3544     -0.4147     17.9138    119.5678     17.8086
   366.9000      5.0995      2.2922     -0.5958     21.6843    115.8367     17.4384
   367.0000      5.1354      2.2562     -0.6147     23.8652    110.1404     16.5473
   367.1000      5.1354      2.2755     -0.6322     22.6953    104.8583     15.9210
   367.2000      5.1354      2.3208     -0.4498     19.9489     97.0755     15.5996
   367.3000      5.1024      2.3529     -0.5703     18.0034     88.7233     15.6059
   367.4000      5.1024      2.3841     -0.5486     16.1164     86.2087     16.0534
   367.5000      5.0940      2.4192     -0.4154     13.9894     86.9499     16.4594
   367.6000      5.0940      2.4295     -0.4406     13.3641     87.1930     16.1141
   367.7000      5.0940      2.4119     -0.4738     14.4287     91.3456     15.2367
   367.8000      5.0940      2.3845     -0.4609     16.0897     97.8432     14.8613
   367.9000      5.0940      2.3534     -0.4853     17.9775    102.2800     14.9773
   368.0000      5.0975      2.3329     -0.5399     19.2200    105.5293     14.7979
   368.1000      5.0975      2.3300     -0.5306     19.3952    105.9365     14.3424
   368.2000      5.0975      2.3168     -0.4914     20.1916    104.0158     14.1263
   368.3000      5.0987      2.2745     -0.5948     22.7584    103.4459     14.4678
   368.4000      5.0987      2.2115     -0.5161     26.5778    102.9668     15.1164
   368.5000      5.0945      2.1411     -0.5724     30.8436     99.5983     15.4479
   368.6000      5.0945      2.0740     -0.5552     34.9078     96.1437     15.2879
   368.7000      5.0945      2.0055     -0.4825     39.0611     96.7675     14.9643
   368.8000      5.0944      1.9475     -0.7552     42.5784     98.4568     15.0577
   368.9000      5.0944      1.9392     -0.6057     43.0797     99.0176     15.7059
   369.0000      5.0864      1.9881     -0.5906     40.1151     98.0424     16.2675
   369.1000      5.0864      2.0641     -0.4035     35.5078     93.4933     16.2312
   369.2000      5.0864      2.1298     -0.3188     31.5299     87.4398     15.7809
   369.3000      5.0965      2.1664     -0.2648     29.3113     82.6411     15.5258
   369.4000      5.0965      2.1787     -0.2304     28.5648     81.6658     15.8662
   369.5000      5.0934      2.1705     -0.2038     29.0608     83.9550     16.5657
