~Version Information
VERS.                      2.0: CWLS Log ASCII Standard - VERSION 2.0
WRAP.                       NO: One line per depth step
~Well Information Block
STRT.FT                -6.7500: 
STOP.FT              2027.0000: 
STEP.FT                 0.2500: 
NULL.                -999.2500: 
COMP.          Pioneer Natural Resources: COMPANY
WELL.             Fleming 11-2: WELL
FLD.           Purgatorie River: FIELD
LOC.           534' FNL & 160' FWL--: LOCATION
CNTY.               Las Animas: COUNTY
SRVC.          Patterson Wireline: SERVICE COMPANY
DATE.          Thu Jul 13 10:28:00 2006: LOG DATE
UWI.           05 071 08491 00: UNIQUE WELL ID
STAT.                       CO: STATE
~Curve Information Block
DEPT.FT            0 000 00 00: Depth
CCL.                          : Casing Collar Locator
TT3.usec                      : CBL 3' Travel Time
AMP3.mV                       : CBL 3' Amplitude
GR.GAPI                       : Gamma Ray
~Parameter Information Block
~A  Depth       CCL         TT3         AMP3         GR     
# ...
   529.2500      0.0000    634.8423      4.6272     58.2815
   529.5000      0.0000    653.3218      4.6463     59.5094
   529.7500      0.0000    665.3933      4.6456     65.2465
   530.0000      0.0000    670.3969      4.6447     74.8276
   530.2500      0.0000    671.4861      4.6525     87.1883
   530.5000      0.0000    672.5427      4.6489    101.9660
   530.7500      0.0000    674.9236      4.6104    118.5178
   531.0000      0.0000    677.7977      4.5426    134.5045
   531.2500      0.0000    680.5064      4.4720    146.6760
   531.5000      0.0000    683.6279      4.4149    153.0901
   531.7500      0.0000    688.1542      4.3688    153.9405
   532.0000      0.0000    694.2009      4.3264    150.6930
   532.2500      0.0000    700.3818      4.2872    145.4487
   532.5000      0.0000    704.3668      4.2584    140.7027
   532.7500      0.0000    704.1560      4.2487    138.2285
   533.0000      0.0000    698.8387      4.2596    137.7480
   533.2500      0.0000    687.9018      4.2811    137.0998
   533.5000      0.0000    669.6693      4.2998    133.7823
   533.7500      0.0000    641.2285      4.3117    126.6389
   534.0000      0.0000    601.5580      4.3230    116.9516
   534.2500      0.0000    555.4713      4.3405    108.0952
   534.5000      0.0000    513.0447      4.3619    103.4528
   534.7500      0.0000    483.3239      4.3795    104.3750
   535.0000      0.0000    468.1935      4.3877    109.9568
   535.2500      0.0000    462.6032      4.3868    118.0570
   535.5000      0.0000    460.1637      4.3802    126.2566
   535.7500      0.0000    457.9144      4.3682    132.7080
   536.0000      0.0000    456.3811      4.3484    136.6846
   536.2500      0.0000    456.5471      4.3208    138.1493
   536.5000      0.0000    457.7622      4.2920    137.1201
   536.7500      0.0000    458.5351      4.2721    134.2517
   537.0000      0.0000    458.4775      4.2685    131.5676
   537.2500      0.0000    458.6893      4.2832    131.1883
   537.5000      0.0000    460.7481      4.3148    132.9853
   537.7500      0.0000    466.2808      4.3562    134.4462
   538.0000      0.0000    477.1625      4.3931    133.2095
   538.2500      0.0000    495.0115      4.4074    129.2251
   538.5000      0.0000    520.1879      4.3862    124.5132
   538.7500      0.0000    551.4127      4.3279    121.5505
   539.0000      0.0000    585.9267      4.2437    121.7683
   539.2500      0.0000    619.6649      4.1531    124.6351
   539.5000      0.0000    647.9634      4.0754    127.9946
   539.7500      0.0000    667.4191      4.0235    130.0236
   540.0000      0.0000    677.6988      4.0008    131.0323
   540.2500      0.0000    681.3362      4.0019    132.8799
   540.5000      0.0000    681.7764      4.0168    136.5598
   540.7500      0.0000    681.7889      4.0371    140.7623
   541.0000      0.0000    683.2057      4.0570    142.8025
   541.2500      0.0000    687.0470      4.0713    140.6921
   541.5000      0.0000    693.1601      4.0740    134.6319
   541.7500      0.0000    699.8647      4.0631    127.2183
   542.0000      0.0000    704.5916      4.0425    122.1880
   542.2500      0.0000    705.3870      4.0178    122.2230
   542.5000      0.0000    702.1103      3.9926    127.1538
   542.7500      0.0000    696.3842      3.9683    134.0866
   543.0000      0.0000    690.4638      3.9486    139.7269
   543.2500      0.0000    685.9589      3.9418    142.8174
   543.5000      0.0000    683.3120      3.9590    144.2839
   543.7500      0.0000    682.1438      4.0063    145.5535
   544.0000      0.0000    681.8629      4.0785    147.3433
   544.2500      0.0000    682.0484      4.1602    149.3605
   544.5000      0.0000    682.5954      4.2344    150.3431
   544.7500      0.0000    683.7582      4.2881    149.1163
   545.0000      0.0000    686.0160      4.3132    146.3979
   545.2500      0.0000    689.5726      4.3073    144.7252
   545.5000      0.0000    693.6896      4.2750    145.6061
   545.7500      0.0000    696.6560      4.2291    147.2745
   546.0000      0.0000    696.9083      4.1846    146.2930
   546.2500      0.0000    694.3638      4.1498    141.4427
   546.5000      0.0000    690.4445      4.1224    135.2415
   546.7500      0.0000    686.8031      4.0954    131.2227
   547.0000      0.0000    684.2660      4.0657    130.4041
   547.2500      0.0000    682.8962      4.0363    131.0857
   547.5000      0.0000    682.6993      4.0109    131.4758
   547.7500      0.0000    684.1013      3.9907    131.4081
   548.0000      0.0000    687.7233      3.9752    131.6745
   548.2500      0.0000    693.5609      3.9630    132.5546
   548.5000      0.0000    700.3429      3.9513    133.1762
   548.7500      0.0000    705.8307      3.9382    132.1196
   549.0000      0.0000    707.6918      3.9263    128.9601
   549.2500      0.0000    703.8719      3.9232    125.2003
   549.5000      0.0000    692.2469      3.9354    123.1488
   549.7500      0.0000    670.6362      3.9637    123.8236
   550.0000      0.0000    638.2824      4.0022    126.2526
   550.2500      0.0000    598.1749      4.0428    128.5800
   550.5000      0.0000    557.5218      4.0801    129.4668
   550.7500      0.0000    524.6722      4.1131    128.4906
   551.0000      0.0000    505.0665      4.1434    125.6241
   551.2500      0.0000    500.3959      4.1716    120.7487
   551.5000      0.0000    510.7485      4.1966    114.0001
   551.7500      0.0000    535.4672      4.2156    106.5542
   552.0000      0.0000    571.0160      4.2263    100.6945
   552.2500      0.0000    609.5728      4.2280     98.6339
   552.5000      0.0000    642.0629      4.2235    100.9781
   552.7500      0.0000    663.3381      4.2183    106.2270
   553.0000      0.0000    674.0557      4.2150    111.7842
   553.2500      0.0000    678.0789      4.2106    115.4430
   553.5000      0.0000    679.0261      4.1996    116.0864
   553.7500      0.0000    678.9089      4.1812    113.4261
   554.0000      0.0000    678.5443      4.1596    107.6393
   554.2500      0.0000    678.2707      4.1389     99.5477
   554.5000      0.0000    678.2789      4.1194     91.0098
   554.7500      0.0000    678.6462      4.0999     84.5718
   555.0000      0.0000    679.3100      4.0802     82.2530
   555.2500      0.0000    680.1049      4.0620     84.4570
   555.5000      0.0000    680.8163      4.0472     89.9090
   555.7500      0.0000    681.2289      4.0371     96.4507
   556.0000      0.0000    681.1607      4.0308    101.9417
   556.2500      0.0000    680.4642      4.0255    104.7934
   556.5000      0.0000    678.9570      4.0173    104.2357
   556.7500      0.0000    676.4536      4.0034    100.5217
   557.0000      0.0000    673.1469      3.9836     94.8145
   557.2500      0.0000    670.0537      3.9610     88.5820
   557.5000      0.0000    668.6655      3.9425     82.9425
   557.7500      0.0000    669.7100      3.9368     78.3912
   558.0000      0.0000    672.4073      3.9520     75.1006
   558.2500      0.0000    675.2051      3.9900     73.6901
   558.5000      0.0000    677.0375      4.0446     75.4264
   558.7500      0.0000    677.6271      4.1014     80.9221
   559.0000      0.0000    676.8265      4.1445     88.7294
   559.2500      0.0000    673.9252      4.1643     96.0934
   559.5000      0.0000    667.7726      4.1623    101.2529
   559.7500      0.0000    657.9441      4.1497    104.4995
   560.0000      0.0000    645.6477      4.1417    107.0948
   560.2500      0.0000    632.3763      4.1497    109.7334
   560.5000      0.0000    617.4127      4.1781    111.9236
   560.7500      0.0000    598.5385      4.2242    112.4382
   561.0000      0.0000    576.1097      4.2797    110.6955
   561.2500      0.0000    554.4730      4.3344    108.0822
   561.5000      0.0000    538.1166      4.3812    107.3266
   561.7500      0.0000    527.7902      4.4193    110.0217
   562.0000      0.0000    521.0726      4.4515    115.1457
   562.2500      0.0000    515.4451      4.4799    120.2788
   562.5000      0.0000    510.1372      4.5034    123.8600
