~Version Information
VERS.                      2.0: CWLS Log ASCII Standard - VERSION 2.0
WRAP.                       NO: One line per depth step
~Well Information Block
STRT.FT                -3.0000: 
STOP.FT              1123.0000: 
STEP.FT                 0.2500: 
NULL.                -999.2500: 
COMP.          Pioneer Natural Resources: COMPANY
WELL.               Ryan 41-17: WELL
FLD.           Purgatoire River: FIELD
LOC.           822' FNL & 532' FEL--: LOCATION
CNTY.               Las Animas: COUNTY
SRVC.                Patterson: SERVICE COMPANY
DATE.          Mon Mar 27 14:50:31 2006: LOG DATE
UWI.           05 071 08719 00: UNIQUE WELL ID
STAT.                 Colorado: STATE
~Curve Information Block
DEPT.FT            0 000 00 00: Depth
CCL.                          : Casing Collar Locator
TT3.usec                      : CBL 3' Travel Time
AMP3.mV                       : CBL 3' Amplitude
GR.GAPI                       : Gamma Ray
~Parameter Information Block
~A  Depth       CCL         TT3         AMP3         GR     
    -3.0000   -999.2500   -999.2500   -999.2500   -999.2500
    -2.7500   -999.2500   -999.2500   -999.2500     89.0237
    -2.5000   -999.2500   -999.2500   -999.2500     89.4403
    -2.2500   -999.2500   -999.2500   -999.2500     91.4419
    -2.0000   -999.2500   -999.2500   -999.2500     93.3732
    -1.7500   -999.2500   -999.2500   -999.2500     95.7113
    -1.5000   -999.2500   -999.2500   -999.2500     96.0147
    -1.2500   -999.2500   -999.2500   -999.2500     93.8935
    -1.0000   -999.2500   -999.2500   -999.2500     91.0491
    -0.7500   -999.2500   -999.2500   -999.2500     85.9745
    -0.5000   -999.2500   -999.2500   -999.2500     82.9590
    -0.2500   -999.2500   -999.2500   -999.2500     80.2719
     0.0000   -999.2500   -999.2500   -999.2500     80.0186
     0.2500   -999.2500   -999.2500   -999.2500     81.0480
     0.5000   -999.2500   -999.2500   -999.2500     81.1192
     0.7500   -999.2500   -999.2500   -999.2500     79.2858
     1.0000   -999.2500   -999.2500   -999.2500     72.8104
     1.2500   -999.2500   -999.2500   -999.2500     65.9126
     1.5000   -999.2500   -999.2500   -999.2500     52.4483
     1.7500   -999.2500   -999.2500   -999.2500     42.7727
     2.0000   -999.2500   -999.2500   -999.2500     30.7191
     2.2500   -999.2500   1497.0000      1.0627     26.0224
     2.5000   -999.2500   1497.0000      1.0562     24.8101
     2.7500   -999.2500   1497.0000      1.0542     27.0789
     3.0000   -999.2500   1497.0000      1.0581     32.5094
     3.2500   -999.2500   1497.0000      1.0639     36.1047
     3.5000   -999.2500   1497.0000      1.0725     40.3426
     3.7500   -999.2500   1497.0000      1.0759     42.3654
     4.0000   -999.2500   1497.0000      1.0775     44.5394
     4.2500   -999.2500   1497.0000      1.0777     45.9528
     4.5000   -999.2500   1497.0000      1.0771     49.9645
     4.7500   -999.2500   1497.0000      1.0756     55.1747
     5.0000   -999.2500   1497.0000      1.0718     67.2556
     5.2500   -999.2500   1497.0000      1.0693     76.8488
     5.5000   -999.2500   1497.0000      1.0681     89.5245
     5.7500   -999.2500   1497.0000      1.0694     94.5147
     6.0000   -999.2500   1497.0000      1.0727     94.9283
     6.2500   -999.2500   1497.0000      1.0746     91.2875
     6.5000   -999.2500   1497.0000      1.0757     83.8712
     6.7500   -999.2500   1497.0000      1.0752     80.0017
     7.0000   -999.2500   1497.0000      1.0723     77.7047
     7.2500   -999.2500   1497.0000      1.0687     78.2366
     7.5000   -999.2500   1496.9863      1.0603     80.6696
     7.7500      0.0000   1496.8929      1.0520     82.5961
     8.0000      0.0000   1495.9188      1.0449     85.0073
     8.2500      0.0000   1493.1941      1.0707     85.9079
     8.5000      0.0000   1478.0024      1.3408     85.6077
     8.7500      0.0000   1450.2413      1.9901     83.9602
     9.0000      0.0000   1355.2574      4.8630     79.3033
     9.2500      0.0000   1242.1478      9.1099     75.4913
     9.5000      0.0000    999.3495     20.4868     70.5981
     9.7500      0.0000    812.2506     31.1991     68.3679
    10.0000      0.0000    556.0275     48.9631     65.8560
    10.2500      0.0000    429.9579     59.4685     64.2737
    10.5000      0.0000    318.6634     70.4514     62.3740
    10.7500      0.0000    284.3609     74.5315     61.9184
    11.0000      0.0000    264.7082     77.4085     62.3249
    11.2500      0.0000    260.9934     78.1962     62.4319
    11.5000      0.0000    259.6075     78.7417     60.8206
    11.7500      0.0000    259.4634     78.9284     58.7865
    12.0000      0.0000    259.4460     79.0853     56.7550
    12.2500      0.0000    259.4487     79.1463     57.5487
    12.5000      0.0000    259.4460     79.2307     62.2116
    12.7500      0.0000    259.4409     79.3059     66.3042
    13.0000      0.0000    259.4539     79.4271     70.9453
    13.2500      0.0000    259.5263     79.4288     72.2169
    13.5000      0.0000    260.0338     78.9571     72.4493
    13.7500      0.0000    261.0382     77.9852     72.9162
    14.0000      0.0000    264.5795     74.9640     76.0852
    14.2500      0.0000    268.7325     71.8596     80.0318
    14.5000      0.0000    277.0515     66.3159     87.2620
    14.7500      0.0000    282.7769     62.7441     91.7811
    15.0000      0.0000    289.5995     58.4717     96.6444
    15.2500      0.0000    292.7277     56.4718     97.8225
    15.5000      0.0000    296.2881     54.5300     94.9631
    15.7500      0.0000    298.4123     53.7718     89.9153
    16.0000      0.0000    301.0229     53.2209     80.3875
    16.2500      2.0000    301.9644     53.1446     74.9942
    16.5000      0.0000    301.8602     53.2998     70.1139
    16.7500      0.0000    300.8816     53.5225     68.3703
    17.0000      0.0000    298.3528     54.2197     66.0580
    17.2500      0.0000    296.0578     55.2704     64.2418
    17.5000      0.0000    291.4661     58.4171     62.0073
    17.7500      0.0000    287.3058     61.6878     61.8913
    18.0000      0.0000    279.3482     67.7266     65.1428
    18.2500      0.0000    273.6062     71.7874     69.6064
    18.5000      0.0000    266.2796     76.7512     78.3172
    18.7500      0.0000    263.0081     78.9654     84.2257
    19.0000      0.0000    260.4528     80.7837     91.3947
    19.2500      0.0000    259.7914     81.3284     94.4894
    19.5000      0.0000    259.4917     81.7052     97.1637
    19.7500      0.0000    259.4605     81.8525     98.7909
    20.0000      0.0000    259.4639     82.0333    102.7075
    20.2500      0.0000    259.4662     82.1399    106.3060
    20.5000      0.0000    259.4536     82.2754    111.9889
    20.7500      0.0000    259.4380     82.3427    115.1817
    21.0000      0.0000    259.4155     82.3908    117.5009
    21.2500      0.0000    259.4081     82.3799    116.2347
    21.5000      0.0000    259.4139     82.3074    108.8450
    21.7500      0.0000    259.4270     82.2429    100.7509
    22.0000      0.0000    259.4492     82.1742     86.8230
    22.2500      0.0000    259.4576     82.1691     78.2672
    22.5000      0.0000    259.4531     82.2186     67.9916
    22.7500      0.0000    259.4403     82.2683     62.4851
    23.0000      0.0000    259.4165     82.3330     55.2021
    23.2500      0.0000    259.4026     82.3629     51.0488
    23.5000      0.0000    259.3896     82.3932     47.2959
    23.7500      0.0000    259.3873     82.4064     47.5591
    24.0000      0.0000    259.3942     82.4088     53.3626
    24.2500      0.0000    259.4043     82.3921     60.5830
    24.5000      0.0000    259.4218     82.3442     73.7617
    24.7500      0.0000    259.4296     82.3175     81.7690
    25.0000      0.0000    259.4268     82.3294     89.5377
    25.2500      0.0000    259.4146     82.3800     91.5324
    25.5000      0.0000    259.3891     82.4910     91.0312
    25.7500      0.0000    259.3749     82.5585     89.3311
    26.0000      0.0000    259.3676     82.6084     85.9916
    26.2500      0.0000    259.3722     82.6030     83.7527
    26.5000      0.0000    259.3865     82.5709     80.5257
    26.7500      0.0000    259.3965     82.5646     78.0175
    27.0000      0.0000    259.4073     82.6086     72.9483
    27.2500      0.0000    259.4098     82.6720     68.8173
    27.5000      0.0000    259.4035     82.7952     62.6056
    27.7500      0.0000    259.3926     82.8740     59.2376
    28.0000      0.0000    259.3731     82.9378     56.5462
    28.2500      0.0000    259.3643     82.9176     56.8897
    28.5000      0.0000    259.3643     82.7906     60.7160
    28.7500      0.0000    259.3722     82.6787     64.6585
    29.0000      0.0000    259.3881     82.5773     70.6153
    29.2500      0.0000    259.3962     82.6000     74.2255
    29.5000      0.0000    259.3994     82.7530     80.3796
    29.7500      0.0000    259.3961     82.8810     85.7458
    30.0000      0.0000    259.3875     83.0286     95.0049
    30.2500      0.0000    259.3807     83.0852    100.4914
