~Version Information
VERS.                      2.0: CWLS Log ASCII Standard - VERSION 2.0
WRAP.                       NO: One line per depth step
~Well Information Block
STRT.FT                -7.5000: 
STOP.FT              1572.0000: 
STEP.FT                 0.2500: 
NULL.                -999.2500: 
COMP.          Pioneer Natural Resources: COMPANY
WELL.          Galloway 32-13 Tr: WELL
FLD.           Purgatoire River: FIELD
LOC.           --1910' FNL & 2002' FEL----: LOCATION
PROV.                       CO: PROVINCE
CNTY.               Las Animas: COUNTRY
SRVC.          Patterson Wireline: SERVICE COMPANY
DATE.          Thu Nov 17 12:46:45 2005: LOG DATE
UWI.           05 071 08608 00: UNIQUE WELL ID
~Curve Information Block
DEPT.FT            0 000 00 00: Depth
CCL.                          : Casing Collar Locator
TT3.usec                      : CBL 3' Travel Time
AMP3.mV                       : CBL 3' Amplitude
GR.GAPI                       : Gamma Ray
~Parameter Information Block
~A  Depth       CCL         TT3         AMP3         GR     
# ...
   193.5000      0.0000    323.5719     31.6700     84.8199
   193.7500      0.0000    323.5369     31.8586     85.1725
   194.0000      0.0000    323.4934     31.9956     85.3346
   194.2500      0.0000    323.4513     32.1571     86.5987
   194.5000      0.0000    323.4182     32.3733     89.3468
   194.7500      0.0000    323.3990     32.5988     93.0024
   195.0000      0.0000    323.3962     32.7322     96.3366
   195.2500      0.0000    323.4123     32.6671     97.8058
   195.5000      0.0000    323.4504     32.3449     96.1375
   195.7500      0.0000    323.5115     31.7911     91.1117
   196.0000      0.0000    323.5900     31.1146     83.9120
   196.2500      0.0000    323.6733     30.4546     76.6609
   196.5000      0.0000    323.7469     29.9120     71.3342
   196.7500      0.0000    323.8016     29.5390     68.6216
   197.0000      0.0000    323.8334     29.3818     67.5447
   197.2500      0.0000    323.8388     29.4947     66.2877
   197.5000      0.0000    323.8127     29.8860     63.6971
   197.7500      0.0000    323.7527     30.4701     60.1436
   198.0000      0.0000    323.6943     31.1058     56.9434
   198.2500      0.0000    323.7571     31.6957     54.9832
   198.5000      0.0000    324.4520     32.2279     54.0085
   198.7500      0.0000    327.2929     32.6767     53.2720
   199.0000      0.0000    335.3671     32.8374     52.5351
   199.2500      0.0000    352.1566     32.3449     52.0255
   199.5000      0.0000    377.2109     31.0132     51.7416
   199.7500      0.0000    401.9760     29.1683     51.4803
   200.0000      0.0000    413.2275     27.4866     51.4111
   200.2500      0.0000    404.2869     26.4337     51.9656
   200.5000      0.0000    381.6477     25.9524     52.9914
   200.7500      0.0000    358.4595     25.6779     53.2914
   201.0000      0.0000    343.8271     25.2982     51.3921
   201.2500      0.0000    340.1673     24.6686     47.1321
   201.5000      2.0000    347.7653     23.7493     42.4015
   201.7500      0.0000    367.2585     22.6250     39.8962
   202.0000      0.0000    395.7118     21.6349     41.1077
   202.2500      0.0000    421.9534     21.3418     45.5545
   202.5000      0.0000    430.8908     22.1566     51.4874
   202.7500      0.0000    416.1221     23.9199     56.9498
   203.0000      0.0000    386.4001     25.9398     60.5104
   203.2500      0.0000    357.1475     27.4918     61.5568
   203.5000      0.0000    337.8057     28.2778     60.3180
   203.7500      0.0000    328.5275     28.4764     57.9265
   204.0000      0.0000    325.1857     28.4802     56.3049
   204.2500      0.0000    324.2277     28.6223     57.2557
   204.5000      0.0000    323.9281     29.0558     61.0895
   204.7500      0.0000    323.7252     29.7609     66.2807
   205.0000      0.0000    323.5195     30.6085     70.8947
   205.2500      0.0000    323.3147     31.4403     74.3370
   205.5000      0.0000    323.1463     32.1427     77.3412
   205.7500      0.0000    323.0348     32.6884     80.3326
   206.0000      0.0000    322.9789     33.1243     82.4698
   206.2500      0.0000    322.9609     33.5226     82.5970
   206.5000      0.0000    322.9593     33.9382     80.5546
   206.7500      0.0000    322.9574     34.4014     77.1297
   207.0000      0.0000    322.9454     34.9203     73.2557
   207.2500      0.0000    322.9215     35.4602     69.6284
   207.5000      0.0000    322.8931     35.9228     66.6056
   207.7500      0.0000    322.8748     36.1779     64.1436
   208.0000      0.0000    322.8796     36.1516     62.2455
   208.2500      0.0000    322.9105     35.8930     61.6976
   208.5000      0.0000    322.9605     35.5546     63.7996
   208.7500      0.0000    323.0189     35.3030     68.8613
   209.0000      0.0000    323.0771     35.2386     75.3223
   209.2500      0.0000    323.1285     35.3755     81.0648
   209.5000      0.0000    323.1678     35.6709     85.4666
   209.7500      0.0000    323.1905     36.0537     89.4587
   210.0000      0.0000    323.1970     36.4253     93.5244
   210.2500      0.0000    323.1954     36.6669     96.6223
   210.5000      0.0000    323.1979     36.6886     97.5699
   210.7500      0.0000    323.2112     36.4897     96.6717
   211.0000      0.0000    323.2308     36.1587     95.2308
   211.2500      0.0000    323.2456     35.8055     94.0927
   211.5000      0.0000    323.2473     35.4908     93.3334
   211.7500      0.0000    323.2364     35.2108     92.7006
   212.0000      0.0000    323.2212     34.9214     91.7718
   212.2500      0.0000    323.2117     34.5690     90.2494
   212.5000      0.0000    323.2136     34.1269     88.4759
   212.7500      0.0000    323.2267     33.6317     87.1794
   213.0000      0.0000    323.2485     33.1849     86.5367
   213.2500      0.0000    323.2767     32.8993     85.9851
   213.5000      0.0000    323.3073     32.8343     85.1168
   213.7500      0.0000    323.3319     32.9694     84.3015
   214.0000      0.0000    323.3408     33.2191     84.1069
   214.2500      0.0000    323.3316     33.4658     84.5535
   214.5000      0.0000    323.3146     33.6016     85.4534
   214.7500      0.0000    323.3059     33.5693     87.0320
   215.0000      0.0000    323.3170     33.3722     89.3782
   215.2500      0.0000    323.3505     33.0459     91.6403
   215.5000      0.0000    323.4020     32.6285     92.7883
   215.7500      0.0000    323.4644     32.1644     93.0165
   216.0000      0.0000    323.5293     31.7193     93.5494
   216.2500      0.0000    323.5891     31.3601     95.1617
   216.5000      0.0000    323.6381     31.1071     97.3690
   216.7500      0.0000    323.6751     30.9081     98.9023
   217.0000      0.0000    323.7058     30.6610     98.6714
   217.2500      0.0000    323.7454     30.2705     96.4080
   217.5000      0.0000    323.8118     29.7121     92.5329
   217.7500      0.0000    323.9137     29.0645     87.6320
   218.0000      0.0000    324.0401     28.4846     82.3019
   218.2500      0.0000    324.1607     28.1441     77.3059
   218.5000      0.0000    324.2360     28.1699     73.4526
   218.7500      0.0000    324.2301     28.6199     71.3514
   219.0000      0.0000    324.0869     29.4909     71.4983
   219.2500      0.0000    323.6422     30.7332     74.3068
   219.5000      0.0000    322.4841     32.2561     79.5177
   219.7500      0.0000    319.9118     33.9413     85.5091
   220.0000      0.0000    315.2480     35.6829     89.8129
   220.2500      0.0000    308.5032     37.4321     91.0568
   220.5000      0.0000    300.7874     39.1981     90.3805
   220.7500      0.0000    293.8084     40.9957     90.2627
   221.0000      0.0000    288.7841     42.7937     91.6824
   221.2500      0.0000    285.8504     44.5219     92.9840
   221.5000      0.0000    284.3934     46.1267     91.7682
   221.7500      0.0000    283.7075     47.6044     87.3381
   222.0000      0.0000    283.3488     48.9589     80.9809
   222.2500      0.0000    283.1308     50.1283     74.4779
   222.5000      0.0000    283.0014     50.9737     68.9143
   222.7500      0.0000    282.9493     51.3590     64.5828
   223.0000      0.0000    282.9648     51.2449     61.3204
   223.2500      0.0000    283.0333     50.7138     58.8213
   223.5000      0.0000    283.1387     49.9171     57.0114
   223.7500      0.0000    283.2671     48.9941     56.2709
   224.0000      0.0000    283.4086     48.0263     57.0995
   224.2500      0.0000    283.5528     47.0616     59.4011
   224.5000      0.0000    283.6855     46.1619     62.2483
   224.7500      0.0000    283.7940     45.3963     64.6556
   225.0000      0.0000    283.8785     44.7901     66.5919
   225.2500      0.0000    283.9520     44.3086     68.8372
   225.5000      0.0000    284.0296     43.8947     71.6580
   225.7500      0.0000    284.1186     43.5058     73.9243
   226.0000      0.0000    284.2189     43.1145     73.8726
   226.2500      0.0000    284.3273     42.6978     70.7596
   226.5000      0.0000    284.4408     42.2391     65.6001
   226.7500      0.0000    284.5610     41.7390     60.2851
