~Version Information
VERS.                      2.0: CWLS Log ASCII Standard - VERSION 2.0
WRAP.                       NO: One line per depth step
~Well Information Block
STRT.FT               673.2000: 
STOP.FT              1510.5000: 
STEP.FT                 0.1000: 
NULL.                -999.2500: 
COMP.          Pioneer Natural Resources: COMPANY
WELL.          Hammerhead 24-24 Tr: WELL
FLD.           Purgatoire River: FIELD
LOC.           953' FSL & 1922' FWL: LOCATION
PROV.                 Colorado: PROVINCE
CNTY.               Las Animas: COUNTRY
SRVC.                Patterson: SERVICE COMPANY
DATE.          Mon Jan 30 07:27:57 2006: LOG DATE
UWI.           05 071 08669 00: UNIQUE WELL ID
~Curve Information Block
DEPT.FT            0 000 00 00: Depth
DCAL.in                       : CDL Caliper
RHOB.g/cc                     : CDL Bulk Density
RHOC.g/cc                     : CDL Density Correction
DPOR.pu                       : CDL Density Porosity
GR.GAPI                       : Gamma Ray
~Parameter Information Block
~A  Depth       DCAL        RHOB        RHOC        DPOR         GR     
# ...
  1289.2000      8.0420      1.4214     -0.0881     74.4620     65.5281
  1289.3000      8.0580      1.3596     -0.0538     78.2072     59.1753
  1289.4000      8.0580      1.3460     -0.0401     79.0280     54.7942
  1289.5000      8.1091      1.3933      0.0636     76.1648     53.6898
  1289.6000      8.1091      1.4659      0.1417     71.7612     53.2310
  1289.7000      8.1091      1.5242      0.1233     68.2317     51.9199
  1289.8000      8.1775      1.5675      0.1208     65.6038     51.0233
  1289.9000      8.1775      1.6142      0.0783     62.7734     51.2794
  1290.0000      8.1734      1.6576      0.0940     60.1428     50.8076
  1290.1000      8.1734      1.6737      0.0839     59.1719     48.8556
  1290.2000      8.1734      1.6583      0.0793     60.1022     47.7184
  1290.3000      8.0734      1.6232      0.1000     62.2295     50.0381
  1290.4000      8.0734      1.5767      0.0372     65.0507     55.1834
  1290.5000      7.9952      1.5269     -0.0147     68.0650     60.0127
  1290.6000      7.9952      1.4792     -0.0200     70.9585     61.2409
  1290.7000      7.9952      1.4344     -0.0496     73.6735     57.4564
  1290.8000      7.9746      1.4050     -0.1246     75.4529     52.0758
  1290.9000      7.9746      1.4061     -0.0139     75.3903     51.6973
  1291.0000      7.9740      1.4325      0.0679     73.7877     58.4064
  1291.1000      7.9740      1.4807      0.0933     70.8690     68.8287
  1291.2000      7.9740      1.5679      0.0826     65.5822     78.9208
  1291.3000      7.9762      1.7081      0.1427     57.0873     84.7499
  1291.4000      7.9762      1.8746      0.1941     46.9921     85.7956
  1291.5000      7.9794      2.0238      0.2402     37.9504     85.8900
  1291.6000      7.9794      2.1514      0.2716     30.2162     88.5895
  1291.7000      7.9794      2.2840      0.2812     22.1824     93.4338
  1291.8000      7.9712      2.4095      0.3610     14.5742     95.1513
  1291.9000      7.9712      2.4792      0.3202     10.3510     93.0440
  1292.0000      7.9414      2.4942      0.1395      9.4434     92.1060
  1292.1000      7.9414      2.5009      0.1149      9.0359     92.4148
  1292.2000      7.9414      2.5138      0.1181      8.2515     91.8607
  1292.3000      7.9188      2.5212      0.1193      7.8072     91.6449
  1292.4000      7.9188      2.5238      0.0327      7.6497     91.6327
  1292.5000      7.9128      2.5322      0.0179      7.1409     89.4428
  1292.6000      7.9128      2.5488      0.0328      6.1352     85.8303
  1292.7000      7.9128      2.5639      0.0421      5.2170     83.4556
  1292.8000      7.9123      2.5687      0.0514      4.9249     81.0212
  1292.9000      7.9123      2.5665      0.0524      5.0611     77.9841
  1293.0000      7.9126      2.5612      0.0372      5.3816     78.9285
  1293.1000      7.9126      2.5389      0.0519      6.7349     85.6598
  1293.2000      7.9126      2.4734      0.0614     10.7034     92.2956
  1293.3000      7.9131      2.3680     -0.0582     17.0898     94.8580
  1293.4000      7.9131      2.2717     -0.1166     22.9286     98.5997
  1293.5000      7.9145      2.2205     -0.0748     26.0284    108.0836
  1293.6000      7.9145      2.2112     -0.1088     26.5939    115.5941
  1293.7000      7.9145      2.2308     -0.0820     25.4063    115.0376
  1293.8000      7.9153      2.2673     -0.0674     23.1957    110.9564
  1293.9000      7.9153      2.3080      0.0273     20.7255    109.7500
  1294.0000      7.9126      2.3437      0.0854     18.5665    115.8410
  1294.1000      7.9126      2.3838      0.0960     16.1355    127.5803
  1294.2000      7.9126      2.4466      0.1445     12.3251    135.1834
  1294.3000      7.9018      2.5172      0.1927      8.0464    132.9721
  1294.4000      7.9018      2.5648      0.0532      5.1641    125.8595
  1294.5000      7.8849      2.5906      0.0540      3.6019    121.1061
  1294.6000      7.8849      2.6097      0.0979      2.4440    121.4239
  1294.7000      7.8849      2.6277      0.0964      1.3497    124.0201
  1294.8000      7.8745      2.6488      0.0810      0.0716    123.5210
  1294.9000      7.8745      2.6688      0.1025     -1.1393    120.4750
  1295.0000      7.8725      2.6764      0.0843     -1.6021    119.9477
  1295.1000      7.8725      2.6690      0.0772     -1.1518    121.7158
  1295.2000      7.8725      2.6502      0.0834     -0.0118    122.3565
  1295.3000      7.8734      2.6301      0.0390      1.2080    121.0280
  1295.4000      7.8734      2.6202      0.0046      1.8068    118.5124
  1295.5000      7.8741      2.6130      0.0293      2.2415    115.4867
  1295.6000      7.8741      2.5919      0.0211      3.5232    112.7513
  1295.7000      7.8741      2.5644      0.0022      5.1860    109.8033
  1295.8000      7.8734      2.5536      0.0765      5.8431    105.3163
  1295.9000      7.8734      2.5662      0.0183      5.0778    100.2410
  1296.0000      7.8722      2.5935      0.0384      3.4255     99.4113
  1296.1000      7.8722      2.6193      0.1208      1.8609    104.5545
  1296.2000      7.8722      2.6341      0.0856      0.9629    110.2343
  1296.3000      7.8721      2.6415      0.1015      0.5165    113.7661
  1296.4000      7.8721      2.6422      0.1012      0.4742    117.9982
  1296.5000      7.8725      2.6425      0.0658      0.4556    121.9457
  1296.6000      7.8725      2.6494      0.0804      0.0358    123.1583
  1296.7000      7.8725      2.6474      0.1254      0.1597    123.7267
  1296.8000      7.8725      2.6247      0.0479      1.5319    124.2765
  1296.9000      7.8725      2.6009      0.0396      2.9753    120.6120
  1297.0000      7.8724      2.5967      0.0336      3.2311    113.8991
  1297.1000      7.8724      2.6056      0.0600      2.6889    109.9101
  1297.2000      7.8724      2.6101      0.0585      2.4176    108.9742
  1297.3000      7.8710      2.6042      0.0541      2.7744    108.6873
  1297.4000      7.8710      2.5926      0.0123      3.4800    108.8618
  1297.5000      7.8689      2.5822      0.0180      4.1077    109.7363
  1297.6000      7.8689      2.5715      0.0441      4.7603    109.5769
  1297.7000      7.8689      2.5550      0.0011      5.7583    106.1771
  1297.8000      7.8697      2.5417     -0.0134      6.5649    102.7824
  1297.9000      7.8697      2.5468     -0.0014      6.2554    101.5472
  1298.0000      7.8713      2.5699      0.0325      4.8535     98.3942
  1298.1000      7.8713      2.5867      0.0871      3.8362     92.1714
  1298.2000      7.8713      2.5794      0.0282      4.2784     86.9418
  1298.3000      7.8703      2.5657     -0.0001      5.1062     85.4993
  1298.4000      7.8703      2.5669      0.0124      5.0371     86.0415
  1298.5000      7.8683      2.5799      0.0678      4.2493     84.3793
  1298.6000      7.8683      2.5880      0.0667      3.7572     81.0373
  1298.7000      7.8683      2.5818      0.0532      4.1362     81.1382
  1298.8000      7.8675      2.5719     -0.0252      4.7328     84.6574
  1298.9000      7.8675      2.5690      0.0443      4.9116     86.6262
  1299.0000      7.8674      2.5699      0.0236      4.8565     86.7858
  1299.1000      7.8674      2.5747      0.0242      4.5614     88.0207
  1299.2000      7.8674      2.5796      0.0339      4.2648     88.9632
  1299.3000      7.8672      2.5736      0.0458      4.6315     87.3064
  1299.4000      7.8672      2.5575      0.0251      5.6043     84.0246
  1299.5000      7.8666      2.5493     -0.0211      6.1035     81.3221
  1299.6000      7.8666      2.5632      0.0067      5.2599     79.2045
  1299.7000      7.8666      2.5872      0.0428      3.8074     78.9478
  1299.8000      7.8655      2.5992      0.0416      3.0769     80.6068
  1299.9000      7.8655      2.5973     -0.0082      3.1925     81.3350
  1300.0000      7.8648      2.5911      0.0340      3.5675     80.9682
  1300.1000      7.8648      2.5876      0.0308      3.7836     80.5971
  1300.2000      7.8648      2.5930      0.0391      3.4521     81.3664
  1300.3000      7.8652      2.6054      0.0594      2.7051     85.1575
