~Version Information
VERS.                      2.0: CWLS Log ASCII Standard - VERSION 2.0
WRAP.                       NO: One line per depth step
~Well Information Block
STRT.FT               875.0000: 
STOP.FT              2947.2000: 
STEP.FT                 0.1000: 
NULL.                -999.2500: 
COMP.          Pioneer Natural Resources: COMPANY
WELL.          Hanginstone 21-27: WELL
FLD.           Purgatoire River: FIELD
LOC.           1186' FNL & 1606' FWL--: LOCATION
PROV.                 Colorado: PROVINCE
CNTY.               Las Animas: COUNTRY
SRVC.                Patterson: SERVICE COMPANY
DATE.          Mon Jan 09 07:31:45 2006: LOG DATE
UWI.           05 071 08632 00: UNIQUE WELL ID
~Curve Information Block
DEPT.FT            0 000 00 00: Depth
DCAL.in                       : CDL Caliper
RHOB.g/cc                     : CDL Bulk Density
RHOC.g/cc                     : CDL Density Correction
DPOR.pu                       : CDL Density Porosity
NPOR.pu                       : Neutron Porosity
GR.GAPI                       : Gamma Ray
~Parameter Information Block
~A  Depth       DCAL        RHOB        RHOC        DPOR        NPOR         GR     
# ...
  1287.8000      8.0736      2.5512      0.0202      5.9886     28.8588    128.8633
  1287.9000      8.0736      2.5614      0.0264      5.3724     28.6702    127.7775
  1288.0000      8.0720      2.5731      0.0718      4.6579     28.6754    133.4041
  1288.1000      8.0720      2.5663      0.0675      5.0733     28.7057    139.0310
  1288.2000      8.0720      2.5581     -0.0144      5.5687     28.4092    138.4454
  1288.3000      8.0686      2.5849      0.0765      3.9452     28.0193    133.6829
  1288.4000      8.0686      2.6364      0.1184      0.8242     27.5733    128.3478
  1288.5000      8.0612      2.6777      0.0854     -1.6806     26.9248    126.8642
  1288.6000      8.0612      2.7016      0.0471     -3.1258     26.5720    131.3979
  1288.7000      8.0612      2.7169      0.0811     -4.0561     26.6685    136.2290
  1288.8000      8.0547      2.7248      0.0633     -4.5343     26.7948    132.9881
  1288.9000      8.0547      2.7239      0.0468     -4.4791     26.8390    123.5660
  1289.0000      8.0520      2.7179      0.0244     -4.1139     26.8715    118.2501
  1289.1000      8.0520      2.7149      0.0190     -3.9332     27.0166    117.6781
  1289.2000      8.0520      2.7239      0.0090     -4.4763     27.2428    114.5567
  1289.3000      8.0504      2.7432      0.0458     -5.6459     27.2968    111.1790
  1289.4000      8.0504      2.7612      0.0361     -6.7377     27.2096    112.3383
  1289.5000      8.0488      2.7751      0.0271     -7.5805     27.3921    115.5076
  1289.6000      8.0488      2.7740      0.0904     -7.5157     28.0858    116.6742
  1289.7000      8.0488      2.7372      0.0322     -5.2831     28.8582    114.5768
  1289.8000      8.0478      2.6759     -0.0123     -1.5695     29.3328    111.7810
  1289.9000      8.0478      2.6256     -0.0468      1.4805     29.4647    112.7747
  1290.0000      8.0478      2.6072     -0.0504      2.5929     29.1344    118.2118
  1290.1000      8.0478      2.6108      0.0091      2.3787     28.4584    122.9759
  1290.2000      8.0478      2.6122      0.0036      2.2922     27.7670    125.7365
  1290.3000      8.0491      2.6085     -0.0008      2.5161     27.5350    131.6017
  1290.4000      8.0491      2.6057      0.0148      2.6836     27.9731    138.2068
  1290.5000      8.0501      2.5913      0.0604      3.5558     28.5309    141.3443
  1290.6000      8.0501      2.5636      0.0002      5.2345     28.8273    142.0616
  1290.7000      8.0501      2.5488      0.0150      6.1347     28.9233    139.1123
  1290.8000      8.0511      2.5577      0.0317      5.5921     28.6839    132.0655
  1290.9000      8.0511      2.5718      0.0546      4.7419     28.2486    128.4768
  1291.0000      8.0530      2.5745      0.0756      4.5740     28.0700    131.4640
  1291.1000      8.0530      2.5731      0.0107      4.6606     28.3134    133.5097
  1291.2000      8.0530      2.5797      0.0866      4.2625     28.7862    133.2335
  1291.3000      8.0535      2.5888      0.0874      3.7068     29.1930    134.8493
  1291.4000      8.0535      2.5912      0.0395      3.5659     29.3814    134.3852
  1291.5000      8.0516      2.5850      0.0627      3.9404     29.4610    125.3133
  1291.6000      8.0516      2.5768      0.0202      4.4386     29.4748    111.6243
  1291.7000      8.0516      2.5816      0.0409      4.1453     29.1946    102.7639
  1291.8000      8.0505      2.6083      0.0295      2.5303     28.5307    104.7827
  1291.9000      8.0505      2.6463      0.0953      0.2262     27.8719    117.7550
  1292.0000      8.0513      2.6765      0.0849     -1.6068     27.8201    132.1831
  1292.1000      8.0513      2.6980      0.0754     -2.9072     28.4663    137.8630
  1292.2000      8.0513      2.7173      0.1094     -4.0784     29.0989    133.6774
  1292.3000      8.0524      2.7304      0.0915     -4.8756     29.1733    124.1758
  1292.4000      8.0524      2.7373      0.0837     -5.2909     29.0943    116.0930
  1292.5000      8.0531      2.7399      0.0397     -5.4488     29.3251    111.3746
  1292.6000      8.0531      2.7322      0.0401     -4.9788     29.4628    107.3089
  1292.7000      8.0531      2.7112      0.0122     -3.7107     29.0315    105.0007
  1292.8000      8.0532      2.6826     -0.0152     -1.9754     28.3862    108.6486
  1292.9000      8.0532      2.6475     -0.0195      0.1542     28.1595    116.4890
  1293.0000      8.0523      2.6068      0.0091      2.6188     28.4846    122.1623
  1293.1000      8.0523      2.5749     -0.0627      4.5507     28.7999    122.6436
  1293.2000      8.0523      2.5754     -0.0399      4.5211     28.6433    120.6220
  1293.3000      8.0486      2.5991      0.0592      3.0852     28.5485    120.2011
  1293.4000      8.0486      2.6009      0.0438      2.9781     28.8922    121.7531
  1293.5000      8.0414      2.5687      0.0252      4.9260     29.0313    123.9461
  1293.6000      8.0414      2.5362     -0.0165      6.8940     28.7722    126.2670
  1293.7000      8.0414      2.5234      0.0356      7.6747     28.6551    126.2886
  1293.8000      8.0340      2.5180      0.0273      7.9974     28.6444    122.9564
  1293.9000      8.0340      2.5168     -0.0050      8.0739     28.1960    120.3257
  1294.0000      8.0279      2.5277      0.0343      7.4120     27.3315    121.9859
  1294.1000      8.0279      2.5396      0.0591      6.6913     26.6086    123.0939
  1294.2000      8.0279      2.5382      0.0816      6.7757     26.1646    121.2772
  1294.3000      8.0248      2.5305      0.0443      7.2443     25.7882    122.2470
  1294.4000      8.0248      2.5339      0.0411      7.0390     25.6462    125.8101
  1294.5000      8.0250      2.5537      0.0433      5.8384     25.7579    126.2829
  1294.6000      8.0250      2.5717      0.0974      4.7466     25.8780    122.8883
  1294.7000      8.0250      2.5686      0.0512      4.9338     26.0434    118.4427
  1294.8000      8.0248      2.5496      0.0366      6.0828     26.2544    114.7185
  1294.9000      8.0248      2.5298      0.0592      7.2845     26.2000    109.3982
  1295.0000      8.0232      2.5193      0.0228      7.9228     25.8521    104.8892
  1295.1000      8.0232      2.5193      0.0524      7.9227     25.6450    112.0476
  1295.2000      8.0232      2.5175      0.0890      8.0327     25.9223    128.8253
  1295.3000      8.0218      2.5109      0.0256      8.4276     26.4235    139.9484
  1295.4000      8.0218      2.5101      0.0365      8.4777     26.7683    141.4474
  1295.5000      8.0218      2.5213      0.0166      7.8025     26.9981    143.1838
  1295.6000      8.0218      2.5424      0.0912      6.5209     27.0662    149.7710
  1295.7000      8.0218      2.5553      0.1210      5.7384     26.8029    153.7711
  1295.8000      8.0232      2.5517      0.0601      5.9591     26.4480    150.1969
  1295.9000      8.0232      2.5496      0.1046      6.0850     26.2591    144.8103
  1296.0000      8.0238      2.5647      0.0758      5.1691     26.1043    144.1336
  1296.1000      8.0238      2.5999      0.1107      3.0336     25.8633    145.8736
  1296.2000      8.0238      2.6401      0.1678      0.5990     25.5629    145.7418
  1296.3000      8.0237      2.6581      0.1686     -0.4890     25.1834    142.7535
  1296.4000      8.0237      2.6543      0.0861     -0.2590     24.8586    135.3247
  1296.5000      8.0241      2.6505      0.0690     -0.0299     24.7760    123.3587
  1296.6000      8.0241      2.6516      0.0534     -0.0997     24.4852    115.5115
  1296.7000      8.0241      2.6527      0.0686     -0.1640     23.7406    121.1770
  1296.8000      8.0236      2.6466      0.0436      0.2049     23.2300    130.8416
  1296.9000      8.0236      2.6267      0.0231      1.4146     23.2524    127.9332
  1297.0000      8.0224      2.6004      0.0324      3.0079     23.3595    117.2662
  1297.1000      8.0224      2.5845     -0.0500      3.9700     23.3534    114.5118
  1297.2000      8.0224      2.5897     -0.0355      3.6556     23.4402    119.7485
  1297.3000      8.0216      2.6140     -0.0275      2.1837     23.6914    120.6398
