~Version Information
VERS.                      2.0: CWLS Log ASCII Standard - VERSION 2.0
WRAP.                       NO: One line per depth step
~Well Information Block
STRT.FT               845.0000: 
STOP.FT              2102.0000: 
STEP.FT                 0.1000: 
NULL.                -999.2500: 
COMP.          Petrogulf Corporation: COMPANY
WELL.               YWAM 7-32R: WELL
FLD.           Purgatorie River: FIELD
LOC.           2355' FNL & 2376' FEL: LOCATION
PROV.                 Colorado: PROVINCE
CNTY.               Las Animas: COUNTRY
SRVC.                Patterson: SERVICE COMPANY
DATE.          Fri Sep 30 11:07:31 2005: LOG DATE
UWI.                          : UNIQUE WELL ID
~Curve Information Block
DEPT.FT            0 000 00 00: Depth
DCAL.in                       : CDL Caliper
RHOB.g/cc                     : CDL Bulk Density
RHOC.g/cc                     : CDL Density Correction
DPOR.pu                       : CDL Density Porosity
GR.GAPI                       : Gamma Ray
NPOR.pu                       : Neutron Porosity
~Parameter Information Block
~A  Depth       DCAL        RHOB        RHOC        DPOR         GR         NPOR    
# ...
  1833.8000      7.9466      2.5621      0.0052      5.3278    158.4296     25.6763
  1833.9000      7.9466      2.5286     -0.0494      7.3596    158.1231     25.2099
  1834.0000      7.9374      2.5194     -0.0108      7.9145    158.3356     25.0334
  1834.1000      7.9374      2.5321      0.0164      7.1472    160.9516     25.2419
  1834.2000      7.9374      2.5455      0.0272      6.3335    162.8950     25.4295
  1834.3000      7.9281      2.5456      0.0390      6.3302    162.0981     25.2173
  1834.4000      7.9281      2.5386      0.0079      6.7530    159.4381     24.8263
  1834.5000      7.9287      2.5326      0.0628      7.1147    156.6395     24.7635
  1834.6000      7.9287      2.5250      0.0258      7.5755    156.2424     25.1380
  1834.7000      7.9287      2.5226      0.0387      7.7200    161.7018     25.6272
  1834.8000      7.9308      2.5316      0.0694      7.1786    171.7630     25.9351
  1834.9000      7.9308      2.5406      0.0980      6.6285    179.2861     26.1550
  1835.0000      7.9282      2.5407      0.0809      6.6228    180.8662     26.5798
  1835.1000      7.9282      2.5340      0.1144      7.0286    180.2612     27.1677
  1835.2000      7.9282      2.5226      0.1226      7.7190    180.5709     27.6657
  1835.3000      7.9448      2.5084      0.0594      8.5799    181.3213     27.9454
  1835.4000      7.9448      2.4927      0.0803      9.5314    181.2710     27.9889
  1835.5000      7.9485      2.4746      0.0440     10.6294    179.6494     28.0287
  1835.6000      7.9485      2.4615      0.0079     11.4214    177.4242     28.2569
  1835.7000      7.9485      2.4621     -0.0036     11.3858    174.6250     28.3952
  1835.8000      7.9461      2.4759      0.0021     10.5543    170.3185     28.2327
  1835.9000      7.9461      2.5017      0.0028      8.9890    167.2483     28.1231
  1836.0000      7.9242      2.5330      0.0660      7.0915    168.3206     28.2672
  1836.1000      7.9242      2.5503      0.1367      6.0405    170.9158     28.2773
  1836.2000      7.9242      2.5474      0.0884      6.2209    170.9380     27.9866
  1836.3000      7.8957      2.5413      0.0743      6.5873    169.1524     27.4819
  1836.4000      7.8957      2.5373      0.1428      6.8304    167.8565     26.7578
  1836.5000      7.8842      2.5281      0.0845      7.3897    163.8030     26.0107
  1836.6000      7.8842      2.5210      0.0786      7.8161    154.6730     25.3879
  1836.7000      7.8842      2.5173      0.0978      8.0445    147.3617     24.7930
  1836.8000      7.8671      2.5077      0.0326      8.6270    144.8565     24.2583
  1836.9000      7.8671      2.5033     -0.0082      8.8897    142.8724     23.8501
  1837.0000      7.8412      2.5168      0.0290      8.0752    141.0319     23.2812
  1837.1000      7.8412      2.5336      0.0789      7.0537    139.0967     22.1170
  1837.2000      7.8412      2.5436      0.0823      6.4501    134.5231     20.5921
  1837.3000      7.9634      2.5592      0.0614      5.5006    129.4247     19.2727
  1837.4000      7.9634      2.5856      0.0951      3.9008    125.2274     18.3029
  1837.5000      7.9259      2.6079      0.1653      2.5525    119.5028     17.6200
  1837.6000      7.9259      2.6194      0.1460      1.8530    113.3640     17.1423
  1837.7000      7.9259      2.6348      0.1189      0.9209    109.2739     16.9973
  1837.8000      7.7462      2.6556      0.2045     -0.3379    107.7566     17.4456
  1837.9000      7.7462      2.6636      0.1755     -0.8219    107.2137     18.1532
  1838.0000      7.7111      2.6584      0.1524     -0.5066    104.4108     18.3591
  1838.1000      7.7111      2.6571      0.0918     -0.4302     99.9684     17.9391
  1838.2000      7.7111      2.6636      0.1331     -0.8253     97.5638     17.3780
  1838.3000      7.6845      2.6662      0.0854     -0.9790     97.3386     16.9283
  1838.4000      7.6845      2.6596      0.0987     -0.5813     97.4396     16.5314
  1838.5000      7.7643      2.6388      0.1246      0.6769     97.8882     16.1899
  1838.6000      7.7643      2.5974      0.0799      3.1853     98.8116     15.9291
  1838.7000      7.7643      2.5487     -0.0066      6.1404     97.7994     15.5310
  1838.8000      7.8418      2.5148     -0.0126      8.1933     92.6295     14.7283
  1838.9000      7.8418      2.5029     -0.0137      8.9154     86.0524     13.7197
  1839.0000      7.7849      2.5051      0.0019      8.7816     84.7000     13.0697
  1839.1000      7.7849      2.5124     -0.0005      8.3383     90.8079     12.9831
  1839.2000      7.7849      2.5229     -0.0033      7.7009     98.4123     13.0031
  1839.3000      7.8543      2.5311      0.0648      7.2076    100.8538     12.7850
  1839.4000      7.8543      2.5287      0.0210      7.3521     98.5592     12.6985
  1839.5000      7.8751      2.5251      0.0069      7.5714     96.7483     13.2128
  1839.6000      7.8751      2.5288      0.0733      7.3450     99.5121     14.2071
  1839.7000      7.8751      2.5296      0.0409      7.2978    106.5416     15.3102
  1839.8000      7.8506      2.5213      0.0182      7.8000    115.1622     16.3322
  1839.9000      7.8506      2.5132      0.0359      8.2930    122.4667     17.1430
  1840.0000      7.8843      2.5131      0.0348      8.3000    127.9130     17.8484
  1840.1000      7.8843      2.5181      0.0140      7.9923    132.6028     18.5841
  1840.2000      7.8843      2.5275      0.0268      7.4250    135.8337     19.1912
  1840.3000      7.8837      2.5365      0.0590      6.8806    135.2479     19.5533
  1840.4000      7.8837      2.5235      0.1022      7.6667    131.6006     19.8617
  1840.5000      7.8561      2.4770      0.0776     10.4858    128.4799     20.3939
  1840.6000      7.8561      2.4133      0.0533     14.3470    126.5322     20.9584
  1840.7000      7.8561      2.3492      0.0511     18.2286    125.1673     21.2711
  1840.8000      7.8098      2.2873      0.0382     21.9820    126.9588     21.5400
  1840.9000      7.8098      2.2359     -0.0462     25.0959    131.1796     21.9503
  1841.0000      7.7552      2.2112     -0.0273     26.5968    133.8535     22.4019
  1841.1000      7.7552      2.2119      0.0077     26.5515    134.0212     22.9104
  1841.2000      7.7552      2.2234      0.0273     25.8556    132.3271     23.6022
  1841.3000      7.7984      2.2410      0.0622     24.7884    133.1705     24.5013
  1841.4000      7.7984      2.2704      0.1571     23.0041    138.9306     25.5241
  1841.5000      7.8661      2.3145      0.0777     20.3347    146.2352     26.4386
  1841.6000      7.8661      2.3689      0.0882     17.0345    151.9582     26.8552
  1841.7000      7.8661      2.4168      0.0911     14.1348    153.6947     26.7448
  1841.8000      7.8699      2.4427      0.0740     12.5607    152.0241     26.5674
  1841.9000      7.8699      2.4509      0.0464     12.0665    150.4201     26.7898
  1842.0000      7.8474      2.4545      0.0237     11.8508    150.9196     27.3450
  1842.1000      7.8474      2.4636      0.0062     11.2993    153.9218     27.5894
  1842.2000      7.8474      2.4801      0.0282     10.2998    158.0861     27.0948
  1842.3000      7.8657      2.5005      0.0215      9.0581    160.4089     26.0430
  1842.4000      7.8657      2.5226      0.0327      7.7210    157.6530     24.9396
  1842.5000      7.9512      2.5354      0.0803      6.9454    150.7935     24.3314
  1842.6000      7.9512      2.5325     -0.0235      7.1217    144.2069     24.2681
  1842.7000      7.9512      2.5324     -0.0190      7.1245    140.7603     24.1653
  1842.8000      7.9828      2.5495      0.0380      6.0902    141.1421     23.5600
  1842.9000      7.9828      2.5712      0.0487      4.7743    143.1496     22.6503
  1843.0000      7.9533      2.5811      0.0558      4.1749    144.2408     21.9109
  1843.1000      7.9533      2.5796      0.0150      4.2649    144.6034     21.3988
  1843.2000      7.9533      2.5750      0.0574      4.5427    144.7760     21.0120
  1843.3000      7.9487      2.5680      0.0597      4.9687    144.1573     20.7744
