~Version Information
VERS.                      2.0: CWLS Log ASCII Standard - VERSION 2.0
WRAP.                       NO: One line per depth step
~Well Information Block
STRT.FT               262.8000: 
STOP.FT              1134.7000: 
STEP.FT                 0.1000: 
NULL.                -999.2500: 
COMP.          Pioneer Natural Resources: COMPANY
WELL.          Black Cat 13-32 Tr: WELL
FLD.           Purgatoire River: FIELD
LOC.           1679' FSL & 1150' FWL--: LOCATION
CNTY.               Las Animas: COUNTY
SRVC.                Patterson: SERVICE COMPANY
DATE.          Tue Mar 07 12:42:54 2006: LOG DATE
UWI.           05 071 08721 00: UNIQUE WELL ID
STAT.                 Colorado: STATE
~Curve Information Block
DEPT.FT            0 000 00 00: Depth
DCAL.in                       : CDL Caliper
RHOB.g/cc                     : CDL Bulk Density
RHOC.g/cc                     : CDL Density Correction
DPOR.pu                       : CDL Density Porosity
GR.GAPI                       : Gamma Ray
~Parameter Information Block
~A  Depth       DCAL        RHOB        RHOC        DPOR         GR     
# ...
   878.8000      7.8307      2.5740      0.0077      4.6038    103.6445
   878.9000      7.8307      2.5579     -0.0183      5.5847    104.5282
   879.0000      7.8313      2.5495     -0.0132      6.0893    101.4447
   879.1000      7.8313      2.5455      0.0362      6.3360     98.5736
   879.2000      7.8313      2.5404      0.0249      6.6406     97.8705
   879.3000      7.8310      2.5423      0.0291      6.5300     99.1106
   879.4000      7.8310      2.5577      0.0802      5.5915    100.7357
   879.5000      7.8314      2.5798      0.0418      4.2537     98.9991
   879.6000      7.8314      2.5966      0.0735      3.2383     94.6785
   879.7000      7.8314      2.6056      0.0439      2.6896     92.2428
   879.8000      7.8375      2.6158      0.0699      2.0703     93.6009
   879.9000      7.8375      2.6273      0.0656      1.3767     97.4416
   880.0000      7.8508      2.6306      0.0682      1.1774     99.0572
   880.1000      7.8508      2.6275      0.0291      1.3661     96.5490
   880.2000      7.8508      2.6243      0.0658      1.5590     94.0727
   880.3000      7.8623      2.6167      0.0427      2.0203     94.9263
   880.4000      7.8623      2.6067      0.0261      2.6213     98.7093
   880.5000      7.8678      2.6059     -0.0005      2.6746    101.0043
   880.6000      7.8678      2.6117      0.0167      2.3232     96.6484
   880.7000      7.8678      2.6016      0.0473      2.9319     87.6830
   880.8000      7.8691      2.5665     -0.0138      5.0630     81.7653
   880.9000      7.8691      2.5290     -0.0283      7.3307     83.2527
   881.0000      7.8681      2.5031      0.0136      8.9044     85.2959
   881.1000      7.8681      2.4827     -0.0334     10.1389     79.6199
   881.2000      7.8681      2.4698     -0.0208     10.9239     70.8583
   881.3000      7.8684      2.4645     -0.0117     11.2403     67.7849
   881.4000      7.8684      2.4637     -0.0140     11.2887     70.2907
   881.5000      7.8694      2.4748     -0.0275     10.6205     73.2476
   881.6000      7.8694      2.5016      0.0285      8.9929     73.6849
   881.7000      7.8694      2.5292      0.0482      7.3203     71.4036
   881.8000      7.8701      2.5460      0.0504      6.3047     67.8911
   881.9000      7.8701      2.5558      0.0779      5.7117     64.9889
   882.0000      7.8711      2.5596      0.0445      5.4764     62.6444
   882.1000      7.8711      2.5533      0.0284      5.8607     60.5731
   882.2000      7.8711      2.5403      0.0288      6.6507     61.8532
   882.3000      7.8711      2.5308     -0.0175      7.2214     66.6418
   882.4000      7.8711      2.5202      0.0796      7.8651     68.4441
   882.5000      7.8695      2.4965      0.0308      9.3022     66.6110
   882.6000      7.8695      2.4677      0.0385     11.0461     67.3016
   882.7000      7.8695      2.4482     -0.0454     12.2305     70.3343
   882.8000      7.8637      2.4401      0.0094     12.7200     72.3835
   882.9000      7.8637      2.4326      0.0362     13.1784     77.0245
   883.0000      7.8549      2.4183      0.0063     14.0415     85.6463
   883.1000      7.8549      2.4039      0.0130     14.9158     92.2045
   883.2000      7.8549      2.3975      0.0265     15.3023     95.4989
   883.3000      7.8421      2.4060     -0.0069     14.7885     98.7723
   883.4000      7.8421      2.4355      0.0784     12.9990    101.4235
   883.5000      7.8260      2.4823      0.1292     10.1638    104.2788
   883.6000      7.8260      2.5270      0.1905      7.4569    111.5057
   883.7000      7.8260      2.5458      0.1757      6.3150    120.9494
   883.8000      7.8210      2.5391      0.1318      6.7192    127.6295
   883.9000      7.8210      2.5264      0.1151      7.4903    131.5627
   884.0000      7.8425      2.5119      0.1262      8.3706    135.0325
   884.1000      7.8425      2.4896      0.0699      9.7223    138.4487
   884.2000      7.8425      2.4633      0.0472     11.3169    141.3556
   884.3000      7.8772      2.4350      0.0312     13.0329    144.6512
   884.4000      7.8772      2.4071      0.0092     14.7223    146.6720
   884.5000      7.9027      2.3947     -0.0242     15.4756    146.4095
   884.6000      7.9027      2.4054      0.0030     14.8220    147.3730
   884.7000      7.9027      2.4216      0.0435     13.8444    150.1018
   884.8000      7.9120      2.4194      0.0524     13.9786    151.2714
   884.9000      7.9120      2.3946      0.0782     15.4784    148.9338
   885.0000      7.8910      2.3716      0.0599     16.8720    143.4548
   885.1000      7.8910      2.3874      0.0760     15.9129    137.9861
   885.2000      7.8910      2.4479      0.1567     12.2455    136.3341
   885.3000      7.8457      2.5157      0.2126      8.1400    137.4342
   885.4000      7.8457      2.5523      0.2622      5.9199    137.7706
   885.5000      7.8161      2.5507      0.2028      6.0176    137.0324
   885.6000      7.8161      2.5308      0.1282      7.2226    137.5490
   885.7000      7.8161      2.5129      0.1503      8.3112    140.3626
   885.8000      7.8198      2.5042      0.1314      8.8341    141.6120
   885.9000      7.8198      2.5059      0.1199      8.7345    138.2660
   886.0000      7.8365      2.5028      0.1458      8.9232    133.0800
   886.1000      7.8365      2.4802      0.1123     10.2924    130.2759
   886.2000      7.8365      2.4531      0.0682     11.9361    131.3314
   886.3000      7.8480      2.4406      0.0671     12.6910    135.3174
   886.4000      7.8480      2.4420     -0.0129     12.6040    140.1738
   886.5000      7.8479      2.4517      0.0512     12.0205    144.7806
   886.6000      7.8479      2.4683      0.0308     11.0120    148.5775
   886.7000      7.8479      2.4940      0.1174      9.4567    151.2738
   886.8000      7.8403      2.5176      0.1215      8.0253    152.5309
   886.9000      7.8403      2.5254      0.1202      7.5518    151.8544
   887.0000      7.8350      2.5206      0.1181      7.8429    148.9418
   887.1000      7.8350      2.5154      0.0753      8.1580    145.9136
   887.2000      7.8350      2.5125      0.1073      8.3306    146.2404
   887.3000      7.8349      2.5052      0.0767      8.7778    148.6591
   887.4000      7.8349      2.4948      0.0458      9.4089    147.8744
   887.5000      7.8372      2.4941      0.0496      9.4503    143.4019
   887.6000      7.8372      2.5126      0.0638      8.3267    141.3591
   887.7000      7.8372      2.5418      0.1147      6.5558    145.2713
   887.8000      7.8429      2.5619      0.1007      5.3391    149.8121
   887.9000      7.8429      2.5755      0.0371      4.5162    148.5985
   888.0000      7.8478      2.5991      0.0939      3.0865    143.5760
   888.1000      7.8478      2.6199      0.1288      1.8243    138.4835
   888.2000      7.8478      2.6181      0.1172      1.9354    133.3309
   888.3000      7.8406      2.6027      0.0609      2.8659    128.4881
   888.4000      7.8406      2.5906      0.0982      3.6027    125.5958
   888.5000      7.8299      2.5801      0.0823      4.2379    123.8428
   888.6000      7.8299      2.5619      0.0741      5.3392    122.2669
   888.7000      7.8299      2.5334      0.0442      7.0637    119.6166
   888.8000      7.8398      2.5047      0.0102      8.8086    113.2632
   888.9000      7.8398      2.4854      0.0128      9.9779    102.7934
   889.0000      7.8715      2.4698      0.0216     10.9223     93.1116
   889.1000      7.8715      2.4541      0.0007     11.8739     88.3614
   889.2000      7.8715      2.4489     -0.0311     12.1905     88.2736
   889.3000      7.9018      2.4568      0.0168     11.7096     89.0651
   889.4000      7.9018      2.4655     -0.0031     11.1848     86.3840
   889.5000      7.9176      2.4675      0.0520     11.0577     80.9855
   889.6000      7.9176      2.4656      0.0442     11.1769     77.3217
   889.7000      7.9176      2.4636      0.0585     11.2976     77.9106
   889.8000      7.9209      2.4541      0.1285     11.8754     79.4977
   889.9000      7.9209      2.4234      0.0978     13.7355     76.7064
