~Version Information
VERS.                      2.0: CWLS Log ASCII Standard - VERSION 2.0
WRAP.                       NO: One line per depth step
~Well Information Block
STRT.FT               360.0000: 
STOP.FT              2475.0000: 
STEP.FT                 0.1000: 
NULL.                -999.2500: 
COMP.          Pioneer Natural Resources: COMPANY
WELL.          Hellzonfire 32-31: WELL
FLD.           Purgatoire River: FIELD
LOC.           1993' FNL & 2265' FEL: LOCATION
STAT.                 Colorado: State
CNTY.               Las Animas: COUNTY
CTRY. USA : Country
SECT. 31 : Section
TOWN. 32S : Township
RANG. 66W : Range
SRVC.                Patterson: SERVICE COMPANY
DATE.          Fri Sep 02 07:26:13 2005: LOG DATE
API.           05 071 08483 00: UNIQUE WELL ID
~Curve Information Block
DEPT.FT            0 000 00 00: Depth
DCAL.in                       : CDL Caliper
RHOB.g/cc                     : CDL Bulk Density
RHOC.g/cc                     : CDL Density Correction
DPOR.pu                       : CDL Density Porosity
GR.GAPI                       : Gamma Ray
NPOR.pu                       : Neutron Porosity
~Parameter Information Block
~A  Depth       DCAL        RHOB        RHOC        DPOR         GR         NPOR    
# ...
  1339.2000      8.5054      2.3180      0.1520     20.1220    133.5036     26.5846
  1339.3000      8.5312      2.2726      0.1238     22.8732    140.3576     26.4049
  1339.4000      8.5312      2.1829      0.0705     28.3111    151.5055     25.4718
  1339.5000      8.4268      2.0872     -0.0013     34.1092    156.6301     24.7795
  1339.6000      8.4268      2.0134      0.0246     38.5844    153.7562     25.5569
  1339.7000      8.4268      1.9670     -0.0100     41.3944    147.1317     27.0322
  1339.8000      8.4516      1.9534     -0.0464     42.2192    137.4339     27.3048
  1339.9000      8.4516      1.9707      0.0155     41.1724    128.0842     27.0961
  1340.0000      8.4597      2.0033      0.0698     39.1937    121.1868     28.4051
  1340.1000      8.4597      2.0445      0.1237     36.6987    116.6889     30.1316
  1340.2000      8.4597      2.1001      0.1466     33.3300    117.7092     30.0111
  1340.3000      8.4644      2.1657      0.3012     29.3514    124.5048     28.3764
  1340.4000      8.4644      2.2253      0.3111     25.7405    133.1998     27.2453
  1340.5000      8.4482      2.2721      0.2665     22.9051    140.7598     27.5807
  1340.6000      8.4482      2.3081      0.2264     20.7228    146.3384     28.8180
  1340.7000      8.4482      2.3450      0.1282     18.4875    148.2003     29.9408
  1340.8000      8.4614      2.3985      0.1806     15.2443    143.1915     30.0281
  1340.9000      8.4614      2.4666      0.2178     11.1130    132.2041     28.9040
  1341.0000      8.4703      2.5281      0.2375      7.3860    120.9038     27.3733
  1341.1000      8.4703      2.5618      0.2768      5.3461    115.3481     26.1692
  1341.2000      8.4703      2.5650      0.2753      5.1538    118.3800     25.6686
  1341.3000      8.4741      2.5574      0.1653      5.6112    130.0566     26.0934
  1341.4000      8.4741      2.5521      0.1897      5.9349    140.2818     27.2706
  1341.5000      8.4465      2.5363      0.1306      6.8910    134.2095     28.5342
  1341.6000      8.4465      2.5028      0.1181      8.9215    119.6383     28.9771
  1341.7000      8.4465      2.4637      0.0345     11.2896    114.1934     28.3434
  1341.8000      8.3458      2.4348      0.0079     13.0422    118.2222     27.1635
  1341.9000      8.3458      2.4208     -0.0010     13.8884    124.2807     25.8288
  1342.0000      8.2635      2.4199      0.0249     13.9447    126.6339     24.9208
  1342.1000      8.2635      2.4264      0.0236     13.5488    123.2420     25.1849
  1342.2000      8.2635      2.4406      0.0119     12.6906    118.5805     25.8768
  1342.3000      8.1464      2.4708      0.0644     10.8589    113.8049     25.7005
  1342.4000      8.1464      2.5067      0.0649      8.6841    105.4732     25.3528
  1342.5000      8.1145      2.5245      0.1192      7.6039     97.3268     25.7175
  1342.6000      8.1145      2.5220      0.0999      7.7584     96.5467     25.7744
  1342.7000      8.1145      2.5229      0.0730      7.7049    102.0142     24.6022
  1342.8000      8.0800      2.5384      0.0763      6.7649    104.8977     23.2028
  1342.9000      8.0800      2.5462      0.1017      6.2896    100.8695     22.8200
  1343.0000      8.1027      2.5282      0.0984      7.3828     94.2326     22.7109
  1343.1000      8.1027      2.5009      0.0793      9.0346     92.3222     22.2395
  1343.2000      8.1027      2.4855      0.1027      9.9720     97.4581     22.5959
  1343.3000      8.0746      2.4679      0.1301     11.0370    104.4260     23.4777
  1343.4000      8.0746      2.4206      0.1510     13.9011    107.3596     23.0175
  1343.5000      8.0315      2.3523      0.0304     18.0395    103.7803     21.6738
  1343.6000      8.0315      2.2960      0.0561     21.4529    100.0524     21.5631
  1343.7000      8.0315      2.2568      0.0476     23.8328    102.5626     22.6975
  1343.8000      8.0195      2.2321     -0.0122     25.3268    107.0230     23.0401
  1343.9000      8.0195      2.2504     -0.0132     24.2183    108.6484     22.2511
  1344.0000      8.0288      2.3313      0.1467     19.3158    107.2688     22.3706
  1344.1000      8.0288      2.4418      0.2564     12.6168    103.0427     23.6795
  1344.2000      8.0288      2.5267      0.3608      7.4742     97.1977     24.3451
  1344.3000      8.0964      2.5634      0.3271      5.2457     89.6796     23.6980
  1344.4000      8.0964      2.5707      0.3068      4.8086     79.6981     22.2335
  1344.5000      8.1707      2.5724      0.2461      4.7048     69.1989     20.7868
  1344.6000      8.1707      2.5698      0.2709      4.8592     61.6997     20.0940
  1344.7000      8.1707      2.5496      0.1584      6.0873     57.3784     20.4748
  1344.8000      8.1528      2.5244      0.1123      7.6144     55.1652     21.8649
  1344.9000      8.1528      2.5317      0.0343      7.1700     56.4399     23.3552
  1345.0000      7.9775      2.5828      0.0854      4.0706     61.6807     23.7911
  1345.1000      7.9775      2.6416      0.1597      0.5088     67.8567     22.9435
  1345.2000      7.9775      2.6755      0.2016     -1.5474     73.0586     21.7567
  1345.3000      7.9009      2.6927      0.1392     -2.5865     76.8896     21.5039
  1345.4000      7.9009      2.7042      0.1505     -3.2873     80.0152     21.6563
  1345.5000      8.0389      2.6941      0.2061     -2.6724     82.6800     20.8178
  1345.6000      8.0389      2.6547      0.1071     -0.2870     82.5709     19.7583
  1345.7000      8.0389      2.6082      0.0574      2.5312     79.9427     19.8814
  1345.8000      8.0978      2.5616      0.1007      5.3574     79.0561     20.7953
  1345.9000      8.0978      2.5088      0.0306      8.5597     83.3795     21.5785
  1346.0000      8.1071      2.4729     -0.0752     10.7324     90.5900     21.6229
  1346.1000      8.1071      2.4720     -0.0182     10.7901     96.5224     21.0072
  1346.2000      8.1071      2.4896     -0.0178      9.7215     99.8812     20.8541
  1346.3000      8.1231      2.5133      0.0055      8.2832    100.2401     21.4871
  1346.4000      8.1231      2.5360      0.0742      6.9115     99.1267     22.3714
  1346.5000      8.1303      2.5487      0.0499      6.1418     99.8524     23.2154
  1346.6000      8.1303      2.5586      0.0470      5.5415    105.5514     23.1238
  1346.7000      8.1303      2.5626      0.0886      5.2980    115.8014     21.8182
  1346.8000      8.1291      2.5393      0.0749      6.7116    123.7350     20.7941
  1346.9000      8.1291      2.4918      0.0337      9.5886    124.4304     20.9336
  1347.0000      8.1410      2.4443      0.0437     12.4693    124.0328     21.6329
  1347.1000      8.1410      2.4060      0.0033     14.7869    127.9914     22.2561
  1347.2000      8.1410      2.3699      0.0216     16.9753    132.9012     22.1050
  1347.3000      8.1395      2.3371     -0.0403     18.9607    135.4672     21.0982
  1347.4000      8.1395      2.3284     -0.0066     19.4900    135.9624     20.5594
  1347.5000      8.1631      2.3497      0.0856     18.1996    135.5965     21.0802
  1347.6000      8.1631      2.3778      0.1188     16.4948    135.2426     21.8244
  1347.7000      8.1631      2.3889      0.1708     15.8239    134.6770     22.5438
  1347.8000      8.2249      2.3783      0.1729     16.4651    134.3932     23.9511
  1347.9000      8.2249      2.3606      0.1608     17.5389    134.1820     25.6693
  1348.0000      8.2943      2.3639      0.1313     17.3364    133.8030     25.9340
  1348.1000      8.2943      2.4064      0.1516     14.7653    132.6963     24.4229
  1348.2000      8.2943      2.4687      0.1734     10.9904    129.3629     23.0956
  1348.3000      8.3502      2.5153      0.1807      8.1656    126.7776     23.5548
  1348.4000      8.3502      2.5350      0.2391      6.9700    126.5138     25.0922
  1348.5000      8.2593      2.5412      0.1957      6.5926    125.3687     26.2263
  1348.6000      8.2593      2.5437      0.2178      6.4408    122.5899     27.0183
  1348.7000      8.2593      2.5293      0.2377      7.3123    119.9900     27.5923
