~Version Information
VERS.                      2.0: CWLS Log ASCII Standard - VERSION 2.0
WRAP.                       NO: One line per depth step
~Well Information Block
STRT.FT                -5.5000: 
STOP.FT               791.0000: 
STEP.FT                 0.2500: 
NULL.                -999.2500: 
COMP.          Pioneer Natural Resources: COMPANY
WELL.           Beringer 33-18: WELL
FLD.           Purgatoire River: FIELD
LOC.           2356' FSL & 2338' FEL--: LOCATION
CNTY.               Las Animas: COUNTY
SRVC.                Patterson: SERVICE COMPANY
DATE.          Mon Apr 03 11:39:01 2006: LOG DATE
UWI.           05 071 08725 00: UNIQUE WELL ID
STAT.                 Colorado: STATE
~Curve Information Block
DEPT.FT            0 000 00 00: Depth
CCL.                          : Casing Collar Locator
TT3.usec                      : CBL 3' Travel Time
AMP3.mV                       : CBL 3' Amplitude
GR.GAPI                       : Gamma Ray
~Parameter Information Block
~A  Depth       CCL         TT3         AMP3         GR     
# ...
   195.5000      0.0000    513.8802      6.2627    127.4590
   195.7500      0.0000    488.1408      6.4454    131.2411
   196.0000      0.0000    443.4751      6.6153    133.3887
   196.2500      0.0000    419.1012      6.6717    131.8945
   196.5000      0.0000    398.6564      6.6910    126.3559
   196.7500      0.0000    396.7592      6.6637    121.3718
   197.0000      0.0000    413.6064      6.5676    113.1554
   197.2500      0.0000    440.4934      6.4778    107.9744
   197.5000      0.0000    505.0567      6.3441    101.7694
   197.7500      0.0000    558.7642      6.2826     98.3775
   198.0000      0.0000    637.6673      6.2504     92.3155
   198.2500      0.0000    680.1183      6.2564     86.7247
   198.5000      0.0000    723.5181      6.2685     77.0122
   198.7500      0.0000    740.8762      6.2649     71.3768
   199.0000      0.0000    754.8221      6.2410     66.5913
   199.2500      0.0000    758.8039      6.2200     65.9695
   199.5000      0.0000    761.1287      6.1985     67.4965
   199.7500      0.0000    761.8514      6.2024     69.3851
   200.0000      0.0000    760.1480      6.2501     72.8997
   200.2500      0.0000    752.9911      6.3128     75.2126
   200.5000      0.0000    722.5294      6.4485     77.0035
   200.7500      0.0000    684.2781      6.5569     76.2173
   201.0000      0.0000    602.8923      6.7136     72.3998
   201.2500      0.0000    542.3787      6.7882     69.5539
   201.5000      0.0000    463.8569      6.8190     68.0280
   201.7500      0.0000    427.6389      6.7857     69.8876
   202.0000      0.0000    397.5677      6.7037     76.1528
   202.2500      0.0000    388.7843      6.6696     81.1490
   202.5000      0.0000    383.7536      6.6935     87.8676
   202.7500      0.0000    382.6334      6.7517     91.6508
   203.0000      0.0000    381.8653      6.8510     96.7760
   203.2500      0.0000    381.5068      6.8962     99.8625
   203.5000      0.0000    380.9919      6.9055    103.7101
   203.7500      0.0000    380.6506      6.8684    105.8733
   204.0000      0.0000    380.1636      6.7630    109.1263
   204.2500      0.0000    379.8777      6.6893    111.1730
   204.5000      0.0000    379.5378      6.6458    112.3191
   204.7500      0.0000    379.3837      6.6859    110.7693
   205.0000      0.0000    379.3105      6.8177    105.7736
   205.2500      0.0000    379.4796      6.9045    102.7942
   205.5000      0.0000    380.6109      6.9663    102.4201
   205.7500      0.0000    382.7167      6.9522    105.2816
   206.0000      0.0000    390.5392      6.8663    111.9489
   206.2500      0.0000    401.4254      6.7801    116.1492
   206.5000      0.0000    432.0005      6.6216    119.9393
   206.7500      0.0000    464.6887      6.4988    120.2251
   207.0000      0.0000    531.4073      6.2962    117.0251
   207.2500      0.0000    582.1188      6.1664    112.7710
   207.5000      0.0000    652.2302      6.0283    104.9506
   207.7500      0.0000    687.4639      5.9939    100.2792
   208.0000      0.0000    718.9910      6.0200     95.9597
   208.2500      0.0000    727.7982      6.0624     95.0637
   208.5000      0.0000    727.1017      6.1119     96.3448
   208.7500      0.0000    717.8936      6.1181     98.8479
   209.0000      0.0000    688.3637      6.0993    104.4809
   209.2500      0.0000    656.6534      6.0964    108.4408
   209.5000      0.0000    593.3046      6.1500    112.4248
   209.7500      0.0000    546.1647      6.2213    112.9761
   210.0000      0.0000    481.7473      6.3326    110.9287
   210.2500      0.0000    448.9301      6.3862    108.7440
   210.5000      0.0000    416.5473      6.4390    106.5832
   210.7500      0.0000    403.6032      6.4687    106.5400
   211.0000      0.0000    392.4239      6.5028    107.8353
   211.2500      0.0000    389.0178      6.5037    108.8740
   211.5000      0.0000    389.0565      6.4577    110.2757
   211.7500      0.0000    392.1034      6.4022    111.1036
   212.0000      0.0000    400.2032      6.3008    111.4507
   212.2500      0.0000    407.4537      6.2261    110.2522
   212.5000      0.0000    421.7031      6.1097    105.5318
   212.7500      0.0000    434.9066      6.0435    100.7712
   213.0000      0.0000    462.5462      5.9998     92.3052
   213.2500      0.0000    485.4639      6.0209     86.3570
   213.5000      0.0000    521.1315      6.1056     78.5262
   213.7500      0.0000    542.2418      6.1639     75.2436
   214.0000      0.0000    567.2607      6.2024     73.9031
   214.2500      0.0000    579.7886      6.1899     74.2476
   214.5000      0.0000    592.7797      6.1537     73.4894
   214.7500      0.0000    596.7675      6.1533     71.1708
   215.0000      0.0000    593.0361      6.2173     66.1926
   215.2500      0.0000    582.6595      6.2881     63.6345
   215.5000      0.0000    555.6025      6.3807     63.3528
   215.7500      0.0000    533.0214      6.4083     65.8732
   216.0000      0.0000    502.5287      6.3896     73.0917
   216.2500      0.0000    491.3385      6.3473     79.7509
   216.5000      0.0000    496.9603      6.2646     91.8095
   216.7500      0.0000    516.8757      6.2101    100.6995
   217.0000      0.0000    564.8322      6.1455    113.8962
   217.2500      0.0000    601.5682      6.1183    121.4224
   217.5000      0.0000    650.5905      6.0980    128.7571
   217.7500      0.0000    673.5930      6.0914    130.4018
   218.0000      0.0000    687.2946      6.0766    128.3826
   218.2500      0.0000    679.6450      6.0549    124.9124
   218.5000      0.0000    641.0623      5.9921    118.8219
   218.7500      0.0000    600.7304      5.9286    115.8137
   219.0000      0.0000    532.9409      5.8178    115.2294
   219.2500      0.0000    492.5576      5.7536    117.8720
   219.5000      0.0000    448.8714      5.7075    124.6972
   219.7500      0.0000    431.2516      5.7215    129.1487
   220.0000      0.0000    417.1553      5.7985    132.8243
   220.2500      0.0000    412.6590      5.8628    133.0683
   220.5000      0.0000    409.2894      5.9235    132.0375
   220.7500      0.0000    408.0716      5.9176    131.7355
   221.0000      0.0000    406.8963      5.8447    132.6314
   221.2500      0.0000    406.3867      5.7830    133.6147
   221.5000      0.0000    406.0948      5.7303    134.5538
   221.7500      0.0000    406.4421      5.7325    134.6762
   222.0000      0.0000    408.7729      5.7576    133.9336
   222.2500      0.0000    412.8565      5.7646    131.9626
   222.5000      0.0000    427.0031      5.7561    124.7880
   222.7500      0.0000    444.9167      5.7508    117.1634
   223.0000      0.0000    487.2222      5.7525    104.4017
   223.2500      0.0000    523.0767      5.7506     97.2911
   223.5000      0.0000    575.7974      5.7164     90.6869
   223.7500      0.0000    601.2340      5.6622     88.5458
   224.0000      0.0000    613.6663      5.5402     86.5157
   224.2500      0.0000    602.6873      5.4517     84.8934
   224.5000      0.0000    561.4279      5.3505     81.8518
   224.7500      0.0000    523.7029      5.3186     80.0728
   225.0000      0.0000    465.6864      5.3259     78.7437
   225.2500      0.0000    432.7415      5.3625     78.6458
   225.5000      0.0000    397.1283      5.4479     78.8989
   225.7500      0.0000    382.4994      5.5068     79.2014
   226.0000      0.0000    371.9164      5.5620     80.2042
   226.2500      0.0000    370.9619      5.5711     81.0453
   226.5000      0.0000    376.1934      5.5713     80.8997
   226.7500      0.0000    382.4044      5.5816     78.8393
   227.0000      0.0000    392.4286      5.6139     72.8597
   227.2500      0.0000    397.9395      5.6361     68.1731
   227.5000      0.0000    403.2770      5.6741     62.6399
   227.7500      0.0000    405.1453      5.7173     60.6761
   228.0000      0.0000    406.5764      5.8151     59.7708
   228.2500      0.0000    407.3409      5.8849     59.7128
   228.5000      0.0000    409.6185      5.9611     59.5284
   228.7500      0.0000    413.2126      5.9886     59.3417
