~Version Information
VERS.                      2.0: CWLS Log ASCII Standard - VERSION 2.0
WRAP.                       NO: One line per depth step
~Well Information Block
STRT.FT               742.7000: 
STOP.FT              1614.5000: 
STEP.FT                 0.1000: 
NULL.                -999.2500: 
COMP.          Pioneer Natural Resources: COMPANY
WELL.           Kermit 32-7 Tr: WELL
FLD.           Purgatoire River: FIELD
LOC.           2009' FNL & 2196' FEL: LOCATION
PROV.                 Colorado: PROVINCE
CNTY.               Las Animas: COUNTRY
SRVC.                Patterson: SERVICE COMPANY
DATE.          Mon Jan 16 13:19:56 2006: LOG DATE
UWI.           05 071 08664 00: UNIQUE WELL ID
~Curve Information Block
DEPT.FT            0 000 00 00: Depth
DCAL.in                       : CDL Caliper
RHOB.g/cc                     : CDL Bulk Density
RHOC.g/cc                     : CDL Density Correction
DPOR.pu                       : CDL Density Porosity
GR.GAPI                       : Gamma Ray
~Parameter Information Block
~A  Depth       DCAL        RHOB        RHOC        DPOR         GR     
# ...
   888.3000      7.9118      2.4526      0.0475     11.9651     73.2741
   888.4000      7.9118      2.4692      0.0562     10.9552     76.6914
   888.5000      7.9009      2.4940      0.0896      9.4549     76.0297
   888.6000      7.9009      2.5245      0.1197      7.6033     74.2981
   888.7000      7.9009      2.5488      0.1644      6.1330     72.8647
   888.8000      7.9034      2.5624      0.1606      5.3113     70.4337
   888.9000      7.9034      2.5674      0.1594      5.0074     67.9534
   889.0000      7.9014      2.5680      0.1227      4.9706     65.3123
   889.1000      7.9014      2.5717      0.1070      4.7471     63.0158
   889.2000      7.9014      2.5759      0.1180      4.4914     65.1036
   889.3000      7.9051      2.5723      0.0928      4.7067     73.0976
   889.4000      7.9051      2.5641      0.1195      5.2050     79.8934
   889.5000      7.9097      2.5621      0.0601      5.3275     79.4455
   889.6000      7.9097      2.5682      0.0874      4.9557     75.5963
   889.7000      7.9097      2.5711      0.0815      4.7845     74.3528
   889.8000      7.9115      2.5673      0.0793      5.0124     78.0053
   889.9000      7.9115      2.5668      0.0638      5.0398     83.5556
   890.0000      7.9145      2.5773      0.0883      4.4076     87.0550
   890.1000      7.9145      2.5929      0.0470      3.4587     88.1533
   890.2000      7.9145      2.5960      0.0945      3.2747     85.8944
   890.3000      7.9177      2.5800      0.0372      4.2444     81.7659
   890.4000      7.9177      2.5653     -0.0015      5.1347     81.0778
   890.5000      7.9214      2.5631      0.0504      5.2670     82.4331
   890.6000      7.9214      2.5528      0.0982      5.8882     82.0577
   890.7000      7.9214      2.5231     -0.0110      7.6901     80.7913
   890.8000      7.9147      2.4989      0.0085      9.1561     80.0755
   890.9000      7.9147      2.4999     -0.0101      9.0946     82.9785
   891.0000      7.9145      2.5127      0.0518      8.3197     89.6029
   891.1000      7.9145      2.5173      0.0393      8.0400     93.0883
   891.2000      7.9145      2.5202      0.0503      7.8644     90.9367
   891.3000      7.9069      2.5427      0.0358      6.5005     87.5883
   891.4000      7.9069      2.5772      0.1001      4.4109     85.5803
   891.5000      7.9022      2.5926      0.0830      3.4791     87.7205
   891.6000      7.9022      2.5893      0.0975      3.6790     92.6265
   891.7000      7.9022      2.5889      0.0600      3.7011     91.8302
   891.8000      7.8907      2.5870      0.0855      3.8207     86.8219
   891.9000      7.8907      2.5673      0.0812      5.0132     85.5220
   892.0000      7.9086      2.5448      0.0032      6.3739     85.9674
   892.1000      7.9086      2.5408      0.0559      6.6169     84.1275
   892.2000      7.9086      2.5473      0.0451      6.2231     83.3163
   892.3000      7.9003      2.5499      0.0688      6.0652     86.1425
   892.4000      7.9003      2.5444      0.0363      6.4004     89.0227
   892.5000      7.8923      2.5351      0.0179      6.9659     87.8445
   892.6000      7.8923      2.5299      0.0521      7.2810     83.9885
   892.7000      7.8923      2.5301      0.0618      7.2638     79.9340
   892.8000      7.8973      2.5328      0.0307      7.1006     75.2190
   892.9000      7.8973      2.5413      0.0274      6.5867     70.9990
   893.0000      7.8951      2.5627      0.0320      5.2913     67.7975
   893.1000      7.8951      2.5899      0.0896      3.6430     63.4417
   893.2000      7.8951      2.5990      0.0891      3.0909     61.5644
   893.3000      7.9053      2.5803      0.0862      4.2255     66.2288
   893.4000      7.9053      2.5507      0.0810      6.0198     73.5028
   893.5000      7.9127      2.5283      0.0482      7.3761     79.2048
   893.6000      7.9127      2.5134      0.0389      8.2767     82.6406
   893.7000      7.9127      2.4962      0.0623      9.3200     83.7366
   893.8000      7.9043      2.4736      0.0275     10.6880     83.2804
   893.9000      7.9043      2.4536     -0.0024     11.9017     83.1604
   894.0000      7.9092      2.4423      0.0293     12.5860     81.9802
   894.1000      7.9092      2.4404      0.0505     12.7050     79.0091
   894.2000      7.9092      2.4473      0.0441     12.2848     76.8238
   894.3000      7.9172      2.4600      0.0872     11.5124     75.9437
   894.4000      7.9172      2.4757      0.0624     10.5653     77.6243
   894.5000      7.9198      2.4979      0.0314      9.2153     80.8982
   894.6000      7.9198      2.5267      0.1106      7.4730     79.4089
   894.7000      7.9198      2.5483      0.1280      6.1661     70.5565
   894.8000      7.9222      2.5522      0.0927      5.9282     61.2771
   894.9000      7.9222      2.5439      0.1070      6.4304     59.6909
   895.0000      7.9192      2.5334      0.0911      7.0648     65.5631
   895.1000      7.9192      2.5244      0.0560      7.6113     71.1997
   895.2000      7.9192      2.5107      0.0415      8.4448     71.1607
   895.3000      7.9219      2.4799      0.0163     10.3078     70.0622
   895.4000      7.9219      2.4327     -0.0237     13.1726     75.0941
   895.5000      7.9336      2.3932     -0.0488     15.5630     81.5638
   895.6000      7.9336      2.3819     -0.0241     16.2480     79.6009
   895.7000      7.9336      2.3900      0.0052     15.7574     71.1284
   895.8000      7.9512      2.4002      0.0025     15.1372     65.2606
   895.9000      7.9512      2.4101      0.0300     14.5408     63.7304
   896.0000      7.9771      2.4251      0.0442     13.6293     62.0097
   896.1000      7.9771      2.4464      0.0539     12.3382     58.3841
   896.2000      7.9771      2.4659      0.0891     11.1571     54.9063
   896.3000      7.9930      2.4772      0.0555     10.4719     52.5353
   896.4000      7.9930      2.4825      0.0976     10.1522     48.9473
   896.5000      7.9617      2.4776      0.1416     10.4506     44.8356
   896.6000      7.9617      2.4615      0.0490     11.4259     45.2185
   896.7000      7.9617      2.4466      0.0581     12.3283     50.3014
   896.8000      7.9623      2.4400      0.0325     12.7253     53.2389
   896.9000      7.9623      2.4400      0.0854     12.7268     50.2183
   897.0000      7.9556      2.4376      0.0527     12.8705     44.9508
   897.1000      7.9556      2.4257      0.0440     13.5923     41.9770
   897.2000      7.9556      2.4049      0.0232     14.8529     41.0503
   897.3000      7.9523      2.3832      0.0033     16.1710     41.0923
   897.4000      7.9523      2.3704      0.0224     16.9467     42.4256
   897.5000      7.9561      2.3649      0.0295     17.2788     43.1605
   897.6000      7.9561      2.3624      0.0169     17.4327     43.4215
   897.7000      7.9561      2.3674      0.0225     17.1250     45.7469
   897.8000      7.9485      2.3837      0.0565     16.1375     49.5094
   897.9000      7.9485      2.4095      0.0464     14.5741     52.1003
   898.0000      7.9507      2.4390      0.0839     12.7870     52.5130
   898.1000      7.9507      2.4566      0.1623     11.7200     50.2981
   898.2000      7.9507      2.4603      0.0986     11.4953     46.6269
   898.3000      7.9578      2.4718      0.1411     10.7993     45.6501
   898.4000      7.9578      2.4906      0.1808      9.6607     47.6419
   898.5000      7.8984      2.5020      0.1572      8.9683     48.2850
   898.6000      7.8984      2.5205      0.1142      7.8513     46.0723
   898.7000      7.8984      2.5570      0.1937      5.6377     43.7150
   898.8000      7.8565      2.5828      0.2176      4.0748     43.0924
   898.9000      7.8565      2.5725      0.1493      4.6965     44.3351
   899.0000      7.8600      2.5419      0.1288      6.5520     46.4294
   899.1000      7.8600      2.5200      0.0914      7.8765     47.9940
   899.2000      7.8600      2.5177      0.0551      8.0194     49.7041
   899.3000      7.8824      2.5276      0.0569      7.4212     52.8653
   899.4000      7.8824      2.5393      0.0660      6.7064     57.5163
