~Version Information
VERS.                      2.0: CWLS Log ASCII Standard - VERSION 2.0
WRAP.                       NO: One line per depth step
~Well Information Block
STRT.FT               555.0000: 
STOP.FT              1158.0000: 
STEP.FT                 0.1000: 
NULL.                -999.2500: 
COMP.          Pioneer Natural Resources: COMPANY
WELL.              Draco 31-21: WELL
FLD.           Purgatoire River: FIELD
LOC.           491' FNL & 2446' FEL: LOCATION
CNTY.               Las Animas: COUNTY
SRVC.                Patterson: SERVICE COMPANY
DATE.          Wed Feb 01 07:01:32 2006: LOG DATE
UWI.           05 071 08672 00: UNIQUE WELL ID
STAT.                 Colorado: STATE
~Curve Information Block
DEPT.FT            0 000 00 00: Depth
DCAL.in                       : CDL Caliper
RHOB.g/cc                     : CDL Bulk Density
RHOC.g/cc                     : CDL Density Correction
DPOR.pu                       : CDL Density Porosity
GR.GAPI                       : Gamma Ray
NPOR.pu                       : Neutron Porosity
~Parameter Information Block
~A  Depth       DCAL        RHOB        RHOC        DPOR         GR         NPOR    
# ...
  1102.2000      7.7925      2.5598      0.0450      5.4666    122.8828     22.7190
  1102.3000      7.8099      2.5482     -0.0072      6.1677    129.1632     22.9076
  1102.4000      7.8099      2.5441      0.0153      6.4154    130.4011     23.4591
  1102.5000      7.8057      2.5452      0.0473      6.3540    124.4052     23.8173
  1102.6000      7.8057      2.5425      0.0193      6.5135    121.1351     24.3625
  1102.7000      7.8057      2.5384      0.0489      6.7652    121.6815     25.1203
  1102.8000      7.7917      2.5423      0.0361      6.5276    121.1940     25.4060
  1102.9000      7.7917      2.5579      0.1001      5.5844    123.6752     25.1032
  1103.0000      7.7609      2.5786      0.0762      4.3262    131.2935     24.6660
  1103.1000      7.7609      2.5985      0.0985      3.1218    138.8026     24.5878
  1103.2000      7.7609      2.6127      0.1079      2.2620    142.9930     24.9266
  1103.3000      7.7530      2.6156      0.1213      2.0843    143.3275     24.7604
  1103.4000      7.7530      2.6125      0.0648      2.2711    140.2318     23.9039
  1103.5000      7.7674      2.6172      0.0711      1.9897    131.9292     23.3645
  1103.6000      7.7674      2.6320      0.0908      1.0888    119.2566     23.4549
  1103.7000      7.7674      2.6443      0.1146      0.3457    111.3629     23.4958
  1103.8000      7.7857      2.6425      0.1170      0.4576    112.2333     23.1100
  1103.9000      7.7857      2.6290      0.0321      1.2735    115.5278     22.6910
  1104.0000      7.8074      2.6108      0.0493      2.3731    115.9817     22.6614
  1104.1000      7.8074      2.5924      0.0141      3.4929    114.4075     23.0569
  1104.2000      7.8074      2.5796      0.0207      4.2687    114.3248     23.6988
  1104.3000      7.8078      2.5723      0.0141      4.7119    112.6114     24.0555
  1104.4000      7.8078      2.5634      0.0326      5.2491    105.2010     23.6833
  1104.5000      7.8053      2.5501      0.0352      6.0532     99.6318     22.6515
  1104.6000      7.8053      2.5361     -0.0100      6.9017    105.9934     21.6669
  1104.7000      7.8053      2.5254     -0.0117      7.5519    121.3521     21.7355
  1104.8000      7.7997      2.5228      0.0193      7.7069    133.6264     22.7500
  1104.9000      7.7997      2.5336      0.0585      7.0574    137.1223     23.5006
  1105.0000      7.7979      2.5576      0.0445      5.5976    133.7257     23.9890
  1105.1000      7.7979      2.5878      0.1071      3.7673    123.6020     25.1025
  1105.2000      7.7979      2.6065      0.1306      2.6377    111.6227     26.6128
  1105.3000      7.7709      2.6013      0.1093      2.9541    108.3198     27.6553
  1105.4000      7.7709      2.5888      0.0319      3.7092    113.5959     27.7302
  1105.5000      7.7855      2.5934      0.0725      3.4320    116.0690     27.1993
  1105.6000      7.7855      2.6060      0.0972      2.6680    108.8380     26.5079
  1105.7000      7.7855      2.6024      0.1152      2.8868     98.6849     25.5793
  1105.8000      7.7829      2.5777      0.0667      4.3845     94.5316     24.5817
  1105.9000      7.7829      2.5446      0.0640      6.3883     96.8166     23.6629
  1106.0000      7.7891      2.5228      0.0086      7.7106    102.6720     22.7034
  1106.1000      7.7891      2.5299      0.0248      7.2793    105.5825     21.8979
  1106.2000      7.7891      2.5600      0.0669      5.4527    100.1617     21.1700
  1106.3000      7.7869      2.5911      0.0655      3.5683     91.4154     20.1480
  1106.4000      7.7869      2.6104      0.0883      2.3974     86.6898     19.2346
  1106.5000      7.8003      2.6141      0.1004      2.1750     83.7000     18.5097
  1106.6000      7.8003      2.6034      0.0905      2.8240     80.9100     17.7394
  1106.7000      7.8003      2.5900      0.0398      3.6381     85.0431     17.6557
  1106.8000      7.7720      2.5843      0.0964      3.9820     94.6680     18.6300
  1106.9000      7.7720      2.5822      0.0820      4.1083     99.6288     19.7308
  1107.0000      7.7680      2.5757      0.0690      4.5007     97.3626     20.2433
  1107.1000      7.7680      2.5618      0.0473      5.3430     93.8692     20.4256
  1107.2000      7.7680      2.5490      0.0438      6.1238     92.6640     20.5015
  1107.3000      7.7799      2.5483      0.0347      6.1637     94.4498     20.9213
  1107.4000      7.7799      2.5562      0.0312      5.6877    101.6747     22.1974
  1107.5000      7.8014      2.5629      0.0354      5.2790    113.4254     23.7371
  1107.6000      7.8014      2.5637      0.0659      5.2282    120.7082     24.3335
  1107.7000      7.8014      2.5548      0.0598      5.7675    117.4411     23.8609
  1107.8000      7.8167      2.5429      0.0109      6.4881    110.8176     23.2711
  1107.9000      7.8167      2.5434      0.0091      6.4583    111.3192     23.4662
  1108.0000      7.8281      2.5575      0.0384      5.6040    116.7783     24.5264
  1108.1000      7.8281      2.5711      0.0500      4.7836    119.5887     25.4703
  1108.2000      7.8281      2.5734      0.0475      4.6438    120.6623     25.4488
  1108.3000      7.8289      2.5715      0.0452      4.7587    122.8321     24.6318
  1108.4000      7.8289      2.5811      0.0447      4.1778    124.6561     23.7732
  1108.5000      7.8259      2.5963      0.1020      3.2565    125.6169     23.3905
  1108.6000      7.8259      2.6000      0.0715      3.0295    127.8442     23.5079
  1108.7000      7.8259      2.5903      0.0932      3.6190    135.2982     24.3450
  1108.8000      7.8002      2.5681      0.1030      4.9653    145.4567     25.5108
  1108.9000      7.8002      2.5475      0.0127      6.2092    148.3938     25.8880
  1109.0000      7.7970      2.5482      0.0493      6.1705    145.1443     25.6574
  1109.1000      7.7970      2.5556      0.0785      5.7238    144.2346     25.8395
  1109.2000      7.7970      2.5528      0.0131      5.8908    142.3273     25.8948
  1109.3000      7.7938      2.5499      0.0566      6.0680    135.1036     25.2621
  1109.4000      7.7938      2.5568      0.0070      5.6504    128.3732     24.9508
  1109.5000      7.7721      2.5718      0.0692      4.7365    125.6385     25.5306
  1109.6000      7.7721      2.5833      0.0765      4.0415    121.7810     26.3413
  1109.7000      7.7721      2.5852      0.0727      3.9257    115.5536     26.6485
  1109.8000      7.7691      2.5834      0.0813      4.0347    114.3386     26.2809
  1109.9000      7.7691      2.5819      0.0644      4.1264    118.0506     25.4957
  1110.0000      7.7896      2.5802      0.0325      4.2288    119.1394     24.7037
  1110.1000      7.7896      2.5797      0.0271      4.2610    115.5821     24.0853
  1110.2000      7.7896      2.5813      0.0623      4.1616    108.6243     23.8688
  1110.3000      7.8086      2.5824      0.0440      4.0951    103.5013     24.1108
  1110.4000      7.8086      2.5815      0.0593      4.1499    106.2774     24.3124
  1110.5000      7.8185      2.5782      0.0570      4.3488    112.1264     24.2032
  1110.6000      7.8185      2.5764      0.0729      4.4606    115.3211     24.0362
  1110.7000      7.8185      2.5791      0.1009      4.2989    120.0625     24.1073
  1110.8000      7.7991      2.5864      0.0797      3.8553    128.2272     24.2356
  1110.9000      7.7991      2.6018      0.0585      2.9215    132.7979     24.4365
  1111.0000      7.7885      2.6210      0.1057      1.7567    131.3852     24.8567
  1111.1000      7.7885      2.6321      0.0955      1.0836    127.8838     25.0227
  1111.2000      7.7885      2.6335      0.0935      0.9977    123.7352     25.0889
  1111.3000      7.7909      2.6320      0.0718      1.0911    118.9560     25.4574
  1111.4000      7.7909      2.6271      0.1022      1.3854    115.9170     25.7017
  1111.5000      7.8162      2.6091      0.1159      2.4774    118.0654     25.0041
  1111.6000      7.8162      2.5838      0.0599      4.0136    121.8167     23.5800
  1111.7000      7.8162      2.5746      0.0572      4.5674    119.4120     22.8815
