~Version Information
VERS.                      2.0: CWLS Log ASCII Standard - VERSION 2.0
WRAP.                       NO: One line per depth step
~Well Information Block
STRT.FT               550.0000: 
STOP.FT              1664.0000: 
STEP.FT                 0.2500: 
NULL.                -999.2500: 
COMP.          Pioneer Natural Resources: COMPANY
WELL.          Stock Canyon 34-33: WELL
FLD.           Purgatorie River: FIELD
LOC.           980' FSL & 2191' FEL: LOCATION
PROV.                 Colorado: PROVINCE
CNTY.               Las Animas: COUNTRY
SRVC.                Patterson: SERVICE COMPANY
DATE.          Mon Dec 05 09:58:03 2005: LOG DATE
UWI.                          : UNIQUE WELL ID
~Curve Information Block
DEPT.FT            0 000 00 00: Depth
SN.Ohm-m                      : IEL Short Normal
SP.mV                         : IEL Spontaneous Potential
DIR.Ohm-m                     : IEL Induction Resistivity
GR.GAPI                       : Gamma Ray
~Parameter Information Block
~A  Depth        SN          SP         DIR          GR     
# ...
  1320.5000     24.1111    323.7679     21.3863     33.2997
  1320.7500     24.5930    324.0701     22.0616     32.4727
  1321.0000     25.1332    324.2050     22.6958     31.8653
  1321.2500     25.7447    324.0727     23.3201     31.5128
  1321.5000     26.4422    323.6013     23.9624     30.7497
  1321.7500     27.2368    322.7665     24.6194     30.2312
  1322.0000     28.1299    321.5985     25.2602     29.9469
  1322.2500     29.1097    320.1694     25.8508     30.2454
  1322.5000     30.1519    318.5685     26.3735     31.1808
  1322.7500     31.2209    316.8851     26.8187     31.7680
  1323.0000     32.2720    315.2092     27.1593     32.0074
  1323.2500     33.2517    313.6379     27.3392     31.5426
  1323.5000     34.0972    312.2727     27.3018     29.6907
  1323.7500     34.7363    311.2112     27.0354     27.6315
  1324.0000     35.0907    310.5364     26.5803     23.8134
  1324.2500     35.0847    310.2999     25.9828     21.5237
  1324.5000     34.6583    310.4999     25.2506     19.6468
  1324.7500     33.7813    311.0762     24.3634     19.5097
  1325.0000     32.4659    311.9409     23.3231     20.2416
  1325.2500     30.7715    313.0201     22.1790     21.0471
  1325.5000     28.7980    314.2697     21.0042     23.0814
  1325.7500     26.6690    315.6529     19.8553     25.4741
  1326.0000     24.5086    317.1067     18.7564     31.1562
  1326.2500     22.4203    318.5279     17.7101     36.3195
  1326.5000     20.4762    319.7996     16.7142     45.9251
  1326.7500     18.7178    320.8404     15.7694     53.5732
  1327.0000     17.1650    321.6419     14.8793     66.7101
  1327.2500     15.8264    322.2592     14.0504     75.8100
  1327.5000     14.7057    322.7662     13.2930     87.4854
  1327.7500     13.8018    323.2163     12.6209     92.6648
  1328.0000     13.1051    323.6335     12.0462     96.3523
  1328.2500     12.5941    324.0257     11.5739     97.2435
  1328.5000     12.2345    324.4036     11.1985     98.6880
  1328.7500     11.9832    324.7918     10.9058    100.3560
  1329.0000     11.7947    325.2298     10.6776    102.9953
  1329.2500     11.6281    325.7560     10.4966    103.8030
  1329.5000     11.4500    326.3870     10.3481    102.8868
  1329.7500     11.2343    327.1077     10.2201    101.5060
  1330.0000     10.9613    327.8820     10.1016    100.0402
  1330.2500     10.6190    328.6713      9.9836     99.9243
  1330.5000     10.2089    329.4494      9.8610    100.3442
  1330.7500      9.7533    330.2061      9.7354    100.2303
  1331.0000      9.2984    330.9443      9.6149     98.5629
  1331.2500      8.9077    331.6716      9.5107     96.4958
  1331.5000      8.6450    332.3881      9.4334     92.8946
  1331.7500      8.5537    333.0758      9.3900     90.7258
  1332.0000      8.6401    333.6989      9.3826     87.9181
  1332.2500      8.8695    334.2184      9.4079     86.0180
  1332.5000      9.1776    334.6150      9.4567     83.2766
  1332.7500      9.4926    334.9022      9.5136     82.3739
  1333.0000      9.7570    335.1221      9.5596     83.9099
  1333.2500      9.9424    335.3287      9.5792     86.9029
  1333.5000     10.0495    335.5701      9.5665     93.0015
  1333.7500     10.0996    335.8764      9.5282     97.1622
  1334.0000     10.1204    336.2543      9.4796    102.1272
  1334.2500     10.1350    336.6863      9.4374    103.8805
  1334.5000     10.1566    337.1341      9.4159    103.6011
  1334.7500     10.1893    337.5441      9.4270    101.9182
  1335.0000     10.2321    337.8618      9.4808     98.9222
  1335.2500     10.2841    338.0514      9.5847     97.4205
  1335.5000     10.3469    338.1069      9.7397     96.0506
  1335.7500     10.4254    338.0484      9.9382     95.5075
  1336.0000     10.5263    337.9092     10.1644     95.4332
  1336.2500     10.6548    337.7233     10.3989     96.2215
  1336.5000     10.8120    337.5176     10.6245     98.6563
  1336.7500     10.9940    337.3079     10.8303    100.5390
  1337.0000     11.1917    337.1019     11.0131    102.4063
  1337.2500     11.3942    336.9084     11.1776    102.4740
  1337.5000     11.5926    336.7441     11.3353    100.6315
  1337.7500     11.7852    336.6346     11.5018     98.4312
  1338.0000     11.9790    336.6087     11.6933     94.8401
  1338.2500     12.1886    336.6916     11.9205     92.9911
  1338.5000     12.4310    336.8958     12.1844     91.4634
  1338.7500     12.7198    337.2136     12.4771     90.9049
  1339.0000     13.0603    337.6111     12.7895     90.1440
  1339.2500     13.4489    338.0308     13.1217     89.9898
  1339.5000     13.8758    338.4028     13.4862     91.5878
  1339.7500     14.3299    338.6648     13.9002     94.2517
  1340.0000     14.8039    338.7803     14.3714     99.9440
  1340.2500     15.2981    338.7427     14.8913    104.1104
  1340.5000     15.8234    338.5663     15.4436    109.8406
  1340.7500     16.4015    338.2734     16.0208    112.6389
  1341.0000     17.0657    337.8862     16.6332    113.8430
  1341.2500     17.8589    337.4210     17.2983    112.2482
  1341.5000     18.8278    336.8853     18.0157    107.6489
  1341.7500     20.0145    336.2838     18.7460    104.7448
  1342.0000     21.4434    335.6309     19.4057    102.3638
  1342.2500     23.1093    334.9582     19.8815    101.6568
  1342.5000     24.9710    334.3076     20.0579     99.9292
  1342.7500     26.9525    333.7165     19.8587     97.7353
  1343.0000     28.9540    333.2027     19.2960     93.3480
  1343.2500     30.8681    332.7597     18.4926     90.0172
  1343.5000     32.5976    332.3594     17.6494     84.2783
  1343.7500     34.0691    331.9615     16.9815     80.1322
  1344.0000     35.2413    331.5229     16.6883     75.1806
  1344.2500     36.1080    331.0099     16.9922     73.9268
  1344.5000     36.6950    330.4114     18.2640     75.2878
  1344.7500     37.0523    329.7423     21.3463     77.2063
  1345.0000     37.2414    329.0294     28.7496     79.4637
  1345.2500     37.3189    328.2869     52.6799     80.1692
  1345.5000     37.3220    327.5085   1193.2936     80.4893
  1345.7500     37.2615    326.6848 100000.0000     80.3589
  1346.0000     37.1244    325.8250 100000.0000     79.3196
  1346.2500     36.8845    324.9584 100000.0000     78.0086
  1346.5000     36.5139    324.1211 100000.0000     75.8094
  1346.7500     35.9911    323.3466 100000.0000     74.7265
  1347.0000     35.3020    322.6659 100000.0000     73.8656
  1347.2500     34.4403    322.1033 100000.0000     73.4022
  1347.5000     33.4088    321.6584 100000.0000     72.0965
  1347.7500     32.2232    321.2940 100000.0000     70.7974
  1348.0000     30.9157    320.9422 100000.0000     69.1895
  1348.2500     29.5332    320.5171 100000.0000     69.2197
  1348.5000     28.1294    319.9088    241.5793     71.9195
  1348.7500     26.7531    318.9759    125.7055     75.2899
  1349.0000     25.4386    317.5580    181.0306     81.0391
  1349.2500     24.2019    315.5067 100000.0000     84.2434
  1349.5000     23.0458    312.6988 100000.0000     87.5075
  1349.7500     21.9675    309.0147 100000.0000     89.2007
  1350.0000     20.9657    304.3041 100000.0000     92.1469
  1350.2500     20.0409    298.3691 100000.0000     94.3915
  1350.5000     19.1891    290.9630 100000.0000     97.2875
  1350.7500     18.3939    281.7697 100000.0000     98.5236
  1351.0000     17.6209    270.3539 100000.0000     99.2571
  1351.2500     16.8200    256.1031 100000.0000     98.9978
  1351.5000     15.9333    238.1888 100000.0000     97.6623
  1351.7500     14.9083    215.5694      3.3610     96.6793
  1352.0000     13.7099    187.0443      1.3495     96.3905
  1352.2500     12.3308    151.3476      0.7798     97.3066
  1352.5000     10.7971    107.2685      0.5404     99.4953
  1352.7500      9.1677     53.8739      0.4335    100.6445
  1353.0000      7.5262     -9.0193      0.4061    101.3173
  1353.2500      5.9658    -80.0569      0.4498    101.5160
  1353.5000      4.5704   -155.4872      0.5876    102.3895
  1353.7500      3.3992   -228.9545      0.8912    103.1923
