~Version Information
VERS.                      2.0: CWLS Log ASCII Standard - VERSION 2.0
WRAP.                       NO: One line per depth step
~Well Information Block
STRT.FT               310.0000: 
STOP.FT              2295.5000: 
STEP.FT                 0.1000: 
NULL.                -999.2500: 
COMP.          Pioneer Natural Resources: COMPANY
WELL.               Relay 12-7: WELL
FLD.           Purgatoire River: FIELD
LOC.           1999' FNL & 848' FWL: LOCATION
PROV.                 Colorado: PROVINCE
CNTY.               Las Animas: COUNTRY
SRVC.                Patterson: SERVICE COMPANY
DATE.          Mon Dec 19 07:37:11 2005: LOG DATE
UWI.           05 071 08453 00: UNIQUE WELL ID
~Curve Information Block
DEPT.FT            0 000 00 00: Depth
DCAL.in                       : CDL Caliper
RHOB.g/cc                     : CDL Bulk Density
RHOC.g/cc                     : CDL Density Correction
DPOR.pu                       : CDL Density Porosity
GR.GAPI                       : Gamma Ray
NPOR.pu                       : Neutron Porosity
~Parameter Information Block
~A  Depth       DCAL        RHOB        RHOC        DPOR         GR         NPOR    
# ...
  1490.8000      8.0078      2.4002      0.0872     15.1370    170.7234     29.9067
  1490.9000      8.0078      2.3881      0.0664     15.8729    167.2830     29.6048
  1491.0000      8.0025      2.3871      0.0845     15.9360    160.4086     29.4433
  1491.1000      8.0025      2.3933      0.0897     15.5579    154.1226     29.5925
  1491.2000      8.0025      2.4089      0.0831     14.6106    153.4122     29.7899
  1491.3000      7.9809      2.4425      0.0778     12.5738    154.0697     29.8478
  1491.4000      7.9809      2.4850      0.2085     10.0017    146.1942     29.7325
  1491.5000      8.0288      2.5180      0.1958      8.0026    134.6310     29.1224
  1491.6000      8.0288      2.5364      0.2100      6.8844    129.4910     28.2989
  1491.7000      8.0288      2.5425      0.2222      6.5164    130.1825     28.0186
  1491.8000      8.1598      2.5463      0.1629      6.2867    134.4545     28.1206
  1491.9000      8.1598      2.5610      0.1634      5.3926    139.3548     28.1124
  1492.0000      8.0468      2.5908      0.1175      3.5888    141.6030     27.8358
  1492.1000      8.0468      2.6215      0.1445      1.7276    139.5867     26.7527
  1492.2000      8.0468      2.6258      0.1837      1.4677    132.3694     25.3407
  1492.3000      7.9900      2.6095      0.0511      2.4543    121.2790     25.0072
  1492.4000      7.9900      2.6077      0.0518      2.5655    109.0113     25.4729
  1492.5000      7.9785      2.6152      0.1211      2.1099    103.0748     25.7979
  1492.6000      7.9785      2.5960      0.1268      3.2701    107.6663     26.0121
  1492.7000      7.9785      2.5454      0.0741      6.3410    111.7951     26.3611
  1492.8000      7.9792      2.4919      0.0380      9.5801    107.9931     26.0895
  1492.9000      7.9792      2.4590     -0.0117     11.5764    106.9226     24.9184
  1493.0000      7.9510      2.4538     -0.0060     11.8911    113.6097     24.5226
  1493.1000      7.9510      2.4757     -0.0634     10.5634    119.2570     25.5379
  1493.2000      7.9510      2.5049      0.0627      8.7949    121.7164     26.7375
  1493.3000      7.9882      2.5084      0.0698      8.5793    126.7835     27.2884
  1493.4000      7.9882      2.4965     -0.0109      9.3005    135.1021     26.9565
  1493.5000      8.0655      2.5046      0.0426      8.8107    137.7173     26.2133
  1493.6000      8.0655      2.5227      0.0799      7.7159    128.2475     25.7732
  1493.7000      8.0655      2.5248      0.0646      7.5868    115.0751     25.7090
  1493.8000      8.0704      2.5203      0.0688      7.8613    106.2894     25.9649
  1493.9000      8.0704      2.5245      0.0292      7.6081     99.6276     26.4001
  1494.0000      8.0063      2.5300      0.0581      7.2723     94.9608     26.5722
  1494.1000      8.0063      2.5323      0.0380      7.1362     93.0850     25.9348
  1494.2000      8.0063      2.5375      0.0507      6.8165     90.1898     24.8522
  1494.3000      7.9824      2.5381      0.0800      6.7820     85.3345     24.2025
  1494.4000      7.9824      2.5286      0.0887      7.3602     81.9843     24.0400
  1494.5000      7.9089      2.5239      0.0535      7.6448     79.4892     23.9276
  1494.6000      7.9089      2.5346      0.0608      6.9915     75.2430     23.6431
  1494.7000      7.9089      2.5604      0.0697      5.4313     72.6851     23.6746
  1494.8000      7.8863      2.5976      0.0838      3.1756     72.5454     24.3400
  1494.9000      7.8863      2.6321      0.0877      1.0861     69.8524     24.7156
  1495.0000      7.8822      2.6530      0.0632     -0.1836     64.9795     23.9054
  1495.1000      7.8822      2.6686      0.0255     -1.1276     63.3560     22.4509
  1495.2000      7.8822      2.6894      0.0697     -2.3893     68.1217     21.4428
  1495.3000      7.9360      2.7055      0.0703     -3.3649     74.1567     21.2009
  1495.4000      7.9360      2.6997      0.0373     -3.0115     75.1666     21.4409
  1495.5000      8.0085      2.6822     -0.0302     -1.9525     74.9689     21.7213
  1495.6000      8.0085      2.6768     -0.0300     -1.6213     78.7648     21.9365
  1495.7000      8.0085      2.6782      0.0044     -1.7080     83.1023     22.3166
  1495.8000      7.9759      2.6703      0.0098     -1.2302     83.7055     22.5570
  1495.9000      7.9759      2.6542      0.0151     -0.2575     82.8064     22.2411
  1496.0000      7.9634      2.6264      0.0724      1.4297     82.8047     21.6962
  1496.1000      7.9634      2.5857      0.0297      3.8969     86.2477     21.5415
  1496.2000      7.9634      2.5532     -0.0048      5.8643     92.4886     21.7324
  1496.3000      7.9640      2.5471      0.0235      6.2337     94.4542     22.1065
  1496.4000      7.9640      2.5605      0.0434      5.4266     91.7066     22.8247
  1496.5000      7.9912      2.5693      0.0837      4.8932     90.7297     23.9163
  1496.6000      7.9912      2.5598      0.0395      5.4664     91.2862     25.0494
  1496.7000      7.9912      2.5433      0.0092      6.4661     90.5681     25.4658
  1496.8000      8.0106      2.5302     -0.0003      7.2617     90.9120     25.0171
  1496.9000      8.0106      2.5156      0.0298      8.1457     93.7565     24.5719
  1497.0000      8.0113      2.5037     -0.0603      8.8638     96.3583     24.6433
  1497.1000      8.0113      2.5046     -0.0174      8.8108     97.0252     25.0641
  1497.2000      8.0113      2.5096      0.0081      8.5116     98.7369     25.5336
  1497.3000      8.0084      2.5146     -0.0066      8.2040    104.0323     25.2035
  1497.4000      8.0084      2.5302      0.0298      7.2602    113.0108     24.0517
  1497.5000      7.9922      2.5481      0.0376      6.1771    124.9827     23.8224
  1497.6000      7.9922      2.5501      0.0016      6.0549    135.7717     25.3683
  1497.7000      7.9922      2.5390      0.0235      6.7277    139.6043     26.8369
  1497.8000      7.9940      2.5258      0.0523      7.5298    136.9981     26.4900
  1497.9000      7.9940      2.5135      0.0305      8.2724    136.2399     25.5095
  1498.0000      7.9967      2.5046      0.0322      8.8130    143.2381     24.9962
  1498.1000      7.9967      2.5050      0.0179      8.7900    153.7408     24.8539
  1498.2000      7.9967      2.5127      0.0432      8.3217    161.4954     25.6258
  1498.3000      7.9938      2.5136      0.0336      8.2689    165.9941     27.1710
  1498.4000      7.9938      2.4983      0.0146      9.1960    165.9202     28.2127
  1498.5000      7.9849      2.4705     -0.0068     10.8780    161.0462     28.2192
  1498.6000      7.9849      2.4372      0.0253     12.8948    158.0271     27.7093
  1498.7000      7.9849      2.4006     -0.0065     15.1175    159.9558     27.5327
  1498.8000      8.0214      2.3691     -0.0361     17.0220    162.7322     27.8711
  1498.9000      8.0214      2.3548      0.0215     17.8912    161.1093     28.1211
  1499.0000      8.0458      2.3584      0.0093     17.6722    153.8008     28.4606
  1499.1000      8.0458      2.3703      0.0560     16.9529    146.4499     29.4909
  1499.2000      8.0458      2.3751      0.0135     16.6619    144.6589     30.4892
  1499.3000      8.1805      2.3649      0.0020     17.2759    148.7460     30.6779
  1499.4000      8.1805      2.3506     -0.0082     18.1453    153.6076     30.2760
  1499.5000      8.2093      2.3508     -0.0023     18.1361    153.9994     30.0482
  1499.6000      8.2093      2.3646      0.0646     17.2943    149.4123     30.2351
  1499.7000      8.2093      2.3755      0.1001     16.6373    143.6469     30.4419
  1499.8000      8.1216      2.3866      0.1235     15.9664    139.1260     30.3660
  1499.9000      8.1216      2.4186      0.1569     14.0262    136.2950     29.8206
  1500.0000      8.0273      2.4807      0.1760     10.2611    136.1415     28.9637
  1500.1000      8.0273      2.5617      0.2024      5.3541    136.6509     28.0298
  1500.2000      8.0273      2.6341      0.2676      0.9664    133.9539     27.5728
  1500.3000      7.9820      2.6702      0.3199     -1.2261    128.5897     28.0375
