~Version Information
VERS.                      2.0: CWLS Log ASCII Standard - VERSION 2.0
WRAP.                       NO: One line per depth step
~Well Information Block
STRT.FT                 0.0000: 
STOP.FT               988.7500: 
STEP.FT                 0.2500: 
NULL.                -999.2500: 
COMP.          Pioneer Natural Resources: COMPANY
WELL.             Quartz 13-22: WELL
FLD.           Purgatoire River: FIELD
LOC.           1933' FSL & 675' FWL --------: LOCATION
PROV.                 Colorado: PROVINCE
CNTY.               Las Animas: COUNTRY
SRVC.                         : SERVICE COMPANY
DATE.          Thu Dec 22 09:29:32 2005: LOG DATE
UWI.                          : UNIQUE WELL ID
~Curve Information Block
DEPT.FT            0 000 00 00: Depth
CCL.                          : Casing Collar Locator
TT3.usec                      : CBL 3' Travel Time
AMP3.mV                       : CBL 3' Amplitude
AMP5.mV                       : CBL 5' Amplitude
GR.GAPI                       : Gamma Ray
~Parameter Information Block
~A  Depth       CCL         TT3         AMP3        AMP5         GR     
     0.0000   -999.2500    987.0000     -1.2451      1.3682     34.6942
     0.2500   -999.2500    987.0000     -1.2374      1.3830     33.2471
     0.5000      0.0000    987.0000     -1.2308      1.2989     31.3276
     0.7500      0.0000    987.0000     -1.2302      1.2595     30.5617
     1.0000      0.0000    987.0000     -1.2489      1.3033     31.9212
     1.2500      0.0000    987.0000     -1.2928      1.4045     35.1715
     1.5000      0.0000    987.0000     -1.3513      1.5071     39.3798
     1.7500      0.0000    987.0000     -1.4031      1.5588     43.7652
     2.0000      0.0000    987.0000     -1.4313      1.5302     47.8612
     2.2500      0.0000    986.9512     -1.4267      1.4279     51.1900
     2.5000      0.0000    986.6331     -1.3679      1.3018     53.3722
     2.7500      0.0000    985.0176     -1.1379      1.2247     54.6632
     3.0000      0.0000    978.6294     -0.3271      1.2458     55.9568
     3.2500      0.0000    958.9561      2.0748      1.3795     57.8654
     3.5000      0.0000    911.7744      7.7739      1.6953     59.8742
     3.7500      0.0000    823.6559     18.4294      2.4911     60.8041
     4.0000      0.0000    695.4982     34.0234      4.3974     60.2140
     4.2500      0.0000    550.3599     51.7631      8.1422     59.0269
     4.5000      0.0000    422.3927     67.1784     13.8737     58.6498
     4.7500      0.0000    334.6388     76.8098     20.5438     59.7332
     5.0000      0.0000    288.1234     79.9304     26.2036     61.8708
     5.2500      0.0000    269.8823     78.0111     29.2450     64.2112
     5.5000      0.0000    266.5027     73.1089     29.4273     66.1822
     5.7500      0.0000    270.2473     66.7871     27.7000     67.7224
     6.0000      0.0000    277.6925     59.9557     25.2138     68.9420
     6.2500      0.0000    287.1107     53.1343     22.6006     69.6707
     6.5000      0.0000    298.4418     46.6460     19.9707     69.4736
     6.7500      0.0000    315.4185     40.6532     17.2771     68.1730
     7.0000      0.0000    346.4268     35.1833     14.5821     66.2199
     7.2500      0.0000    400.1527     30.2317     12.0749     64.4236
     7.5000      0.0000    476.8260     25.8407      9.9499     63.3505
     7.7500      0.0000    563.2291     22.0935      8.3010     62.9776
     8.0000      0.0000    639.2911     19.0651      7.0903     62.7823
     8.2500      0.0000    691.4073     16.7740      6.1703     62.1050
     8.5000      0.0000    719.0793     15.1487      5.3590     60.5498
     8.7500      0.0000    730.2858     14.0355      4.5622     58.2526
     9.0000      0.0000    733.4153     13.2622      3.8414     55.8439
     9.2500      0.0000    733.3320     12.7054      3.3191     54.0874
     9.5000      0.0000    731.8373     12.3014      3.0142     53.5093
     9.7500      0.0000    729.5440     12.0150      2.8247     54.3364
    10.0000      0.0000    727.1879     11.8167      2.6721     56.4682
    10.2500      0.0000    725.5571     11.6842      2.5821     59.1921
    10.5000      0.0000    724.1230     11.6079      2.5832     61.1023
    10.7500      0.0000    719.6757     11.5814      2.5995     60.7395
    11.0000      0.0000    706.8394     11.5898      2.5123     57.6530
    11.2500      0.0000    681.8364     11.6116      2.2934     52.9764
    11.5000      0.0000    648.3380     11.6241      2.0242     48.7429
    11.7500      0.0000    619.9022     11.5833      1.8030     46.4133
    12.0000      0.0000    613.3707     11.3950      1.6698     46.0781
    12.2500      0.0000    636.5889     10.9497      1.6037     46.9962
    12.5000      0.0000    682.6189     10.2297      1.5579     48.5605
    12.7500      0.0000    736.8108      9.3772      1.5041     50.5517
    13.0000      0.0000    787.9551      8.6300      1.4501     52.6698
    13.2500      0.0000    830.9990      8.1813      1.4118     54.2002
    13.5000      0.0000    862.5524      8.0825      1.3791     54.3858
    13.7500      0.0000    879.9846      8.2428      1.3265     53.1183
    14.0000      0.0000    885.6495      8.5042      1.2501     51.0886
    14.2500     -2.0000    887.2748      8.7396      1.1698     49.2175
    14.5000      0.0000    891.8940      8.9113      1.0994     47.9776
    14.7500      0.0000    900.4766      9.0867      1.0382     47.1558
    15.0000      0.0000    907.7801      9.4284      0.9977     46.1168
    15.2500      0.0000    905.9880     10.1120      1.0171     44.4174
    15.5000      0.0000    889.7467     11.1484      1.1351     42.3706
    15.7500      0.0000    860.0283     12.2694      1.3369     41.0054
    16.0000      0.0000    824.3370     13.0907      1.5415     41.3935
    16.2500      0.0000    792.8418     13.4241      1.6698     43.9589
    16.5000      0.0000    773.4123     13.3823      1.7228     48.1262
    16.7500      0.0000    769.1864     13.2016      1.7643     52.3175
    17.0000      0.0000    779.0182     13.0480      1.8415     54.6425
    17.2500      0.0000    798.5618     12.9823      1.9575     54.3731
    17.5000      0.0000    821.9308     13.0152      2.1072     52.9430
    17.7500      0.0000    844.5267     13.1436      2.2848     52.9253
    18.0000      0.0000    864.6031     13.3532      2.4542     55.6900
    18.2500      0.0000    882.0278     13.6142      2.5627     60.2830
    18.5000      0.0000    896.8328     13.8774      2.6157     64.5523
    18.7500      0.0000    909.1877     14.0848      2.7145     66.8738
    19.0000      0.0000    919.3276     14.2007      2.9844     66.7964
    19.2500      0.0000    927.2550     14.2345      3.4513     64.8143
    19.5000      0.0000    932.7107     14.2235      3.9892     61.9843
    19.7500      0.0000    934.3469     14.1910      4.3891     59.4012
    20.0000      0.0000    928.7556     14.1292      4.4981     57.7019
    20.2500      0.0000    912.8276     14.0245      4.3208     57.1044
    20.5000      0.0000    888.8426     13.8886      4.0050     57.7702
    20.7500      0.0000    865.0212     13.7522      3.7240     59.7638
    21.0000      0.0000    848.4317     13.6235      3.5629     62.7155
    21.2500      0.0000    838.2012     13.4568      3.5043     65.8457
    21.5000      0.0000    827.9127     13.1783      3.4930     68.4131
    21.7500      0.0000    813.8168     12.7591      3.4811     70.1284
    22.0000      0.0000    798.2707     12.2645      3.4343     71.1632
    22.2500      0.0000    785.7631     11.8153      3.3349     71.8035
    22.5000      0.0000    778.2587     11.4963      3.1911     72.2216
    22.7500      0.0000    774.7559     11.3084      3.0378     72.6000
    23.0000      0.0000    773.3674     11.2004      2.9224     73.1003
    23.2500      0.0000    772.7828     11.1264      2.8709     73.3687
    23.5000      0.0000    772.4518     11.0721      2.8686     72.4422
    23.7500      0.0000    772.2571     11.0433      2.8765     69.7567
    24.0000      0.0000    772.2086     11.0432      2.8670     66.0122
    24.2500      0.0000    772.2890     11.0643      2.8462     62.4431
    24.5000      0.0000    772.4270     11.1049      2.8467     59.4815
    24.7500      0.0000    772.5299     11.1847      2.8927     56.7478
    25.0000      0.0000    772.5331     11.3238      2.9769     54.2136
    25.2500      0.0000    772.4343     11.5037      3.0684     52.6304
    25.5000      0.0000    772.2920     11.6683      3.1261     52.4564
    25.7500      0.0000    772.1870     11.7737      3.1182     52.8254
    26.0000      0.0000    772.1720     11.8178      3.0607     52.2208
    26.2500      0.0000    772.2380     11.8225      3.0159     50.1022
    26.5000      0.0000    772.3116     11.8133      3.0203     47.3527
    26.7500      0.0000    772.2657     11.8182      3.0383     45.1618
    27.0000      0.0000    771.9280     11.8580      3.0170     44.0145
    27.2500      0.0000    771.0580     11.9266      2.9451     43.9101
    27.5000      0.0000    769.4122     11.9919      2.8383     44.9763
    27.7500      0.0000    767.0818     12.0176      2.7145     47.2355
