~Version Information
VERS.                      2.0: CWLS Log ASCII Standard - VERSION 2.0
WRAP.                       NO: One line per depth step
~Well Information Block
STRT.FT               645.0000: 
STOP.FT              2131.0000: 
STEP.FT                 0.1000: 
NULL.                -999.2500: 
COMP.          Pioneer Natural Resources: COMPANY
WELL.          Gunslinger 13-24: WELL
FLD.           Purgatoire River: FIELD
LOC.           1968' FSL & 633' FWL: LOCATION
PROV.                 Colorado: PROVINCE
CNTY.               Las Animas: COUNTRY
SRVC.                Patterson: SERVICE COMPANY
DATE.          Sat Jul 30 08:07:53 2005: LOG DATE
UWI.           05 071 08442 00: UNIQUE WELL ID
~Curve Information Block
DEPT.FT            0 000 00 00: Depth
DCAL.in                       : CDL Caliper
RHOB.g/cc                     : CDL Bulk Density
RHOC.g/cc                     : CDL Density Correction
DPOR.pu                       : CDL Density Porosity
GR.GAPI                       : Gamma Ray
NPOR.pu                       : Neutron Porosity
~Parameter Information Block
~A  Depth       DCAL        RHOB        RHOC        DPOR         GR         NPOR    
# ...
  1528.2000      7.9824      2.6190      0.0627      1.8798    140.2016     22.5690
  1528.3000      7.9689      2.6342      0.1076      0.9604    134.8845     22.4658
  1528.4000      7.9689      2.6307      0.0510      1.1722    129.8820     22.0144
  1528.5000      7.9485      2.6240      0.0325      1.5776    121.6640     21.5048
  1528.6000      7.9485      2.6270      0.0424      1.3950    110.1958     20.5120
  1528.7000      7.9485      2.6299      0.0457      1.2193    100.5318     18.8394
  1528.8000      7.9671      2.6246     -0.0444      1.5419     94.0278     17.5615
  1528.9000      7.9671      2.6192     -0.0124      1.8683     89.0063     17.2216
  1529.0000      7.9641      2.6203      0.0129      1.8017     84.0977     17.3770
  1529.1000      7.9641      2.6173      0.0574      1.9815     78.9036     17.5337
  1529.2000      7.9641      2.6046      0.0050      2.7506     74.6290     17.4267
  1529.3000      7.9404      2.5945      0.0145      3.3631     69.9652     17.4319
  1529.4000      7.9404      2.5822      0.0201      4.1080     63.0452     17.8940
  1529.5000      7.9138      2.5587     -0.0370      5.5335     56.7154     18.3741
  1529.6000      7.9138      2.5492     -0.0750      6.1093     56.6959     18.3410
  1529.7000      7.9138      2.5705      0.0461      4.8162     64.1374     17.7689
  1529.8000      7.9280      2.5931      0.0608      3.4499     73.2747     17.2475
  1529.9000      7.9280      2.5876      0.0318      3.7811     77.3045     17.5226
  1530.0000      7.9337      2.5626     -0.0281      5.2966     75.3008     18.4050
  1530.1000      7.9337      2.5403     -0.0180      6.6467     72.1838     19.2102
  1530.2000      7.9337      2.5250      0.0398      7.5736     71.4127     19.9575
  1530.3000      7.9367      2.5154     -0.0302      8.1565     73.6526     21.0732
  1530.4000      7.9367      2.5168     -0.0174      8.0739     79.0654     22.4137
  1530.5000      7.9268      2.5189      0.0212      7.9449     86.3178     23.2064
  1530.6000      7.9268      2.5146      0.0038      8.2063     92.8843     23.3109
  1530.7000      7.9268      2.5184     -0.0049      7.9774     96.5852     23.5090
  1530.8000      7.9114      2.5357      0.0137      6.9258     99.5250     23.8662
  1530.9000      7.9114      2.5528      0.0511      5.8888    107.5879     23.7874
  1531.0000      7.9324      2.5609      0.0483      5.3978    121.9956     23.3241
  1531.1000      7.9324      2.5708      0.0578      4.7989    137.1023     23.0650
  1531.2000      7.9324      2.5872      0.0887      3.8052    146.2631     23.5067
  1531.3000      7.9228      2.5987      0.0634      3.1094    149.5137     24.5676
  1531.4000      7.9228      2.6040      0.0742      2.7858    150.9101     25.5820
  1531.5000      7.9268      2.6092      0.0965      2.4708    151.3225     25.9113
  1531.6000      7.9268      2.6084      0.0872      2.5218    150.5087     25.4216
  1531.7000      7.9268      2.5939      0.0841      3.3991    148.0260     24.5456
  1531.8000      7.9411      2.5701      0.0383      4.8446    145.7203     24.1109
  1531.9000      7.9411      2.5446      0.0241      6.3854    150.0902     24.7591
  1532.0000      7.9605      2.5219     -0.0013      7.7663    158.0822     26.1376
  1532.1000      7.9605      2.5129     -0.0355      8.3118    156.3944     26.8567
  1532.2000      7.9605      2.5178      0.0645      8.0127    147.3822     26.4352
  1532.3000      7.9913      2.5223      0.0004      7.7374    146.2260     25.5020
  1532.4000      7.9913      2.5290      0.0212      7.3319    152.8205     24.7405
  1532.5000      8.0322      2.5360      0.0635      6.9102    159.7685     25.1291
  1532.6000      8.0322      2.5263      0.0495      7.4971    167.3781     26.9084
  1532.7000      8.0322      2.5029      0.0135      8.9125    172.2691     28.8794
  1532.8000      8.0493      2.4885      0.0158      9.7898    169.8317     29.7740
  1532.9000      8.0493      2.4920      0.0228      9.5733    164.2429     29.3632
  1533.0000      8.0570      2.5013      0.0432      9.0134    159.5987     27.8432
  1533.1000      8.0570      2.5031      0.0394      8.9042    159.4027     26.2109
  1533.2000      8.0570      2.4961      0.0136      9.3244    162.5688     25.6243
  1533.3000      8.0470      2.4861      0.0353      9.9351    162.5228     26.1496
  1533.4000      8.0470      2.4852      0.0127      9.9867    160.7873     27.1108
  1533.5000      8.0384      2.5007      0.0174      9.0498    164.8157     27.5550
  1533.6000      8.0384      2.5196      0.0129      7.9042    175.5666     27.6997
  1533.7000      8.0384      2.5287      0.0330      7.3537    183.2029     28.0341
  1533.8000      8.0246      2.5303      0.0517      7.2522    179.1726     28.1519
  1533.9000      8.0246      2.5276      0.0860      7.4184    169.2579     28.0956
  1534.0000      8.0353      2.5239      0.0736      7.6454    164.4626     28.1959
  1534.1000      8.0353      2.5346      0.0612      6.9941    165.1692     28.0238
  1534.2000      8.0353      2.5628      0.1033      5.2866    165.0674     27.3488
  1534.3000      8.0529      2.5901      0.1133      3.6283    164.7137     26.9629
  1534.4000      8.0529      2.6042      0.1137      2.7783    168.5846     27.1972
  1534.5000      8.0462      2.5972      0.1226      3.2001    170.3004     27.4700
  1534.6000      8.0462      2.5743      0.0558      4.5882    165.3970     27.5399
  1534.7000      8.0462      2.5579      0.0720      5.5790    163.2052     27.4617
  1534.8000      8.0417      2.5547      0.0848      5.7735    164.2033     27.3739
  1534.9000      8.0417      2.5583      0.0295      5.5594    159.1977     27.2526
  1535.0000      8.0448      2.5708      0.0265      4.8009    153.3073     26.8996
  1535.1000      8.0448      2.5914      0.0453      3.5516    156.1933     26.4613
  1535.2000      8.0448      2.6068      0.0683      2.6208    160.4324     26.1211
  1535.3000      8.0273      2.6140      0.0330      2.1806    155.5937     25.7530
  1535.4000      8.0273      2.6259      0.0567      1.4595    143.6693     25.1444
  1535.5000      8.0226      2.6433      0.0763      0.4038    133.0696     24.4009
  1535.6000      8.0226      2.6568      0.0960     -0.4122    128.9238     23.9785
  1535.7000      8.0226      2.6671      0.0704     -1.0374    129.1420     23.6091
  1535.8000      7.9952      2.6731      0.1208     -1.4029    129.7718     23.0352
  1535.9000      7.9952      2.6559      0.1094     -0.3561    130.8283     23.0633
  1536.0000      7.9386      2.6136      0.0316      2.2057    131.4823     23.6628
  1536.1000      7.9386      2.5821     -0.0008      4.1125    128.4023     23.7516
  1536.2000      7.9386      2.5835      0.0329      4.0327    123.3610     23.1851
  1536.3000      7.9318      2.5945      0.0515      3.3621    120.1346     22.8699
  1536.4000      7.9318      2.5814      0.0595      4.1568    120.2057     23.5444
  1536.5000      7.9563      2.5385     -0.0058      6.7589    122.3925     24.8928
  1536.6000      7.9563      2.4993      0.0060      9.1324    126.3608     26.0325
  1536.7000      7.9563      2.4969      0.0384      9.2761    132.9554     26.8441
  1536.8000      7.9623      2.5219      0.1017      7.7607    140.0983     27.6545
  1536.9000      7.9623      2.5464      0.0917      6.2782    148.2959     28.3777
  1537.0000      7.9264      2.5619      0.0622      5.3408    157.2720     28.8798
  1537.1000      7.9264      2.5676      0.0970      4.9951    163.9265     29.5155
  1537.2000      7.9264      2.5559      0.1052      5.7045    168.8482     30.1934
  1537.3000      7.9145      2.5307      0.0326      7.2312    173.5906     30.0085
  1537.4000      7.9145      2.5076      0.0088      8.6328    177.6078     29.0046
  1537.5000      7.9652      2.4911     -0.0002      9.6322    179.7239     28.2770
  1537.6000      7.9652      2.4802      0.0278     10.2912    179.7524     27.8974
  1537.7000      7.9652      2.4808      0.0085     10.2516    174.4858     27.5513
