~Version Information
 VERS.                                  2.0 : CWLS LAS VERSION
 WRAP.                                   NO : WRAPING MODE
 SWARE .                 MController 2.5.0J : SOFTWARE VERSION
~Well Information
 WELL.                     Galloway 32-13Tr : WELL
 COMP.    Pioneer Natural Resources USA Inc : COMPANY
 FLD.                      Purgatoire River : FIELD
 LOC.                  SW/NE SEC13 32S R66W : LOCATION
 DATE.                             11/12/05 : DATE(S) LOGGED
 SRVC.       Blanco Geological Services LLC : SERVICE COMPANY
 STAT.                             Colorado : STATE
 CNTY.                           Las Animas : COUNTY
 CTRY.                                  USA : COUNTRY
 API.                       05-071-08608-00 : API NUMBER
 STRT.FT                             530.00 : START DEPTH
 STOP.FT                            1619.00 : STOP DEPTH
 STEP.FT                               1.00 : DEPTH INCREMENT
 NULL.                                -9999 : NULL VALUE
~Curve information
 DEPTH.FT                                   :
 ROP.MIN/FT                                 :
 GAS.UNITS                                  :
~ASCII Log data
       530.0     -9999.00          4.6 
       531.0         0.20          4.6 
       532.0         1.85          5.0 
       533.0         0.47          4.5 
       534.0         0.77          4.9 
       535.0         1.07          4.7 
       536.0         0.20          4.7 
       537.0         1.18          4.9 
       538.0         0.13          4.9 
       539.0         1.57          5.4 
       540.0         1.35          4.8 
       541.0         0.90          5.2 
       542.0         0.13          4.8 
       543.0         0.27          4.5 
       544.0         0.67          5.2 
       545.0         0.93          5.0 
       546.0         0.42          4.4 
       547.0         0.20          4.4 
       548.0         2.27          6.2 
       549.0         0.17          3.2 
       550.0         0.13          3.2 
       551.0         1.08          4.4 
       552.0         1.13          3.6 
       553.0         0.20          3.5 
       554.0         1.10          4.1 
       555.0         1.02          5.2 
       556.0         0.20          4.5 
       557.0         0.17          4.6 
       558.0         0.60          5.0 
       559.0         0.37          5.1 
       560.0         0.17          5.1 
       561.0         0.20          5.1 
       562.0         6.97          6.8 
       563.0         0.13          6.2 
       564.0         0.10          6.5 
       565.0         0.10          6.5 
       566.0         0.55          6.6 
       567.0         0.10          7.0 
       568.0         1.00          7.3 
       569.0         0.43          7.4 
       570.0         0.10          6.6 
       571.0         0.10          6.6 
       572.0         0.10          6.6 
       573.0         0.20          6.7 
       574.0         0.10          6.6 
       575.0         0.10          6.5 
       576.0         0.10          6.6 
       577.0         0.13          6.7 
       578.0         0.13          6.6 
       579.0         0.13          6.6 
       580.0         0.20          6.5 
       581.0         0.28          7.6 
       582.0         0.13          7.5 
       583.0         0.13          6.5 
       584.0         0.13          7.0 
       585.0         0.13          7.0 
       586.0         0.13          7.1 
       587.0         0.13          7.6 
       588.0         0.13          7.6 
       589.0         0.13          7.3 
       590.0         0.13          7.3 
       591.0         0.13          7.1 
       592.0         0.10          7.1 
       593.0         0.23          6.9 
       594.0         0.23          7.0 
       595.0         0.10          6.8 
       596.0         1.20        121.6 
       597.0         0.12         13.6 
       598.0         0.10         13.6 
       599.0         0.67          9.8 
       600.0         0.20          5.8 
       601.0         0.17          5.5 
       602.0         0.13          5.5 
       603.0         0.17          5.5 
       604.0         0.13          5.3 
       605.0         0.13          5.7 
       606.0         0.23          5.5 
       607.0         0.13          5.6 
       608.0         0.13          6.6 
       609.0         0.13          6.7 
       610.0         0.13          5.8 
       611.0         0.13          6.1 
       612.0         0.13          6.7 
       613.0         0.13          6.7 
       614.0         0.17          6.6 
       615.0         0.13          6.6 
       616.0         0.15          6.0 
       617.0         0.13          6.0 
       618.0         0.13          6.4 
       619.0         0.13          6.4 
       620.0         0.13          6.2 
       621.0         0.13          6.2 
       622.0         0.27          6.2 
       623.0         0.53          7.2 
       624.0         0.27          6.6 
       625.0         0.93          7.0 
       626.0         2.18          7.7 
       627.0         0.13          7.2 
       628.0         0.17          7.2 
       629.0         0.13          8.1 
       630.0         0.17          8.1 
       631.0         0.13          8.2 
       632.0         0.23          8.1 
       633.0         0.20          7.4 
       634.0         0.78          8.5 
       635.0         0.27          8.0 
       636.0         0.20          7.8 
       637.0         0.13          8.1 
       638.0         0.30          8.2 
       639.0         0.23          8.1 
       640.0         0.23          8.9 
       641.0         0.23          8.0 
       642.0         0.23          8.0 
       643.0         0.20          8.1 
       644.0         0.23          8.8 
       645.0         0.23          8.9 
       646.0         0.23          8.0 
       647.0         0.23          8.4 
       648.0         0.25          9.0 
       649.0         0.20          9.0 
       650.0         0.13          8.9 
       651.0         0.13          9.2 
       652.0         0.13          9.2 
       653.0         0.40          9.3 
       654.0         0.27          8.6 
       655.0         0.27          9.7 
       656.0         0.70         10.8 
       657.0         0.27         10.4 
       658.0         0.23         10.2 
       659.0         0.23          9.3 
       660.0         0.22          9.1 
       661.0         0.20          9.0 
       662.0         0.20          9.1 
       663.0         0.23          9.0 
       664.0         0.30          9.1 
       665.0         0.23          9.1 
       666.0         0.20          9.0 
       667.0         0.20          9.1 
       668.0         0.23          9.3 
       669.0         0.23          9.5 
       670.0         0.23          9.3 
       671.0         0.27          9.5 
       672.0         0.27          9.1 
       673.0         0.23          9.4 
       674.0         0.23          9.6 
       675.0         0.25          9.2 
       676.0         0.23          9.6 
       677.0         0.20         10.3 
       678.0         0.20          9.9 
       679.0         0.17          9.9 
       680.0         0.13          9.9 
       681.0         0.17         10.6 
       682.0         0.13         10.6 
       683.0         0.17          9.4 
       684.0         0.17          9.4 
       685.0         0.53          9.6 
       686.0         0.87         12.5 
       687.0         0.58         12.5 
       688.0         0.23         10.7 
       689.0         0.27         10.8 
       690.0         0.27         10.8 
       691.0         0.23         10.0 
       692.0         0.20         10.3 
       693.0         0.23          9.6 
       694.0         0.20         10.5 
       695.0         0.20          9.5 
       696.0         0.27         10.5 
       697.0         0.20         10.8 
       698.0         0.17          9.5 
       699.0         0.17         10.8 
       700.0         0.17         10.4 
       701.0         0.22         10.6 
       702.0         0.13         10.6 
       703.0         0.13         11.0 
       704.0         0.13         11.0 
       705.0         0.20         10.8 
       706.0         0.17         11.5 
       707.0         0.13         10.4 
       708.0         0.17         10.2 
       709.0         0.20         10.1 
       710.0         0.17         10.1 
       711.0         0.20         10.0 
       712.0         0.17          9.6 
       713.0         0.17          9.6 
       714.0         0.17          9.6 
       715.0         0.20          9.5 
       716.0         1.25         11.7 
       717.0         0.30         16.1 
       718.0         0.13         16.4 
       719.0         0.37         15.3 
       720.0         0.27         15.5 
       721.0         0.23         13.8 
       722.0         0.23         11.7 
       723.0         0.17         11.5 
       724.0         0.20         11.5 
       725.0         0.20         11.3 
       726.0         0.20         10.9 
       727.0         0.13         10.9 
       728.0         0.13         10.9 
       729.0         0.13         11.0 
