~Version Information
VERS.                      2.0: CWLS Log ASCII Standard - VERSION 2.0
WRAP.                       NO: One line per depth step
~Well Information Block
STRT.FT                15.0000: 
STOP.FT              1532.0000: 
STEP.FT                 0.2500: 
NULL.                -999.2500: 
COMP.          Pioneer Natural Resources: COMPANY
WELL.           Bobsy 34-11 Tr: WELL
FLD.           Purgatoire River: FIELD
LOC.           514' FSL & 1784' FEL: LOCATION
PROV.                 Colorado: PROVINCE
CNTY.               Las Animas: COUNTRY
SRVC.                Patterson: SERVICE COMPANY
DATE.          Fri Jul 22 12:22:14 2005: LOG DATE
UWI.           05 071 08438 00: UNIQUE WELL ID
~Curve Information Block
DEPT.FT            0 000 00 00: Depth
GR.GAPI                       : Gamma Ray
CCL.                          : Casing Collar Locator
TT3.usec                      : CBL 3' Travel Time
AMP3.mV                       : CBL 3' Amplitude
~Parameter Information Block
~A  Depth        GR         CCL         TT3         AMP3    
# ...
   618.0000    100.9545      0.0000    744.2761     10.5397
   618.2500     96.1042      0.0000    744.4758     10.6342
   618.5000     93.1782      0.0000    744.4382     10.7363
   618.7500     92.0271      0.0000    744.3833     10.8524
   619.0000     92.5701      0.0000    744.3930     10.9848
   619.2500     95.3281      0.0000    744.4766     11.1234
   619.5000    100.4318      0.0000    744.6208     11.2526
   619.7500    106.6631      0.0000    744.7924     11.3623
   620.0000    112.0731      0.0000    744.9361     11.4496
   620.2500    115.6010      0.0000    745.0014     11.5135
   620.5000    117.8046      0.0000    744.9658     11.5544
   620.7500    119.9803      0.0000    744.8071     11.5763
   621.0000    122.8206      0.0000    744.4172     11.5835
   621.2500    126.0301      0.0000    743.4781     11.5738
   621.5000    128.9279      0.0000    741.4417     11.5408
   621.7500    131.0224      0.0000    737.8674     11.4858
   622.0000    132.1108      0.0000    733.1317     11.4229
   622.2500    132.3159      0.0000    728.8251     11.3687
   622.5000    132.1262      0.0000    727.0015     11.3304
   622.7500    132.0087      0.0000    728.6102     11.3040
   623.0000    131.8464      0.0000    732.6771     11.2832
   623.2500    131.0367      0.0000    737.1295     11.2682
   623.5000    129.1659      0.0000    740.3036     11.2651
   623.7500    126.2408      0.0000    741.6172     11.2782
   624.0000    122.2610      0.0000    741.2460     11.3053
   624.2500    117.0993      0.0000    739.7566     11.3409
   624.5000    111.1511      0.0000    738.1063     11.3808
   624.7500    105.8854      0.0000    737.4066     11.4248
   625.0000    103.2542      0.0000    738.1508     11.4762
   625.2500    104.1898      0.0000    739.7027     11.5386
   625.5000    107.6539      0.0000    740.7281     11.6092
   625.7500    111.4202      0.0000    740.0307     11.6756
   626.0000    113.9915      0.0000    737.0938     11.7218
   626.2500    115.7896      0.0000    732.3752     11.7378
   626.5000    118.6063      0.0000    727.3807     11.7220
   626.7500    124.0882      0.0000    724.0688     11.6782
   627.0000    132.5272      0.0000    723.6193     11.6120
   627.2500    142.5180      0.0000    725.5088     11.5313
   627.5000    151.6662      0.0000    727.8881     11.4474
   627.7500    157.9566      0.0000    729.1211     11.3761
   628.0000    160.6056      0.0000    729.0355     11.3344
   628.2500    159.7393      0.0000    728.5231     11.3345
   628.5000    155.8434      0.0000    728.1000     11.3768
   628.7500    149.8491      0.0000    727.3055     11.4482
   629.0000    143.1670      0.0000    725.5267     11.5304
   629.2500    137.0456      0.0000    723.0970     11.6116
   629.5000    132.0520      0.0000    721.4214     11.6896
   629.7500    128.3568      0.0000    721.9623     11.7648
   630.0000    126.1924      0.0000    724.9488     11.8328
   630.2500    125.6610      0.0000    729.0453     11.8855
   630.5000    126.1829      0.0000    732.4647     11.9169
   630.7500    126.5442      0.0000    734.5014     11.9261
   631.0000    125.8080      0.0000    735.8359     11.9149
   631.2500    124.2484      0.0000    737.3759     11.8858
   631.5000    123.4275      0.0000    739.1740     11.8434
   631.7500    125.2203      0.0000    740.5547     11.7963
   632.0000    130.2201      0.0000    740.8124     11.7534
   632.2500    136.7507      0.0000    739.4703     11.7177
   632.5000    142.0271      0.0000    736.2521     11.6862
   632.7500    144.7914      0.0000    731.3694     11.6558
   633.0000    146.2321      0.0000    725.8762     11.6300
   633.2500    147.8979      0.0000    721.3793     11.6134
   633.5000    149.7582      0.0000    719.1138     11.6026
   633.7500    151.1712      0.0000    719.1923     11.5859
   634.0000    152.6971      0.0000    720.6428     11.5535
   634.2500    155.5364      0.0000    722.2475     11.5075
   634.5000    159.4124      0.0000    723.5602     11.4623
   634.7500    162.0427      0.0000    725.0203     11.4367
   635.0000    160.9119      0.0000    726.8576     11.4411
   635.2500    155.3285      0.0000    728.2192     11.4705
   635.5000    147.0155      0.0000    727.9422     11.5097
   635.7500    139.0012      0.0000    726.1473     11.5462
   636.0000    133.5318      0.0000    724.5564     11.5746
   636.2500    130.6125      0.0000    725.0239     11.5920
   636.5000    128.6128      0.0000    727.8055     11.5958
   636.7500    126.3359      0.0000    731.2035     11.5852
   637.0000    124.3214      0.0000    732.9175     11.5614
   637.2500    124.0501      0.0000    732.0117     11.5277
   637.5000    126.0328      0.0000    729.7206     11.4895
   637.7500    129.0046      0.0000    728.2120     11.4512
   638.0000    131.0870      0.0000    728.4703     11.4099
   638.2500    131.3844      0.0000    729.5458     11.3551
   638.5000    130.4156      0.0000    729.9908     11.2818
   638.7500    129.6148      0.0000    729.7613     11.2061
   639.0000    130.5686      0.0000    730.2354     11.1626
   639.2500    134.1366      0.0000    732.2764     11.1802
   639.5000    139.8167      0.0000    734.5192     11.2575
   639.7500    145.9629      0.0000    733.7928     11.3661
   640.0000    150.7430      0.0000    727.5753     11.4778
   640.2500    153.1467      0.0000    716.6859     11.5835
   640.5000    153.3520      0.0000    705.7265     11.6875
   640.7500    152.2819      0.0000    700.0846     11.7916
   641.0000    150.8899      0.0000    702.0259     11.8905
   641.2500    149.7422      0.0000    709.9609     11.9768
   641.5000    148.7904      0.0000    720.8042     12.0447
   641.7500    147.3407      0.0000    731.5385     12.0914
   642.0000    144.7199      0.0000    739.1838     12.1192
   642.2500    141.2345      0.0000    741.8438     12.1311
   642.5000    138.0903      0.0000    740.3100     12.1235
   642.7500    136.2311      0.0000    736.7933     12.0829
   643.0000    135.5534      0.0000    731.6437     11.9946
   643.2500    135.1871      0.0000    722.7364     11.8508
   643.5000    134.2302      0.0000    708.6368     11.6409
   643.7500    132.2973      0.0000    691.4788     11.3285
   644.0000    129.4804      0.0000    676.3074     10.8482
   644.2500    125.7539      0.0000    668.4108     10.1668
   644.5000    120.7057      0.0000    671.7305      9.3725
   644.7500    114.1678      0.0000    688.3165      8.6577
   645.0000    106.8380      0.0000    716.9074      8.1508
   645.2500     99.8133      0.0000    751.4213      7.7964
   645.5000     93.6898      0.0000    782.7070      7.4753
   645.7500     88.6016      0.0000    804.0315      7.1925
   646.0000     85.0636      0.0000    815.4203      7.0518
   646.2500     84.2245      0.0000    822.1061      7.0862
   646.5000     86.9695      0.0000    828.9335      7.2086
   646.7500     92.8824      3.0000    836.5646      7.3181
   647.0000    100.3220      0.0000    841.9296      7.4170
   647.2500    107.6385      0.0000    840.9993      7.6336
   647.5000    114.2061      0.0000    831.4892      8.1167
   647.7500    120.1487      0.0000    814.3055      8.8546
   648.0000    125.2564      0.0000    793.1859      9.6311
   648.2500    128.5589      0.0000    772.3039     10.2466
   648.5000    129.0305      0.0000    753.3196     10.7295
   648.7500    126.4504      0.0000    734.8303     11.2303
   649.0000    121.5558      0.0000    715.1147     11.7791
   649.2500    115.6032      0.0000    695.0466     12.2577
   649.5000    109.8493      0.0000    677.7442     12.5577
   649.7500    105.1602      0.0000    665.7254     12.6742
   650.0000    101.8194      0.0000    659.0930     12.6692
   650.2500     99.7302      0.0000    656.2153     12.6054
   650.5000     98.8611      0.0000    655.3116     12.5193
   650.7500     99.3256      0.0000    655.2793     12.4238
   651.0000    100.9727      0.0000    655.7120     12.3228
   651.2500    103.2870      0.0000    656.8306     12.2225
