~Version Information
VERS.                      2.0: CWLS Log ASCII Standard - VERSION 2.0
WRAP.                       NO: One line per depth step
~Well Information Block
STRT.FT               742.7000: 
STOP.FT              1614.5000: 
STEP.FT                 0.1000: 
NULL.                -999.2500: 
COMP.          Pioneer Natural Resources: COMPANY
WELL.           Kermit 32-7 Tr: WELL
FLD.           Purgatoire River: FIELD
LOC.           2009' FNL & 2196' FEL: LOCATION
PROV.                 Colorado: PROVINCE
CNTY.               Las Animas: COUNTRY
SRVC.                Patterson: SERVICE COMPANY
DATE.          Mon Jan 16 13:19:56 2006: LOG DATE
UWI.           05 071 08664 00: UNIQUE WELL ID
~Curve Information Block
DEPT.FT            0 000 00 00: Depth
DCAL.in                       : CDL Caliper
RHOB.g/cc                     : CDL Bulk Density
RHOC.g/cc                     : CDL Density Correction
DPOR.pu                       : CDL Density Porosity
GR.GAPI                       : Gamma Ray
~Parameter Information Block
~A  Depth       DCAL        RHOB        RHOC        DPOR         GR     
# ...
  1493.1000      7.8715      2.4544      0.0181     11.8560     81.7308
  1493.2000      7.8715      2.4832      0.0420     10.1110     76.7094
  1493.3000      7.8572      2.5052      0.0609      8.7781     71.1972
  1493.4000      7.8572      2.5233      0.1090      7.6797     69.7859
  1493.5000      7.8435      2.5363      0.1152      6.8922     72.8977
  1493.6000      7.8435      2.5393      0.0838      6.7099     74.9508
  1493.7000      7.8435      2.5373      0.0793      6.8291     73.1098
  1493.8000      7.8350      2.5339      0.1051      7.0340     70.7628
  1493.9000      7.8350      2.5208      0.1038      7.8322     70.3131
  1494.0000      7.8430      2.4996      0.0282      9.1175     74.5809
  1494.1000      7.8430      2.4897      0.0582      9.7127     84.8496
  1494.2000      7.8430      2.4977      0.0488      9.2319     93.6046
  1494.3000      7.8577      2.5084      0.0669      8.5819     92.2987
  1494.4000      7.8577      2.5056      0.0605      8.7539     83.0759
  1494.5000      7.8566      2.4912      0.0428      9.6259     74.9865
  1494.6000      7.8566      2.4846     -0.0002     10.0255     70.6667
  1494.7000      7.8566      2.4948      0.0450      9.4046     65.9986
  1494.8000      7.8804      2.5049      0.0479      8.7921     61.3383
  1494.9000      7.8804      2.4996      0.0441      9.1180     61.8097
  1495.0000      7.8697      2.4911      0.0409      9.6321     66.7021
  1495.1000      7.8697      2.5031     -0.0015      8.9014     71.8539
  1495.2000      7.8697      2.5346      0.0689      6.9970     77.6254
  1495.3000      7.8688      2.5606      0.0665      5.4211     82.4308
  1495.4000      7.8688      2.5647      0.0508      5.1694     82.2334
  1495.5000      7.8804      2.5438      0.0511      6.4360     84.2070
  1495.6000      7.8804      2.5059      0.0552      8.7321     93.2554
  1495.7000      7.8804      2.4763     -0.0412     10.5282     97.3098
  1495.8000      7.8625      2.4738     -0.0058     10.6800     89.3636
  1495.9000      7.8625      2.4834      0.0629     10.0981     77.2994
  1496.0000      7.8471      2.4855      0.0388      9.9702     71.0679
  1496.1000      7.8471      2.4882      0.0165      9.8049     74.0506
  1496.2000      7.8471      2.4942      0.0904      9.4406     86.1174
  1496.3000      7.8409      2.4915      0.0586      9.6086     99.6008
  1496.4000      7.8409      2.4902      0.0289      9.6855    100.9668
  1496.5000      7.8336      2.5077      0.0606      8.6236     90.8206
  1496.6000      7.8336      2.5325      0.0849      7.1220     81.8178
  1496.7000      7.8336      2.5379      0.0547      6.7969     77.4755
  1496.8000      7.8372      2.5156      0.0299      8.1447     73.3213
  1496.9000      7.8372      2.4866     -0.0079      9.9027     71.9526
  1497.0000      7.8375      2.4755      0.0262     10.5761     75.4211
  1497.1000      7.8375      2.4870     -0.0111      9.8767     78.8548
  1497.2000      7.8375      2.5110      0.0426      8.4264     79.7295
  1497.3000      7.8444      2.5296      0.0834      7.2999     80.2625
  1497.4000      7.8444      2.5289      0.0734      7.3416     82.0840
  1497.5000      7.8475      2.5100      0.0486      8.4852     86.3069
  1497.6000      7.8475      2.4774      0.0489     10.4633     94.3753
  1497.7000      7.8475      2.4401     -0.0360     12.7224     99.5557
  1497.8000      7.8615      2.4203     -0.0466     13.9204     93.4921
  1497.9000      7.8615      2.4266      0.0315     13.5380     82.7719
  1498.0000      7.8515      2.4446     -0.0760     12.4498     77.0137
  1498.1000      7.8515      2.4579      0.0322     11.6411     74.1336
  1498.2000      7.8515      2.4623     -0.0188     11.3769     71.1220
  1498.3000      7.8374      2.4741      0.0074     10.6614     70.2408
  1498.4000      7.8374      2.4974      0.0752      9.2483     72.1560
  1498.5000      7.8240      2.5195      0.0188      7.9091     74.2215
  1498.6000      7.8240      2.5431      0.0317      6.4813     74.8819
  1498.7000      7.8240      2.5656      0.1669      5.1132     74.7646
  1498.8000      7.8203      2.5721      0.0912      4.7199     74.7746
  1498.9000      7.8203      2.5652      0.1109      5.1372     75.7966
  1499.0000      7.8291      2.5555      0.0828      5.7277     77.0745
  1499.1000      7.8291      2.5479      0.0383      6.1863     76.8397
  1499.2000      7.8291      2.5413      0.0510      6.5903     76.2768
  1499.3000      7.8441      2.5280      0.0541      7.3960     76.2561
  1499.4000      7.8441      2.5123      0.0392      8.3466     75.2260
  1499.5000      7.8376      2.5060      0.0722      8.7295     72.1847
  1499.6000      7.8376      2.5106      0.0024      8.4500     67.3973
  1499.7000      7.8376      2.5221      0.0308      7.7496     63.0914
  1499.8000      7.8455      2.5373      0.0247      6.8316     61.2752
  1499.9000      7.8455      2.5619      0.0504      5.3395     61.6428
  1500.0000      7.8355      2.5953      0.0681      3.3122     64.9472
  1500.1000      7.8355      2.6197      0.1152      1.8372     69.6256
  1500.2000      7.8355      2.6206      0.1278      1.7815     71.6715
  1500.3000      7.8470      2.6094      0.0309      2.4594     71.3387
  1500.4000      7.8470      2.6064      0.0607      2.6401     71.4848
  1500.5000      7.8510      2.6143      0.0478      2.1654     71.7593
  1500.6000      7.8510      2.6238      0.0838      1.5852     70.6946
  1500.7000      7.8510      2.6274      0.0413      1.3692     69.0100
  1500.8000      7.8627      2.6393     -0.0038      0.6471     68.9811
  1500.9000      7.8627      2.6725      0.0615     -1.3626     73.8906
  1501.0000      7.8537      2.6972      0.0887     -2.8596     79.4078
  1501.1000      7.8537      2.6783      0.0877     -1.7145     80.6319
  1501.2000      7.8537      2.6362     -0.0057      0.8359     82.9644
  1501.3000      7.8385      2.6219      0.0082      1.7037     87.6562
  1501.4000      7.8385      2.6388      0.0494      0.6775     88.2851
  1501.5000      7.8390      2.6526      0.0462     -0.1556     85.3623
  1501.6000      7.8390      2.6480      0.0776      0.1223     84.1624
  1501.7000      7.8390      2.6327      0.0443      1.0471     85.8534
  1501.8000      7.8446      2.6114      0.0547      2.3418     87.9174
  1501.9000      7.8446      2.5806      0.0324      4.2044     87.2735
  1502.0000      7.8473      2.5494     -0.0102      6.0965     84.4621
  1502.1000      7.8473      2.5350      0.0234      6.9690     81.1583
  1502.2000      7.8473      2.5360      0.0566      6.9073     77.1673
  1502.3000      7.8379      2.5405      0.0612      6.6392     75.5176
  1502.4000      7.8379      2.5485      0.0601      6.1542     79.7826
  1502.5000      7.8449      2.5632      0.0213      5.2635     84.9537
  1502.6000      7.8449      2.5674      0.1041      5.0050     83.6182
  1502.7000      7.8449      2.5484      0.0321      6.1546     79.1800
  1502.8000      7.8180      2.5333      0.0335      7.0711     77.7970
  1502.9000      7.8180      2.5457      0.0776      6.3229     78.1689
  1503.0000      7.8126      2.5694      0.1133      4.8836     78.5135
  1503.1000      7.8126      2.5822      0.1027      4.1088     77.7612
  1503.2000      7.8126      2.5794      0.1192      4.2777     76.1808
  1503.3000      7.8149      2.5699      0.0486      4.8526     76.2101
  1503.4000      7.8149      2.5654      0.0900      5.1286     78.0410
  1503.5000      7.8251      2.5642      0.0599      5.1976     79.1471
  1503.6000      7.8251      2.5577      0.0633      5.5914     75.5528
  1503.7000      7.8251      2.5407      0.0488      6.6269     69.5529
  1503.8000      7.8362      2.5171      0.0432      8.0545     67.6171
  1503.9000      7.8362      2.5027      0.0105      8.9261     70.2577
  1504.0000      7.8456      2.5118      0.0205      8.3743     74.4615
  1504.1000      7.8456      2.5354      0.0911      6.9444     77.8376
  1504.2000      7.8456      2.5462      0.0553      6.2913     78.1361
