~Version Information
VERS.                      2.0: CWLS Log ASCII Standard - VERSION 2.0
WRAP.                       NO: One line per depth step
~Well Information Block
STRT.FT                 0.0000: 
STOP.FT              1674.7500: 
STEP.FT                 0.2500: 
NULL.                -999.2500: 
COMP.          Pioneer Natural Resources: COMPANY
WELL.          Culver 14-12 Tr: WELL
FLD.           Purgatorie River: FIELD
LOC.           915' FSL & 1048' FWL: LOCATION
STAT.                 Colorado: Colorado
CNTY.               Las Animas: COUNTY
CTRY. USA : Country
SECT. 12 : Section
TOWN. 32S : Township
RANG. 66W : Range
SRVC.                Patterson: SERVICE COMPANY
DATE.          Mon Oct 03 12:52:29 2005: LOG DATE
API. 05-071-08520                         : UNIQUE WELL ID
~Curve Information Block
DEPT.FT            0 000 00 00: Depth
CCL.                          : Casing Collar Locator
TT3.usec                      : CBL 3' Travel Time
AMP3.mV                       : CBL 3' Amplitude
GR.GAPI                       : Gamma Ray
~Parameter Information Block
~A  Depth       CCL         TT3         AMP3         GR     
# ...
   234.5000      0.0000    870.3927     10.9967     58.3554
   234.7500      0.0000    870.6498     10.9147     54.4294
   235.0000      0.0000    878.2543     10.9749     51.1293
   235.2500      0.0000    889.4468     11.1108     47.5537
   235.5000      0.0000    898.7138     11.2318     43.6769
   235.7500      0.0000    903.5130     11.2830     40.7967
   236.0000      0.0000    905.0796     11.2770     40.4140
   236.2500      0.0000    905.3804     11.2762     42.7991
   236.5000      0.0000    905.3101     11.3225     46.6193
   236.7500      0.0000    904.9902     11.3787     49.7411
   237.0000      0.0000    904.0372     11.3700     50.5296
   237.2500      0.0000    900.1514     11.2768     48.8510
   237.5000      0.0000    886.7110     11.1294     46.1040
   237.7500      0.0000    855.2577     10.9335     44.1393
   238.0000      0.0000    809.1945     10.6876     43.8973
   238.2500      0.0000    776.7106     10.4200     45.0188
   238.5000      0.0000    792.9759     10.0909     46.5964
   238.7500      0.0000    852.6343      9.5994     47.8995
   239.0000      0.0000    899.1271      9.0271     48.4160
   239.2500      0.0000    891.1740      8.6335     47.9087
   239.5000      0.0000    851.0723      8.5292     46.8569
   239.7500      0.0000    821.8827      8.5985     46.4255
   240.0000     -2.0000    826.3960      8.6786     47.5438
   240.2500      2.0000    873.3152      8.6449     49.9909
   240.5000      0.0000    949.4041      8.4662     52.4797
   240.7500      0.0000   1005.6124      8.4197     53.7034
   241.0000      0.0000    992.3018      9.0762     53.3559
   241.2500      0.0000    919.5616     10.5521     52.1445
   241.5000      0.0000    846.4720     12.0768     50.9493
   241.7500      0.0000    807.2048     12.9180     50.1917
   242.0000      0.0000    788.6505     13.1195     49.8163
   242.2500      0.0000    773.1742     13.0292     49.5018
   242.5000      0.0000    764.0408     12.8517     49.0710
   242.7500      0.0000    766.0563     12.6881     49.0702
   243.0000      0.0000    768.5690     12.5673     50.6108
   243.2500      0.0000    760.7271     12.4513     54.1923
   243.5000      0.0000    747.3127     12.3302     58.9138
   243.7500      0.0000    737.9590     12.2706     63.1462
   244.0000      0.0000    734.3269     12.3257     65.7071
   244.2500      0.0000    733.3236     12.4460     66.1760
   244.5000      0.0000    732.9319     12.5157     64.5252
   244.7500      0.0000    732.7275     12.4685     61.1113
   245.0000      0.0000    732.6689     12.3479     56.9400
   245.2500      0.0000    732.6531     12.2443     53.2356
   245.5000      0.0000    732.6487     12.2139     50.5218
   245.7500      0.0000    732.7084     12.2749     48.5884
   246.0000      0.0000    732.8231     12.4177     47.3259
   246.2500      0.0000    732.9084     12.5822     46.8317
   246.5000      0.0000    732.8864     12.6938     46.6157
   246.7500      0.0000    732.7313     12.7470     45.6571
   247.0000      0.0000    732.5015     12.7854     43.6269
   247.2500      0.0000    732.3051     12.8169     41.3660
   247.5000      0.0000    732.3024     12.8092     39.8378
   247.7500      0.0000    733.2934     12.7671     39.1873
   248.0000      0.0000    738.0069     12.7544     39.0554
   248.2500      0.0000    750.2750     12.8081     39.2137
   248.5000      0.0000    767.5511     12.8783     39.5378
   248.7500      0.0000    776.3220     12.8858     39.8310
   249.0000      0.0000    767.4755     12.8120     40.1573
   249.2500      0.0000    750.3728     12.7237     41.1542
   249.5000      0.0000    738.5875     12.7232     43.5552
   249.7500      0.0000    734.9786     12.8801     47.3746
   250.0000      0.0000    737.4824     13.2029     51.8803
   250.2500      0.0000    746.3498     13.6449     56.4271
   250.5000      0.0000    760.0354     14.1128     61.0493
   250.7500      0.0000    771.4131     14.4909     66.1250
   251.0000      0.0000    777.1472     14.7200     71.5055
   251.2500      0.0000    779.5557     14.8893     75.9497
   251.5000      0.0000    769.3510     15.1855     77.5983
   251.7500      0.0000    730.9542     15.6973     75.5618
   252.0000      0.0000    673.9199     16.3353     71.3176
   252.2500      0.0000    630.2432     16.9635     68.0413
   252.5000      0.0000    605.1718     17.5500     68.0644
   252.7500      0.0000    563.9236     18.1554     71.0241
   253.0000      0.0000    491.5048     18.7972     74.5299
   253.2500      0.0000    418.3152     19.3863     76.3227
   253.5000      0.0000    373.0966     19.7931     75.7129
   253.7500      0.0000    356.9169     19.9456     73.4104
   254.0000      0.0000    358.8721     19.8789     70.5351
   254.2500      0.0000    368.4343     19.7290     67.8550
   254.5000      0.0000    379.0772     19.6490     65.6877
   254.7500      0.0000    393.2466     19.6393     64.2861
   255.0000      0.0000    420.1978     19.5206     64.1182
   255.2500      0.0000    456.7173     19.1983     65.5962
   255.5000      0.0000    475.3297     18.8429     68.4606
   255.7500      0.0000    456.8008     18.6718     71.5480
   256.0000      0.0000    420.7680     18.6927     73.3610
   256.2500      0.0000    397.6306     18.7702     72.9770
   256.5000      0.0000    400.3511     18.7831     70.6480
   256.7500      0.0000    436.5049     18.6869     67.7465
   257.0000      0.0000    510.5104     18.5296     65.9121
   257.2500      0.0000    601.1995     18.4054     65.9258
   257.5000      0.0000    665.5344     18.3838     67.5151
   257.7500      0.0000    676.2497     18.4745     70.1518
   258.0000      0.0000    643.4906     18.6242     73.5441
   258.2500      0.0000    602.8498     18.7685     77.3220
   258.5000      0.0000    581.5681     18.8891     80.7596
   258.7500      0.0000    573.3084     18.9878     82.9692
   259.0000      0.0000    549.2982     19.0652     83.2587
   259.2500      0.0000    496.0503     19.1644     81.4840
   259.5000      0.0000    436.8908     19.3489     78.2289
   259.7500      0.0000    399.7772     19.5962     74.5080
   260.0000      0.0000    385.8682     19.7887     71.1474
   260.2500      0.0000    382.7516     19.8660     68.3483
   260.5000      0.0000    382.4169     19.9029     65.7461
   260.7500      0.0000    382.3926     19.9785     62.8772
   261.0000      0.0000    382.3361     20.0713     59.6664
   261.2500      0.0000    382.3305     20.1216     56.5140
   261.5000      0.0000    382.4475     20.1014     53.9219
   261.7500      0.0000    382.6622     20.0332     52.0070
   262.0000      0.0000    382.8302     19.9874     50.4164
   262.2500      0.0000    382.8328     19.9986     48.8207
   262.5000      0.0000    382.7726     20.0024     47.6749
   262.7500      0.0000    382.8325     19.9320     48.4442
   263.0000      0.0000    383.0175     19.8095     52.6018
   263.2500      0.0000    383.3995     19.6810     60.0502
   263.5000      0.0000    385.6129     19.5364     68.7346
   263.7500      0.0000    395.7636     19.3367     76.0341
   264.0000      0.0000    424.0283     19.0766     80.4570
   264.2500      0.0000    472.6328     18.7910     82.1291
   264.5000      0.0000    527.2200     18.5218     82.1791
   264.7500      0.0000    573.3162     18.3082     81.9009
   265.0000      0.0000    604.5547     18.1748     82.2635
   265.2500      0.0000    617.3239     18.0636     83.7422
   265.5000      0.0000    627.3398     17.8242     86.1935
   265.7500      0.0000    656.7942     17.3787     88.6718
   266.0000      0.0000    698.8482     16.8394     89.5775
   266.2500      0.0000    741.1459     16.3593     87.6044
   266.5000      0.0000    801.2064     15.9631     83.0981
   266.7500      0.0000    901.8716     15.6059     78.4726
   267.0000      0.0000   1025.9441     15.2766     76.7679
   267.2500      0.0000   1125.9961     14.9802     79.2489
   267.5000      0.0000   1178.0721     14.7153     84.2610
   267.7500      0.0000   1195.5864     14.5110     88.6493
