~Version Information
VERS.                      2.0: CWLS Log ASCII Standard - VERSION 2.0
WRAP.                       NO: One line per depth step
~Well Information Block
STRT.FT               197.7500: 
STOP.FT              1631.0000: 
STEP.FT                 0.2500: 
NULL.                -999.2500: 
COMP.          Petrogulf Corporation: COMPANY
WELL.             State 16-44R: WELL
FLD.           Purgatoire River: FIELD
LOC.           632' FSL & 223' FEL--: LOCATION
PROV.                 Colorado: PROVINCE
CNTY.               Las Animas: COUNTRY
SRVC.                Patterson: SERVICE COMPANY
DATE.          Fri Oct 21 11:31:17 2005: LOG DATE
UWI.           05 071 08457 00: UNIQUE WELL ID
~Curve Information Block
DEPT.FT            0 000 00 00: Depth
SP.mV                         : DIL Spontaneous Potential
RILD.Ohm-m                    : DIL Deep Resistivity
RILM.Ohm-m                    : DIL Medium Resistivity
RLL3.Ohm-m                    : DIL Shallow Resistivity
GR.GAPI                       : Gamma Ray
~Parameter Information Block
~A  Depth        SP         RILD        RILM        RLL3         GR     
# ...
   225.7500   2000.0000   -999.2500   -999.2500   -999.2500     79.5403
   226.0000   2000.0000   -999.2500   -999.2500   -999.2500     80.6855
   226.2500   2000.0000   -999.2500   -999.2500   -999.2500     81.1100
   226.5000   2000.0000   -999.2500   -999.2500   -999.2500     81.8295
   226.7500   2000.0000   -999.2500   -999.2500   -999.2500     82.1348
   227.0000   2000.0000   -999.2500   -999.2500   -999.2500     81.4346
   227.2500   2000.0000   -999.2500   -999.2500   -999.2500     80.0310
   227.5000   2000.0000   -999.2500   -999.2500   -999.2500     77.1241
   227.7500   2000.0000   -999.2500   -999.2500   -999.2500     75.0949
   228.0000   2000.0000   -999.2500   -999.2500   -999.2500     72.3057
   228.2500   2000.0000   -999.2500   -999.2500   -999.2500     70.7790
   228.5000   2000.0000   -999.2500   -999.2500   -999.2500     69.5396
   228.7500   2000.0000   -999.2500   -999.2500   -999.2500     69.8027
   229.0000   2000.0000   -999.2500   -999.2500   -999.2500     72.0529
   229.2500   2000.0000   -999.2500   -999.2500   -999.2500     74.5017
   229.5000   2000.0000   -999.2500   -999.2500   -999.2500     78.7914
   229.7500   2000.0000   -999.2500   -999.2500   -999.2500     81.7735
   230.0000   2000.0000   -999.2500   -999.2500   -999.2500     86.4306
   230.2500   2000.0000   -999.2500   -999.2500   -999.2500     89.7120
   230.5000   2000.0000   -999.2500   -999.2500   -999.2500     94.4926
   230.7500   2000.0000   -999.2500   -999.2500   -999.2500     96.9619
   231.0000   2000.0000   -999.2500   -999.2500   -999.2500     98.5859
   231.2500   2000.0000   -999.2500   -999.2500   -999.2500     98.3334
   231.5000   2000.0000   -999.2500   -999.2500   -999.2500     97.1576
   231.7500   2000.0000      7.7634   -999.2500   -999.2500     96.5320
   232.0000   2000.0000      7.7140   -999.2500   -999.2500     96.0645
   232.2500   2000.0000      7.6571   -999.2500   -999.2500     95.7706
   232.5000   2000.0000      7.5941   -999.2500   -999.2500     94.6648
   232.7500   2000.0000      7.5294   -999.2500   -999.2500     93.1319
   233.0000   2000.0000      7.4679   -999.2500   -999.2500     89.4696
   233.2500   2000.0000      7.4144   -999.2500   -999.2500     86.4634
   233.5000   2000.0000      7.3720   -999.2500   -999.2500     82.1401
   233.7500   2000.0000      7.3418   -999.2500   2000.0000     79.7711
   234.0000   2000.0000      7.3219   -999.2500   2000.0000     76.8904
   234.2500   2000.0000      7.3081   -999.2500   2000.0000     75.1833
   234.5000   2000.0000      7.2953   -999.2500   2000.0000     72.8799
   234.7500   2000.0000      7.2803   -999.2500   2000.0000     71.7129
   235.0000   2000.0000      7.2644   -999.2500   2000.0000     70.8527
   235.2500   2000.0000      7.2528   -999.2500   2000.0000     70.8557
   235.5000   2000.0000      7.2526   -999.2500   2000.0000     71.2465
   235.7500   2000.0000      7.2685   -999.2500   2000.0000     71.4030
   236.0000   2000.0000      7.2994   -999.2500   2000.0000     71.2533
   236.2500   2000.0000      7.3384   -999.2500   2000.0000     71.1044
   236.5000   2000.0000      7.3753 100000.0000   2000.0000     71.3317
   236.7500   2000.0000      7.4018 100000.0000   2000.0000     71.8959
   237.0000   2000.0000      7.4148 100000.0000   2000.0000     73.2357
   237.2500   2000.0000      7.4153 100000.0000   2000.0000     74.3738
   237.5000   2000.0000      7.4032 100000.0000   2000.0000     76.2155
   237.7500   2000.0000      7.3755 100000.0000   2000.0000     77.1663
   238.0000   2000.0000      7.3321 100000.0000   2000.0000     77.3674
   238.2500   2000.0000      7.2875 100000.0000   2000.0000     76.5177
   238.5000   2000.0000      7.2802 100000.0000   2000.0000     74.3324
   238.7500   2000.0000      7.3682 100000.0000   2000.0000     72.7956
   239.0000   2000.0000      7.6112 100000.0000   2000.0000     70.8833
   239.2500   2000.0000      8.0445 100000.0000   2000.0000     69.8423
   239.5000   2000.0000      8.6495 100000.0000   2000.0000     68.3330
   239.7500   2000.0000      9.3282 100000.0000   2000.0000     67.2519
   240.0000   2000.0000      9.9168 100000.0000   2000.0000     65.6419
   240.2500   2000.0000     10.2702 100000.0000   2000.0000     64.7246
   240.5000   2000.0000     10.3638 100000.0000   2000.0000     63.5931
   240.7500   2000.0000     10.3065 100000.0000   2000.0000     62.8402
   241.0000   2000.0000     10.2675 100000.0000   2000.0000     61.5231
   241.2500   2000.0000     10.4103 100000.0000   2000.0000     60.6058
   241.5000   2000.0000     10.8651 100000.0000   2000.0000     59.5374
   241.7500   2000.0000     11.6973 100000.0000   2000.0000     59.2800
   242.0000   2000.0000     12.8118 100000.0000   2000.0000     60.0170
   242.2500   2000.0000     13.7966 100000.0000   2000.0000     61.3724
   242.5000   2000.0000     13.9885 100000.0000   2000.0000     64.2123
   242.7500   2000.0000     13.0881 100000.0000   2000.0000     65.9908
   243.0000   2000.0000     11.5609 100000.0000   2000.0000     67.4912
   243.2500   2000.0000     10.0682 100000.0000   2000.0000     67.5458
   243.5000   2000.0000      8.9385 100000.0000   2000.0000     66.5343
   243.7500   2000.0000      8.2196 100000.0000   2000.0000     65.4932
   244.0000   2000.0000      7.8739 100000.0000   2000.0000     64.1979
   244.2500   2000.0000      7.8940 100000.0000   2000.0000     64.0412
   244.5000   2000.0000      8.3477 100000.0000   2000.0000     65.4473
   244.7500   2000.0000      9.3689 100000.0000   2000.0000     67.4470
   245.0000   2000.0000     11.0057 100000.0000   2000.0000     71.5649
   245.2500   2000.0000     12.6439 100000.0000   2000.0000     74.8498
   245.5000   2000.0000     12.5420 100000.0000   2000.0000     80.5770
   245.7500   2000.0000     10.1844 100000.0000   2000.0000     84.9222
   246.0000   2000.0000      7.5245 100000.0000   2000.0000     91.8551
   246.2500   2000.0000      5.7396 100000.0000   2000.0000     96.4925
   246.5000   2000.0000      4.7979 100000.0000   2000.0000    103.8067
   246.7500   2000.0000      4.4476 100000.0000   2000.0000    109.8414
   247.0000   2000.0000      4.5234 100000.0000   2000.0000    122.6087
   247.2500   2000.0000      4.9258 100000.0000   2000.0000    133.7662
   247.5000   2000.0000      5.5051 100000.0000   2000.0000    150.8750
   247.7500   2000.0000      5.8839 100000.0000   2000.0000    158.4599
   248.0000   2000.0000      5.5588 100000.0000   2000.0000    158.2582
   248.2500   2000.0000      4.5859 100000.0000   2000.0000    150.3940
   248.5000   2000.0000      3.5782 100000.0000   2000.0000    133.0165
   248.7500   2000.0000      2.9106 100000.0000   2000.0000    122.0554
   249.0000   2000.0000      2.6318 100000.0000   2000.0000    110.5673
   249.2500   2000.0000      2.7358     34.5982   2000.0000    106.1109
   249.5000   2000.0000      3.3322     11.8736   2000.0000    102.1332
   249.7500   2000.0000      4.8645      8.8911   2000.0000    100.2329
   250.0000   2000.0000      9.1260      8.8460   2000.0000     97.9771
   250.2500   2000.0000     32.8859     10.5736   2000.0000     97.1441
   250.5000   2000.0000 100000.0000     14.3265   2000.0000     97.5046
   250.7500   2000.0000 100000.0000     20.5979   2000.0000     98.7943
   251.0000   2000.0000 100000.0000     29.3011   2000.0000    101.3986
   251.2500   2000.0000 100000.0000     40.7440   2000.0000    102.8805
   251.5000   2000.0000 100000.0000     61.8312   2000.0000    104.0519
   251.7500   2000.0000 100000.0000    143.0008   2000.0000    104.1580
   252.0000   2000.0000 100000.0000 100000.0000   2000.0000    103.6303
   252.2500   2000.0000 100000.0000 100000.0000   2000.0000    103.0010
   252.5000   2000.0000    567.7938 100000.0000   2000.0000    102.0063
   252.7500   2000.0000     52.9733 100000.0000   2000.0000    101.5360
   253.0000   2000.0000     35.7555    399.7202   2000.0000    101.2517
   253.2500   2000.0000     31.9171     79.1218   2000.0000    101.2909
   253.5000   2000.0000     31.6722     45.4616   2000.0000    101.7216
