~Version Information
VERS.                      2.0: CWLS Log ASCII Standard - VERSION 2.0
WRAP.                       NO: One line per depth step
~Well Information Block
STRT.FT                10.0000: 
STOP.FT              1360.0000: 
STEP.FT                 0.1000: 
NULL.                -999.2500: 
COMP.          Pioneer Natural Resources: COMPANY
WELL.              Geyser 41-2: WELL
FLD.           Purgatorie River: FIELD
LOC.           506' FNL & 1127' FEL: LOCATION
PROV.                 Colorado: PROVINCE
CNTY.               Las Animas: COUNTRY
SRVC.                Patterson: SERVICE COMPANY
DATE.          Thu Dec 01 07:38:14 2005: LOG DATE
UWI.                          : UNIQUE WELL ID
~Curve Information Block
DEPT.FT            0 000 00 00: Depth
DCAL.in                       : CDL Caliper
RHOB.g/cc                     : CDL Bulk Density
RHOC.g/cc                     : CDL Density Correction
DPOR.pu                       : CDL Density Porosity
GR.GAPI                       : Gamma Ray
NPOR.pu                       : Neutron Porosity
~Parameter Information Block
~A  Depth       DCAL        RHOB        RHOC        DPOR         GR         NPOR    
# ...
   634.0000      7.9477      2.5631      0.0026      5.2665    140.7835     26.7507
   634.1000      7.9477      2.5499     -0.0698      6.0673    138.8899     26.0799
   634.2000      7.9477      2.5638      0.0040      5.2264    141.8374     25.6662
   634.3000      7.9488      2.5850     -0.0188      3.9405    143.8703     25.5818
   634.4000      7.9488      2.5919      0.0262      3.5212    140.2247     25.7323
   634.5000      7.9454      2.5858      0.0279      3.8938    134.1019     25.8749
   634.6000      7.9454      2.5805      0.0477      4.2095    128.8366     25.9190
   634.7000      7.9454      2.5760      0.1033      4.4857    122.4314     25.7262
   634.8000      7.9486      2.5685      0.0038      4.9390    113.8493     25.0508
   634.9000      7.9486      2.5688      0.0168      4.9233    106.6561     24.1098
   635.0000      7.9531      2.5703      0.0328      4.8310    102.6515     23.3538
   635.1000      7.9531      2.5575      0.0323      5.6087     99.8420     22.8142
   635.2000      7.9531      2.5344      0.0017      7.0033     96.6837     22.2149
   635.3000      7.9464      2.5143     -0.0232      8.2227     93.7549     21.5593
   635.4000      7.9464      2.5052     -0.0301      8.7741     93.4387     21.2282
   635.5000      7.9503      2.5036     -0.0019      8.8724     94.7806     21.3189
   635.6000      7.9503      2.5000     -0.0015      9.0923     95.0519     21.4684
   635.7000      7.9503      2.4987     -0.0119      9.1683     92.9908     21.3721
   635.8000      7.9443      2.5062     -0.0227      8.7126     89.1113     21.1536
   635.9000      7.9443      2.5136     -0.0182      8.2657     87.2719     20.8510
   636.0000      7.9523      2.5130      0.0172      8.3021     89.8014     20.2829
   636.1000      7.9523      2.5168     -0.0442      8.0712     94.3297     19.8681
   636.2000      7.9523      2.5348      0.0490      6.9847     97.2377     20.0022
   636.3000      7.9453      2.5472      0.0431      6.2303     97.4164     20.4063
   636.4000      7.9453      2.5398      0.0186      6.6798     96.9825     20.6406
   636.5000      7.9512      2.5254      0.0211      7.5506     97.2270     20.6556
   636.6000      7.9512      2.5190      0.0122      7.9381     96.0620     20.6996
   636.7000      7.9512      2.5255     -0.0556      7.5480     92.5675     20.9873
   636.8000      7.9527      2.5371      0.0055      6.8404     89.6454     21.3984
   636.9000      7.9527      2.5384     -0.0293      6.7618     89.4446     21.6320
   637.0000      7.9640      2.5301     -0.0035      7.2687     89.3477     21.7302
   637.1000      7.9640      2.5284     -0.0152      7.3713     87.5423     21.9592
   637.2000      7.9640      2.5452     -0.0419      6.3539     87.4200     22.3530
   637.3000      7.9669      2.5744      0.0087      4.5805     91.0001     22.7538
   637.4000      7.9669      2.5957      0.0450      3.2922     96.6868     23.2162
   637.5000      7.9684      2.5967      0.0254      3.2322    102.9219     23.8595
   637.6000      7.9684      2.5858     -0.0031      3.8927    107.7431     24.5763
   637.7000      7.9684      2.5771      0.0150      4.4204    110.4995     25.2089
   637.8000      7.9630      2.5747     -0.0070      4.5645    113.8072     25.6280
   637.9000      7.9630      2.5707      0.0143      4.8038    118.6988     25.9314
   638.0000      7.9580      2.5555      0.0020      5.7293    124.6832     26.3877
   638.1000      7.9580      2.5419     -0.0402      6.5524    131.5303     26.9168
   638.2000      7.9580      2.5443      0.0130      6.4059    135.7016     27.3696
   638.3000      7.9560      2.5445      0.0040      6.3935    136.3639     27.6807
   638.4000      7.9560      2.5207      0.0529      7.8343    140.0100     27.6586
   638.5000      7.9529      2.4784     -0.0329     10.3974    148.4295     27.3102
   638.6000      7.9529      2.4398     -0.0250     12.7410    154.4026     26.7663
   638.7000      7.9529      2.4215     -0.0379     13.8487    154.3037     26.1985
   638.8000      7.9536      2.4305      0.0569     13.3027    152.3123     25.7732
   638.9000      7.9536      2.4588      0.1350     11.5873    154.3718     25.3753
   639.0000      7.9546      2.4887      0.1719      9.7756    161.2520     24.9100
   639.1000      7.9546      2.5115      0.2018      8.3910    167.3571     24.5198
   639.2000      7.9546      2.5298      0.2271      7.2854    169.3515     24.2915
   639.3000      7.9540      2.5454      0.2476      6.3380    171.9462     24.1736
   639.4000      7.9540      2.5595      0.2330      5.4825    177.9872     24.0470
   639.5000      7.9574      2.5762      0.2223      4.4752    184.3996     23.9132
   639.6000      7.9574      2.5930      0.2292      3.4561    188.2765     24.0892
   639.7000      7.9574      2.6004      0.2600      3.0069    188.9436     24.6258
   639.8000      7.9678      2.5955      0.2060      3.3005    188.6808     25.0986
   639.9000      7.9678      2.5855      0.1581      3.9079    189.9390     25.3111
   640.0000      7.9670      2.5706      0.2127      4.8117    190.0706     25.6711
   640.1000      7.9670      2.5465      0.1311      6.2708    186.5099     26.4227
   640.2000      7.9670      2.5216      0.0823      7.7845    182.1074     27.0037
   640.3000      7.9581      2.5012      0.0699      9.0189    179.4496     26.9023
   640.4000      7.9581      2.4844      0.0249     10.0340    177.9074     26.5661
   640.5000      7.9612      2.4792      0.0025     10.3535    176.7698     26.5430
   640.6000      7.9612      2.4832      0.0670     10.1109    176.0348     26.6944
   640.7000      7.9612      2.4789      0.0963     10.3691    174.7850     26.7506
   640.8000      7.9646      2.4710      0.0471     10.8512    172.5767     26.7143
   640.9000      7.9646      2.4796      0.0671     10.3263    171.2105     26.6909
   641.0000      7.9708      2.5036      0.1296      8.8736    171.8268     26.5646
   641.1000      7.9708      2.5272      0.0885      7.4416    172.3166     26.0887
   641.2000      7.9708      2.5359      0.1619      6.9168    170.8651     25.3857
   641.3000      7.9785      2.5159      0.1578      8.1254    168.4436     24.6851
   641.4000      7.9785      2.4699      0.0975     10.9166    167.7962     23.9167
   641.5000      7.9849      2.4155      0.0965     14.2131    170.1436     23.0057
   641.6000      7.9849      2.3645      0.0920     17.3049    172.7736     22.1808
   641.7000      7.9849      2.3166      0.0548     20.2075    173.1448     21.7570
   641.8000      7.9893      2.2630      0.0486     23.4519    170.9713     21.5996
   641.9000      7.9893      2.2053     -0.0408     26.9525    166.7086     21.3682
   642.0000      7.9930      2.1610     -0.0262     29.6372    161.0411     21.1090
   642.1000      7.9930      2.1404     -0.0077     30.8868    157.3672     21.0432
   642.2000      7.9930      2.1397      0.0793     30.9275    157.1923     21.3756
   642.3000      7.9854      2.1557      0.0529     29.9558    159.0434     22.0602
   642.4000      7.9854      2.1844      0.1342     28.2193    162.0317     22.7374
   642.5000      7.9700      2.2138      0.1136     26.4389    164.8361     23.2091
   642.6000      7.9700      2.2419      0.0429     24.7352    165.5594     23.4967
   642.7000      7.9700      2.2809      0.0502     22.3702    162.1158     23.7859
   642.8000      7.9667      2.3372      0.0740     18.9601    155.7144     24.3644
   642.9000      7.9667      2.4037      0.1292     14.9301    149.3729     25.1010
   643.0000      7.9565      2.4688      0.1745     10.9841    143.6904     25.6722
   643.1000      7.9565      2.5235      0.2005      7.6676    137.7106     26.0788
   643.2000      7.9565      2.5564      0.2229      5.6718    130.9545     26.2214
   643.3000      7.9560      2.5632      0.1571      5.2618    124.2964     25.9906
   643.4000      7.9560      2.5476      0.1385      6.2074    120.7782     25.4158
   643.5000      7.9546      2.5154      0.0232      8.1572    121.6193     24.6503
