~Version Information
VERS.                      2.0: CWLS Log ASCII Standard - VERSION 2.0
WRAP.                       NO: One line per depth step
~Well Information Block
STRT.FT               325.0000: 
STOP.FT              1013.5000: 
STEP.FT                 0.1000: 
NULL.                -999.2500: 
COMP.          Pioneer Natural Resources: COMPANY
WELL.                Doc 34-30: WELL
FLD.           Purgatoire River: FIELD
LOC.           454' FSL & 1386' FEL: LOCATION
CNTY.               Las Animas: COUNTY
SRVC.                Patterson: SERVICE COMPANY
DATE.          Thu Feb 16 07:19:58 2006: LOG DATE
UWI.           05 071 08694 00: UNIQUE WELL ID
STAT.                 Colorado: STATE
~Curve Information Block
DEPT.FT            0 000 00 00: Depth
DCAL.in                       : CDL Caliper
RHOB.g/cc                     : CDL Bulk Density
RHOC.g/cc                     : CDL Density Correction
DPOR.pu                       : CDL Density Porosity
GR.GAPI                       : Gamma Ray
NPOR.pu                       : Neutron Porosity
~Parameter Information Block
~A  Depth       DCAL        RHOB        RHOC        DPOR         GR         NPOR    
# ...
   593.8000      7.9716      2.3837     -0.0116     16.1372     33.5248     17.5089
   593.9000      7.9716      2.3951      0.0335     15.4509     29.8247     17.5345
   594.0000      7.9721      2.4064      0.0453     14.7631     28.3775     17.3096
   594.1000      7.9721      2.4111      0.0397     14.4763     31.1817     17.5302
   594.2000      7.9721      2.4135      0.0479     14.3306     36.7649     18.9511
   594.3000      7.9726      2.4172      0.0418     14.1099     40.6427     20.2454
   594.4000      7.9726      2.4193      0.0469     13.9811     41.4907     20.0776
   594.5000      7.9732      2.4174     -0.0028     14.1000     40.9046     19.2596
   594.6000      7.9732      2.4193      0.0380     13.9794     38.8306     18.8752
   594.7000      7.9732      2.4351      0.0552     13.0235     34.8414     18.9464
   594.8000      7.9736      2.4653      0.0552     11.1927     31.2052     18.9078
   594.9000      7.9736      2.4946      0.1061      9.4212     29.7917     18.3185
   595.0000      7.9735      2.5039      0.0732      8.8547     31.1158     17.7304
   595.1000      7.9735      2.4906      0.0951      9.6610     34.0455     17.7693
   595.2000      7.9735      2.4683      0.0059     11.0122     35.9920     18.1377
   595.3000      7.9728      2.4574      0.0117     11.6746     36.8251     18.4175
   595.4000      7.9728      2.4650      0.0205     11.2092     37.6487     18.6128
   595.5000      7.9715      2.4851      0.0157      9.9955     37.8176     18.5482
   595.6000      7.9715      2.5054      0.0553      8.7646     36.9776     18.0095
   595.7000      7.9715      2.5158      0.0447      8.1334     37.4423     17.8124
   595.8000      7.9711      2.5153      0.0545      8.1658     39.4031     18.4485
   595.9000      7.9711      2.5022      0.0808      8.9600     39.3249     18.7284
   596.0000      7.9713      2.4768      0.0229     10.4949     35.5692     18.0760
   596.1000      7.9713      2.4520     -0.0081     11.9970     30.8373     17.4143
   596.2000      7.9713      2.4429     -0.0235     12.5514     28.2818     17.2101
   596.3000      7.9721      2.4507      0.0148     12.0765     28.5573     17.3881
   596.4000      7.9721      2.4625      0.0018     11.3645     30.3935     17.8694
   596.5000      7.9740      2.4629      0.0083     11.3383     31.9498     18.3433
   596.6000      7.9740      2.4463      0.0197     12.3471     32.6660     17.9605
   596.7000      7.9740      2.4210     -0.0154     13.8801     33.0139     17.0988
   596.8000      7.9747      2.4028     -0.0159     14.9815     33.8607     17.0010
   596.9000      7.9747      2.3975     -0.0049     15.3040     35.1968     17.3439
   597.0000      7.9716      2.3935      0.0542     15.5467     35.9472     17.5824
   597.1000      7.9716      2.3833      0.0162     16.1664     37.4890     17.6459
   597.2000      7.9716      2.3820     -0.0177     16.2420     40.2491     17.4694
   597.3000      7.9684      2.4013      0.0546     15.0716     39.9930     17.7164
   597.4000      7.9684      2.4256      0.0722     13.5971     34.7684     18.5421
   597.5000      7.9669      2.4340      0.1189     13.0908     29.1117     19.1516
   597.6000      7.9669      2.4251      0.0743     13.6285     27.4802     19.1596
   597.7000      7.9669      2.4158      0.0702     14.1925     28.8580     18.5618
   597.8000      7.9655      2.4180      0.0553     14.0622     31.0421     17.4148
   597.9000      7.9655      2.4262      0.0922     13.5656     32.9540     16.5625
   598.0000      7.9644      2.4280      0.0983     13.4555     33.4685     16.9256
   598.1000      7.9644      2.4238      0.0833     13.7119     32.9361     18.0266
   598.2000      7.9644      2.4236      0.1020     13.7205     32.4001     18.7563
   598.3000      7.9642      2.4285      0.1267     13.4240     31.7030     19.2027
   598.4000      7.9642      2.4330      0.0978     13.1488     30.2670     19.7952
   598.5000      7.9636      2.4367      0.1151     12.9251     28.0567     20.1441
   598.6000      7.9636      2.4413      0.0922     12.6490     26.8762     20.1373
   598.7000      7.9636      2.4485      0.0969     12.2140     27.4072     20.0387
   598.8000      7.9614      2.4549      0.0991     11.8240     29.1577     19.9256
   598.9000      7.9614      2.4552      0.0951     11.8086     32.0050     19.5754
   599.0000      7.9610      2.4538      0.0746     11.8937     33.8221     18.7753
   599.1000      7.9610      2.4625      0.0993     11.3651     33.6566     18.2186
   599.2000      7.9610      2.4802      0.1136     10.2882     34.0711     18.6467
   599.3000      7.9632      2.4940      0.1027      9.4522     36.0723     19.4775
   599.4000      7.9632      2.4966      0.0898      9.2944     36.5083     19.6814
   599.5000      7.9646      2.4921      0.0734      9.5691     32.8114     19.1372
   599.6000      7.9646      2.4940      0.0487      9.4554     28.3431     18.4334
   599.7000      7.9646      2.5125      0.0448      8.3316     27.4116     18.3896
   599.8000      7.9634      2.5394      0.0830      6.7027     30.1359     19.0015
   599.9000      7.9634      2.5539      0.1077      5.8266     34.7544     18.8241
   600.0000      7.9625      2.5517      0.0640      5.9574     38.6472     17.3550
   600.1000      7.9625      2.5471      0.0515      6.2393     38.9894     16.0808
   600.2000      7.9625      2.5459      0.0949      6.3089     35.4936     15.8320
   600.3000      7.9623      2.5429      0.0526      6.4934     31.2085     16.0337
   600.4000      7.9623      2.5314      0.0543      7.1872     29.6024     16.1277
   600.5000      7.9610      2.5163      0.0348      8.1036     31.1735     16.3787
   600.6000      7.9610      2.5177      0.0346      8.0184     33.4504     16.8884
   600.7000      7.9610      2.5344      0.0604      7.0082     35.8254     17.1379
   600.8000      7.9595      2.5433      0.0408      6.4678     38.7269     16.8233
   600.9000      7.9595      2.5400      0.0394      6.6680     39.4197     16.5121
   601.0000      7.9588      2.5367      0.0429      6.8649     36.9604     16.7443
   601.1000      7.9588      2.5418      0.0267      6.5594     34.6111     16.9288
   601.2000      7.9588      2.5538      0.0451      5.8286     34.0158     16.5567
   601.3000      7.9591      2.5660      0.0116      5.0925     32.1161     16.4004
   601.4000      7.9591      2.5686      0.0590      4.9344     28.4159     16.8106
   601.5000      7.9598      2.5574     -0.0068      5.6149     26.6517     16.9191
   601.6000      7.9598      2.5482     -0.0057      6.1723     26.7055     16.5709
   601.7000      7.9598      2.5556     -0.0015      5.7230     26.8421     16.4912
   601.8000      7.9601      2.5661      0.0410      5.0820     27.0388     16.7662
   601.9000      7.9601      2.5587      0.0151      5.5315     27.5491     16.8784
   602.0000      7.9584      2.5398     -0.0107      6.6783     28.4341     16.5690
   602.1000      7.9584      2.5293      0.0131      7.3130     29.1455     16.4885
   602.2000      7.9584      2.5275      0.0375      7.4222     29.0362     16.9757
   602.3000      7.9570      2.5327     -0.0170      7.1074     28.8986     17.4057
   602.4000      7.9570      2.5532      0.0323      5.8655     29.4774     17.1805
   602.5000      7.9574      2.5833      0.0478      4.0431     30.2202     16.8248
   602.6000      7.9574      2.6160      0.0165      2.0611     30.8824     17.2620
   602.7000      7.9574      2.6475      0.0791      0.1505     31.2169     18.2345
   602.8000      7.9566      2.6672      0.0622     -1.0425     30.5211     18.6586
   602.9000      7.9566      2.6749      0.0996     -1.5065     29.3804     17.8169
   603.0000      7.9526      2.6785      0.0564     -1.7248     29.2792     16.5306
   603.1000      7.9526      2.6836      0.0565     -2.0363     29.1541     16.0617
   603.2000      7.9526      2.6855      0.1136     -2.1494     28.3611     16.1260
   603.3000      7.9484      2.6789      0.0544     -1.7540     28.1833     16.4019
