~Version Information
VERS.                      2.0: CWLS Log ASCII Standard - VERSION 2.0
WRAP.                       NO: One line per depth step
~Well Information Block
STRT.FT                -8.2500: 
STOP.FT              1580.5000: 
STEP.FT                 0.2500: 
NULL.                -999.2500: 
COMP.          Pioneer Natural Resources: COMPANY
WELL.          Daytona 31-14 Tr: WELL
FLD.           Purgatorie River: FIELD
LOC.           683' FNL & 1943' FEL--: LOCATION
CNTY.               Las Animas: COUNTY
SRVC.          Patterson Wireline: SERVICE COMPANY
DATE.          Thu Feb 02 08:47:22 2006: LOG DATE
UWI.           05 071 08681 00: UNIQUE WELL ID
STAT.                       CO: STATE
~Curve Information Block
DEPT.FT            0 000 00 00: Depth
CCL.                          : Casing Collar Locator
TT3.usec                      : CBL 3' Travel Time
AMP3.mV                       : CBL 3' Amplitude
GR.GAPI                       : Gamma Ray
~Parameter Information Block
~A  Depth       CCL         TT3         AMP3         GR     
# ...
  1231.2500      0.0000    724.3735      3.4307    111.7839
  1231.5000      0.0000    719.1775      3.4497    109.7725
  1231.7500      0.0000    715.2269      3.5013    109.6993
  1232.0000      0.0000    710.2064      3.5836    111.0090
  1232.2500      0.0000    700.5549      3.6824    113.0437
  1232.5000      0.0000    683.6897      3.7777    115.1419
  1232.7500      0.0000    660.1720      3.8530    116.9055
  1233.0000      0.0000    634.0823      3.9013    118.6823
  1233.2500      0.0000    611.1273      3.9252    121.3076
  1233.5000      0.0000    596.1946      3.9352    124.9690
  1233.7500      0.0000    591.5185      3.9463    128.6634
  1234.0000      0.0000    595.1210      3.9734    131.0500
  1234.2500      0.0000    601.0503      4.0223    131.4252
  1234.5000      0.0000    603.7855      4.0876    129.7312
  1234.7500      0.0000    603.7148      4.1598    126.4169
  1235.0000      0.0000    606.7457      4.2321    122.9083
  1235.2500      0.0000    617.5859      4.2996    121.3877
  1235.5000      0.0000    634.6753      4.3556    122.9710
  1235.7500      0.0000    652.2064      4.3962    126.2390
  1236.0000      0.0000    665.6343      4.4252    128.4021
  1236.2500      0.0000    674.3716      4.4517    127.9909
  1236.5000      0.0000    680.3555      4.4830    126.1178
  1236.7500      0.0000    685.4800      4.5195    125.1708
  1237.0000      0.0000    690.2551      4.5542    126.5848
  1237.2500      0.0000    693.5203      4.5769    129.8328
  1237.5000      0.0000    692.3063      4.5812    133.2098
  1237.7500      0.0000    682.3029      4.5689    135.4354
  1238.0000      0.0000    660.3184      4.5469    136.6700
  1238.2500      0.0000    627.8840      4.5225    137.9523
  1238.5000      0.0000    592.3752      4.5011    139.6328
  1238.7500      0.0000    563.3479      4.4871    140.7174
  1239.0000      0.0000    546.8800      4.4825    139.9527
  1239.2500      0.0000    542.8841      4.4845    137.2303
  1239.5000      0.0000    546.8687      4.4854    133.7737
  1239.7500      0.0000    553.6883      4.4747    131.1266
  1240.0000      0.0000    560.3840      4.4429    129.9984
  1240.2500      0.0000    566.9192      4.3837    129.8889
  1240.5000      0.0000    574.8806      4.2969    129.7333
  1240.7500      0.0000    584.9843      4.1888    128.9332
  1241.0000      0.0000    595.2693      4.0741    127.7809
  1241.2500      0.0000    602.4593      3.9749    126.8387
  1241.5000      0.0000    605.9234      3.9151    126.0654
  1241.7500      0.0000    609.3204      3.9098    124.9714
  1242.0000      0.0000    617.0305      3.9582    123.6723
  1242.2500      0.0000    629.7020      4.0457    123.1226
  1242.5000      0.0000    644.2370      4.1528    123.9791
  1242.7500      0.0000    657.0649      4.2609    125.6500
  1243.0000      0.0000    666.4241      4.3522    126.8004
  1243.2500      0.0000    672.4626      4.4096    126.5442
  1243.5000      0.0000    676.5084      4.4215    125.0019
  1243.7500      0.0000    680.3311      4.3883    123.0045
  1244.0000      0.0000    685.2837      4.3253    121.6005
  1244.2500      0.0000    691.5344      4.2565    121.7287
  1244.5000      0.0000    697.9893      4.2004    123.9162
  1244.7500      0.0000    703.2205      4.1592    127.9004
  1245.0000      0.0000    706.5168      4.1218    132.4835
  1245.2500      0.0000    708.1015      4.0781    135.9321
  1245.5000      0.0000    708.6024      4.0296    136.9766
  1245.7500      0.0000    708.4503      3.9855    135.8567
  1246.0000      0.0000    707.4972      3.9520    134.2030
  1246.2500      0.0000    704.8858      3.9252    133.5116
  1246.5000      0.0000    699.1487      3.8975    133.9767
  1246.7500      0.0000    688.8130      3.8673    135.0099
  1247.0000      0.0000    673.6940      3.8438    136.3232
  1247.2500      0.0000    655.5087      3.8403    138.0526
  1247.5000      0.0000    636.5280      3.8637    140.1794
  1247.7500      0.0000    617.9636      3.9084    142.0892
  1248.0000      0.0000    600.4150      3.9595    142.6234
  1248.2500      0.0000    585.1796      4.0044    140.7145
  1248.5000      0.0000    573.7375      4.0402    136.3223
  1248.7500      0.0000    566.0698      4.0717    130.7715
  1249.0000      0.0000    560.4481      4.1031    125.7753
  1249.2500      0.0000    554.9648      4.1332    121.8946
  1249.5000      0.0000    548.8345      4.1601    118.2077
  1249.7500      0.0000    542.4510      4.1860    113.5722
  1250.0000      0.0000    536.7145      4.2170    107.9778
  1250.2500      0.0000    532.4914      4.2552    102.5386
  1250.5000      0.0000    530.6833      4.2950     98.4557
  1250.7500      0.0000    532.8773      4.3278     96.2395
  1251.0000      0.0000    541.7562      4.3486     95.6781
  1251.2500      0.0000    559.9237      4.3566     96.2922
  1251.5000      0.0000    587.1894      4.3521     97.8595
  1251.7500      0.0000    618.9002      4.3375    100.5761
  1252.0000      0.0000    647.8940      4.3184    104.8747
  1252.2500      0.0000    668.6483      4.2999    111.1754
  1252.5000      0.0000    679.6703      4.2807    119.4296
  1252.7500      0.0000    682.5544      4.2573    128.5736
  1253.0000      0.0000    679.5005      4.2423    136.6602
  1253.2500      0.0000    672.0730      4.2725    141.8207
  1253.5000      0.0000    662.5618      4.3758    143.2722
  1253.7500      0.0000    655.8044      4.5196    141.7271
  1254.0000      0.0000    657.3003      4.6178    139.0771
  1254.2500      0.0000    668.1932      4.6112    137.2197
  1254.5000      0.0000    683.4589      4.5217    136.5892
  1254.7500      0.0000    696.4962      4.4155    135.9647
  1255.0000      0.0000    704.8630      4.3381    134.1014
  1255.2500      2.0000    710.5787      4.2980    131.3664
  1255.5000      0.0000    715.6512      4.2890    129.4454
  1255.7500     -2.0000    718.9487      4.3082    129.5966
  1256.0000      0.0000    717.8145      4.3594    131.3716
  1256.2500      0.0000    711.3560      4.4385    133.0805
  1256.5000      0.0000    701.2031      4.5175    133.4684
  1256.7500      0.0000    689.9711      4.5601    132.7866
  1257.0000      0.0000    679.8703      4.5644    132.2045
  1257.2500      0.0000    671.9983      4.5683    132.5422
  1257.5000      0.0000    666.0899      4.6001    133.8003
  1257.7500      0.0000    661.1989      4.6442    135.4119
  1258.0000      0.0000    656.7774      4.6672    136.4642
  1258.2500      0.0000    652.7889      4.6600    136.0295
  1258.5000      0.0000    648.7072      4.6443    133.9511
  1258.7500      0.0000    643.0933      4.6500    131.3219
  1259.0000      0.0000    634.5967      4.6930    129.6424
  1259.2500      0.0000    623.1703      4.7706    129.2220
  1259.5000      0.0000    610.4418      4.8683    128.6948
  1259.7500      0.0000    599.4815      4.9689    126.3488
  1260.0000      0.0000    593.9318      5.0602    121.5903
  1260.2500      0.0000    595.5690      5.1394    115.0322
  1260.5000      0.0000    601.5844      5.2129    107.7925
  1260.7500      0.0000    605.8522      5.2878    101.0515
  1261.0000      0.0000    605.0646      5.3625     95.8252
  1261.2500      0.0000    603.0262      5.4258     92.8248
  1261.5000      0.0000    606.8815      5.4658     92.5140
  1261.7500      0.0000    619.2882      5.4740     95.1285
  1262.0000      0.0000    635.9455      5.4405    100.5042
  1262.2500      0.0000    650.4160      5.3535    107.9073
  1262.5000      0.0000    659.4285      5.2125    116.0057
  1262.7500      0.0000    663.5977      5.0422    123.1112
  1263.0000      0.0000    665.0560      4.8861    127.8394
  1263.2500      0.0000    665.4864      4.7797    129.9046
  1263.5000      0.0000    665.6730      4.7272    130.4983
  1263.7500      0.0000    665.8282      4.7038    131.8063
  1264.0000      0.0000    665.9715      4.6789    135.6265
  1264.2500      0.0000    666.1081      4.6353    141.9355
  1264.5000      0.0000    666.2999      4.5692    148.5577
