~Version Information
VERS.                      2.0: CWLS Log ASCII Standard - VERSION 2.0
WRAP.                       NO: One line per depth step
~Well Information Block
STRT.FT               538.0000: 
STOP.FT              1769.0000: 
STEP.FT                 0.1000: 
NULL.                -999.2500: 
COMP.          Pioneer Natural Resources: COMPANY
WELL.            Dude 43-34 Tr: WELL
FLD.           Purgatoire River: FIELD
LOC.           2083' FSL & 1042' FEL: LOCATION
PROV.                 Colorado: PROVINCE
CNTY.               Las Animas: COUNTRY
SRVC.                Patterson: SERVICE COMPANY
DATE.          Thu Jan 26 07:02:09 2006: LOG DATE
UWI.           05 071 08676 00: UNIQUE WELL ID
~Curve Information Block
DEPT.FT            0 000 00 00: Depth
DCAL.in                       : CDL Caliper
RHOB.g/cc                     : CDL Bulk Density
RHOC.g/cc                     : CDL Density Correction
DPOR.pu                       : CDL Density Porosity
GR.GAPI                       : Gamma Ray
~Parameter Information Block
~A  Depth       DCAL        RHOB        RHOC        DPOR         GR     
# ...
   706.0000      8.1980      2.5439      0.2217      6.4325    150.2031
   706.1000      8.1980      2.5662      0.1639      5.0803    152.8813
   706.2000      8.1980      2.5860      0.1960      3.8762    159.1935
   706.3000      8.2363      2.5897      0.2300      3.6572    162.4787
   706.4000      8.2363      2.5814      0.1306      4.1590    161.5820
   706.5000      8.2145      2.5854      0.1234      3.9172    158.1241
   706.6000      8.2145      2.6034      0.1301      2.8247    150.7594
   706.7000      8.2145      2.6162      0.1047      2.0489    141.8232
   706.8000      8.1943      2.6206      0.0817      1.7803    137.4758
   706.9000      8.1943      2.6228      0.0886      1.6461    136.7905
   707.0000      8.1785      2.6150      0.1322      2.1240    135.9489
   707.1000      8.1785      2.5966      0.0351      3.2337    135.2271
   707.2000      8.1785      2.5880      0.0585      3.7595    136.1837
   707.3000      8.0782      2.5975      0.0933      3.1848    137.8723
   707.4000      8.0782      2.6173      0.0578      1.9793    138.7311
   707.5000      8.0584      2.6393      0.0682      0.6485    139.4277
   707.6000      8.0584      2.6563      0.0403     -0.3815    138.9306
   707.7000      8.0584      2.6722      0.0330     -1.3485    135.3859
   707.8000      8.0511      2.6896      0.0974     -2.3990    130.4810
   707.9000      8.0511      2.7025      0.1133     -3.1818    127.1443
   708.0000      8.0560      2.7138      0.1384     -3.8657    127.4970
   708.1000      8.0560      2.7308      0.0991     -4.8991    131.8806
   708.2000      8.0560      2.7542      0.1525     -6.3171    136.9491
   708.3000      8.0478      2.7712      0.1828     -7.3428    137.0009
   708.4000      8.0478      2.7670      0.1196     -7.0887    129.5827
   708.5000      8.0413      2.7448      0.0992     -5.7458    123.2056
   708.6000      8.0413      2.7221      0.0508     -4.3721    126.3375
   708.7000      8.0413      2.7113      0.0604     -3.7142    133.0572
   708.8000      8.0392      2.7092      0.0801     -3.5850    133.7323
   708.9000      8.0392      2.7049      0.0813     -3.3266    129.8499
   709.0000      8.0322      2.6932      0.0468     -2.6190    127.6260
   709.1000      8.0322      2.6740      0.0778     -1.4537    125.8852
   709.2000      8.0322      2.6510      0.0447     -0.0616    123.8032
   709.3000      8.0331      2.6307      0.1156      1.1727    122.0757
   709.4000      8.0331      2.6166      0.0836      2.0257    118.6608
   709.5000      8.0358      2.6143      0.0789      2.1647    116.4067
   709.6000      8.0358      2.6180      0.1356      1.9366    120.8440
   709.7000      8.0358      2.6035      0.1362      2.8206    131.0789
   709.8000      8.0280      2.5587      0.0669      5.5308    138.9492
   709.9000      8.0280      2.5071      0.0386      8.6598    138.6152
   710.0000      8.0435      2.4811     -0.0095     10.2369    135.6885
   710.1000      8.0435      2.4823      0.0430     10.1608    140.1708
   710.2000      8.0435      2.4824      0.0303     10.1575    150.5108
   710.3000      8.0489      2.4712      0.0117     10.8384    155.5187
   710.4000      8.0489      2.4714     -0.0128     10.8260    152.4345
   710.5000      8.0735      2.4947      0.0519      9.4121    150.6315
   710.6000      8.0735      2.5242      0.1070      7.6234    155.5253
   710.7000      8.0735      2.5464      0.1392      6.2768    162.1413
   710.8000      8.1412      2.5577      0.1796      5.5957    162.4350
   710.9000      8.1412      2.5531      0.1387      5.8751    156.2896
   711.0000      8.1710      2.5401      0.0755      6.6633    152.5751
   711.1000      8.1710      2.5334      0.0925      7.0690    151.5798
   711.2000      8.1710      2.5385      0.1004      6.7578    145.2645
   711.3000      8.1818      2.5557      0.0488      5.7132    137.4582
   711.4000      8.1818      2.5740      0.0803      4.6032    135.4568
   711.5000      8.1717      2.5798      0.0589      4.2542    136.2875
   711.6000      8.1717      2.5786      0.0498      4.3259    137.6873
   711.7000      8.1717      2.5803      0.0490      4.2252    142.1446
   711.8000      8.1876      2.5797      0.0634      4.2582    145.4048
   711.9000      8.1876      2.5717      0.0055      4.7459    142.0792
   712.0000      8.1278      2.5656      0.0292      5.1142    136.7863
   712.1000      8.1278      2.5792     -0.0272      4.2891    133.5421
   712.2000      8.1278      2.6157      0.0879      2.0799    131.4969
   712.3000      8.0950      2.6528      0.0755     -0.1692    130.2392
   712.4000      8.0950      2.6733      0.0850     -1.4119    129.5256
   712.5000      8.0826      2.6769      0.0632     -1.6296    130.4778
   712.6000      8.0826      2.6631      0.0678     -0.7919    133.9653
   712.7000      8.0826      2.6340      0.0585      0.9715    136.0933
   712.8000      8.0789      2.6096     -0.0082      2.4458    132.1442
   712.9000      8.0789      2.6070      0.0673      2.6058    123.3936
   713.0000      8.0809      2.6076      0.0877      2.5725    118.1504
   713.1000      8.0809      2.5926     -0.0009      3.4785    121.4516
   713.2000      8.0809      2.5734     -0.0224      4.6395    129.8865
   713.3000      8.0846      2.5628     -0.0037      5.2863    138.1447
   713.4000      8.0846      2.5655     -0.0271      5.1231    139.6149
   713.5000      8.0826      2.5794      0.0307      4.2768    132.4014
   713.6000      8.0826      2.5842      0.0856      3.9884    123.3807
   713.7000      8.0826      2.5622      0.0289      5.3228    120.0435
   713.8000      8.0898      2.5271     -0.0159      7.4462    124.0422
   713.9000      8.0898      2.5108     -0.0696      8.4347    131.8551
   714.0000      8.0723      2.5330     -0.0519      7.0919    139.8273
   714.1000      8.0723      2.5826      0.0056      4.0840    146.7738
   714.2000      8.0723      2.6322      0.0389      1.0763    149.2557
   714.3000      8.0802      2.6673      0.0919     -1.0478    143.7396
   714.4000      8.0802      2.6885      0.1162     -2.3344    136.8629
   714.5000      8.0286      2.6901      0.1025     -2.4276    136.6792
   714.6000      8.0286      2.6595      0.1000     -0.5739    137.7583
   714.7000      8.0286      2.6072      0.0282      2.5958    133.1199
   714.8000      8.0061      2.5635      0.0138      5.2447    129.0958
   714.9000      8.0061      2.5360      0.0062      6.9106    133.1293
   715.0000      8.0084      2.5168      0.0129      8.0747    140.2792
   715.1000      8.0084      2.5124      0.0202      8.3411    143.8084
   715.2000      8.0084      2.5290      0.0619      7.3343    145.2641
   715.3000      8.0244      2.5574      0.0602      5.6129    147.6668
   715.4000      8.0244      2.5866      0.0654      3.8451    148.7139
   715.5000      8.0594      2.6101      0.1069      2.4173    144.6170
   715.6000      8.0594      2.6242      0.1435      1.5620    137.2925
   715.7000      8.0594      2.6307      0.1464      1.1727    132.6711
   715.8000      8.0156      2.6323      0.1579      1.0738    132.3458
   715.9000      8.0156      2.6224      0.2206      1.6749    130.4318
   716.0000      8.0097      2.5943      0.1598      3.3768    126.5499
   716.1000      8.0097      2.5633      0.0844      5.2549    128.0788
   716.2000      8.0097      2.5591      0.0364      5.5113    134.7038
   716.3000      8.0242      2.5845      0.0970      3.9726    138.8992
   716.4000      8.0242      2.6141      0.0623      2.1746    141.7193
   716.5000      8.0256      2.6372      0.0623      0.7748    147.6946
   716.6000      8.0256      2.6551      0.1406     -0.3110    149.6969
   716.7000      8.0256      2.6571      0.1829     -0.4276    145.3859
   716.8000      8.0257      2.6360      0.1791      0.8500    141.7944
   716.9000      8.0257      2.6097      0.0991      2.4430    139.5344
   717.0000      7.9456      2.6025      0.0678      2.8816    139.3127
   717.1000      7.9456      2.6145      0.1147      2.1510    146.0542
