~Version Information
VERS.                      2.0: CWLS Log ASCII Standard - VERSION 2.0
WRAP.                       NO: One line per depth step
~Well Information Block
STRT.FT                -8.2500: 
STOP.FT              1118.7500: 
STEP.FT                 0.2500: 
NULL.                -999.2500: 
COMP.          Pioneer Natural Resources: COMPANY
WELL.             Croc 42-9 Tr: WELL
FLD.           Purgatorie River: FIELD
LOC.           --2429' FNL & 315' FEL------: LOCATION
STAT.                       CO: State
CNTY.               Las Animas: COUNTY
CTRY. USA : Country
SECT. 9 : Section
TOWN. 32S : Township
RANG. 66W : Range
SRVC.          Patterson Wireline: SERVICE COMPANY
DATE.          Tue Oct 18 14:14:43 2005: LOG DATE
API.           05 071 08550 00: UNIQUE WELL ID
~Curve Information Block
DEPT.FT            0 000 00 00: Depth
CCL.                          : Casing Collar Locator
TT3.usec                      : CBL 3' Travel Time
AMP3.mV                       : CBL 3' Amplitude
GR.GAPI                       : Gamma Ray
~Parameter Information Block
~A  Depth       CCL         TT3         AMP3         GR     
# ...
   963.2500      0.0000    324.4023     20.2523     98.8180
   963.5000      0.0000    327.3293     19.6711     95.0148
   963.7500      0.0000    332.5514     19.0702     91.2167
   964.0000      0.0000    340.0246     18.4801     88.8348
   964.2500      0.0000    348.4748     17.9425     89.0897
   964.5000      0.0000    356.0507     17.5027     91.8872
   964.7500      0.0000    361.8527     17.1871     95.5753
   965.0000      0.0000    367.0941     16.9891     98.2862
   965.2500      0.0000    375.1821     16.8774     99.4354
   965.5000      0.0000    390.0212     16.8172     99.8922
   965.7500      0.0000    412.2502     16.7836    100.9500
   966.0000      0.0000    436.4833     16.7609    102.9072
   966.2500      0.0000    455.7228     16.7321    104.3475
   966.5000      0.0000    471.5649     16.6701    103.3215
   966.7500      0.0000    496.6341     16.5453     99.5249
   967.0000      0.0000    541.7602     16.3405     94.7940
   967.2500      0.0000    601.8566     16.0540     91.5016
   967.5000      0.0000    657.8710     15.6857     91.0146
   967.7500      0.0000    690.5645     15.2417     93.1893
   968.0000      0.0000    689.5723     14.7715     96.4527
   968.2500      0.0000    653.9921     14.3673     98.7345
   968.5000      0.0000    592.6882     14.0613     99.2405
   968.7500      0.0000    525.3937     13.7188     99.4584
   969.0000      0.0000    476.4167     13.1194    101.9124
   969.2500      0.0000    460.7654     12.2131    107.6726
   969.5000      0.0000    475.8755     11.2640    115.1610
   969.7500      0.0000    509.0994     10.6669    121.3966
   970.0000      0.0000    551.9306     10.6111    124.2608
   970.2500      0.0000    602.9232     10.9538    123.6671
   970.5000      0.0000    657.3677     11.4051    120.9643
   970.7500     -2.0000    702.1274     11.7766    117.5262
   971.0000      0.0000    725.2974     12.0690    113.8753
   971.2500      0.0000    726.8858     12.4122    109.8740
   971.5000      0.0000    715.9208     12.9494    105.2786
   971.7500      0.0000    699.2354     13.7170     99.8721
   972.0000      0.0000    675.7936     14.6017     93.5490
   972.2500      0.0000    639.5518     15.4430     86.7348
   972.5000      0.0000    585.9711     16.1725     80.5614
   972.7500      0.0000    518.6786     16.8090     76.3741
   973.0000      0.0000    451.1018     17.3267     74.9151
   973.2500      0.0000    399.3972     17.5979     75.8546
   973.5000      0.0000    372.7091     17.4939     78.1256
   973.7500      0.0000    369.4215     17.0202     80.7412
   974.0000      0.0000    380.0807     16.3424     83.0885
   974.2500      0.0000    392.9643     15.6947     84.4734
   974.5000      0.0000    399.4607     15.2502     83.9329
   974.7500      0.0000    397.2991     15.0376     81.0387
   975.0000      0.0000    389.6414     14.9530     76.7380
   975.2500      0.0000    381.2505     14.8576     72.7886
   975.5000      0.0000    375.1595     14.6871     70.1406
   975.7500      0.0000    371.8987     14.4839     68.3746
   976.0000      0.0000    370.6524     14.3362     67.0238
   976.2500      0.0000    370.7229     14.2927     66.7346
   976.5000      0.0000    372.6190     14.3293     68.4611
   976.7500      0.0000    378.9970     14.3819     72.0367
   977.0000      0.0000    395.2002     14.4035     76.2029
   977.2500      0.0000    427.7643     14.3937     79.7793
   977.5000      0.0000    479.7301     14.3810     82.4073
   977.7500      0.0000    545.7165     14.3860     84.4064
   978.0000      0.0000    612.3045     14.4050     86.2786
   978.2500      0.0000    664.5098     14.4203     88.2843
   978.5000      0.0000    691.7203     14.4186     90.2370
   978.7500      0.0000    688.2786     14.4055     91.6515
   979.0000      0.0000    652.6165     14.4174     92.0974
   979.2500      0.0000    589.9979     14.5182     91.3807
   979.5000      0.0000    515.0636     14.7687     89.5326
   979.7500      0.0000    446.8272     15.1847     86.9762
   980.0000      0.0000    398.3161     15.7185     84.9051
   980.2500      0.0000    371.0499     16.2815     85.2778
   980.5000      0.0000    358.4200     16.7836     89.9962
   980.7500      0.0000    352.4575     17.1591     99.6616
   981.0000      0.0000    347.9884     17.3839    112.7984
   981.2500      0.0000    343.1802     17.4945    126.4185
   981.5000      0.0000    338.7109     17.5809    137.8312
   981.7500      0.0000    337.4488     17.7270    146.1445
   982.0000      0.0000    344.9926     17.9404    152.0649
   982.2500      0.0000    369.3889     18.1376    156.5641
   982.5000      0.0000    417.0669     18.1989    159.8521
   982.7500      0.0000    485.0925     18.0431    161.1085
   983.0000      0.0000    557.6783     17.6741    158.9411
   983.2500      0.0000    615.3458     17.1741    152.7541
   983.5000      0.0000    650.3676     16.6517    144.1328
   983.7500      0.0000    670.8668     16.1847    136.4585
   984.0000      0.0000    688.9288     15.8003    132.5628
   984.2500      0.0000    708.4305     15.4987    132.5731
   984.5000      0.0000    725.6061     15.2839    133.9150
   984.7500      0.0000    736.7891     15.1662    133.4430
   985.0000      0.0000    742.1631     15.1414    130.0494
   985.2500      0.0000    744.0198     15.1754    125.6560
   985.5000      0.0000    744.3488     15.2123    123.5064
   985.7500      0.0000    744.1558     15.1952    125.2164
   986.0000      0.0000    743.8386     15.0866    129.3693
   986.2500      0.0000    743.5499     14.8873    132.7854
   986.5000      0.0000    743.3688     14.6494    133.0022
   986.7500      0.0000    743.3103     14.4566    129.7778
   987.0000      0.0000    743.3403     14.3698    124.7773
   987.2500      0.0000    743.3838     14.3848    120.2376
   987.5000      0.0000    743.3264     14.4453    117.8689
   987.7500      0.0000    743.0055     14.4947    118.4929
   988.0000      0.0000    741.9996     14.5130    121.9962
   988.2500      0.0000    738.9689     14.5084    127.4440
   988.5000      0.0000    730.5438     14.4835    133.5947
   988.7500      0.0000    710.9622     14.4185    139.4359
   989.0000      0.0000    674.9149     14.2906    144.1295
   989.2500      0.0000    624.0480     14.1040    147.0017
   989.5000      0.0000    571.8226     13.8938    148.1142
   989.7500      0.0000    539.1962     13.6977    148.2736
   990.0000      0.0000    541.5463     13.5263    147.6947
   990.2500      0.0000    577.5908     13.3569    145.1131
   990.5000      0.0000    630.4779     13.1574    139.2465
   990.7500      0.0000    679.8160     12.9208    131.1557
   991.0000      0.0000    713.6756     12.6762    124.1204
   991.2500      0.0000    731.4489     12.4625    120.6645
   991.5000      0.0000    738.6478     12.2930    120.1639
   991.7500      0.0000    740.8912     12.1464    119.5981
   992.0000      0.0000    741.4439     11.9963    116.2571
   992.2500      0.0000    741.5875     11.8433    109.6163
   992.5000      0.0000    741.6304     11.7174    101.1188
   992.7500      0.0000    741.5880     11.6460     92.6830
   993.0000      0.0000    741.4739     11.6214     85.5457
   993.2500      0.0000    741.3398     11.6046     80.3105
   993.5000      0.0000    741.2763     11.5673     77.4853
   993.7500      0.0000    741.5103     11.5304     77.3255
   994.0000      0.0000    742.5907     11.5578     79.1509
   994.2500      0.0000    745.4054     11.7069     81.2714
   994.5000      0.0000    750.7437     11.9817     81.9314
   994.7500      0.0000    758.5067     12.3333     80.3609
   995.0000      0.0000    767.2796     12.6983     76.7947
   995.2500      0.0000    774.9354     13.0349     71.7942
   995.5000      0.0000    779.8217     13.3236     66.0348
   995.7500      0.0000    781.4703     13.5507     60.6524
   996.0000      0.0000    780.5717     13.7102     57.2443
   996.2500      0.0000    778.6502     13.8292     57.1549
   996.5000      0.0000    777.2121     13.9754     60.7475
