~Version Information
VERS.                      2.0: CWLS Log ASCII Standard - VERSION 2.0
WRAP.                       NO: One line per depth step
~Well Information Block
STRT.FT                 0.0000: 
STOP.FT              1528.0000: 
STEP.FT                 0.1000: 
NULL.                -999.2500: 
COMP.          Pioneer Natural Resources: COMPANY
WELL.             Andrew 23-15: WELL
FLD.           Purgatorie River: FIELD
LOC.           2137' FSL & 2292' FWL: LOCATION
PROV.                 Colorado: PROVINCE
CNTY.               Las Animas: COUNTRY
SRVC.                Patterson: SERVICE COMPANY
DATE.          Sat Aug 13 12:06:57 2005: LOG DATE
UWI.                          : UNIQUE WELL ID
~Curve Information Block
DEPT.FT            0 000 00 00: Depth
DCAL.in                       : CDL Caliper
RHOB.g/cc                     : CDL Bulk Density
RHOC.g/cc                     : CDL Density Correction
DPOR.pu                       : CDL Density Porosity
GR.GAPI                       : Gamma Ray
NPOR.pu                       : Neutron Porosity
~Parameter Information Block
~A  Depth       DCAL        RHOB        RHOC        DPOR         GR         NPOR    
# ...
  1315.2000      7.8026      2.5879      0.0591      3.7653    111.3742     24.7803
  1315.3000      7.8086      2.5749      0.0520      4.5528    111.1660     24.8974
  1315.4000      7.8086      2.5657      0.0451      5.1068    112.5639     25.1571
  1315.5000      7.8153      2.5671      0.0439      5.0260    113.0718     25.4216
  1315.6000      7.8153      2.5825      0.0521      4.0890    110.5988     25.4147
  1315.7000      7.8153      2.6043      0.0584      2.7706    105.5506     25.2360
  1315.8000      7.8000      2.6219      0.0658      1.7050     99.9955     25.0772
  1315.9000      7.8000      2.6237      0.0856      1.5913     96.8893     24.8476
  1316.0000      7.7861      2.6006      0.0609      2.9942     97.3239     24.5243
  1316.1000      7.7861      2.5617      0.0298      5.3504    100.0205     24.2293
  1316.2000      7.7861      2.5336     -0.0101      7.0558    103.1773     23.7983
  1316.3000      7.8077      2.5356     -0.0218      6.9326    105.0020     23.2411
  1316.4000      7.8077      2.5584      0.0442      5.5524    106.1267     22.9134
  1316.5000      7.7832      2.5781      0.0522      4.3569    107.0360     22.8093
  1316.6000      7.7832      2.5890      0.0540      3.6945    106.7697     22.8116
  1316.7000      7.7832      2.5975      0.1109      3.1815    107.2683     22.9637
  1316.8000      7.7740      2.6014      0.0827      2.9444    109.8054     23.1200
  1316.9000      7.7740      2.6002      0.0891      3.0189    112.0073     23.1452
  1317.0000      7.7672      2.5941      0.1501      3.3878    112.9542     23.0847
  1317.1000      7.7672      2.5781      0.0760      4.3599    113.8301     22.9276
  1317.2000      7.7672      2.5558      0.0743      5.7066    115.8548     22.7328
  1317.3000      7.7373      2.5388      0.0587      6.7388    118.8100     22.6363
  1317.4000      7.7373      2.5349      0.0810      6.9781    121.0386     22.6993
  1317.5000      7.7722      2.5431      0.0815      6.4787    121.4999     22.9406
  1317.6000      7.7722      2.5524      0.0993      5.9144    121.9310     23.1547
  1317.7000      7.7722      2.5509      0.0863      6.0032    124.4117     23.1655
  1317.8000      7.7628      2.5491      0.0518      6.1177    127.2184     23.2547
  1317.9000      7.7628      2.5671      0.0578      5.0264    127.0240     23.7931
  1318.0000      7.7788      2.6002      0.1323      3.0201    123.4952     24.6242
  1318.1000      7.7788      2.6267      0.1299      1.4111    120.3601     25.1907
  1318.2000      7.7788      2.6332      0.1618      1.0203    119.2626     25.1317
  1318.3000      7.8098      2.6189      0.1314      1.8859    118.9826     24.6880
  1318.4000      7.8098      2.6002      0.0635      3.0209    119.7757     24.4531
  1318.5000      7.8132      2.5946      0.0743      3.3578    119.5392     24.5799
  1318.6000      7.8132      2.5988      0.1033      3.1038    117.0044     24.7908
  1318.7000      7.8132      2.6062      0.0655      2.6575    116.2293     24.8333
  1318.8000      7.8014      2.6214      0.1072      1.7331    119.0265     24.7201
  1318.9000      7.8014      2.6407      0.1150      0.5637    122.0042     24.6716
  1319.0000      7.8075      2.6537      0.1181     -0.2237    121.4691     24.8731
  1319.1000      7.8075      2.6588      0.1069     -0.5324    117.6446     25.2966
  1319.2000      7.8075      2.6554      0.1457     -0.3280    114.4429     25.7729
  1319.3000      7.8096      2.6396      0.1207      0.6309    112.9074     25.9438
  1319.4000      7.8096      2.6142      0.0924      2.1710    111.9727     25.4910
  1319.5000      7.8141      2.5928      0.0415      3.4662    112.2302     24.7949
  1319.6000      7.8141      2.5894      0.0270      3.6698    112.3411     24.3752
  1319.7000      7.8141      2.5991      0.0423      3.0866    111.1111     24.1917
  1319.8000      7.8002      2.6014      0.0388      2.9426    111.5477     24.0936
  1319.9000      7.8002      2.5851      0.0466      3.9342    114.8601     24.0816
  1320.0000      7.8740      2.5609      0.0302      5.4002    117.2578     24.0864
  1320.1000      7.8740      2.5486      0.0217      6.1468    114.9772     24.0085
  1320.2000      7.8740      2.5499      0.0547      6.0696    111.2844     23.8650
  1320.3000      7.9077      2.5488      0.0604      6.1333    111.3984     23.6279
  1320.4000      7.9077      2.5350      0.0348      6.9709    114.5488     23.2065
  1320.5000      7.8848      2.5106      0.0324      8.4466    117.9367     22.6768
  1320.6000      7.8848      2.4816     -0.0116     10.2074    120.3361     22.0669
  1320.7000      7.8848      2.4518     -0.0022     12.0092    121.7400     21.2457
  1320.8000      7.8864      2.4231     -0.0112     13.7497    121.5822     20.4936
  1320.9000      7.8864      2.3992      0.0198     15.1973    119.7322     20.3368
  1321.0000      7.8788      2.3882     -0.0111     15.8659    119.1439     20.6739
  1321.1000      7.8788      2.3930      0.0363     15.5768    122.0071     20.9906
  1321.2000      7.8788      2.4023      0.0467     15.0121    125.3294     21.2692
  1321.3000      7.8766      2.4077      0.0513     14.6832    125.7593     21.7562
  1321.4000      7.8766      2.4143      0.0383     14.2853    123.6590     22.4158
  1321.5000      7.8293      2.4255      0.0886     13.6040    120.2154     23.0290
  1321.6000      7.8293      2.4378      0.0777     12.8583    119.6687     23.3536
  1321.7000      7.8293      2.4499      0.0860     12.1270    124.4443     23.3809
  1321.8000      7.8063      2.4615      0.0802     11.4243    128.5996     23.4735
  1321.9000      7.8063      2.4680      0.1062     11.0323    127.5475     23.8406
  1322.0000      7.7968      2.4675      0.0810     11.0625    124.1816     24.2581
  1322.1000      7.7968      2.4727      0.0468     10.7434    122.7576     24.5269
  1322.2000      7.7968      2.4914      0.0967      9.6099    122.3872     24.7138
  1322.3000      7.8059      2.5120      0.0829      8.3638    120.0025     24.8338
  1322.4000      7.8059      2.5248      0.0784      7.5860    116.0258     24.8231
  1322.5000      7.8536      2.5214      0.0924      7.7933    113.2820     24.5317
  1322.6000      7.8536      2.4868      0.0824      9.8926    113.4752     23.7081
  1322.7000      7.8536      2.4103      0.0704     14.5259    113.9596     22.5373
  1322.8000      7.8716      2.2894      0.0687     21.8536    111.0047     21.3622
  1322.9000      7.8716      2.1439      0.0208     30.6708    105.2266     20.0977
  1323.0000      7.8708      2.0105      0.0338     38.7565    100.8618     18.6701
  1323.1000      7.8708      1.8943      0.0300     45.8007     99.7585     17.5060
  1323.2000      7.8708      1.7788     -0.0397     52.7985     97.0258     16.7357
  1323.3000      7.7139      1.6759     -0.0751     59.0342     90.1765     15.9017
  1323.4000      7.7139      1.6116     -0.0312     62.9308     83.5569     15.1324
  1323.5000      7.6906      1.5851      0.0664     64.5404     80.0143     14.9705
  1323.6000      7.6906      1.5735      0.1594     65.2433     77.9991     15.2494
  1323.7000      7.6906      1.5660      0.1528     65.6991     75.1957     15.5278
  1323.8000      7.6746      1.5723      0.1449     65.3153     70.6668     15.7803
  1323.9000      7.6746      1.6069      0.1145     63.2176     66.8783     16.0766
  1324.0000      7.7870      1.6762      0.1140     59.0197     67.1826     16.6698
  1324.1000      7.7870      1.7730      0.1222     53.1532     70.8585     17.9043
  1324.2000      7.7870      1.8870      0.1745     46.2417     75.6930     19.4764
  1324.3000      7.8628      2.0187      0.1852     38.2630     81.7071     20.7999
  1324.4000      7.8628      2.1619      0.2240     29.5798     88.0330     21.8149
  1324.5000      8.0269      2.2789      0.3132     22.4914     92.1133     22.7300
  1324.6000      8.0269      2.3445      0.2300     18.5141     93.8502     23.5057
  1324.7000      8.0269      2.3928      0.1320     15.5875     94.9272     24.0686
