~Version Information
VERS.                      2.0: CWLS Log ASCII Standard - VERSION 2.0
WRAP.                       NO: One line per depth step
~Well Information Block
STRT.FT                -8.5000: 
STOP.FT              2823.2500: 
STEP.FT                 0.2500: 
NULL.                -999.2500: 
COMP.          Pioneer Natural Resources: COMPANY
WELL.                AMX 13-13: WELL
FLD.           Purgatorie River: FIELD
LOC.           2316' FSL & 865' FWL--: LOCATION
PROV.                       CO: PROVINCE
CNTY.               Las Animas: COUNTRY
SRVC.          Patterson Wireline: SERVICE COMPANY
DATE.          Tue Dec 27 10:40:58 2005: LOG DATE
UWI.           05 071 08630 00: UNIQUE WELL ID
~Curve Information Block
DEPT.FT            0 000 00 00: Depth
CCL.                          : Casing Collar Locator
TT3.usec                      : CBL 3' Travel Time
AMP3.mV                       : CBL 3' Amplitude
GR.GAPI                       : Gamma Ray
~Parameter Information Block
~A  Depth       CCL         TT3         AMP3         GR     
# ...
   929.5000      0.0000    683.1950      9.4477    132.4476
   929.7500      0.0000    682.4511      9.4926    142.0887
   930.0000      0.0000    681.9592      9.5429    150.0340
   930.2500      0.0000    681.6705      9.5803    156.3049
   930.5000      0.0000    681.5225      9.5866    160.5978
   930.7500      0.0000    681.4433      9.5525    162.4057
   931.0000      0.0000    681.3869      9.4797    161.7282
   931.2500      0.0000    681.3436      9.3794    159.4739
   931.5000      0.0000    681.3256      9.2693    156.8949
   931.7500      0.0000    681.3589      9.1674    154.6745
   932.0000      0.0000    681.4841      9.0847    152.7790
   932.2500      0.0000    681.7718      9.0233    150.8604
   932.5000      0.0000    682.3484      8.9812    148.2937
   932.7500      0.0000    683.4343      8.9568    144.1279
   933.0000      0.0000    685.2678      8.9506    137.8371
   933.2500      0.0000    687.7614      8.9634    130.4681
   933.5000      0.0000    690.1600      8.9946    124.6376
   933.7500      0.0000    691.4359      9.0391    122.9780
   934.0000      0.0000    691.4971      9.0850    126.3581
   934.2500      0.0000    691.8504      9.1153    133.1595
   934.5000      0.0000    694.5397      9.1141    139.9680
   934.7500      0.0000    700.2560      9.0754    143.3899
   935.0000      0.0000    707.6256      9.0060    141.8169
   935.2500      0.0000    714.3964      8.9196    135.9018
   935.5000      0.0000    719.2451      8.8276    127.6320
   935.7500      0.0000    722.5581      8.7337    118.9105
   936.0000      0.0000    725.8464      8.6348    110.7940
   936.2500      0.0000    730.6460      8.5194    103.9041
   936.5000      0.0000    737.5621      8.3713     99.2730
   936.7500      0.0000    745.6876      8.1834     98.2692
   937.0000      0.0000    752.7405      7.9712    101.4728
   937.2500      0.0000    756.2679      7.7695    107.7144
   937.5000      0.0000    755.3727      7.6112    114.2507
   937.7500      0.0000    751.4200      7.5116    118.1235
   938.0000      0.0000    747.0779      7.4669    117.9561
   938.2500      0.0000    744.9356      7.4628    114.8294
   938.5000      0.0000    746.8384      7.4845    111.3059
   938.7500      0.0000    753.1580      7.5297    109.3818
   939.0000      0.0000    761.5768      7.6135    109.1887
   939.2500      0.0000    767.5343      7.7512    109.3849
   939.5000      0.0000    767.3528      7.9313    108.4932
   939.7500      0.0000    760.9243      8.1138    105.9163
   940.0000      0.0000    751.1132      8.2612    102.1017
   940.2500      0.0000    741.7244      8.3671     98.1407
   940.5000      0.0000    736.4579      8.4498     95.1552
   940.7500      0.0000    737.6819      8.5288     93.8505
   941.0000      0.0000    744.0479      8.6119     94.4853
   941.2500      0.0000    749.9657      8.6952     96.9390
   941.5000      0.0000    749.1629      8.7663    100.4398
   941.7500      0.0000    739.4034      8.8097    103.4247
   942.0000      0.0000    724.0099      8.8189    104.2865
   942.2500      0.0000    709.2654      8.8064    102.6404
   942.5000      0.0000    700.3270      8.7975     99.8760
   942.7500      0.0000    698.8560      8.8111     98.4799
   943.0000      0.0000    703.2265      8.8452    100.6516
   943.2500      0.0000    710.1932      8.8817    107.0516
   943.5000      0.0000    716.6796      8.8974    116.3739
   943.7500      0.0000    720.7010      8.8756    126.0334
   944.0000      0.0000    721.0198      8.8147    133.6198
   944.2500      0.0000    716.7991      8.7307    138.0206
   944.5000      0.0000    708.5153      8.6460    139.2993
   944.7500      0.0000    698.6880      8.5735    137.9159
   945.0000      0.0000    690.4615      8.5134    134.5256
   945.2500      0.0000    685.4135      8.4658    130.1985
   945.5000      0.0000    683.1125      8.4413    126.2170
   945.7500      0.0000    682.3137      8.4564    123.7334
   946.0000      0.0000    682.0518      8.5173    123.6890
   946.2500      0.0000    681.9055      8.6109    126.4111
   946.5000      0.0000    681.7934      8.7120    130.9008
   946.7500      0.0000    681.7496      8.8024    134.9908
   947.0000      0.0000    681.8060      8.8833    136.7565
   947.2500      0.0000    681.9922      8.9667    136.0162
   947.5000      0.0000    682.3649      9.0556    134.4451
   947.7500      0.0000    683.0569      9.1347    133.9100
   948.0000      0.0000    684.3389      9.1840    134.5570
   948.2500      0.0000    686.5223      9.1962    134.9377
   948.5000      0.0000    689.5188      9.1794    133.9289
   948.7500      0.0000    692.3969      9.1461    131.6763
   949.0000      0.0000    693.7536      9.1041    128.6786
   949.2500      0.0000    692.9667      9.0589    125.1270
   949.5000      0.0000    691.0447      9.0166    121.4978
   949.7500      0.0000    690.1223      8.9769    118.7104
   950.0000      0.0000    692.1974      8.9224    117.1950
   950.2500      0.0000    697.8906      8.8153    116.4393
   950.5000      0.0000    705.4865      8.6055    115.7971
   950.7500      0.0000    711.2928      8.2459    115.3263
   951.0000      0.0000    712.2458      7.7158    115.5803
   951.2500      0.0000    708.7016      7.0483    116.7360
   951.5000      0.0000    703.9869      6.3369    118.2306
   951.7500      0.0000    701.0934      5.7012    119.3560
   952.0000      0.0000    700.5720      5.2241    119.9938
   952.2500      0.0000    701.4350      4.9152    120.5717
   952.5000      0.0000    703.1027      4.7319    121.4749
   952.7500      0.0000    706.0030      4.6282    122.7735
   953.0000      0.0000    710.3129      4.5767    124.4087
   953.2500      0.0000    714.3146      4.5618    126.3188
   953.5000      0.0000    715.4648      4.5784    128.2929
   953.7500      0.0000    715.0458      4.6486    129.9363
   954.0000      0.0000    721.3927      4.8260    130.8022
   954.2500      0.0000    745.7540      5.1672    130.2465
   954.5000      0.0000    792.7746      5.6909    127.1655
   954.7500      0.0000    853.5952      6.3566    120.5242
   955.0000      0.0000    907.7169      7.0781    110.6205
   955.2500      0.0000    934.1516      7.7605     99.4555
   955.5000      2.0000    925.2896      8.3356     89.3449
   955.7500     -2.0000    891.6076      8.7701     81.1806
   956.0000      0.0000    852.1937      9.0622     74.2553
   956.2500      0.0000    821.3032      9.2718     67.6216
   956.5000      0.0000    803.6160      9.5473     61.2360
   956.7500      0.0000    797.3558     10.0288     55.7475
   957.0000      0.0000    797.2570     10.6535     51.6969
   957.2500      0.0000    795.7869     11.1224     49.1805
   957.5000      0.0000    786.0971     11.1591     47.9797
   957.7500      0.0000    766.5732     10.7759     47.7418
   958.0000      0.0000    742.4991     10.2241     48.0601
   958.2500      0.0000    722.0764      9.7385     48.5505
   958.5000      0.0000    710.1876      9.3925     49.0738
   958.7500      0.0000    705.7590      9.1466     49.9306
   959.0000      0.0000    704.4374      8.9491     51.4513
   959.2500      0.0000    702.8225      8.7828     53.1628
   959.5000      0.0000    700.2119      8.6581     53.8331
   959.7500      0.0000    697.3913      8.5926     52.7416
   960.0000      0.0000    694.9270      8.5946     50.7134
   960.2500      0.0000    692.9127      8.6576     49.5976
   960.5000      0.0000    691.6873      8.7626     50.5472
   960.7500      0.0000    692.0364      8.8855     52.8557
   961.0000      0.0000    694.5866      9.0034     54.8539
   961.2500      0.0000    699.2300      9.0989     55.9838
   961.5000      0.0000    705.1863      9.1616     57.2487
   961.7500      0.0000    711.8044      9.1891     59.3526
   962.0000      0.0000    719.2838      9.1847     61.3831
   962.2500      0.0000    728.1283      9.1561     61.9401
   962.5000      0.0000    737.4844      9.1145     60.8622
   962.7500      0.0000    744.4047      9.0722     59.3431
