~Version Information
VERS.                      2.0: CWLS Log ASCII Standard - VERSION 2.0
WRAP.                       NO: One line per depth step
~Well Information Block
STRT.FT                -7.2500: 
STOP.FT              1334.7500: 
STEP.FT                 0.2500: 
NULL.                -999.2500: 
COMP.          Pioneer Natural Resources: COMPANY
WELL.          Buffet 41-36 Tr: WELL
FLD.           Purgatorie River: FIELD
LOC.           119' FNL & 271' FEL--: LOCATION
PROV.                       CO: PROVINCE
CNTY.               Las Animas: COUNTRY
SRVC.          Patterson Wireline: SERVICE COMPANY
DATE.          Tue Jan 03 09:43:31 2006: LOG DATE
UWI.           05 071 08627 00: UNIQUE WELL ID
~Curve Information Block
DEPT.FT            0 000 00 00: Depth
CCL.                          : Casing Collar Locator
TT3.usec                      : CBL 3' Travel Time
AMP3.mV                       : CBL 3' Amplitude
GR.GAPI                       : Gamma Ray
~Parameter Information Block
~A  Depth       CCL         TT3         AMP3         GR     
# ...
   260.7500      0.0000    689.8719      7.9401    101.2703
   261.0000      0.0000    690.0286      7.9150    103.1237
   261.2500      0.0000    690.2830      7.8728    105.6630
   261.5000      0.0000    690.5698      7.8193    107.9976
   261.7500      0.0000    690.7802      7.7618    109.0960
   262.0000      0.0000    690.8124      7.7097    109.0772
   262.2500      0.0000    690.6411      7.6746    109.2152
   262.5000      0.0000    690.3444      7.6641    110.5988
   262.7500      0.0000    690.0547      7.6738    113.1305
   263.0000      0.0000    689.9340      7.6874    115.9860
   263.2500      0.0000    690.2563      7.6876    118.4033
   263.5000      0.0000    691.5354      7.6669    119.5923
   263.7500      0.0000    694.3500      7.6287    118.5798
   264.0000      0.0000    698.6084      7.5823    114.8443
   264.2500      0.0000    702.8228      7.5378    108.7910
   264.5000      0.0000    704.6798      7.5013    101.3404
   264.7500      0.0000    702.9810      7.4709     93.3746
   265.0000      0.0000    698.8431      7.4402     85.4206
   265.2500      0.0000    694.6027      7.4052     77.3048
   265.5000      0.0000    691.8528      7.3688     68.4268
   265.7500      0.0000    690.7972      7.3367     59.0250
   266.0000      0.0000    690.9830      7.3124     50.7916
   266.2500      0.0000    692.1007      7.2946     45.5995
   266.5000      0.0000    694.1006      7.2805     43.9063
   266.7500      0.0000    696.9342      7.2716     44.8437
   267.0000      0.0000    700.4423      7.2741     47.4258
   267.2500      0.0000    704.4215      7.2923     50.9776
   267.5000      0.0000    708.6427      7.3207     54.5993
   267.7500      0.0000    713.2296      7.3468     56.9682
   268.0000      0.0000    719.2368      7.3618     57.0323
   268.2500      0.0000    727.7382      7.3664     54.7657
   268.5000      0.0000    737.4744      7.3691     51.1608
   268.7500      0.0000    745.0216      7.3806     47.6676
   269.0000      0.0000    748.7759      7.4104     45.6774
   269.2500      0.0000    751.7452      7.4629     46.0356
   269.5000      0.0000    759.0280      7.5325     48.4443
   269.7500      0.0000    773.6409      7.6032     51.4573
   270.0000      0.0000    795.2437      7.6573     53.6545
   270.2500      0.0000    820.4957      7.6878     54.9601
   270.5000      0.0000    842.7965      7.7047     56.4152
   270.7500      0.0000    854.1060      7.7247     58.6674
   271.0000      0.0000    850.6653      7.7508     61.0984
   271.2500      0.0000    836.8599      7.7620     62.4197
   271.5000      0.0000    821.3405      7.7300     61.7376
   271.7500      0.0000    809.7781      7.6480     58.9940
   272.0000      0.0000    802.3882      7.5397     54.7887
   272.2500      0.0000    796.8242      7.4390     50.1196
   272.5000      0.0000    791.4152      7.3648     46.2071
   272.7500      0.0000    785.9001      7.3160     44.1431
   273.0000      0.0000    780.4509      7.2832     44.3937
   273.2500      0.0000    774.9937      7.2590     46.6258
   273.5000      0.0000    769.4302      7.2398     49.9744
   273.7500      0.0000    764.1919      7.2223     53.3024
   274.0000      0.0000    760.2399      7.2034     55.3457
   274.2500      0.0000    758.5689      7.1830     55.2071
   274.5000      0.0000    759.3743      7.1612     52.9819
   274.7500      0.0000    761.3497      7.1302     49.6061
   275.0000      0.0000    762.1749      7.0769     45.9442
   275.2500      0.0000    760.2971      6.9984     42.3058
   275.5000      0.0000    756.2566      6.9089     38.8654
   275.7500      0.0000    752.1971      6.8299     36.0849
   276.0000      0.0000    750.3309      6.7799     34.5196
   276.2500      0.0000    751.5820      6.7706     34.3904
   276.5000      0.0000    754.8191      6.8033     35.3659
   276.7500      0.0000    757.3832      6.8657     36.6501
   277.0000      0.0000    757.3522      6.9348     37.4548
   277.2500      0.0000    755.5344      6.9884     37.6369
   277.5000      0.0000    754.6522      7.0153     37.8132
   277.7500      0.0000    756.3782      7.0141     38.7660
   278.0000      0.0000    759.4454      6.9823     40.7016
   278.2500      0.0000    760.5970      6.9064     42.9656
   278.5000      0.0000    757.2427      6.7720     44.5097
   278.7500      0.0000    750.0099      6.5978     44.8786
   279.0000      0.0000    744.4838      6.4456     44.7238
   279.2500      0.0000    750.5671      6.3645     45.0591
   279.5000      0.0000    776.3607      6.3306     45.9854
   279.7500      0.0000    818.1772      6.2814     46.4138
   280.0000      0.0000    857.8455      6.2014     45.1061
   280.2500      0.0000    875.0815      6.1286     41.8542
   280.5000      0.0000    863.6537      6.0937     37.6731
   280.7500     -2.0000    832.9323      6.0966     34.0654
   281.0000      2.0000    795.7744      6.1364     32.2485
   281.2500      0.0000    759.5297      6.2375     32.8969
   281.5000      0.0000    726.8012      6.4366     36.1830
   281.7500      0.0000    698.9003      6.7354     41.8367
   282.0000      0.0000    677.0212      7.0666     49.2303
   282.2500      0.0000    661.9119      7.3300     57.5699
   282.5000      0.0000    653.2462      7.4768     66.0813
   282.7500      0.0000    649.4264      7.5397     73.9191
   283.0000      0.0000    648.3094      7.5751     79.8986
   283.2500      0.0000    648.2139      7.6094     82.8192
   283.5000      0.0000    648.3199      7.6436     82.5252
   283.7500      0.0000    648.4729      7.6779     80.3142
   284.0000      0.0000    648.9312      7.7151     77.9140
   284.2500      0.0000    650.2477      7.7580     76.4123
   284.5000      0.0000    653.2056      7.8095     76.1692
   284.7500      0.0000    658.4473      7.8732     77.0874
   285.0000      0.0000    665.7508      7.9468     78.7571
   285.2500      0.0000    673.6138      8.0203     80.6308
   285.5000      0.0000    679.8586      8.0801     82.1239
   285.7500      0.0000    682.9691      8.1207     82.7189
   286.0000      0.0000    683.0671      8.1511     82.2633
   286.2500      0.0000    681.8138      8.1869     81.0778
   286.5000      0.0000    681.2849      8.2336     79.6974
   286.7500      0.0000    682.5261      8.2763     78.8156
   287.0000      0.0000    685.0047      8.2901     79.3636
   287.2500      0.0000    687.4686      8.2630     81.9340
   287.5000      0.0000    689.1422      8.2079     85.9001
   287.7500      0.0000    690.0297      8.1531     89.5011
   288.0000      0.0000    690.4579      8.1228     90.9580
   288.2500      0.0000    690.6726      8.1224     89.5569
   288.5000      0.0000    690.7728      8.1392     85.9666
   288.7500      0.0000    690.7948      8.1573     81.8562
   289.0000      0.0000    690.7748      8.1704     79.1375
   289.2500      0.0000    690.7672      8.1831     79.0142
   289.5000      0.0000    690.8162      8.2026     81.0844
   289.7500      0.0000    690.9238      8.2358     83.3978
   290.0000      0.0000    691.0646      8.2914     84.0035
   290.2500      0.0000    691.2327      8.3747     82.7080
   290.5000      0.0000    691.4416      8.4753     81.0765
   290.7500      0.0000    691.6672      8.5665     80.8016
   291.0000      0.0000    691.8376      8.6230     82.4415
   291.2500      0.0000    691.9023      8.6385     85.5076
   291.5000      0.0000    691.8865      8.6269     89.0718
   291.7500      0.0000    691.8600      8.6090     92.1533
   292.0000      0.0000    691.8738      8.5979     94.0719
   292.2500      0.0000    691.9285      8.5901     94.8907
   292.5000      0.0000    691.9819      8.5690     95.3960
   292.7500      0.0000    691.9821      8.5178     96.2128
   293.0000      0.0000    691.9154      8.4351     96.8390
   293.2500      0.0000    691.8373      8.3393     95.8719
   293.5000      0.0000    691.8472      8.2535     92.4169
   293.7500      0.0000    692.0111      8.1864     87.1364
   294.0000      0.0000    692.2974      8.1297     81.8833
