~Version Information
VERS.                      2.0: CWLS Log ASCII Standard - VERSION 2.0
WRAP.                       NO: One line per depth step
~Well Information Block
STRT.FT               330.0000: 
STOP.FT              2874.7000: 
STEP.FT                 0.1000: 
NULL.                -999.2500: 
COMP.          Pioneer Natural Resources: COMPANY
WELL.                AMX 13-13: WELL
FLD.           Purgatoire River: FIELD
LOC.           2316' FSL & 865' FWL--: LOCATION
PROV.                 Colorado: PROVINCE
CNTY.               Las Animas: COUNTRY
SRVC.                Patterson: SERVICE COMPANY
DATE.          Tue Dec 20 09:57:28 2005: LOG DATE
UWI.           05 071 08630 00: UNIQUE WELL ID
~Curve Information Block
DEPT.FT            0 000 00 00: Depth
DCAL.in                       : CDL Caliper
RHOB.g/cc                     : CDL Bulk Density
RHOC.g/cc                     : CDL Density Correction
DPOR.pu                       : CDL Density Porosity
NPOR.pu                       : Neutron Porosity
GR.GAPI                       : Gamma Ray
~Parameter Information Block
~A  Depth       DCAL        RHOB        RHOC        DPOR        NPOR         GR     
# ...
   493.2000      8.2787      2.5760      0.0511      4.4837     20.7386    118.1805
   493.3000      8.3296      2.5817      0.0896      4.1387     21.1732    125.7541
   493.4000      8.3296      2.5943      0.0875      3.3742     21.4228    127.1292
   493.5000      8.4156      2.6219      0.1282      1.7009     21.4524    124.8394
   493.6000      8.4156      2.6475      0.1493      0.1533     21.4413    122.6224
   493.7000      8.4156      2.6438      0.1873      0.3787     21.3728    121.8665
   493.8000      8.5178      2.6101      0.1137      2.4212     21.2662    122.8227
   493.9000      8.5178      2.5673      0.1168      5.0127     21.2025    125.0289
   494.0000      8.5998      2.5254      0.0270      7.5542     21.0791    128.6870
   494.1000      8.5998      2.4873      0.0133      9.8628     21.0762    133.5992
   494.2000      8.5998      2.4585     -0.0153     11.6060     21.4353    137.5331
   494.3000      8.6550      2.4282      0.0458     13.4443     21.6886    137.6187
   494.4000      8.6550      2.3809     -0.0355     16.3107     21.4682    132.5697
   494.5000      8.7261      2.3334     -0.0804     19.1899     21.0240    126.2592
   494.6000      8.7261      2.3031     -0.0496     21.0241     20.5461    125.8111
   494.7000      8.7261      2.2802     -0.0055     22.4117     20.0776    133.9064
   494.8000      8.8504      2.2648     -0.0527     23.3452     19.6706    144.9346
   494.9000      8.8504      2.2764     -0.0262     22.6426     19.2119    149.7956
   495.0000      8.9960      2.3163      0.0741     20.2244     18.6538    147.1612
   495.1000      8.9960      2.3607      0.1594     17.5309     18.3465    142.9150
   495.2000      8.9960      2.3819      0.2007     16.2498     18.4139    138.2014
   495.3000      9.1075      2.3692      0.2032     17.0197     18.6448    132.7581
   495.4000      9.1075      2.3429      0.2197     18.6141     18.9889    128.9266
   495.5000      9.1723      2.3367      0.2337     18.9907     19.4790    126.9326
   495.6000      9.1723      2.3535      0.2998     17.9699     19.9852    128.2729
   495.7000      9.1723      2.3502      0.3207     18.1695     20.0752    131.9218
   495.8000      9.2107      2.2938      0.1914     21.5886     19.5011    131.2302
   495.9000      9.2107      2.2098      0.0724     26.6781     18.7848    124.6889
   496.0000      9.2513      2.1498      0.0396     30.3178     18.3999    117.0215
   496.1000      9.2513      2.1433      0.0843     30.7085     18.1462    113.1348
   496.2000      9.2513      2.2038      0.0991     27.0444     17.9736    114.1708
   496.3000      9.2914      2.3329      0.2424     19.2169     17.9962    116.5794
   496.4000      9.2914      2.4897      0.4465      9.7177     17.9492    117.7686
   496.5000      9.2882      2.6130      0.5035      2.2401     17.8032    115.6819
   496.6000      9.2882      2.6881      0.4565     -2.3069     17.8694    110.8651
   496.7000      9.2882      2.7337      0.4953     -5.0744     18.0884    107.7888
   496.8000      9.2176      2.7540      0.4370     -6.3021     18.2454    106.3124
   496.9000      9.2176      2.7457      0.3328     -5.7996     18.1977    104.3121
   497.0000      9.0433      2.7089      0.2805     -3.5700     18.0183    101.7792
   497.1000      9.0433      2.6481      0.1466      0.1167     18.0599    100.1217
   497.2000      9.0433      2.5885      0.0806      3.7295     18.1547     99.2015
   497.3000      8.8008      2.5564      0.0749      5.6739     17.9547     96.3770
   497.4000      8.8008      2.5458      0.0589      6.3142     17.7424     92.0985
   497.5000      8.5943      2.5332      0.0559      7.0799     17.8185     88.3737
   497.6000      8.5943      2.5180     -0.0109      8.0020     18.0353     84.7116
   497.7000      8.5943      2.5155      0.0368      8.1539     18.2925     80.9715
   497.8000      8.4875      2.5236      0.0045      7.6609     18.6846     78.1497
   497.9000      8.4875      2.5362      0.0260      6.8984     19.1362     77.4144
   498.0000      8.4525      2.5491      0.0479      6.1175     19.4967     79.0917
   498.1000      8.4525      2.5551      0.0491      5.7532     19.6458     82.0289
   498.2000      8.4525      2.5595      0.0128      5.4861     19.4700     82.5695
   498.3000      8.4380      2.5665      0.0501      5.0615     19.2126     79.1247
   498.4000      8.4380      2.5620      0.0597      5.3337     19.4122     78.0560
   498.5000      8.4286      2.5430      0.0011      6.4850     19.8941     82.2781
   498.6000      8.4286      2.5274      0.0084      7.4315     20.0628     85.3198
   498.7000      8.4286      2.5255      0.0091      7.5461     20.1408     86.4930
   498.8000      8.4243      2.5408      0.0212      6.6184     20.5345     92.2041
   498.9000      8.4243      2.5722      0.0470      4.7139     20.9087     99.8782
   499.0000      8.4232      2.6013      0.0757      2.9541     20.9578    101.6777
   499.1000      8.4232      2.6102      0.0914      2.4093     21.0263     98.5638
   499.2000      8.4232      2.6095      0.0467      2.4519     21.3266     95.4427
   499.3000      8.4244      2.6099      0.0804      2.4293     21.5190     94.2696
   499.4000      8.4244      2.5948      0.0404      3.3436     21.4665     96.3375
   499.5000      8.4233      2.5570      0.0317      5.6389     21.4935     99.3857
   499.6000      8.4233      2.5236     -0.0153      7.6596     21.6047     99.3056
   499.7000      8.4233      2.5264     -0.0247      7.4939     21.6497     95.1835
   499.8000      8.4127      2.5521      0.0746      5.9342     21.6194     90.3833
   499.9000      8.4127      2.5621      0.0329      5.3269     21.4232     88.5718
   500.0000      8.3943      2.5578     -0.0054      5.5875     21.2868     89.2141
   500.1000      8.3943      2.5664      0.0074      5.0687     21.6109     90.2575
   500.2000      8.3943      2.5867      0.0639      3.8365     22.2727     91.5307
   500.3000      8.3740      2.5959      0.0475      3.2779     22.6330     92.9672
   500.4000      8.3740      2.5844      0.0509      3.9754     22.4386     92.9442
   500.5000      8.3506      2.5623      0.0129      5.3136     22.0120     91.1170
   500.6000      8.3506      2.5449      0.0320      6.3707     21.5797     89.1607
   500.7000      8.3506      2.5393      0.0259      6.7096     21.0513     85.4784
   500.8000      8.3265      2.5420     -0.0003      6.5450     20.3907     77.3802
   500.9000      8.3265      2.5425      0.0326      6.5142     19.8246     69.7645
   501.0000      8.3080      2.5310      0.0537      7.2128     19.4804     68.4004
   501.1000      8.3080      2.5109     -0.0215      8.4311     19.1636     72.5710
   501.2000      8.3080      2.4934      0.0171      9.4917     18.5851     77.9519
   501.3000      8.2971      2.4846     -0.0471     10.0233     17.8389     78.7596
   501.4000      8.2971      2.4889      0.0140      9.7652     17.1459     75.0595
   501.5000      8.2948      2.4976      0.0373      9.2334     16.4711     73.2544
   501.6000      8.2948      2.4975      0.0319      9.2432     15.6304     75.0748
   501.7000      8.2948      2.4911      0.0111      9.6304     14.7902     75.1246
   501.8000      8.2949      2.4855      0.0310      9.9705     14.4472     70.6858
   501.9000      8.2949      2.4815      0.0311     10.2099     14.6396     67.2568
   502.0000      8.2924      2.4812      0.0277     10.2306     14.7391     68.1878
   502.1000      8.2924      2.4810      0.0456     10.2437     14.2993     69.3178
   502.2000      8.2924      2.4768      0.0125     10.4965     13.8407     69.8430
   502.3000      8.2893      2.4836     -0.0064     10.0835     13.7328     71.1867
   502.4000      8.2893      2.5070      0.0536      8.6664     13.5356     71.6394
   502.5000      8.2886      2.5207      0.1000      7.8366     13.1336     69.6487
   502.6000      8.2886      2.5096      0.0300      8.5067     12.9424     66.0857
   502.7000      8.2886      2.4918      0.0105      9.5856     12.9191     65.5052
