~Version Information
 VERS.                                  2.0 : CWLS LAS VERSION
 WRAP.                                   NO : WRAPING MODE
 SWARE .                 MController 2.5.0N : SOFTWARE VERSION
~Well Information
 WELL.                     CORTINA 23-25 TR : WELL
 COMP.    PIONEER NATURAL RESOURCES USA INC : COMPANY
 FLD.                      PURGATOIRE RIVER : FIELD
 LOC.                NE/SW SEC 25 T32S R67W : LOCATION
 DATE.                             09/24/05 : DATE(S) LOGGED
 SRVC.       BLANCO GEOLOGICAL SERVICES LLC : SERVICE COMPANY
 STAT.                             COLORADO : STATE
 CNTY.                           LAS ANIMAS : COUNTY
 CTRY.                                  USA : COUNTRY
 API.                       05-071-08534-00 : API NUMBER
 STRT.FT                             388.00 : START DEPTH
 STOP.FT                            1890.00 : STOP DEPTH
 STEP.FT                               1.00 : DEPTH INCREMENT
 NULL.                                -9999 : NULL VALUE
~Curve information
 DEPTH.FT                                   :
 ROP.MIN/FT                                 :
 GAS.UNITS                                  :
~ASCII Log data
# ...
       588.0         0.23          2.5 
       589.0         0.27          2.7 
       590.0         0.23          1.9 
       591.0         0.23          1.9 
       592.0         0.20          1.9 
       593.0         0.23          2.6 
       594.0         0.23          2.3 
       595.0         0.18          2.3 
       596.0         1.37          2.8 
       597.0         0.07          2.6 
       598.0         0.20          2.6 
       599.0         0.37          2.1 
       600.0         0.30          2.0 
       601.0         0.23          2.0 
       602.0         0.27          1.7 
       603.0         0.23          2.1 
       604.0         0.28          1.8 
       605.0         0.23          1.9 
       606.0         0.23          2.3 
       607.0         0.23          1.9 
       608.0         0.27          2.4 
       609.0         0.23          2.1 
       610.0         0.23          2.1 
       611.0         0.20          2.0 
       612.0         0.20          1.7 
       613.0         0.20          2.1 
       614.0         0.20          2.1 
       615.0         0.07          4.7 
       616.0         0.10          4.7 
       617.0         0.10          4.7 
       618.0         0.07          5.1 
       619.0         0.10          5.1 
       620.0         0.07          5.1 
       621.0         0.10          5.1 
       622.0         0.10          4.6 
       623.0         0.10          4.6 
       624.0         0.10          4.6 
       625.0         0.07          5.0 
       626.0         0.47          5.2 
       627.0         0.22          4.7 
       628.0         0.53          5.1 
       629.0         0.23          4.9 
       630.0         0.10          4.9 
       631.0         0.07          4.8 
       632.0         0.23          4.2 
       633.0         0.37          5.0 
       634.0         0.47          4.7 
       635.0         0.20          4.7 
       636.0         0.40          4.5 
       637.0         0.37          4.6 
       638.0         0.17          4.4 
       639.0         0.22          4.9 
       640.0         0.23          4.4 
       641.0         0.20          4.4 
       642.0         0.20          3.1 
       643.0         0.23          3.3 
       644.0         0.20          4.1 
       645.0         0.20          3.9 
       646.0         0.23          4.1 
       647.0         0.83          3.8 
       648.0         2.18          4.2 
       649.0         0.40          4.3 
       650.0         0.43          4.0 
       651.0         0.27          4.1 
       652.0         0.23          4.2 
       653.0         0.23          4.2 
       654.0         0.43          4.3 
       655.0         0.38          4.2 
       656.0         0.43          3.5 
       657.0         0.40          4.0 
       658.0         0.27          3.5 
       659.0         0.30          3.5 
       660.0         0.20          3.7 
       661.0         0.27          4.1 
       662.0         0.23          3.2 
       663.0         0.23          3.8 
       664.0         0.43          3.8 
       665.0         0.23          4.1 
       666.0         0.25          3.7 
       667.0         0.37          4.0 
       668.0         0.40          3.7 
       669.0         0.50          3.8 
       670.0         0.43          4.0 
       671.0         0.57          3.6 
       672.0         0.30          3.7 
       673.0         0.30          4.1 
       674.0         0.28          4.0 
       675.0         0.10          3.4 
       676.0         0.30          4.0 
       677.0         1.67          4.7 
       678.0         2.45        222.3 
       679.0         0.60         15.3 
       680.0         0.27          6.5 
       681.0         0.27          3.2 
       682.0         0.23          1.8 
       683.0         0.27          1.9 
       684.0         0.27          1.5 
       685.0         0.23          1.1 
       686.0         0.25          1.2 
       687.0         0.23          0.7 
       688.0         0.23          0.6 
       689.0         0.23          1.4 
       690.0         0.23          1.1 
       691.0         0.23          1.5 
       692.0         0.20          1.5 
       693.0         0.23          1.7 
       694.0         0.23          1.6 
       695.0         0.20          2.0 
       696.0         0.20          1.1 
       697.0         0.13          2.2 
       698.0         0.37          1.8 
       699.0         0.27          1.5 
       700.0         0.28          1.4 
       701.0         0.30          2.2 
       702.0         0.27          1.0 
       703.0         0.60          2.1 
       704.0         0.27          2.2 
       705.0         0.47          1.8 
       706.0         0.23          1.7 
       707.0         1.32          1.9 
       708.0         2.17          2.0 
       709.0         0.43          1.9 
       710.0         0.23          2.0 
       711.0         0.28          2.0 
       712.0         0.27          1.9 
       713.0         0.17          1.9 
       714.0         0.33          2.2 
       715.0         0.53          2.3 
       716.0         0.20          1.7 
       717.0         0.10          1.7 
       718.0         0.10          1.7 
       719.0         0.40          2.3 
       720.0         0.30          1.5 
       721.0         0.30          1.6 
       722.0         0.30          2.3 
       723.0         0.25          1.6 
       724.0         0.23          2.0 
       725.0         0.23          2.0 
       726.0         0.27          1.7 
       727.0         0.23          1.8 
       728.0         0.23          2.1 
       729.0         0.20          1.7 
       730.0         0.20          2.3 
       731.0         0.23          1.9 
       732.0         0.20          1.9 
       733.0         0.20          1.6 
       734.0         0.23          2.2 
       735.0         0.40          2.2 
       736.0         0.23          1.9 
       737.0         1.08          2.4 
       738.0         3.52          2.8 
       739.0         0.53          2.8 
       740.0         0.43          2.5 
       741.0         0.30          2.2 
       742.0         0.27          2.3 
       743.0         0.23          2.6 
       744.0         0.20          2.6 
       745.0         0.23          2.1 
       746.0         0.22          2.5 
       747.0         0.23          2.5 
       748.0         0.20          2.3 
       749.0         0.20          2.5 
       750.0         0.20          2.2 
       751.0         0.20          2.3 
       752.0         0.20          2.0 
       753.0         0.23          2.1 
       754.0         0.23          2.5 
       755.0         0.27          2.7 
       756.0         0.23          1.9 
       757.0         0.23          1.9 
       758.0         0.20          1.9 
       759.0         0.47          2.6 
       760.0         0.45          2.5 
       761.0         0.27          2.4 
       762.0         0.27          2.6 
       763.0         0.53          2.8 
       764.0         0.30          2.6 
       765.0         0.27          2.1 
       766.0         0.40          2.0 
       767.0         0.50          2.0 
       768.0         2.55          2.4 
       769.0         0.20          2.1 
       770.0         0.20          1.9 
       771.0         0.20          2.7 
       772.0         0.20          2.1 
       773.0         0.23          1.7 
       774.0         0.32          2.4 
       775.0         0.20          2.7 
       776.0         0.27          1.8 
       777.0         0.27          2.0 
       778.0         0.20          1.9 
       779.0         0.20          2.7 
       780.0         0.20          2.9 
       781.0         0.23          2.0 
       782.0         0.33          2.6 
       783.0         0.27          2.7 
       784.0         0.47          2.4 
       785.0         0.20          2.9 
       786.0         0.42          2.6 
       787.0         0.37          2.3 
