~Version Information
VERS.                      2.0: CWLS Log ASCII Standard - VERSION 2.0
WRAP.                       NO: One line per depth step
~Well Information Block
STRT.FT                -9.5000: 
STOP.FT              2305.7500: 
STEP.FT                 0.2500: 
NULL.                -999.2500: 
COMP.          Pioneer Natural Resources: COMPANY
WELL.          Fittipaldi 21-12: WELL
FLD.           Purgatorie River: FIELD
LOC.           207' FNL & 2110' FWL--: LOCATION
CNTY.               Las Animas: COUNTY
SRVC.          Patterson Wireline: SERVICE COMPANY
DATE.          Wed Apr 12 10:38:25 2006: LOG DATE
UWI.           05 071 08492 00: UNIQUE WELL ID
STAT.                       CO: STATE
~Curve Information Block
DEPT.FT            0 000 00 00: Depth
CCL.                          : Casing Collar Locator
TT3.usec                      : CBL 3' Travel Time
AMP3.mV                       : CBL 3' Amplitude
GR.GAPI                       : Gamma Ray
~Parameter Information Block
~A  Depth       CCL         TT3         AMP3         GR     
# ...
  2268.5000     -2.0000    661.3495      3.7331     61.6184
  2268.7500      2.0000    667.8997      3.8921     56.2762
  2269.0000      0.0000    669.9441      4.0023     53.3003
  2269.2500      0.0000    670.8902      4.1161     52.1236
  2269.5000     -2.0000    668.5967      4.3938     51.8080
  2269.7500      2.0000    655.4288      5.0464     51.5997
  2270.0000      0.0000    624.5468      6.2904     50.9990
  2270.2500      0.0000    574.7738      8.3159     49.7049
  2270.5000      0.0000    511.4532     11.2017     48.0314
  2270.7500      0.0000    445.1545     14.7968     47.3382
  2271.0000      0.0000    388.0616     18.7422     49.4088
  2271.2500      0.0000    348.1679     22.7413     54.8511
  2271.5000      0.0000    325.2442     26.9090     62.0357
  2271.7500      0.0000    312.3457     31.8260     67.9312
  2272.0000      0.0000    301.7766     38.0460     70.2725
  2272.2500      0.0000    290.2272     45.3791     69.0153
  2272.5000      0.0000    279.0244     52.7409     65.8573
  2272.7500      0.0000    270.6403     58.8317     62.6469
  2273.0000      0.0000    265.8656     62.9260     60.2970
  2273.2500      0.0000    263.8051     64.9690     58.7784
  2273.5000      0.0000    263.1962     65.1010     57.6974
  2273.7500      0.0000    263.2301     63.3925     56.9650
  2274.0000      0.0000    263.5746     60.1158     57.1578
  2274.2500      0.0000    264.2791     55.9307     59.0319
  2274.5000      0.0000    266.0004     51.4078     62.4798
  2274.7500      0.0000    270.5643     46.4310     66.1617
  2275.0000      0.0000    281.3792     40.4358     68.3061
  2275.2500      0.0000    303.0642     33.2893     67.8361
  2275.5000      0.0000    339.6572     25.7264     64.9369
  2275.7500      0.0000    391.4553     18.9183     60.9344
  2276.0000      0.0000    452.3890     13.7107     57.5671
  2276.2500      0.0000    511.1332     10.2035     55.9690
  2276.5000      0.0000    556.4410      7.9171     56.2438
  2276.7500      0.0000    581.9639      6.2892     58.0048
  2277.0000      0.0000    586.3167      5.0278     60.9773
  2277.2500      2.0000    571.0463      4.1061     64.8716
  2277.5000     -2.0000    541.4037      3.5587     69.1274
  2277.7500      0.0000    508.3994      3.3361     73.3587
  2278.0000      0.0000    486.6172      3.3103     77.9120
  2278.2500      0.0000    487.2091      3.3556     83.4225
  2278.5000      0.0000    511.4748      3.3847     89.9553
  2278.7500      0.0000    550.2244      3.3319     97.1954
  2279.0000      0.0000    589.8414      3.1587    105.3447
  2279.2500      0.0000    620.3978      2.8933    115.0171
  2279.5000      0.0000    638.8588      2.6238    126.1869
  2279.7500      0.0000    645.4258      2.4276    137.8120
  2280.0000      0.0000    638.3666      2.3205    148.1921
  2280.2500      0.0000    614.0624      2.2733    154.9640
  2280.5000      0.0000    573.0711      2.2545    155.2514
  2280.7500      0.0000    525.2432      2.2470    147.1589
  2281.0000      0.0000    486.8879      2.2427    131.6994
  2281.2500      0.0000    471.9494      2.2338    112.7958
  2281.5000      0.0000    485.1621      2.2120     94.9356
  2281.7500      0.0000    521.0496      2.1748     80.7722
  2282.0000      0.0000    567.3187      2.1299     70.7235
  2282.2500      0.0000    610.6359      2.0911     64.2384
  2282.5000      0.0000    642.1719      2.0698     60.9697
  2282.7500      0.0000    659.5643      2.0699     60.7346
  2283.0000      0.0000    665.0845      2.0865     62.8521
  2283.2500      0.0000    662.7637      2.1093     65.9039
  2283.5000      0.0000    656.2807      2.1266     68.1351
  2283.7500      0.0000    647.2820      2.1299     68.2750
  2284.0000      0.0000    634.5725      2.1171     66.5513
  2284.2500      0.0000    616.0909      2.0926     64.9884
  2284.5000      0.0000    593.3967      2.0645     65.9892
  2284.7500      0.0000    573.0004      2.0407     70.0658
  2285.0000      0.0000    560.2169      2.0246     75.0356
  2285.2500      0.0000    552.4047      2.0131     77.6246
  2285.5000      0.0000    542.9209      2.0010     75.9783
  2285.7500      0.0000    532.0193      1.9874     70.8613
  2286.0000      0.0000    528.3023      1.9766     64.7680
  2286.2500      0.0000    536.6970      1.9738     60.1192
  2286.5000      0.0000    548.6215      1.9790     58.1370
  2286.7500      0.0000    547.7317      1.9871     58.7355
  2287.0000      0.0000    525.0408      1.9920     60.9687
  2287.2500      0.0000    486.7387      1.9912     63.7579
  2287.5000      0.0000    447.7131      1.9863     66.4889
  2287.7500      0.0000    419.4426      1.9779     68.9579
  2288.0000      0.0000    404.5274      1.9614     70.8974
  2288.2500      0.0000    400.0770      1.9305     71.7733
  2288.5000      0.0000    403.3920      1.8847     71.0675
  2288.7500      0.0000    413.7791      1.8321     68.7162
  2289.0000      0.0000    429.7169      1.7866     65.3407
  2289.2500      0.0000    445.3956      1.7615     62.1497
  2289.5000      0.0000    452.5840      1.7634     60.4588
  2289.7500      0.0000    448.1409      1.7903     61.0324
  2290.0000      0.0000    439.0612      1.8332     63.7145
  2290.2500      0.0000    438.4799      1.8818     67.5784
  2290.5000      0.0000    456.5773      1.9306     71.3853
  2290.7500      0.0000    494.3749      1.9805     74.0075
  2291.0000      0.0000    544.0650      2.0320     74.6208
  2291.2500      0.0000    594.5136      2.0763     72.5849
  2291.5000      0.0000    637.0398      2.0993     67.1884
  2291.7500      0.0000    666.5933      2.0975     57.7977
  2292.0000      0.0000    680.0334      2.0870     44.7381
  2292.2500      0.0000    677.1608      2.0906     30.1008
  2292.5000      0.0000    664.1991      2.1175     17.0723
  2292.7500      0.0000    652.5438      2.1539      7.9705
  2293.0000      0.0000    650.5656      2.1728      3.0109
  2293.2500      0.0000    656.8380      2.1517      0.9096
  2293.5000      0.0000    662.5731      2.0866      0.2175
  2293.7500      0.0000    659.1869      1.9947      0.0407
  2294.0000      0.0000    642.8183      1.9049      0.0056
  2294.2500      0.0000    614.4325      1.8441      0.0000
  2294.5000      0.0000    578.2997      1.8281   -999.2500
  2294.7500      0.0000    539.3966      1.8552   -999.2500
  2295.0000      0.0000    500.8488      1.9060   -999.2500
  2295.2500      0.0000    464.5114      1.9535   -999.2500
  2295.5000      0.0000    433.3381      1.9805   -999.2500
  2295.7500      0.0000    410.6241      1.9873   -999.2500
  2296.0000      0.0000    396.6588      1.9826   -999.2500
  2296.2500      0.0000    387.2336      1.9674   -999.2500
  2296.5000      0.0000    374.5216      1.9222   -999.2500
  2296.7500      0.0000    348.6765      1.8057   -999.2500
  2297.0000      0.0000    301.5075      1.5755   -999.2500
  2297.2500      0.0000    233.1061      1.2287   -999.2500
  2297.5000      0.0000    155.6212      0.8267   -999.2500
  2297.7500      0.0000     87.2122      0.4664   -999.2500
  2298.0000      0.0000     40.1702      0.2160   -999.2500
  2298.2500      0.0000     14.9777      0.0809   -999.2500
  2298.5000      0.0000      4.4712      0.0242   -999.2500
  2298.7500      0.0000      1.0590      0.0058   -999.2500
  2299.0000      0.0000      0.1961      0.0011   -999.2500
  2299.2500      0.0000      0.0261      0.0001   -999.2500
  2299.5000      0.0000   -999.2500   -999.2500   -999.2500
  2299.7500      0.0000   -999.2500   -999.2500   -999.2500
  2300.0000      0.0000   -999.2500   -999.2500   -999.2500
  2300.2500      0.0000   -999.2500   -999.2500   -999.2500
  2300.5000      0.0000   -999.2500   -999.2500   -999.2500
  2300.7500      0.0000   -999.2500   -999.2500   -999.2500
  2301.0000      0.0000   -999.2500   -999.2500   -999.2500
  2301.2500      0.0000   -999.2500   -999.2500   -999.2500
  2301.5000      0.0000   -999.2500   -999.2500   -999.2500
  2301.7500      0.0000   -999.2500   -999.2500   -999.2500
