~Version Information
VERS.                      2.0: CWLS Log ASCII Standard - VERSION 2.0
WRAP.                       NO: One line per depth step
~Well Information Block
STRT.FT               645.0000: 
STOP.FT              2133.5000: 
STEP.FT                 0.2500: 
NULL.                -999.2500: 
COMP.          Pioneer Natural Resources: COMPANY
WELL.          Gunslinger 13-24: WELL
FLD.           Purgatoire River: FIELD
LOC.           1968' FSL & 633' FWL: LOCATION
PROV.                 Colorado: PROVINCE
CNTY.               Las Animas: COUNTRY
SRVC.                Patterson: SERVICE COMPANY
DATE.          Fri Jul 29 15:04:35 2005: LOG DATE
UWI.           05 071 08442 00: UNIQUE WELL ID
~Curve Information Block
DEPT.FT            0 000 00 00: Depth
SN.Ohm-m                      : IEL Short Normal
SP.mV                         : IEL Spontaneous Potential
DIR.Ohm-m                     : IEL Induction Resistivity
GR.GAPI                       : Gamma Ray
~Parameter Information Block
~A  Depth        SN          SP         DIR          GR     
# ...
   846.0000   2000.0000   2000.0000     34.0983     59.7071
   846.2500   2000.0000   2000.0000     34.2073     61.2837
   846.5000   2000.0000   2000.0000     34.2816     62.4266
   846.7500   2000.0000   2000.0000     34.3049     62.1969
   847.0000   2000.0000   2000.0000     34.2575     60.6401
   847.2500   2000.0000   2000.0000     34.1444     59.1494
   847.5000   2000.0000   2000.0000     34.0010     57.0477
   847.7500   2000.0000   2000.0000     33.8692     56.2803
   848.0000   2000.0000   2000.0000     33.7717     56.5985
   848.2500   2000.0000   2000.0000     33.7009     57.5009
   848.5000   2000.0000   2000.0000     33.6279     58.7010
   848.7500   2000.0000   2000.0000     33.5255     58.9637
   849.0000   2000.0000   2000.0000     33.3853     58.8601
   849.2500   2000.0000   2000.0000     33.2106     58.8305
   849.5000   2000.0000   2000.0000     32.9890     58.9255
   849.7500   2000.0000   2000.0000     32.6763     58.9461
   850.0000   2000.0000   2000.0000     32.2121     59.1832
   850.2500   2000.0000   2000.0000     31.5514     60.0019
   850.5000   2000.0000   2000.0000     30.6776     63.1133
   850.7500   2000.0000   2000.0000     29.5935     66.6495
   851.0000   2000.0000   2000.0000     28.3139     73.8880
   851.2500   2000.0000   2000.0000     26.8754     79.6360
   851.5000   2000.0000   2000.0000     25.3470     88.9580
   851.7500   2000.0000   2000.0000     23.8204     95.3309
   852.0000   2000.0000   2000.0000     22.3809    104.7678
   852.2500   2000.0000   2000.0000     21.0786    110.7590
   852.5000   2000.0000   2000.0000     19.9201    118.8511
   852.7500   2000.0000   2000.0000     18.8842    123.5211
   853.0000   2000.0000   2000.0000     17.9464    129.5901
   853.2500   2000.0000   2000.0000     17.0966    133.0129
   853.5000   2000.0000   2000.0000     16.3358    136.5053
   853.7500   2000.0000   2000.0000     15.6663    137.2177
   854.0000   2000.0000   2000.0000     15.0851    136.0710
   854.2500   2000.0000   2000.0000     14.5871    134.8129
   854.5000   2000.0000   2000.0000     14.1708    134.2348
   854.7500   2000.0000   2000.0000     13.8396    135.3191
   855.0000   2000.0000   2000.0000     13.5987    138.6658
   855.2500   2000.0000   2000.0000     13.4492    141.2195
   855.5000   2000.0000   2000.0000     13.3858    144.0724
   855.7500   2000.0000   2000.0000     13.3988    144.7859
   856.0000   2000.0000   2000.0000     13.4793    144.0698
   856.2500   2000.0000   2000.0000     13.6243    142.9162
   856.5000   2000.0000   2000.0000     13.8359    141.3964
   856.7500   2000.0000   2000.0000     14.1176    141.1058
   857.0000   2000.0000   2000.0000     14.4701    142.1815
   857.2500   2000.0000   2000.0000     14.8907    143.7308
   857.5000   2000.0000   2000.0000     15.3765    146.2511
   857.7500   2000.0000   2000.0000     15.9268    147.2584
   858.0000   2000.0000   2000.0000     16.5443    146.9090
   858.2500   2000.0000   2000.0000     17.2309    145.5494
   858.5000   2000.0000   2000.0000     17.9804    142.6763
   858.7500   2000.0000   2000.0000     18.7724    140.5327
   859.0000   2000.0000   2000.0000     19.5726    136.7316
   859.2500   2000.0000   2000.0000     20.3415    133.4947
   859.5000   2000.0000   2000.0000     21.0476    127.7437
   859.7500   2000.0000   2000.0000     21.6817    123.9895
   860.0000   2000.0000   2000.0000     22.2645    119.8872
   860.2500   2000.0000   2000.0000     22.8426    118.4614
   860.5000   2000.0000   2000.0000     23.4702    117.4374
   860.7500   2000.0000   2000.0000     24.1811    116.7399
   861.0000   2000.0000   2000.0000     24.9663    115.3221
   861.2500   2000.0000   2000.0000     25.7748    114.7129
   861.5000   2000.0000   2000.0000     26.5455    115.6525
   861.7500   2000.0000   2000.0000     27.2503    117.6636
   862.0000   2000.0000   2000.0000     27.9142    121.4004
   862.2500   2000.0000   2000.0000     28.5867    123.2405
   862.5000   2000.0000   2000.0000     29.2854    123.8983
   862.7500   2000.0000   2000.0000     29.9572    122.8302
   863.0000   2000.0000   2000.0000     30.4939    119.0242
   863.2500   2000.0000   2000.0000     30.7978    115.0858
   863.5000   2000.0000   2000.0000     30.8486    107.6661
   863.7500   2000.0000   2000.0000     30.7161    102.3590
   864.0000   2000.0000   2000.0000     30.5174     94.8918
   864.2500   2000.0000   2000.0000     30.3646     90.5236
   864.5000   2000.0000   2000.0000     30.3357     84.9737
   864.7500   2000.0000   2000.0000     30.4676     82.0407
   865.0000   2000.0000   2000.0000     30.7589     79.1217
   865.2500   2000.0000   2000.0000     31.1740     78.1584
   865.5000   2000.0000   2000.0000     31.6515     77.4597
   865.7500   2000.0000   2000.0000     32.1191     76.8545
   866.0000   2000.0000   2000.0000     32.5144     75.0118
   866.2500   2000.0000   2000.0000     32.8021     73.0974
   866.5000   2000.0000   2000.0000     32.9780     69.4621
   866.7500   2000.0000   2000.0000     33.0623     66.8055
   867.0000   2000.0000   2000.0000     33.0913     63.1441
   867.2500   2000.0000   2000.0000     33.1088     61.2794
   867.5000   2000.0000   2000.0000     33.1512     59.5031
   867.7500   2000.0000   2000.0000     33.2281     58.8644
   868.0000   2000.0000   2000.0000     33.3245     58.5725
   868.2500   2000.0000   2000.0000     33.4287     58.8544
   868.5000   2000.0000   2000.0000     33.5610     60.0130
   868.7500   2000.0000   2000.0000     33.7731     61.1569
   869.0000   2000.0000   2000.0000     34.1168     62.9378
   869.2500   2000.0000   2000.0000     34.6094     63.7538
   869.5000   2000.0000   2000.0000     35.2123     63.8298
   869.7500   2000.0000   2000.0000     35.8299     63.1154
   870.0000   2000.0000   2000.0000     36.3365     61.6224
   870.2500   2000.0000   2000.0000     36.6290     60.9253
   870.5000   2000.0000   2000.0000     36.6802     60.8231
   870.7500   2000.0000   2000.0000     36.5598     61.2002
   871.0000   2000.0000   2000.0000     36.4125     61.6789
   871.2500   2000.0000   2000.0000     36.3973     61.6211
   871.5000   2000.0000   2000.0000     36.6123     61.0170
   871.7500   2000.0000   2000.0000     37.0450     60.5537
   872.0000   2000.0000   2000.0000     37.5764     60.2902
   872.2500   2000.0000   2000.0000     38.0485     60.6289
   872.5000   2000.0000   2000.0000     38.3674     62.1938
   872.7500   2000.0000   2000.0000     38.5702     63.9765
   873.0000   2000.0000   2000.0000     38.7973     67.2412
   873.2500   2000.0000   2000.0000     39.1830     69.1760
   873.5000   2000.0000   2000.0000     39.7562     70.6610
   873.7500   2000.0000   2000.0000     40.4339     70.4515
   874.0000   2000.0000   2000.0000     41.1131     68.5681
   874.2500   2000.0000   2000.0000     41.7611     66.5919
   874.5000   2000.0000   2000.0000     42.3882     63.0795
   874.7500   2000.0000   2000.0000     42.9279     60.5923
   875.0000   2000.0000   2000.0000     43.1674     57.0198
   875.2500   2000.0000   2000.0000     42.8232     55.1288
   875.5000   2000.0000   2000.0000     41.7140     54.0066
   875.7500   2000.0000   2000.0000     39.8835     54.9373
   876.0000   2000.0000   2000.0000     37.5707     59.2224
   876.2500   2000.0000   2000.0000     35.0784     63.7865
   876.5000   2000.0000   2000.0000     32.6568     72.3208
   876.7500   2000.0000   2000.0000     30.4550     78.6356
   877.0000   2000.0000   2000.0000     28.5306     88.6491
   877.2500   2000.0000   2000.0000     26.8809     95.6872
   877.5000   2000.0000   2000.0000     25.4700    106.7790
   877.7500   2000.0000   2000.0000     24.2512    114.2703
   878.0000   2000.0000   2000.0000     23.1825    124.5662
   878.2500   2000.0000   2000.0000     22.2363    129.9996
   878.5000   2000.0000   2000.0000     21.4011    135.2623
   878.7500   2000.0000   2000.0000     20.6786    137.0705
   879.0000   2000.0000   2000.0000     20.0762    138.1995
   879.2500   2000.0000   2000.0000     19.5984    138.3587
