~Version Information
VERS.                      2.0: CWLS Log ASCII Standard - VERSION 2.0
WRAP.                       NO: One line per depth step
~Well Information Block
STRT.FT                 0.0000: 
STOP.FT              2086.0000: 
STEP.FT                 0.2500: 
NULL.                -999.2500: 
COMP.          Petrogulf Corporation: COMPANY
WELL.               YWAM 7-32R: WELL
FLD.           Purgatorie River: FIELD
LOC.           2355' FNL & 2376' FEL: LOCATION
STAT.                 Colorado: State
CNTY.               Las Animas: COUNTY
CTRY. USA : Country
SECT. 7 : Section
TOWN. 33S : Township
RANG. 67W : Range
SRVC.                Patterson: SERVICE COMPANY
DATE.          Wed Nov 09 16:33:59 2005: LOG DATE
API. 05-071-08518                         : UNIQUE WELL ID
~Curve Information Block
DEPT.FT            0 000 00 00: Depth
CCL.                          : Casing Collar Locator
TT3.usec                      : CBL 3' Travel Time
AMP3.mV                       : CBL 3' Amplitude
GR.GAPI                       : Gamma Ray
~Parameter Information Block
~A  Depth       CCL         TT3         AMP3         GR     
# ...
  1909.5000      0.0000    633.9168      1.3754     78.8283
  1909.7500      0.0000    632.7744      1.3762     69.0577
  1910.0000      0.0000    631.6272      1.3613     59.4543
  1910.2500      0.0000    630.7148      1.3178     51.4933
  1910.5000      0.0000    630.3812      1.2728     46.1304
  1910.7500      0.0000    631.0471      1.2520     43.6271
  1911.0000      0.0000    633.1563      1.2511     43.6565
  1911.2500      0.0000    636.6554      1.2581     45.4541
  1911.5000      0.0000    640.1642      1.2728     48.0260
  1911.7500      0.0000    641.6573      1.2910     50.4607
  1912.0000      0.0000    640.5669      1.2914     52.3033
  1912.2500      0.0000    638.2325      1.2453     53.6583
  1912.5000      0.0000    636.2036      1.1611     54.7371
  1912.7500      0.0000    635.0023      1.1032     55.2887
  1913.0000      0.0000    634.4402      1.1203     54.6619
  1913.2500      0.0000    634.2451      1.1754     52.4961
  1913.5000      0.0000    634.2388      1.1916     49.2179
  1913.7500      0.0000    634.3472      1.1475     45.8232
  1914.0000      0.0000    634.5156      1.0924     43.2818
  1914.2500      0.0000    634.6755      1.0785     42.0184
  1914.5000      0.0000    634.8162      1.0956     41.6672
  1914.7500      0.0000    634.9287      1.0944     41.3709
  1915.0000      0.0000    634.9882      1.0604     40.5604
  1915.2500      0.0000    635.0340      1.0218     39.4299
  1915.5000      0.0000    635.0676      1.0049     38.5755
  1915.7500      0.0000    634.9703      1.0233     38.3568
  1916.0000      0.0000    634.6808      1.0704     38.7806
  1916.2500      0.0000    634.2679      1.1095     39.7918
  1916.5000      0.0000    633.8013      1.1139     41.2802
  1916.7500      0.0000    633.3649      1.1038     42.7445
  1917.0000      0.0000    633.1673      1.1200     43.3254
  1917.2500      0.0000    633.4555      1.1723     42.5570
  1917.5000      0.0000    634.2079      1.2257     41.0564
  1917.7500      0.0000    634.4532      1.2328     40.1835
  1918.0000      0.0000    631.6263      1.1816     41.0654
  1918.2500      0.0000    623.4865      1.1108     44.1691
  1918.5000      0.0000    611.9764      1.0806     49.4086
  1918.7500      0.0000    602.2583      1.1204     55.9472
  1919.0000      0.0000    597.3035      1.1984     61.9555
  1919.2500      0.0000    596.8183      1.2424     65.2956
  1919.5000      0.0000    600.4388      1.2071     64.8598
  1919.7500      0.0000    608.1803      1.1242     61.1988
  1920.0000      0.0000    617.9153      1.0671     55.9503
  1920.2500      0.0000    625.8437      1.0643     50.9024
  1920.5000      0.0000    630.4500      1.0884     47.4578
  1920.7500      0.0000    633.7974      1.1240     46.5623
  1921.0000      0.0000    638.7667      1.1750     48.8713
  1921.2500      0.0000    645.2164      1.2258     54.8952
  1921.5000      0.0000    648.8935      1.2566     64.8027
  1921.7500      0.0000    646.8311      1.2632     77.9200
  1922.0000      0.0000    642.0227      1.2483     92.4182
  1922.2500      0.0000    639.2194      1.2191    105.6628
  1922.5000      0.0000    640.7319      1.1833    115.2202
  1922.7500      0.0000    648.0173      1.1417    119.8815
  1923.0000      0.0000    660.7072      1.0960    119.6966
  1923.2500      0.0000    672.2511      1.0573    115.1471
  1923.5000      0.0000    673.9592      1.0336    106.8465
  1923.7500      0.0000    666.3638      1.0267     96.1987
  1924.0000      0.0000    660.4855      1.0389     85.6621
  1924.2500      0.0000    665.2579      1.0646     77.7432
  1924.5000      0.0000    677.1982      1.0874     73.7326
  1924.7500      0.0000    686.3308      1.0989     73.6102
  1925.0000      0.0000    688.5482      1.0963     76.8740
  1925.2500      0.0000    685.7040      1.0759     82.8981
  1925.5000      0.0000    678.5383      1.0591     90.4335
  1925.7500      0.0000    666.4519      1.0877     97.3834
  1926.0000      0.0000    652.1262      1.1686    101.5552
  1926.2500      0.0000    640.7651      1.2573    101.6503
  1926.5000      0.0000    634.1404      1.2979     97.6793
  1926.7500      0.0000    629.6503      1.2662     90.9151
  1927.0000      0.0000    625.6725      1.1823     83.3121
  1927.2500      0.0000    624.2888      1.0887     76.3049
  1927.5000      0.0000    627.0970      1.0243     70.0728
  1927.7500      0.0000    631.6154      1.0034     64.1114
  1928.0000      0.0000    634.6526      1.0093     58.1324
  1928.2500      0.0000    635.7709      1.0208     52.3151
  1928.5000      0.0000    636.0234      1.0290     47.2155
  1928.7500      0.0000    636.0706      1.0236     43.6530
  1929.0000      0.0000    635.9914      1.0030     42.3266
  1929.2500      0.0000    635.7391      0.9900     43.2583
  1929.5000      0.0000    635.3955      0.9964     45.5879
  1929.7500      0.0000    635.1954      1.0122     47.8810
  1930.0000      0.0000    635.7548      1.0404     48.8111
  1930.2500      0.0000    638.8950      1.0847     48.0544
  1930.5000      0.0000    648.1401      1.1282     46.7515
  1930.7500      0.0000    665.3732      1.1645     46.8237
  1931.0000      0.0000    684.4702      1.2087     49.6259
  1931.2500      0.0000    692.8734      1.2663     55.2743
  1931.5000      0.0000    683.9896      1.3194     63.0122
  1931.7500      0.0000    664.8988      1.3342     71.7352
  1932.0000      0.0000    648.4479      1.2842     80.1345
  1932.2500      0.0000    639.5555      1.1909     86.9060
  1932.5000      0.0000    633.5869      1.1235     91.3249
  1932.7500      0.0000    626.8094      1.1280     93.6783
  1933.0000      0.0000    621.6142      1.1786     94.8339
  1933.2500      0.0000    621.4977      1.2331     95.1247
  1933.5000      0.0000    626.6693      1.2868     93.8309
  1933.7500      0.0000    632.9885      1.3389     90.0498
  1934.0000      0.0000    635.1253      1.3684     84.0177
  1934.2500      0.0000    633.0862      1.3593     77.3559
  1934.5000      0.0000    630.9826      1.3191     71.9694
  1934.7500      0.0000    630.9262      1.2662     68.6468
  1935.0000      0.0000    631.6155      1.2101     66.5452
  1935.2500      0.0000    629.8188      1.1512     64.0438
  1935.5000      0.0000    623.3585      1.0937     60.3274
  1935.7500      0.0000    614.2768      1.0542     56.1737
  1936.0000      0.0000    606.9933      1.0510     53.1015
  1936.2500      0.0000    603.5520      1.0916     51.9451
  1936.5000      0.0000    603.2118      1.1849     52.4251
  1936.7500      0.0000    605.5062      1.3358     53.8035
  1937.0000      0.0000    610.7500      1.4959     55.6784
  1937.2500      0.0000    618.1223      1.5913     58.2931
  1937.5000      0.0000    626.5269      1.6156     62.2548
  1937.7500      0.0000    635.7011      1.6205     67.9819
  1938.0000     -2.0000    643.2256      1.6459     75.4262
  1938.2500      2.0000    645.2932      1.6807     84.1820
  1938.5000      2.0000    643.5760      1.6589     93.4868
  1938.7500      0.0000    644.7311      1.5336    101.9792
  1939.0000      0.0000    650.2889      1.3609    107.8776
  1939.2500      0.0000    654.2639      1.2614    109.9211
  1939.5000      0.0000    652.3962      1.2721    108.2500
  1939.7500      0.0000    647.2041      1.2810    104.3376
  1940.0000      0.0000    642.7402      1.1916    100.0760
  1940.2500      0.0000    640.1431      1.0714     96.7372
  1940.5000      0.0000    639.0286      1.0252     94.4359
  1940.7500      0.0000    639.4543      1.0509     92.4972
  1941.0000      0.0000    642.4779      1.0887     90.5007
  1941.2500      0.0000    650.0546      1.1050     88.7035
  1941.5000      0.0000    662.4424      1.0985     87.2596
  1941.7500      0.0000    673.9556      1.0846     85.7618
  1942.0000      0.0000    675.4853      1.0835     84.0484
  1942.2500      0.0000    665.4047      1.1183     82.6979
  1942.5000      0.0000    653.6801      1.2077     82.0814
  1942.7500      0.0000    650.4862      1.3296     81.5697
