~Version Information
VERS.                      2.0: CWLS Log ASCII Standard - VERSION 2.0
WRAP.                       NO: One line per depth step
~Well Information Block
STRT.FT                -8.7500: 
STOP.FT              1727.2500: 
STEP.FT                 0.2500: 
NULL.                -999.2500: 
COMP.          XTO Energy Inc.: COMPANY
WELL.          Apache Canyon 34-08: WELL
FLD.              Vermejo Coal: FIELD
LOC.           1668' FNL & 275' FEL: LOCATION
STAT.                       CO: State
CNTY.               Las Animas: COUNTY
CTRY. USA : Country
SECT. 34 : Section
TOWN. 33S : Township
RANG. 67W : Range
SRVC.          Patterson Wireline: SERVICE COMPANY
DATE.          Mon Jan 09 09:34:21 2006: LOG DATE
API.           05 071 08541 00: UNIQUE WELL ID
~Curve Information Block
DEPT.FT            0 000 00 00: Depth
CCL.                          : Casing Collar Locator
TT3.usec                      : CBL 3' Travel Time
AMP3.mV                       : CBL 3' Amplitude
GR.GAPI                       : Gamma Ray
~Parameter Information Block
~A  Depth       CCL         TT3         AMP3         GR     
# ...
    91.7500      0.0000    353.4060      6.1160     96.1905
    92.0000      0.0000    353.1887      6.0567     92.3669
    92.2500      0.0000    353.3027      6.0031     87.3758
    92.5000      0.0000    353.4740      5.9756     82.9539
    92.7500      0.0000    353.6593      5.9763     81.0430
    93.0000      0.0000    353.8941      5.9920     82.1882
    93.2500      0.0000    354.1813      6.0033     85.2746
    93.5000      0.0000    354.4612      5.9959     88.8864
    93.7500      0.0000    354.6601      5.9664     92.5570
    94.0000      0.0000    354.7601      5.9192     96.5669
    94.2500      0.0000    354.8095      5.8595    100.7410
    94.5000      0.0000    354.8670      5.7880    103.8898
    94.7500      0.0000    354.9439      5.7056    104.6128
    95.0000      0.0000    354.9972      5.6207    102.5705
    95.2500      0.0000    354.9726      5.5499     98.9130
    95.5000      0.0000    354.8570      5.5102     95.4115
    95.7500      0.0000    354.6947      5.5096     93.0572
    96.0000      0.0000    354.5661      5.5443     91.5202
    96.2500      0.0000    354.5587      5.6003     89.8813
    96.5000      0.0000    354.7654      5.6599     87.6673
    96.7500      0.0000    355.3400      5.7100     85.1782
    97.0000      0.0000    356.6665      5.7486     83.1385
    97.2500      0.0000    359.5953      5.7821     82.2490
    97.5000      0.0000    365.6779      5.8152     82.7168
    97.7500      0.0000    377.5243      5.8421     83.9069
    98.0000      0.0000    399.5238      5.8507     84.7899
    98.2500      0.0000    437.7804      5.8371     84.8885
    98.5000      0.0000    496.6487      5.8149     84.4632
    98.7500      0.0000    572.3683      5.8048     84.0090
    99.0000      0.0000    650.5004      5.8137     84.1309
    99.2500      0.0000    712.7355      5.8255     85.4637
    99.5000      0.0000    748.0617      5.8159     87.8386
    99.7500      0.0000    757.5782      5.7727     89.8182
   100.0000      0.0000    749.6545      5.7027     89.8697
   100.2500      0.0000    731.4610      5.6233     87.9499
   100.5000      0.0000    704.5480      5.5500     85.5384
   100.7500      0.0000    668.4703      5.4892     84.2018
   101.0000      0.0000    629.3162      5.4394     84.2113
   101.2500      0.0000    602.5082      5.4001     84.4907
   101.5000      0.0000    602.7493      5.3784     83.8180
   101.7500      0.0000    630.6080      5.3848     81.9589
   102.0000      0.0000    672.3307      5.4196     79.7253
   102.2500      0.0000    712.6249      5.4684     78.1129
   102.5000      0.0000    744.3135      5.5114     77.3216
   102.7500      0.0000    766.7720      5.5407     76.5939
   103.0000      0.0000    780.2225      5.5684     75.2364
   103.2500      0.0000    783.1631      5.6169     73.6908
   103.5000      0.0000    772.9439      5.6982     73.0186
   103.7500      0.0000    748.2070      5.7990     73.2503
   104.0000      0.0000    713.0720      5.8842     72.9874
   104.2500      0.0000    679.4803      5.9178     71.0864
   104.5000      0.0000    662.3465      5.8826     68.3635
   104.7500      0.0000    669.3328      5.7880     67.1883
   105.0000      0.0000    695.1498      5.6605     69.4561
   105.2500      0.0000    726.8099      5.5310     75.0407
   105.5000      0.0000    753.9773      5.4287     81.8209
   105.7500      0.0000    773.4678      5.3824     87.0047
   106.0000      0.0000    785.5710      5.4160     88.8669
   106.2500      0.0000    789.7615      5.5303     87.6923
   106.5000      0.0000    785.2311      5.6925     85.1096
   106.7500      0.0000    772.9222      5.8488     82.6101
   107.0000      0.0000    755.1190      5.9531     80.9805
   107.2500      0.0000    734.4259      5.9824     80.7100
   107.5000      0.0000    714.5985      5.9325     81.9376
   107.7500      0.0000    700.8230      5.8096     83.8719
   108.0000      0.0000    696.8052      5.6330     85.0173
   108.2500      0.0000    701.4719      5.4384     84.4292
   108.5000      0.0000    709.7104      5.2722     82.7125
   108.7500      0.0000    716.3866      5.1785     81.5326
   109.0000      0.0000    719.4324      5.1808     81.9928
   109.2500      0.0000    720.1867      5.2693     83.5966
   109.5000      0.0000    721.6921      5.4069     84.9131
   109.7500      0.0000    725.7506      5.5534     85.1090
   110.0000      0.0000    730.2405      5.6852     84.6809
   110.2500      0.0000    729.2396      5.7933     85.0527
   110.5000      0.0000    716.7812      5.8743     87.6656
   110.7500      0.0000    692.0980      5.9340     92.8515
   111.0000      0.0000    662.8959      5.9955     99.0578
   111.2500      0.0000    642.6826      6.0895    103.7325
   111.5000      0.0000    641.2893      6.2266    105.5847
   111.7500      0.0000    656.5742      6.3825    105.5427
   112.0000      0.0000    677.2917      6.5134    105.2092
   112.2500      0.0000    693.8665      6.5844    105.1195
   112.5000      0.0000    704.2567      6.5825    104.8920
   112.7500      0.0000    710.9759      6.5118    104.2774
   113.0000      0.0000    716.2894      6.3848    103.3452
   113.2500      0.0000    720.7689      6.2229    101.9835
   113.5000      0.0000    724.1188      6.0564     99.7416
   113.7500      0.0000    726.0105      5.9173     96.1778
   114.0000      0.0000    726.2867      5.8257     91.3455
   114.2500      0.0000    724.9065      5.7831     86.1698
   114.5000      0.0000    722.1437      5.7752     82.2514
   114.7500      0.0000    718.9434      5.7819     80.9156
   115.0000      0.0000    716.5365      5.7878     82.2138
   115.2500      0.0000    715.3724      5.7899     84.8086
   115.5000      0.0000    714.8534      5.7955     86.7665
   115.7500      0.0000    714.4817      5.8131     86.6417
   116.0000      0.0000    714.6754      5.8431     84.2945
   116.2500      0.0000    715.9096      5.8778     80.9565
   116.5000      0.0000    717.6223      5.9077     78.3901
   116.7500      0.0000    718.7236      5.9300     77.7798
   117.0000      0.0000    718.9407      5.9489     79.2455
   117.2500      0.0000    718.9818      5.9716     82.1008
   117.5000      0.0000    719.2880      6.0019     85.1821
   117.7500      0.0000    719.0961      6.0346     87.1167
   118.0000      0.0000    717.0525      6.0570     86.9465
   118.2500      0.0000    712.6698      6.0574     84.8153
   118.5000      0.0000    706.9786      6.0341     81.7087
   118.7500      0.0000    701.7496      5.9955     78.2219
   119.0000      0.0000    698.2005      5.9524     73.8979
   119.2500      0.0000    696.4662      5.9108     68.1131
   119.5000      0.0000    696.0065      5.8693     61.1867
   119.7500      0.0000    696.1874      5.8238     54.1213
   120.0000      0.0000    696.5601      5.7736     47.5298
   120.2500      0.0000    696.9733      5.7248     41.3415
   120.5000      0.0000    697.7106      5.6874     35.5176
   120.7500      0.0000    699.4824      5.6689     30.6913
   121.0000      0.0000    703.0110      5.6705     27.9697
   121.2500      0.0000    708.3145      5.6863     28.2934
   121.5000      0.0000    714.3435      5.7057     32.1517
   121.7500      0.0000    719.5502      5.7171     39.6580
   122.0000      0.0000    722.9509      5.7150     50.2402
   122.2500      0.0000    724.6210      5.7023     62.1309
   122.5000      0.0000    725.2847      5.6870     72.8391
   122.7500      0.0000    725.6309      5.6769     80.6973
   123.0000      0.0000    725.9589      5.6766     85.7818
   123.2500      0.0000    726.2016      5.6850     89.1394
   123.5000      0.0000    726.1164      5.6955     91.4883
   123.7500      0.0000    725.2912      5.7012     93.0285
   124.0000      0.0000    722.6265      5.7033     94.0986
   124.2500      0.0000    715.2386      5.7106     95.1600
   124.5000      0.0000    697.8426      5.7305     95.9410
   124.7500      0.0000    664.6720      5.7602     95.2189
   125.0000      0.0000    614.3665      5.7899     91.9508
