~Version Information
VERS.                      2.0: CWLS Log ASCII Standard - VERSION 2.0
WRAP.                       NO: One line per depth step
~Well Information Block
STRT.FT               440.0000: 
STOP.FT              1300.5000: 
STEP.FT                 0.1000: 
NULL.                -999.2500: 
COMP.          Pioneer Natural Resources: COMPANY
WELL.              Yoshi 14-30: WELL
FLD.           Purgatoire River: FIELD
LOC.           993' FSL & 823' FWL: LOCATION
CNTY.               Las Animas: COUNTY
SRVC.                Patterson: SERVICE COMPANY
DATE.          Fri Feb 17 14:59:28 2006: LOG DATE
UWI.           05 071 08699 00: UNIQUE WELL ID
STAT.                 Colorado: STATE
~Curve Information Block
DEPT.FT            0 000 00 00: Depth
DCAL.in                       : CDL Caliper
RHOB.g/cc                     : CDL Bulk Density
RHOC.g/cc                     : CDL Density Correction
DPOR.pu                       : CDL Density Porosity
GR.GAPI                       : Gamma Ray
NPOR.pu                       : Neutron Porosity
~Parameter Information Block
~A  Depth       DCAL        RHOB        RHOC        DPOR         GR         NPOR    
   440.0000      2.6728      2.1396      0.1711     30.9358    104.8174     17.7427
   440.1000      2.6728      2.1462      0.1591     30.5339    115.8325     18.4830
   440.2000      2.6728      2.1486      0.1755     30.3868    124.9231     19.1349
   440.3000      2.6728      2.1454      0.1271     30.5821    126.2291     18.9013
   440.4000      2.6728      2.1447      0.1369     30.6216    122.6143     17.9830
   440.5000      2.6735      2.1477      0.1572     30.4398    118.6179     17.0694
   440.6000      2.6735      2.1492      0.1666     30.3526    121.9692     16.4623
   440.7000      2.6735      2.1506      0.1364     30.2695    134.4375     16.1528
   440.8000      2.6738      2.1505      0.1658     30.2715    149.7798     15.8898
   440.9000      2.6738      2.1419      0.1564     30.7914    158.6479     15.6034
   441.0000      2.6729      2.1257      0.1511     31.7780    155.3397     15.4742
   441.1000      2.6729      2.1083      0.1616     32.8331    151.2106     15.5782
   441.2000      2.6729      2.0974      0.1266     33.4882    157.6811     16.0876
   441.3000      2.6723      2.0975      0.1219     33.4848    168.2525     16.9756
   441.4000      2.6723      2.1047      0.1669     33.0472    171.3837     17.5882
   441.5000      2.6726      2.1199      0.1429     32.1278    165.2897     17.6868
   441.6000      2.6726      2.1435      0.2088     30.6972    157.0897     18.1018
   441.7000      2.6726      2.1654      0.2057     29.3702    151.8943     18.7868
   441.8000      2.6724      2.1781      0.2171     28.5985    147.6527     18.6245
   441.9000      2.6724      2.1794      0.2338     28.5230    144.3506     18.0610
   442.0000      2.6730      2.1701      0.2228     29.0836    146.6079     17.9288
   442.1000      2.6730      2.1590      0.1764     29.7581    152.5419     18.1203
   442.2000      2.6730      2.1531      0.1764     30.1132    152.5880     18.2696
   442.3000      2.6745      2.1487      0.1869     30.3822    144.9461     18.0626
   442.4000      2.6745      2.1419      0.1713     30.7914    136.8909     17.7407
   442.5000      2.6742      2.1365      0.1854     31.1201    130.3396     17.3144
   442.6000      2.6742      2.1339      0.1866     31.2780    123.9158     16.4783
   442.7000      2.6742      2.1322      0.1824     31.3812    121.8951     15.8336
   442.8000      2.6734      2.1269      0.2158     31.7002    127.4082     16.0795
   442.9000      2.6734      2.1140      0.1853     32.4851    134.4642     16.6007
   443.0000      2.6731      2.1001      0.1448     33.3247    136.5938     16.7601
   443.1000      2.6731      2.0997      0.1672     33.3495    134.8405     16.8790
   443.2000      2.6731      2.1217      0.1565     32.0165    131.7352     16.9578
   443.3000      2.6729      2.1556      0.2334     29.9665    126.2594     16.7589
   443.4000      2.6729      2.1722      0.2577     28.9603    118.7507     16.3926
   443.5000      2.6729      2.1598      0.1962     29.7090    118.2773     16.3868
   443.6000      2.6729      2.1356      0.1808     31.1781    130.5316     17.2011
   443.7000      2.6729      2.1174      0.1522     32.2760    144.3867     18.3789
   443.8000      2.6730      2.1128      0.1566     32.5602    144.9138     18.9246
   443.9000      2.6730      2.1173      0.1830     32.2870    134.6688     18.4939
   444.0000      2.6734      2.1173      0.1962     32.2853    126.9062     17.8830
   444.1000      2.6734      2.1109      0.1651     32.6705    124.4952     18.2621
   444.2000      2.6734      2.1112      0.1509     32.6573    124.3405     19.6482
   444.3000      2.6731      2.1214      0.1861     32.0393    126.3860     20.7004
   444.4000      2.6731      2.1340      0.1747     31.2701    129.3829     20.5347
   444.5000      2.6719      2.1382      0.2313     31.0178    129.7161     19.4594
   444.6000      2.6719      2.1257      0.1754     31.7771    124.7646     18.3250
   444.7000      2.6719      2.1122      0.1498     32.5915    115.6576     18.0300
   444.8000      2.6723      2.1206      0.1442     32.0873    109.7594     18.7511
   444.9000      2.6723      2.1427      0.2267     30.7460    111.9782     19.5896
   445.0000      2.6742      2.1548      0.2350     30.0106    115.1332     19.3407
   445.1000      2.6742      2.1547      0.1879     30.0185    112.8115     18.0070
   445.2000      2.6742      2.1523      0.2113     30.1618    109.2110     16.5606
   445.3000      2.6743      2.1526      0.1856     30.1472    107.5641     15.8776
   445.4000      2.6743      2.1624      0.1961     29.5491    107.8534     16.1226
   445.5000      2.6732      2.1777      0.2433     28.6241    111.3781     17.0743
   445.6000      2.6732      2.1762      0.2688     28.7139    116.2604     18.0314
   445.7000      2.6732      2.1537      0.1963     30.0809    121.0623     18.2051
   445.8000      2.6737      2.1362      0.1344     31.1393    122.1403     18.1413
   445.9000      2.6737      2.1370      0.2134     31.0906    116.9957     18.3944
   446.0000      2.6749      2.1392      0.2084     30.9599    111.7327     18.7781
   446.1000      2.6749      2.1355      0.1639     31.1816    110.7106     19.4288
   446.2000      2.6749      2.1324      0.1976     31.3702    110.3811     20.0516
   446.3000      2.6741      2.1275      0.1589     31.6653    110.0971     19.7166
   446.4000      2.6741      2.1205      0.1583     32.0912    113.1503     18.3230
   446.5000      2.6721      2.1188      0.1706     32.1967    115.1805     17.2745
   446.6000      2.6721      2.1269      0.1656     31.7012    111.3655     17.7457
   446.7000      2.6721      2.1380      0.1867     31.0275    108.0288     19.2754
   446.8000      2.6713      2.1402      0.2173     30.8946    112.3205     20.4810
   446.9000      2.6713      2.1373      0.1572     31.0737    121.2064     20.3439
   447.0000      2.6718      2.1392      0.2034     30.9606    125.2751     18.8502
   447.1000      2.6718      2.1397      0.2050     30.9252    122.1021     17.0064
   447.2000      2.6718      2.1270      0.2056     31.6954    117.7855     16.2465
   447.3000      2.6728      2.1004      0.1756     33.3079    117.8055     16.8083
   447.4000      2.6728      2.0786      0.1334     34.6297    121.8744     17.4071
   447.5000      2.6732      2.0811      0.1584     34.4764    126.2051     17.3951
   447.6000      2.6732      2.0980      0.2069     33.4575    128.3878     17.2350
   447.7000      2.6732      2.1053      0.1924     33.0125    125.5156     17.1086
   447.8000      2.6743      2.1040      0.1562     33.0924    121.6836     17.1290
   447.9000      2.6743      2.1056      0.1956     32.9925    125.4365     17.4120
   448.0000      2.6756      2.1046      0.1729     33.0518    131.0367     17.6586
   448.1000      2.6756      2.0932      0.1932     33.7449    126.6384     17.4944
   448.2000      2.6756      2.0787      0.1448     34.6253    116.5265     17.2523
   448.3000      2.6756      2.0726      0.1463     34.9954    113.1280     17.2329
   448.4000      2.6756      2.0735      0.1725     34.9392    117.4743     16.8638
   448.5000      2.6753      2.0755      0.1590     34.8205    122.7185     16.1207
   448.6000      2.6753      2.0761      0.1932     34.7819    127.5312     15.6895
   448.7000      2.6753      2.0809      0.1561     34.4885    132.4235     15.7674
   448.8000      2.6755      2.0945      0.2104     33.6640    131.7170     15.9631
   448.9000      2.6755      2.1022      0.2066     33.2001    120.4282     16.2142
   449.0000      2.6748      2.0979      0.1703     33.4582    109.9801     16.4079
   449.1000      2.6748      2.1010      0.1676     33.2739    111.1855     16.1819
   449.2000      2.6748      2.1207      0.1986     32.0775    117.8714     15.5865
   449.3000      2.6721      2.1368      0.2842     31.1030    123.3654     15.1059
   449.4000      2.6721      2.1293      0.2164     31.5548    128.4304     15.0578
   449.5000      2.6704      2.1093      0.1806     32.7673    130.0081     15.0120
