~Version Information
 VERS.                                  2.0 : CWLS LAS VERSION
 WRAP.                                   NO : WRAPING MODE
 SWARE .                 MController 2.5.0N : SOFTWARE VERSION
~Well Information
 WELL.                      Beinville 31-28 : WELL
 COMP.       Pioneer Natural Resources, USA : COMPANY
 FLD.                       Purgatory River : FIELD
 LOC.                 NW/NE Sec28 T33S R65W : LOCATION
 DATE.                              1/16/05 : DATE(S) LOGGED
 SRVC.      Blanco Geological Services, LLC : SERVICE COMPANY
 STAT.                             Colorado : STATE
 CNTY.                           Las Animas : COUNTY
 CTRY.                                  USA : COUNTRY
 API.                       05-071-08666-00 : API NUMBER
 STRT.FT                             185.00 : START DEPTH
 STOP.FT                             900.00 : STOP DEPTH
 STEP.FT                               1.00 : DEPTH INCREMENT
 NULL.                                -9999 : NULL VALUE
~Curve information
 DEPTH.FT                                   :
 ROP.MIN/FT                                 :
 GAS.UNITS                                  :
~ASCII Log data
# ...
       785.0         0.20        742.7 
       786.0         0.17        661.8 
       787.0         0.23        633.8 
       788.0         0.20        613.8 
       789.0         0.20        598.2 
       790.0         0.20        595.4 
       791.0         0.20        584.0 
       792.0         0.20        578.5 
       793.0         0.17        571.7 
       794.0         0.20        570.2 
       795.0         0.20        568.9 
       796.0         0.22        563.4 
       797.0         0.20        560.9 
       798.0         0.17        559.1 
       799.0         0.20        558.2 
       800.0         0.20        557.9 
       801.0         0.20        557.2 
       802.0         0.23        557.2 
       803.0         0.20        557.9 
       804.0         0.27        557.2 
       805.0         0.20        557.2 
       806.0         1.75       1114.6 
       807.0         0.17       1152.8 
       808.0         0.33       2296.2 
       809.0         0.27       2419.2 
       810.0         0.27       2122.4 
       811.0         0.20       1991.0 
       812.0         0.17       1373.4 
       813.0         0.20       1239.8 
       814.0         0.17        971.0 
       815.0         0.20        946.7 
       816.0         0.20        804.6 
       817.0         0.20        701.5 
       818.0         0.20        685.8 
       819.0         0.17        630.5 
       820.0         0.17        601.5 
       821.0         0.18        586.2 
       822.0         0.17        577.2 
       823.0         0.17        568.9 
       824.0         0.13        565.9 
       825.0         0.17        556.6 
       826.0         0.17        556.3 
       827.0         0.17        554.2 
       828.0         0.13        552.6 
       829.0         0.20        549.6 
       830.0         0.20        549.9 
       831.0         0.20        549.2 
       832.0         0.27        548.3 
       833.0         0.30        548.9 
       834.0         0.23        545.6 
       835.0         0.20        543.7 
       836.0         2.28       1326.6 
       837.0         0.23       2176.8 
       838.0         0.23       2690.6 
       839.0         0.20       2522.9 
       840.0         0.20       2099.3 
       841.0         0.17       2024.6 
       842.0         0.20       1578.5 
       843.0         0.20       1186.6 
       844.0         0.18       1111.6 
       845.0         0.20        912.2 
       846.0         0.23        785.2 
       847.0         0.33        693.2 
       848.0         0.40        644.3 
       849.0         0.33        594.5 
       850.0         0.17        588.3 
       851.0         0.17        585.9 
       852.0         0.17        579.7 
       853.0         0.17        574.2 
       854.0         0.20        569.2 
       855.0         0.17        566.8 
       856.0         0.17        563.4 
       857.0         0.17        562.2 
       858.0         0.13        559.1 
       859.0         0.17        558.5 
       860.0         0.22        552.0 
       861.0         0.17        553.6 
       862.0         0.27        553.6 
       863.0         0.33        553.2 
       864.0         0.40        553.2 
       865.0         0.27        549.9 
       866.0         2.45       1720.3 
       867.0         0.40       2828.4 
       868.0         0.30       2947.7 
       869.0         0.23       2157.5 
       870.0         0.23       1702.2 
       871.0         0.20       1277.1 
       872.0         0.23       1002.4 
       873.0         0.20        816.9 
       874.0         0.37        784.6 
       875.0         0.20        637.5 
       876.0         0.20        614.5 
       877.0         0.32        593.5 
       878.0         0.23        573.5 
       879.0         0.27        562.8 
       880.0         0.23        553.2 
       881.0         0.20        551.4 
       882.0         0.20        549.6 
       883.0         0.27        549.2 
       884.0         0.23        550.5 
       885.0         0.27        551.4 
       886.0         0.27        551.7 
       887.0         0.23        550.5 
       888.0         0.27        548.9 
       889.0         0.23        548.9 
       890.0         0.20        548.6 
       891.0         0.25        548.0 
       892.0         0.23        548.0 
       893.0         0.23        548.3 
       894.0         0.23        548.6 
       895.0         0.30        548.6 
       896.0         2.13       1249.7 
       897.0         0.48       2699.2 
       898.0         0.40       2630.9 
       899.0         0.27       1473.9 
       900.0         0.23       1126.9 
