~Version Information
VERS.                      2.0: CWLS Log ASCII Standard - VERSION 2.0
WRAP.                       NO: One line per depth step
~Well Information Block
STRT.FT               670.0000: 
STOP.FT              2108.5000: 
STEP.FT                 0.1000: 
NULL.                -999.2500: 
COMP.          Petrogulf Corporation: COMPANY
WELL.           Montoya 12-44R: WELL
FLD.           Purgatorie River: FIELD
LOC.           713' FSL & 798' FEL: LOCATION
PROV.                 Colorado: PROVINCE
CNTY.               Las Animas: COUNTRY
SRVC.                Patterson: SERVICE COMPANY
DATE.          Mon Oct 03 07:50:59 2005: LOG DATE
UWI.           05-071-08538               : UNIQUE WELL ID
~Curve Information Block
DEPT.FT            0 000 00 00: Depth
DCAL.in                       : CDL Caliper
RHOB.g/cc                     : CDL Bulk Density
RHOC.g/cc                     : CDL Density Correction
DPOR.pu                       : CDL Density Porosity
GR.GAPI                       : Gamma Ray
NPOR.pu                       : Neutron Porosity
~Parameter Information Block
~A  Depth       DCAL        RHOB        RHOC        DPOR         GR         NPOR    
# ...
  1332.4000      8.0337      2.5480      0.0383      6.1799     81.4082     23.2085
  1332.5000      8.0234      2.5302     -0.0059      7.2582     81.7686     22.9848
  1332.6000      8.0234      2.5256      0.0128      7.5385     80.1307     22.9435
  1332.7000      8.0234      2.5339      0.0346      7.0381     80.8940     23.2933
  1332.8000      8.0216      2.5429      0.0516      6.4931     85.7443     23.7487
  1332.9000      8.0216      2.5439      0.0276      6.4285     88.1868     23.9135
  1333.0000      8.0182      2.5431      0.0032      6.4765     84.2170     23.7820
  1333.1000      8.0182      2.5500      0.0237      6.0636     80.0160     23.5002
  1333.2000      8.0182      2.5610      0.0221      5.3951     79.1505     23.2129
  1333.3000      8.0153      2.5698      0.0261      4.8603     79.9122     23.1334
  1333.4000      8.0153      2.5798      0.0280      4.2529     82.5646     23.1319
  1333.5000      8.0120      2.5947      0.0555      3.3499     88.2936     23.0572
  1333.6000      8.0120      2.6081      0.0683      2.5411     92.7784     22.9263
  1333.7000      8.0120      2.6116      0.0306      2.3283     90.3392     22.6394
  1333.8000      8.0125      2.6037      0.0642      2.8078     84.0981     22.2587
  1333.9000      8.0125      2.5913      0.0158      3.5550     81.7207     21.9174
  1334.0000      8.0112      2.5860      0.0074      3.8797     84.5967     21.6008
  1334.1000      8.0112      2.5893      0.0157      3.6787     88.0072     21.4079
  1334.2000      8.0112      2.5933      0.0489      3.4339     90.1129     21.3681
  1334.3000      8.0094      2.5926      0.0101      3.4772     90.9589     21.1720
  1334.4000      8.0094      2.5892     -0.0039      3.6853     87.9296     21.0401
  1334.5000      8.0179      2.5810      0.0366      4.1835     81.3779     21.4352
  1334.6000      8.0179      2.5583      0.0299      5.5591     75.6638     21.8981
  1334.7000      8.0179      2.5257     -0.0213      7.5320     74.2255     21.9539
  1334.8000      8.0098      2.5053      0.0002      8.7672     77.0946     21.8357
  1334.9000      8.0098      2.5085      0.0004      8.5750     80.4518     21.8111
  1335.0000      8.0149      2.5240      0.0129      7.6358     81.0310     22.0153
  1335.1000      8.0149      2.5316      0.0552      7.1788     79.0688     22.4127
  1335.2000      8.0149      2.5296     -0.0180      7.2981     77.5107     22.9570
  1335.3000      8.0173      2.5297      0.0310      7.2887     79.1417     23.6097
  1335.4000      8.0173      2.5258      0.0348      7.5282     83.1049     24.0814
  1335.5000      8.0145      2.5173     -0.0059      8.0416     86.0335     24.0592
  1335.6000      8.0145      2.5134      0.0552      8.2807     85.4902     23.6397
  1335.7000      8.0145      2.5105      0.0062      8.4516     82.4503     23.2233
  1335.8000      8.0137      2.5071      0.0322      8.6601     80.2170     23.0223
  1335.9000      8.0137      2.5013      0.0218      9.0100     79.2945     23.0022
  1336.0000      8.0111      2.4932      0.0005      9.5005     79.0163     23.0447
  1336.1000      8.0111      2.4883      0.0518      9.8006     80.4423     23.0063
  1336.2000      8.0111      2.4847      0.0107     10.0201     81.7402     23.0964
  1336.3000      8.0147      2.4771      0.0250     10.4807     80.8286     23.5690
  1336.4000      8.0147      2.4696     -0.0273     10.9305     80.1454     24.0881
  1336.5000      8.0141      2.4683      0.0261     11.0112     80.4990     24.3323
  1336.6000      8.0141      2.4658      0.0084     11.1610     79.2288     24.3711
  1336.7000      8.0141      2.4603      0.0063     11.4943     77.2877     24.4197
  1336.8000      8.0128      2.4675     -0.0378     11.0632     76.8969     24.5292
  1336.9000      8.0128      2.4918      0.0536      9.5889     76.9516     24.4962
  1337.0000      8.0113      2.5095      0.0442      8.5143     77.2327     24.3390
  1337.1000      8.0113      2.5076      0.0358      8.6307     80.7006     24.2773
  1337.2000      8.0113      2.4980      0.0144      9.2093     88.6771     24.4244
  1337.3000      8.0090      2.4893      0.0410      9.7401     96.1736     24.6153
  1337.4000      8.0090      2.4813      0.0130     10.2257     96.9070     24.3972
  1337.5000      8.0077      2.4735      0.0210     10.6999     91.9291     23.6968
  1337.6000      8.0077      2.4622      0.0312     11.3839     84.9145     23.0707
  1337.7000      8.0077      2.4482      0.0129     12.2328     78.6639     22.9359
  1337.8000      8.0071      2.4428     -0.0114     12.5547     78.0102     23.0991
  1337.9000      8.0071      2.4475      0.0657     12.2735     82.4545     23.2342
  1338.0000      8.0043      2.4497     -0.0074     12.1370     84.4064     23.1708
  1338.1000      8.0043      2.4503      0.0248     12.1058     81.7031     23.0179
  1338.2000      8.0043      2.4578     -0.0081     11.6512     78.9649     23.1645
  1338.3000      8.0055      2.4756      0.0393     10.5693     78.3693     23.7669
  1338.4000      8.0055      2.4998      0.0571      9.1042     79.9852     24.4983
  1338.5000      8.0033      2.5222      0.0721      7.7459     83.6252     24.9065
  1338.6000      8.0033      2.5290      0.0769      7.3306     86.2950     24.9324
  1338.7000      8.0033      2.5112      0.0470      8.4139     85.5422     24.7269
  1338.8000      8.0058      2.4855      0.0426      9.9715     83.1626     24.3099
  1338.9000      8.0058      2.4787      0.0189     10.3808     82.9776     23.7093
  1339.0000      7.9978      2.4932      0.0546      9.5031     84.6104     23.1524
  1339.1000      7.9978      2.5066      0.0593      8.6886     84.4404     23.0537
  1339.2000      7.9978      2.5081      0.0459      8.6005     83.6713     23.5876
  1339.3000      7.9940      2.5111      0.0327      8.4153     85.7912     24.2509
  1339.4000      7.9940      2.5264      0.0467      7.4904     89.1002     24.6419
  1339.5000      7.9867      2.5450      0.0726      6.3659     91.6555     24.8411
  1339.6000      7.9867      2.5528      0.0994      5.8920     93.8762     24.8368
  1339.7000      7.9867      2.5471      0.0795      6.2367     94.7606     24.7002
  1339.8000      7.9728      2.5294      0.0949      7.3116     93.3811     24.6922
  1339.9000      7.9728      2.5008      0.0368      9.0400     91.8757     24.9179
  1340.0000      7.9718      2.4767      0.0285     10.5045     92.3049     25.1706
  1340.1000      7.9718      2.4738      0.0012     10.6776     94.9802     25.2111
  1340.2000      7.9718      2.4854      0.0342      9.9765     99.4446     25.1320
  1340.3000      7.9626      2.4931      0.0227      9.5064    103.2968     25.0723
  1340.4000      7.9626      2.4941      0.0278      9.4477    105.4879     24.9133
  1340.5000      7.9610      2.4932      0.0137      9.5018    106.1682     24.4970
  1340.6000      7.9610      2.4915      0.0374      9.6070    103.6396     24.0864
  1340.7000      7.9610      2.4919      0.0153      9.5821     99.5378     24.2015
  1340.8000      7.9700      2.4956      0.0445      9.3563     96.6471     24.8376
  1340.9000      7.9700      2.4992      0.0126      9.1379     93.4927     25.4222
  1341.0000      8.0033      2.5059      0.0698      8.7307     89.0875     25.5436
  1341.1000      8.0033      2.5170      0.0433      8.0605     85.2453     25.3200
  1341.2000      8.0033      2.5239      0.0493      7.6454     82.7849     25.0371
  1341.3000      8.0352      2.5196      0.0171      7.9021     81.4055     24.7000
  1341.4000      8.0352      2.5118      0.0252      8.3753     82.1313     24.3383
  1341.5000      8.0469      2.5129      0.0146      8.3062     84.9882     24.2294
  1341.6000      8.0469      2.5232      0.0248      7.6855     87.6364     24.3572
  1341.7000      8.0469      2.5324      0.0551      7.1298     88.2197     24.3029
  1341.8000      8.0478      2.5368      0.0279      6.8587     87.0546     23.9972
  1341.9000      8.0478      2.5482      0.0051      6.1710     85.4407     23.6892
