~Version Information
VERS.                      2.0: CWLS Log ASCII Standard - VERSION 2.0
WRAP.                       NO: One line per depth step
~Well Information Block
STRT.FT                -4.0000: 
STOP.FT              1544.0000: 
STEP.FT                 0.2500: 
NULL.                -999.2500: 
COMP.          Pioneer Natural Resources: COMPANY
WELL.           Screamin 12-29: WELL
FLD.           Purgatoire River: FIELD
LOC.           2038' FNL & 612' FWL--: LOCATION
CNTY.               Las Animas: COUNTY
SRVC.                Patterson: SERVICE COMPANY
DATE.          Fri Apr 14 00:36:42 2006: LOG DATE
UWI.           05 071 08661 00: UNIQUE WELL ID
STAT.                 Colorado: STATE
~Curve Information Block
DEPT.FT            0 000 00 00: Depth
GR.GAPI                       : Gamma Ray
CCL.                          : Casing Collar Locator
TT3.usec                      : CBL 3' Travel Time
AMP3.mV                       : CBL 3' Amplitude
~Parameter Information Block
~A  Depth        GR         CCL         TT3         AMP3    
# ...
   398.0000    101.6118      0.0000    738.0466      7.3936
   398.2500    104.1685      0.0000    737.2118      7.3544
   398.5000    107.8211      0.0000    738.2279      7.2879
   398.7500    109.2223      0.0000    740.0519      7.2477
   399.0000    108.7183      0.0000    743.5981      7.2022
   399.2500    106.8238      0.0000    745.7402      7.1828
   399.5000    102.9513      0.0000    746.9051      7.1678
   399.7500    100.3979      0.0000    745.6141      7.1642
   400.0000     97.3288      0.0000    740.7740      7.1627
   400.2500     96.0131      0.0000    736.4418      7.1603
   400.5000     94.9593      0.0000    730.0969      7.1482
   400.7500     94.3699      0.0000    726.8003      7.1295
   401.0000     92.9184      0.0000    723.7653      7.0762
   401.2500     91.6628      0.0000    722.7919      7.0235
   401.5000     90.0663      0.0000    722.1528      6.9318
   401.7500     89.4666      0.0000    721.8999      6.8713
   402.0000     89.5089      0.0000    721.4517      6.7903
   402.2500     90.4347      0.0000    721.0671      6.7455
   402.5000     93.3468      0.0000    720.4391      6.6953
   402.7500     95.6361      0.0000    720.0674      6.6741
   403.0000     97.3648      0.0000    719.7256      6.6642
   403.2500     96.5119      0.0000    719.7021      6.6751
   403.5000     93.0991      0.0000    719.9924      6.7138
   403.7500     90.9555      0.0000    720.3558      6.7474
   404.0000     90.1260      0.0000    721.0105      6.7987
   404.2500     91.2594      0.0000    721.4337      6.8315
   404.5000     93.8133      0.0000    721.9515      6.8804
   404.7500     94.7803      0.0000    722.1968      6.9168
   405.0000     93.9816      0.0000    722.4169      6.9844
   405.2500     92.5683      0.0000    722.4938      7.0369
   405.5000     91.8452      0.0000    722.7003      7.1071
   405.7500     93.4593      0.0000    723.1563      7.1320
   406.0000     98.1744      0.0000    724.9323      7.1227
   406.2500    101.1296      0.0000    727.0658      7.0922
   406.5000    103.0403      0.0000    731.1777      7.0330
   406.7500    102.7610      0.0000    733.6482      6.9917
   407.0000    102.0093      0.0000    735.3898      6.9246
   407.2500    102.2612      0.0000    734.9139      6.8770
   407.5000    103.4977      0.0000    732.2687      6.8168
   407.7500    103.8595      0.0000    729.7832      6.7942
   408.0000    102.1469      0.0000    725.9225      6.7844
   408.2500     99.2233      0.0000    723.7001      6.7796
   408.5000     92.5920      0.0000    721.2543      6.7507
   408.7500     87.3871      0.0000    720.2068      6.7145
   409.0000     80.4745      0.0000    719.4257      6.6501
   409.2500     77.7289      0.0000    719.4181      6.6097
   409.5000     77.1550      0.0000    719.8813      6.5500
   409.7500     78.4300      0.0000    719.9785      6.5008
   410.0000     80.7670      0.0000    718.5545      6.4044
   410.2500     81.7490      0.0000    716.2124      6.3310
   410.5000     82.0683      0.0000    711.7446      6.2228
   410.7500     81.7969      0.0000    709.6292      6.1546
   411.0000     81.3874      0.0000    709.8054      6.0462
   411.2500     81.4752      0.0000    712.2042      5.9573
   411.5000     82.3642      0.0000    717.9346      5.7831
   411.7500     83.3111      0.0000    722.4810      5.6421
   412.0000     84.9163      0.0000    730.0145      5.4244
   412.2500     86.0312      0.0000    735.7803      5.3039
   412.5000     87.5547      0.0000    746.9483      5.1968
   412.7500     88.1292      0.0000    757.0481      5.1737
   413.0000     87.9407      2.0000    775.3020      5.1788
   413.2500     87.5584      0.0000    785.9685      5.1881
   413.5000     88.5565      0.0000    790.4550      5.1989
   413.7500     91.3832      0.0000    782.7200      5.2187
   414.0000     99.2445      0.0000    759.4169      5.3330
   414.2500    106.0070      0.0000    742.5193      5.5064
   414.5000    115.6167      0.0000    724.7251      5.9137
   414.7500    119.8911      0.0000    719.9919      6.2289
   415.0000    121.2007      0.0000    721.8655      6.6418
   415.2500    118.7540      0.0000    726.5526      6.8328
   415.5000    112.1023      0.0000    733.8243      6.9873
   415.7500    107.2841      0.0000    736.4720      7.0227
   416.0000    101.5900      0.0000    735.8754      7.0221
   416.2500     99.2655      0.0000    733.9464      7.0143
   416.5000     97.5239      0.0000    733.9128      7.0239
   416.7500     96.9164      0.0000    738.6321      7.0465
   417.0000     95.9967      0.0000    754.2380      7.0922
   417.2500     95.3434      0.0000    767.9532      7.1248
   417.5000     95.2552      0.0000    784.7046      7.1765
   417.7500     96.5282      0.0000    788.4184      7.2127
   418.0000    100.4669      0.0000    781.8684      7.2644
   418.2500    103.2475      0.0000    774.2631      7.2914
   418.5000    104.7129      0.0000    769.4592      7.3091
   418.7500    103.0576      0.0000    774.4096      7.2998
   419.0000     98.1204      0.0000    791.4410      7.2544
   419.2500     95.1068      0.0000    804.1606      7.2112
   419.5000     93.5320      0.0000    817.1786      7.1510
   419.7500     94.6383      0.0000    819.8657      7.1259
   420.0000     98.3679      0.0000    817.0499      7.1154
   420.2500    101.5980      0.0000    813.9280      7.1198
   420.5000    107.0773      0.0000    812.7997      7.1263
   420.7500    110.7265      0.0000    815.4525      7.1242
   421.0000    114.9128      0.0000    822.2516      7.1095
   421.2500    116.4425      0.0000    826.6084      7.0933
   421.5000    117.6020      0.0000    830.9795      7.0601
   421.7500    118.3565      0.0000    832.4377      7.0344
   422.0000    119.6356      0.0000    833.1744      6.9994
   422.2500    119.9374      0.0000    833.1321      6.9827
   422.5000    118.2719      0.0000    832.8175      6.9687
   422.7500    115.5234      0.0000    832.6341      6.9673
   423.0000    109.8045      0.0000    832.5114      6.9798
   423.2500    105.8552      0.0000    832.4667      6.9980
   423.5000    100.9124      0.0000    832.2292      7.0371
   423.7500     98.3257      0.0000    831.8807      7.0710
   424.0000     94.8820      0.0000    831.2059      7.1331
   424.2500     92.7170      0.0000    830.8351      7.1771
   424.5000     90.4574      0.0000    830.6057      7.2292
   424.7500     90.3961      0.0000    830.6465      7.2457
   425.0000     93.1325      0.0000    830.8009      7.2403
   425.2500     96.5264      0.0000    830.8730      7.2205
   425.5000    102.5993      0.0000    830.9215      7.1790
   425.7500    106.1975      0.0000    830.9548      7.1539
   426.0000    108.6978      0.0000    831.0435      7.1390
   426.2500    107.4899      0.0000    831.0896      7.1487
   426.5000    101.6692      0.0000    830.9249      7.1850
   426.7500     96.4458      0.0000    830.3970      7.2146
   427.0000     89.4883      0.0000    828.4146      7.2548
   427.2500     86.7845      0.0000    826.2823      7.2742
   427.5000     86.8797      0.0000    823.0850      7.2874
   427.7500     89.6416      0.0000    822.0645      7.2831
   428.0000     96.0862      0.0000    822.9025      7.2495
   428.2500    100.2593      0.0000    824.1815      7.2015
   428.5000    103.9329      0.0000    824.6955      7.0835
   428.7500    104.2423      0.0000    823.0498      6.9825
   429.0000    102.5778      0.0000    817.5433      6.8389
   429.2500    101.1359      0.0000    813.1422      6.7770
   429.5000     99.7446      0.0000    809.3595      6.7619
   429.7500     99.4143      0.0000    810.4285      6.7947
   430.0000     99.3151      0.0000    816.3031      6.8579
   430.2500     99.3370      0.0000    820.2690      6.8780
   430.5000     99.7904      0.0000    821.0006      6.8532
   430.7500    100.7075      0.0000    816.0564      6.8094
   431.0000    103.1703      0.0000    800.7118      6.7325
   431.2500    105.1595      0.0000    788.2012      6.6835
