~Version Information
VERS.                      2.0: CWLS Log ASCII Standard - VERSION 2.0
WRAP.                       NO: One line per depth step
~Well Information Block
STRT.FT               410.0000: 
STOP.FT              1253.0000: 
STEP.FT                 0.1000: 
NULL.                -999.2500: 
COMP.          Petrogulf Corporation: COMPANY
WELL.           Parsons 15-23R: WELL
FLD.           Purgatorie River: FIELD
LOC.           2244' FSL & 1932' FWL: LOCATION
PROV.                 Colorado: PROVINCE
CNTY.               Las Animas: COUNTRY
SRVC.                Patterson: SERVICE COMPANY
DATE.          Mon Sep 12 10:28:25 2005: LOG DATE
UWI.                          : UNIQUE WELL ID
~Curve Information Block
DEPT.FT            0 000 00 00: Depth
DCAL.in                       : CDL Caliper
RHOB.g/cc                     : CDL Bulk Density
RHOC.g/cc                     : CDL Density Correction
DPOR.pu                       : CDL Density Porosity
GR.GAPI                       : Gamma Ray
NPOR.pu                       : Neutron Porosity
~Parameter Information Block
~A  Depth       DCAL        RHOB        RHOC        DPOR         GR         NPOR    
# ...
  1130.0000      8.8022      1.9551      0.1949     42.1132    130.9865     33.1463
  1130.1000      8.8022      2.0674      0.2388     35.3062    133.5029     33.0013
  1130.2000      8.8022      2.1728      0.2173     28.9210    131.1594     32.9264
  1130.3000      8.7890      2.2733      0.2177     22.8307    125.4555     32.9117
  1130.4000      8.7890      2.3752      0.1407     16.6545    120.2364     32.8740
  1130.5000      8.2775      2.4685      0.1582     11.0012    118.4936     32.5523
  1130.6000      8.2775      2.5332      0.1456      7.0783    121.3275     31.7821
  1130.7000      8.2775      2.5639      0.1198      5.2209    127.0861     30.7815
  1130.8000      7.9850      2.5679      0.1167      4.9743    133.4692     29.8882
  1130.9000      7.9850      2.5614      0.0766      5.3716    139.6483     29.2715
  1131.0000      7.9477      2.5668      0.0507      5.0420    143.5834     28.9766
  1131.1000      7.9477      2.5887      0.0850      3.7126    144.3099     28.9408
  1131.2000      7.9477      2.6038      0.1285      2.7973    144.8271     28.8273
  1131.3000      7.9472      2.5968      0.0937      3.2271    146.1242     28.1407
  1131.4000      7.9472      2.5869      0.0386      3.8251    147.3494     26.9328
  1131.5000      7.9633      2.5951      0.0781      3.3275    148.9383     25.8488
  1131.6000      7.9633      2.6083      0.0948      2.5271    148.5064     25.2836
  1131.7000      7.9633      2.5997      0.1172      3.0457    144.2842     25.2518
  1131.8000      7.9473      2.5681      0.0799      4.9645    140.4912     25.8186
  1131.9000      7.9473      2.5357      0.0744      6.9285    143.4107     26.7997
  1132.0000      7.9296      2.5170      0.0859      8.0605    151.9188     27.6617
  1132.1000      7.9296      2.5150      0.0672      8.1834    157.4715     27.9277
  1132.2000      7.9296      2.5262      0.0751      7.5032    159.4712     27.4162
  1132.3000      7.9187      2.5385      0.0932      6.7573    162.3809     26.6876
  1132.4000      7.9187      2.5449      0.1218      6.3679    162.4185     26.5358
  1132.5000      7.9084      2.5473      0.1072      6.2224    158.1456     26.9499
  1132.6000      7.9084      2.5490      0.0893      6.1192    156.9752     27.5842
  1132.7000      7.9084      2.5520      0.0839      5.9423    160.9600     28.1747
  1132.8000      7.9317      2.5486      0.1028      6.1444    163.3509     28.3323
  1132.9000      7.9317      2.5337      0.0925      7.0462    160.6057     27.8758
  1133.0000      7.9523      2.5220      0.0706      7.7572    157.6444     27.2149
  1133.1000      7.9523      2.5270      0.0711      7.4568    159.6524     27.0042
  1133.2000      7.9523      2.5413      0.0814      6.5904    164.4101     27.3942
  1133.3000      7.9628      2.5466      0.1118      6.2647    166.3925     28.0682
  1133.4000      7.9628      2.5302      0.0811      7.2632    165.2874     28.6029
  1133.5000      7.9703      2.5018      0.0302      8.9843    165.6796     28.7960
  1133.6000      7.9703      2.4869      0.0427      9.8872    169.1160     28.7940
  1133.7000      7.9703      2.4908      0.0638      9.6503    173.1411     28.5867
  1133.8000      7.9646      2.4995      0.0767      9.1223    175.6656     28.1527
  1133.9000      7.9646      2.5129      0.0528      8.3091    176.3501     27.8586
  1134.0000      7.9520      2.5365      0.1278      6.8760    176.9273     28.0507
  1134.1000      7.9520      2.5538      0.1761      5.8300    179.8102     28.5923
  1134.2000      7.9520      2.5526      0.1100      5.9054    183.3989     29.2216
  1134.3000      7.9454      2.5519      0.1070      5.9451    182.2161     29.7360
  1134.4000      7.9454      2.5687      0.1243      4.9274    175.3484     29.9974
  1134.5000      7.9387      2.5878      0.1658      3.7684    166.9411     29.9940
  1134.6000      7.9387      2.5869      0.1092      3.8241    160.9528     29.8004
  1134.7000      7.9387      2.5754      0.0801      4.5197    159.8455     29.5507
  1134.8000      7.9374      2.5706      0.1251      4.8110    161.0915     29.2921
  1134.9000      7.9374      2.5644      0.1209      5.1895    160.1240     29.1582
  1135.0000      7.9347      2.5494      0.0705      6.0965    157.9034     29.2208
  1135.1000      7.9347      2.5340      0.0769      7.0285    156.5749     29.2094
  1135.2000      7.9347      2.5223      0.0366      7.7387    156.1410     29.0402
  1135.3000      7.9352      2.5077      0.0468      8.6221    157.5128     28.8495
  1135.4000      7.9352      2.4868      0.0222      9.8891    160.5043     28.8410
  1135.5000      7.9179      2.4704      0.0184     10.8867    163.9996     29.1161
  1135.6000      7.9179      2.4749      0.0232     10.6114    166.7231     29.3574
  1135.7000      7.9179      2.5087      0.0803      8.5607    166.9736     29.3662
  1135.8000      7.9029      2.5540      0.1288      5.8170    165.4087     29.1054
  1135.9000      7.9029      2.5789      0.1278      4.3076    164.6051     28.7082
  1136.0000      7.8677      2.5748      0.1088      4.5554    165.7800     28.5499
  1136.1000      7.8677      2.5630      0.0679      5.2738    166.4802     28.5777
  1136.2000      7.8677      2.5667      0.0959      5.0475    163.5690     28.4671
  1136.3000      7.8617      2.5812      0.1120      4.1713    156.1936     28.1304
  1136.4000      7.8617      2.5895      0.1185      3.6637    147.4224     27.6114
  1136.5000      7.8921      2.5958      0.0800      3.2823    141.9043     27.0952
  1136.6000      7.8921      2.6123      0.1064      2.2820    138.5967     26.9400
  1136.7000      7.8921      2.6270      0.1263      1.3930    133.3118     27.1121
  1136.8000      7.8227      2.6230      0.0780      1.6368    126.7913     27.0425
  1136.9000      7.8227      2.6029      0.0745      2.8570    121.7025     26.4088
  1137.0000      7.8643      2.5765      0.0339      4.4527    117.5766     25.5911
  1137.1000      7.8643      2.5583      0.0213      5.5569    112.6836     25.1074
  1137.2000      7.8643      2.5564      0.0517      5.6746    107.9120     25.0110
  1137.3000      7.8979      2.5627      0.0667      5.2933    105.3514     25.0555
  1137.4000      7.8979      2.5660      0.0928      5.0920    105.5479     25.3145
  1137.5000      7.8839      2.5551      0.0948      5.7522    106.8502     25.7820
  1137.6000      7.8839      2.5171      0.0739      8.0529    107.7830     26.0310
  1137.7000      7.8839      2.4589      0.0521     11.5797    110.0768     26.1355
  1137.8000      7.9009      2.4008      0.0636     15.1015    116.0544     26.4513
  1137.9000      7.9009      2.3479      0.0586     18.3119    124.8646     26.9570
  1138.0000      7.8495      2.3030      0.0512     21.0329    132.2564     27.5087
  1138.1000      7.8495      2.2786      0.0486     22.5065    135.0965     27.9911
  1138.2000      7.8495      2.2749      0.0847     22.7306    135.2497     28.5733
  1138.3000      7.8159      2.2765      0.1756     22.6362    136.9339     29.4052
  1138.4000      7.8159      2.2829      0.1484     22.2471    140.8805     30.1281
  1138.5000      7.8059      2.3037      0.2031     20.9895    143.2484     30.4316
  1138.6000      7.8059      2.3242      0.2254     19.7450    143.3019     30.3661
  1138.7000      7.8059      2.3198      0.1903     20.0146    144.0154     30.3477
  1138.8000      7.9214      2.2846      0.1229     22.1464    146.5876     30.6834
  1138.9000      7.9214      2.2285      0.0644     25.5479    149.2269     31.1696
  1139.0000      8.0037      2.1582      0.0054     29.8043    145.7149     31.5116
  1139.1000      8.0037      2.0716     -0.0048     35.0529    132.5277     31.6037
  1139.2000      8.0037      1.9644     -0.0350     41.5486    117.3201     31.4943
  1139.3000      8.0858      1.8496     -0.0829     48.5068    109.4986     31.3870
  1139.4000      8.0858      1.7493     -0.0681     54.5863    107.9311     31.5707
  1139.5000      8.0673      1.6548     -0.0307     60.3167    105.3667     32.0961
