~Version Information
VERS.                      2.0: CWLS Log ASCII Standard - VERSION 2.0
WRAP.                       NO: One line per depth step
~Well Information Block
STRT.FT               295.7500: 
STOP.FT              1461.0000: 
STEP.FT                 0.2500: 
NULL.                -999.2500: 
COMP.          Pioneer Natural Resources: COMPANY
WELL.              Lucky 21-36: WELL
FLD.           Purgatoire River: FIELD
LOC.           799' FNL & 1578' FWL--: LOCATION
CDN. :
PROV. :
UWI. :
STAT. :
CNTY. :
CTRY. :
API. :
COMP. :
WELL. :
FLD. :
LOC. :
DATE. :
SRVC. :
CNTY.               Las Animas: COUNTY
SRVC.          Superior Well Services: SERVICE COMPANY
DATE.          Mon Jul 07 19-13-01 2008: LOG DATE
UWI.           05 071 08456 00: UNIQUE WELL ID
STAT.                 Colorado: STATE
~Curve Information Block
DEPT.FT            0 000 00 00: Depth
SN.Ohm-m                      : IEL Short Normal
SP.mV                         : IEL Spontaneous Potential
DIR.Ohm-m                     : IEL Induction Resistivity
GR.GAPI                       : Gamma Ray
~Parameter Information Block
~A  Depth        SN          SP         DIR          GR     
# ...
   932.2500     23.9818    -16.3489     18.1430     92.4911
   932.5000     25.0553    -16.1710     18.8692     84.3365
   932.7500     26.2882    -15.9590     19.8025     76.1026
   933.0000     27.4100    -15.7144     20.8864     73.4003
   933.2500     28.3980    -15.4422     22.0047     72.9324
   933.5000     29.0448    -15.1499     22.9939     74.6283
   933.7500     29.1922    -14.8469     23.6903     79.9702
   934.0000     28.9511    -14.5427     23.9873     85.1937
   934.2500     28.3699    -14.2456     23.8655     94.2365
   934.5000     27.4600    -13.9609     23.3821    100.0046
   934.7500     26.4058    -13.6896     22.6426    107.2243
   935.0000     25.3854    -13.4285     21.7725    111.2077
   935.2500     24.5474    -13.1698     20.8896    116.7016
   935.5000     23.9449    -12.9028     20.0820    120.4164
   935.7500     23.4113    -12.6159     19.4003    126.3113
   936.0000     22.8840    -12.2991     18.8623    130.1501
   936.2500     22.4247    -11.9466     18.4659    134.2619
   936.5000     22.0619    -11.5587     18.2027    134.9960
   936.7500     21.8056    -11.1428     18.0675    133.0876
   937.0000     21.6599    -10.7127     18.0649    130.7938
   937.2500     21.7148    -10.2871     18.2093    127.4184
   937.5000     22.0994     -9.8868     18.5203    125.2061
   937.7500     22.8088     -9.5324     19.0129    120.6972
   938.0000     23.7362     -9.2412     19.6873    116.3359
   938.2500     24.9058     -9.0268     20.5220    108.0811
   938.5000     26.2434     -8.8984     21.4717    102.2411
   938.7500     27.4033     -8.8620     22.4710     94.5982
   939.0000     28.3028     -8.9217     23.4420     91.0341
   939.2500     29.1224     -9.0816     24.3043     88.8769
   939.5000     29.6328     -9.3459     24.9838     89.7116
   939.7500     29.6125     -9.7194     25.4198     93.8107
   940.0000     29.2254    -10.2060     25.5660     97.8273
   940.2500     28.6833    -10.8074     25.3861    104.8243
   940.5000     27.9842    -11.5210     24.8583    109.7930
   940.7500     27.0372    -12.3388     23.9939    117.5615
   941.0000     25.9283    -13.2461     22.8580    123.1420
   941.2500     24.7385    -14.2217     21.5638    132.3312
   941.5000     23.4481    -15.2387     20.2334    138.6223
   941.7500     22.0681    -16.2666     18.9580    146.8103
   942.0000     20.7270    -17.2726     17.7853    150.6381
   942.2500     19.5522    -18.2249     16.7340    153.5806
   942.5000     18.5701    -19.0946     15.8129    154.0857
   942.7500     17.7674    -19.8580     15.0300    153.9830
   943.0000     17.0914    -20.4983     14.3894    154.1584
   943.2500     16.5189    -21.0065     13.8840    155.4438
   943.5000     16.0410    -21.3824     13.4937    156.6063
   943.7500     15.6723    -21.6340     13.1886    157.5799
   944.0000     15.3674    -21.7766     12.9379    157.5906
   944.2500     15.0803    -21.8317     12.7191    157.9570
   944.5000     14.8188    -21.8248     12.5236    159.1935
   944.7500     14.5540    -21.7836     12.3539    162.1957
   945.0000     14.2487    -21.7359     12.2172    164.0292
   945.2500     14.0270    -21.7073     12.1186    165.1939
   945.5000     13.9343    -21.7201     12.0582    164.6100
   945.7500     13.8646    -21.7914     12.0301    161.7104
   946.0000     13.7791    -21.9330     12.0236    158.7341
   946.2500     13.7080    -22.1504     12.0254    153.8440
   946.5000     13.6894    -22.4433     12.0231    151.0428
   946.7500     13.7379    -22.8060     12.0095    148.1760
   947.0000     13.8557    -23.2280     11.9834    147.1423
   947.2500     14.0449    -23.6948     11.9481    146.8026
   947.5000     14.2471    -24.1885     11.9068    147.4477
   947.7500     14.3737    -24.6890     11.8597    149.7706
   948.0000     14.3890    -25.1748     11.8023    151.9417
   948.2500     14.2896    -25.6235     11.7270    154.9541
   948.5000     14.1225    -26.0128     11.6272    156.0218
   948.7500     13.9172    -26.3217     11.4994    155.9665
   949.0000     13.6176    -26.5311     11.3446    155.7629
   949.2500     13.2172    -26.6250     11.1672    157.6049
   949.5000     12.8508    -26.5917     10.9741    160.7810
   949.7500     12.6175    -26.4245     10.7735    166.6592
   950.0000     12.4689    -26.1228     10.5745    169.6067
   950.2500     12.3319    -25.6921     10.3857    171.1042
   950.5000     12.1865    -25.1446     10.2138    170.4840
   950.7500     12.1213    -24.4979     10.0625    168.1495
   951.0000     12.1349    -23.7746      9.9324    165.8517
   951.2500     12.0905    -23.0003      9.8213    161.5924
   951.5000     12.0045    -22.2024      9.7260    158.9733
   951.7500     11.9539    -21.4078      9.6434    157.1150
   952.0000     11.9260    -20.6417      9.5702    157.5902
   952.2500     11.8702    -19.9258      9.5027    159.7204
   952.5000     11.8000    -19.2774      9.4356    161.0252
   952.7500     11.6882    -18.7092      9.3631    161.8559
   953.0000     11.6049    -18.2291      9.2816    161.9483
   953.2500     11.5683    -17.8404      9.1916    162.6574
   953.5000     11.4565    -17.5431      9.0979    163.9637
   953.7500     11.2718    -17.3342      9.0072    166.9324
   954.0000     11.0526    -17.2086      8.9247    169.1902
   954.2500     10.8269    -17.1599      8.8540    172.3565
   954.5000     10.6177    -17.1805      8.7981    173.7218
   954.7500     10.3826    -17.2623      8.7614    173.1024
   955.0000     10.1142    -17.3962      8.7491    170.2682
   955.2500      9.9276    -17.5729      8.7664    162.8948
   955.5000      9.8707    -17.7825      8.8161    157.0337
   955.7500     10.0380    -18.0148      8.8985    149.0527
   956.0000     10.5102    -18.2595      9.0107    145.1901
   956.2500     11.1446    -18.5070      9.1465    142.0107
   956.5000     11.7175    -18.7478      9.2952    141.2009
   956.7500     12.0707    -18.9738      9.4421    140.7042
   957.0000     12.1547    -19.1776      9.5711    140.3799
   957.2500     12.0384    -19.3532      9.6675    139.9359
   957.5000     11.8141    -19.4956      9.7218    139.9081
   957.7500     11.5281    -19.6012      9.7299    140.4411
   958.0000     11.3470    -19.6677      9.6935    141.0887
   958.2500     11.3997    -19.6944      9.6196    142.3176
   958.5000     11.5835    -19.6819      9.5189    143.4107
   958.7500     11.7713    -19.6325      9.4025    146.0183
   959.0000     11.8804    -19.5498      9.2793    148.6333
   959.2500     11.8895    -19.4386      9.1553    153.2184
   959.5000     11.7967    -19.3043      9.0348    155.6551
   959.7500     11.6348    -19.1524      8.9210    156.6323
   960.0000     11.4598    -18.9879      8.8164    155.4145
   960.2500     11.2553    -18.8146      8.7215    152.4456
   960.5000     11.0435    -18.6351      8.6366    150.9225
   960.7500     10.8948    -18.4500      8.5627    150.3590
   961.0000     10.8318    -18.2584      8.5044    151.0224
   961.2500     10.8053    -18.0576      8.4695    152.7341
   961.5000     10.7982    -17.8439      8.4668    153.7312
   961.7500     10.7899    -17.6129      8.5025    154.1019
   962.0000     10.8147    -17.3601      8.5781    153.4413
   962.2500     10.8918    -17.0821      8.6919    151.7461
   962.5000     10.9937    -16.7770      8.8436    150.8017
   962.7500     11.1797    -16.4456      9.0371    150.1801
   963.0000     11.4024    -16.0922      9.2818    149.7908
   963.2500     11.6373    -15.7244      9.5901    147.3258
   963.5000     11.9978    -15.3537      9.9759    143.4865
   963.7500     12.5513    -14.9946     10.4524    134.4070
   964.0000     13.2706    -14.6636     11.0310    126.9775
   964.2500     14.1783    -14.3782     11.7203    115.5639
   964.5000     15.3790    -14.1547     12.5234    108.6418
   964.7500     16.8617    -14.0072     13.4334    100.4368
   965.0000     18.3885    -13.9457     14.4292     96.8670
   965.2500     19.6305    -13.9754     15.4734     94.4415
   965.5000     20.4128    -14.0961     16.5195     94.4619
