~Version Information
VERS.                      2.0: CWLS Log ASCII Standard - VERSION 2.0
WRAP.                       NO: One line per depth step
~Well Information Block
STRT.FT                -6.7500: 
STOP.FT              1466.2500: 
STEP.FT                 0.2500: 
NULL.                -999.2500: 
COMP.          Pioneer Natural Resources: COMPANY
WELL.          Pallet Ranch 34-15 Tr: WELL
FLD.           Purgatorie River: FIELD
LOC.           465' FSL & 2138' FEL--: LOCATION
PROV.                       CO: PROVINCE
CNTY.               Las Animas: COUNTRY
SRVC.          Patterson Wireline: SERVICE COMPANY
DATE.          Wed Jan 25 09:38:09 2006: LOG DATE
UWI.           05 071 08657 00: UNIQUE WELL ID
~Curve Information Block
DEPT.FT            0 000 00 00: Depth
CCL.                          : Casing Collar Locator
TT3.usec                      : CBL 3' Travel Time
AMP3.mV                       : CBL 3' Amplitude
GR.GAPI                       : Gamma Ray
~Parameter Information Block
~A  Depth       CCL         TT3         AMP3         GR     
# ...
   194.2500      0.0000    744.4432      6.8000     39.5187
   194.5000      0.0000    745.4334      6.7992     40.8809
   194.7500      0.0000    744.6439      6.8120     43.6329
   195.0000      0.0000    742.6553      6.8266     46.5551
   195.2500      0.0000    740.6104      6.8291     48.0303
   195.5000      0.0000    739.2090      6.8105     47.3738
   195.7500      0.0000    738.4315      6.7731     45.4990
   196.0000      0.0000    737.9649      6.7319     44.3834
   196.2500      0.0000    737.6048      6.7056     45.9382
   196.5000      0.0000    737.3138      6.7031     51.0753
   196.7500      0.0000    737.1127      6.7185     59.2643
   197.0000      0.0000    736.9641      6.7394     68.7421
   197.2500      0.0000    736.6731      6.7591     77.3880
   197.5000      0.0000    735.8515      6.7756     83.7022
   197.7500      0.0000    734.0912      6.7830     87.2550
   198.0000      0.0000    731.4055      6.7688     88.6407
   198.2500      0.0000    728.5557      6.7256     89.1198
   198.5000      0.0000    726.5919      6.6640     89.7865
   198.7500      0.0000    725.8322      6.6108     90.5493
   199.0000      0.0000    725.6686      6.5879     90.1431
   199.2500      0.0000    725.7053      6.5940     87.6781
   199.5000      0.0000    726.5796      6.6056     84.0286
   199.7500      0.0000    729.1954      6.5986     81.1035
   200.0000      0.0000    733.5298      6.5698     79.8130
   200.2500      0.0000    738.4918      6.5374     79.2600
   200.5000      0.0000    742.5146      6.5210     77.8432
   200.7500      0.0000    744.1416      6.5242     74.7022
   201.0000      0.0000    742.5721      6.5381     70.1998
   201.2500      0.0000    737.9758      6.5557     65.5811
   201.5000      0.0000    731.3851      6.5798     62.3563
   201.7500      0.0000    724.5773      6.6181     61.6710
   202.0000      0.0000    719.7695      6.6738     63.8620
   202.2500      0.0000    718.3016      6.7431     68.3741
   202.5000      0.0000    719.1188      6.8184     74.0314
   202.7500      0.0000    719.3670      6.8934     79.5361
   203.0000      0.0000    717.2281      6.9630     83.8061
   203.2500      0.0000    713.9223      7.0180     85.9717
   203.5000      0.0000    712.4550      7.0470     85.6405
   203.7500      0.0000    714.4766      7.0469     83.5582
   204.0000      0.0000    718.7223      7.0275     81.4450
   204.2500      0.0000    722.5598      7.0004     80.5346
   204.5000      0.0000    724.6130      6.9674     80.4874
   204.7500      0.0000    725.4283      6.9248     80.0098
   205.0000      0.0000    725.8857      6.8751     78.3538
   205.2500      0.0000    725.9111      6.8318     76.2164
   205.5000      0.0000    724.9902      6.8110     75.4633
   205.7500      0.0000    723.0068      6.8199     77.8133
   206.0000      0.0000    720.0685      6.8528     83.2745
   206.2500      0.0000    716.4086      6.8966     89.7747
   206.5000      0.0000    713.1567      6.9431     94.5705
   206.7500      0.0000    712.3859      6.9929     96.0987
   207.0000      0.0000    715.4384      7.0474     94.4965
   207.2500      0.0000    721.3689      7.0975     90.7948
   207.5000      0.0000    727.5278      7.1269     86.1276
   207.7500      0.0000    731.5158      7.1280     81.6766
   208.0000      0.0000    732.4689      7.1099     78.8081
   208.2500      0.0000    731.0739      7.0880     78.5670
   208.5000      0.0000    729.0114      7.0688     80.7748
   208.7500      0.0000    728.0387      7.0472     83.8534
   209.0000      0.0000    728.7698      7.0174     85.7880
   209.2500      0.0000    730.0444      6.9818     85.3683
   209.5000      0.0000    729.6699      6.9477     82.8308
   209.7500      0.0000    725.9660      6.9185     79.6662
   210.0000      0.0000    718.9310      6.8930     77.6226
   210.2500      0.0000    710.3195      6.8721     77.3760
   210.5000      0.0000    702.5682      6.8601     77.9231
   210.7500      0.0000    697.3736      6.8580     77.3436
   211.0000      0.0000    695.1408      6.8621     74.3749
   211.2500      0.0000    695.4247      6.8698     69.4744
   211.5000      0.0000    697.3422      6.8850     64.4415
   211.7500      0.0000    699.5204      6.9132     61.0660
   212.0000      0.0000    700.3994      6.9557     60.0984
   212.2500      0.0000    699.2437      7.0059     61.1923
   212.5000      0.0000    696.7343      7.0508     63.4876
   212.7500      0.0000    694.2322      7.0758     66.2224
   213.0000      0.0000    692.5927      7.0707     69.0959
   213.2500      0.0000    691.8114      7.0335     72.3105
   213.5000      0.0000    691.4861      6.9663     76.2458
   213.7500      0.0000    691.2902      6.8726     80.9285
   214.0000      0.0000    691.3931      6.7684     85.7314
   214.2500      0.0000    693.3509      6.6938     89.5525
   214.5000      0.0000    701.5652      6.6831     91.3981
   214.7500      0.0000    723.1185      6.7027     91.1171
   215.0000      0.0000    762.4707      6.6523     89.6811
   215.2500      0.0000    812.9352      6.4687     88.4767
   215.5000      0.0000    856.0151      6.2057     88.2087
   215.7500      0.0000    875.2530      5.9761     88.7646
   216.0000      0.0000    871.5171      5.8391     90.0435
   216.2500      0.0000    860.3608      5.7777     92.1429
   216.5000      2.0000    853.8335      5.7559     94.4405
   216.7500      0.0000    848.4684      5.7741     95.3169
   217.0000      0.0000    832.1644      5.8766     93.5639
   217.2500      0.0000    800.0678      6.1068     89.9052
   217.5000      0.0000    760.8976      6.4403     86.7101
   217.7500      0.0000    728.1672      6.7772     86.1202
   218.0000      0.0000    708.4838      7.0269     88.4127
   218.2500      0.0000    699.4919      7.1819     91.9825
   218.5000      0.0000    695.8854      7.2863     94.7054
   218.7500      0.0000    694.2900      7.3668     95.3420
   219.0000      0.0000    693.5518      7.4208     93.9672
   219.2500      0.0000    693.3022      7.4427     91.4821
   219.5000      0.0000    693.2800      7.4349     88.9650
   219.7500      0.0000    693.3415      7.4036     87.3603
   220.0000      0.0000    693.5627      7.3549     87.2267
   220.2500      0.0000    694.2299      7.2943     88.2589
   220.5000      0.0000    695.7230      7.2259     89.1882
   220.7500      0.0000    698.1529      7.1544     88.6334
   221.0000      0.0000    701.0186      7.0894     86.3160
   221.2500      0.0000    703.4551      7.0493     83.4255
   221.5000      0.0000    705.0044      7.0606     81.6644
   221.7500      0.0000    705.9598      7.1431     81.6628
   222.0000      0.0000    706.9619      7.2885     82.1954
   222.2500      0.0000    708.4600      7.4585     81.2097
   222.5000      0.0000    710.2250      7.6087     77.7338
   222.7500      0.0000    711.0787      7.7152     72.5861
   223.0000      0.0000    709.7602      7.7760     67.3318
   223.2500      0.0000    706.6078      7.8003     62.9820
   223.5000      0.0000    703.8534      7.8018     59.8053
   223.7500      0.0000    703.6515      7.7941     57.8808
   224.0000      0.0000    705.8714      7.7853     57.3031
   224.2500      0.0000    708.0655      7.7749     57.9379
   224.5000      0.0000    707.7018      7.7594     59.3708
   224.7500      0.0000    704.3887      7.7366     61.1036
   225.0000      0.0000    699.8973      7.7087     62.7440
   225.2500      0.0000    696.3555      7.6838     64.1960
   225.5000      0.0000    694.8549      7.6712     65.7327
   225.7500      0.0000    695.4200      7.6710     67.5821
   226.0000      0.0000    697.3698      7.6706     69.2218
   226.2500      0.0000    699.4027      7.6574     69.3312
   226.5000      0.0000    700.0295      7.6309     66.8021
   226.7500      0.0000    698.6182      7.5973     61.8930
   227.0000      0.0000    695.9401      7.5581     56.2499
   227.2500      0.0000    693.4035      7.5097     51.7226
   227.5000      0.0000    691.8820      7.4525     49.0780
