~Version Information
VERS.                      2.0: CWLS Log ASCII Standard - VERSION 2.0
WRAP.                       NO: One line per depth step
~Well Information Block
STRT.FT                 0.0000: 
STOP.FT              2062.2500: 
STEP.FT                 0.2500: 
NULL.                -999.2500: 
COMP.          Petrogulf Corporation: COMPANY
WELL.           Montoya 12-44R: WELL
FLD.           Purgatorie River: FIELD
LOC.           713' FSL & 798' FEL: LOCATION
PROV.                 Colorado: PROVINCE
CNTY.               Las Animas: COUNTRY
SRVC.                Patterson: SERVICE COMPANY
DATE.          Wed Nov 09 13:30:24 2005: LOG DATE
UWI.           05-071-08538               : UNIQUE WELL ID
~Curve Information Block
DEPT.FT            0 000 00 00: Depth
CCL.                          : Casing Collar Locator
TT3.usec                      : CBL 3' Travel Time
AMP3.mV                       : CBL 3' Amplitude
GR.GAPI                       : Gamma Ray
~Parameter Information Block
~A  Depth       CCL         TT3         AMP3         GR     
# ...
  1239.5000      0.0000    539.6218     13.8221    133.0075
  1239.7500      0.0000    485.7429     15.1001    131.4026
  1240.0000      0.0000    439.5980     16.1745    127.3893
  1240.2500      0.0000    404.4422     16.9356    121.3765
  1240.5000      0.0000    383.3966     17.5388    114.3091
  1240.7500      0.0000    370.5948     18.3423    107.0552
  1241.0000      0.0000    356.2711     19.6231    100.0750
  1241.2500      0.0000    337.6710     21.2914     93.6990
  1241.5000      0.0000    319.8252     23.0984     88.5648
  1241.7500      0.0000    307.9098     25.0902     85.5009
  1242.0000      0.0000    302.0268     27.5806     84.8643
  1242.2500      0.0000    299.3798     30.5587     86.1301
  1242.5000      0.0000    297.7856     33.4130     88.2526
  1242.7500      0.0000    295.8048     35.5709     90.3993
  1243.0000      0.0000    291.5459     37.2205     92.4081
  1243.2500      0.0000    283.6240     39.0886     94.7716
  1243.5000      0.0000    273.6646     41.5403     98.2851
  1243.7500      0.0000    265.4896     44.2103    103.5079
  1244.0000      0.0000    261.0305     46.6172    110.2206
  1244.2500      0.0000    259.2643     48.7160    117.3171
  1244.5000      0.0000    258.5950     50.6473    123.4920
  1244.7500      0.0000    258.2664     52.3056    128.2338
  1245.0000      0.0000    258.0917     53.4509    131.9627
  1245.2500      0.0000    258.0096     54.0613    135.0204
  1245.5000      0.0000    257.9624     54.3083    136.6955
  1245.7500      0.0000    257.9159     54.3076    135.4409
  1246.0000      0.0000    257.8702     54.0802    130.2637
  1246.2500      0.0000    257.8466     53.6381    122.0144
  1246.5000      0.0000    257.8757     52.9484    113.0284
  1246.7500      0.0000    257.9946     51.8956    105.2459
  1247.0000      0.0000    258.2348     50.3955     98.9116
  1247.2500      0.0000    258.6044     48.5281     93.1800
  1247.5000      0.0000    259.1034     46.5340     87.5634
  1247.7500      0.0000    259.8596     44.6818     82.4880
  1248.0000      0.0000    261.5288     43.0828     78.6041
  1248.2500      0.0000    265.5653     41.6091     75.9479
  1248.5000      0.0000    272.9756     40.0532     74.1078
  1248.7500      0.0000    282.1009     38.3772     73.0277
  1249.0000      0.0000    289.4818     36.6445     73.2346
  1249.2500      0.0000    293.5264     34.7455     75.1578
  1249.5000      0.0000    295.2564     32.5642     78.3873
  1249.7500      0.0000    296.0836     30.3080     81.7484
  1250.0000      0.0000    296.8125     28.2881     84.2495
  1250.2500      0.0000    298.3403     26.5824     85.9382
  1250.5000      0.0000    302.1519     25.0755     87.6213
  1250.7500      0.0000    309.1231     23.5643     89.7229
  1251.0000      0.0000    317.5603     21.8820     91.7757
  1251.2500      0.0000    324.1890     20.0685     93.0486
  1251.5000      0.0000    327.5591     18.3100     93.1562
  1251.7500      0.0000    328.7114     16.7488     91.9796
  1252.0000      0.0000    329.0941     15.4958     89.6430
  1252.2500      0.0000    329.5413     14.6878     86.8185
  1252.5000      0.0000    331.0900     14.2830     84.5700
  1252.7500      0.0000    335.5429     13.9657     83.6340
  1253.0000      0.0000    343.3236     13.4824     84.0130
  1253.2500      0.0000    350.5234     12.8991     85.2565
  1253.5000      0.0000    352.2793     12.4118     86.9665
  1253.7500      0.0000    350.4117     12.0859     88.8391
  1254.0000      0.0000    351.2239     11.8712     90.1332
  1254.2500      0.0000    355.2068     11.7367     89.5557
  1254.5000      0.0000    357.1333     11.6693     86.3144
  1254.7500      0.0000    355.0224     11.6165     81.1031
  1255.0000      0.0000    351.4814     11.5226     75.6180
  1255.2500      0.0000    351.3634     11.3652     71.2441
  1255.5000      0.0000    363.4000     11.1499     68.3585
  1255.7500      0.0000    395.2805     10.9246     66.5318
  1256.0000      0.0000    437.5713     10.7564     65.1078
  1256.2500      0.0000    459.7787     10.6867     63.7347
  1256.5000      0.0000    443.9771     10.7219     62.6383
  1256.7500      0.0000    411.6328     10.8134     62.4973
  1257.0000      0.0000    395.0862     10.8695     63.9087
  1257.2500      0.0000    405.8977     10.8278     66.7413
  1257.5000      0.0000    434.0873     10.6955     69.9447
  1257.7500      0.0000    458.3385     10.5466     72.1012
  1258.0000      0.0000    470.3445     10.4640     72.3568
  1258.2500      0.0000    478.4993     10.4755     70.9463
  1258.5000      0.0000    473.4891     10.5781     68.7813
  1258.7500      0.0000    438.8352     10.7546     66.4464
  1259.0000      0.0000    392.3892     10.9295     63.8404
  1259.2500      0.0000    364.4136     11.0298     60.9316
  1259.5000      0.0000    357.9948     11.1401     58.4622
  1259.7500      0.0000    359.1714     11.4497     57.5562
  1260.0000      0.0000    360.9313     12.0337     58.8288
  1260.2500      0.0000    363.0129     12.8853     62.0583
  1260.5000      0.0000    361.8729     14.0871     66.5700
  1260.7500      0.0000    352.3093     15.8029     71.8519
  1261.0000      0.0000    335.1312     18.1784     77.9427
  1261.2500      0.0000    317.3698     21.2368     85.3055
  1261.5000      0.0000    305.1955     24.7900     94.1797
  1261.7500      0.0000    299.1397     28.4355    103.8526
  1262.0000      0.0000    295.8273     31.7790    112.6490
  1262.2500      0.0000    291.3155     34.7461    119.0008
  1262.5000      0.0000    283.4410     37.4477    122.7460
  1262.7500      0.0000    273.7338     39.7266    125.1390
  1263.0000      0.0000    266.0019     41.1907    127.4067
  1263.2500      0.0000    262.0970     41.7182    129.4817
  1263.5000      0.0000    260.8913     41.6828    130.2840
  1263.7500      0.0000    260.6765     41.6132    129.1052
  1264.0000      0.0000    260.6547     41.7324    126.6165
  1264.2500      0.0000    260.8748     41.8663    124.4184
  1264.5000      0.0000    262.1559     41.6592    123.4914
  1264.7500      0.0000    266.1134     40.7670    123.3245
  1265.0000      0.0000    273.7909     39.0324    122.7532
  1265.2500      0.0000    283.3330     36.7540    121.1157
  1265.5000      0.0000    290.8945     34.7040    118.3261
  1265.7500      0.0000    294.6143     33.6266    114.6156
  1266.0000      0.0000    295.6155     33.7500    110.8247
  1266.2500      0.0000    295.5937     34.8176    108.3236
  1266.5000      0.0000    295.2028     36.3642    107.9125
  1266.7500      0.0000    293.8801     37.9120    109.0315
  1267.0000      0.0000    290.0646     39.1529    110.5559
  1267.2500      0.0000    282.6686     40.0672    112.0046
  1267.5000      0.0000    273.3854     40.8367    113.5050
  1267.7500      0.0000    265.8153     41.6949    114.9786
  1268.0000      0.0000    261.6721     42.8485    115.9832
  1268.2500      0.0000    259.9510     44.3166    116.2844
  1268.5000      0.0000    259.2486     45.7515    116.0543
  1268.7500      0.0000    258.9825     46.6547    115.3490
  1269.0000      0.0000    258.9918     46.8630    113.8110
  1269.2500      0.0000    259.1247     46.6452    111.2195
  1269.5000      0.0000    259.2495     46.3543    108.2961
  1269.7500      0.0000    259.3289     46.1522    106.5912
  1270.0000      0.0000    259.3898     46.0042    107.2175
  1270.2500      0.0000    259.4620     45.8130    109.7143
  1270.5000      0.0000    259.5392     45.6024    112.4767
  1270.7500      0.0000    259.5695     45.6136    114.4148
  1271.0000      0.0000    259.4867     46.1161    116.0468
  1271.2500      0.0000    259.2704     47.0805    118.7040
  1271.5000      0.0000    258.9780     48.1141    122.6371
  1271.7500      0.0000    258.7406     48.6613    126.1822
  1272.0000      0.0000    258.7535     48.2432    127.1068
  1272.2500      0.0000    259.3093     46.7824    124.7933
  1272.5000      0.0000    261.0786     44.7844    120.8730
  1272.7500      0.0000    265.4141     42.9133    117.7608
