~Version Information
VERS.                      2.0: CWLS Log ASCII Standard - VERSION 2.0
WRAP.                       NO: One line per depth step
~Well Information Block
STRT.FT               655.0000: 
STOP.FT              2623.7500: 
STEP.FT                 0.2500: 
NULL.                -999.2500: 
COMP.          Pioneer Natural Resources: COMPANY
WELL.             Aviator 12-4: WELL
FLD.           Purgatoire River: FIELD
LOC.           1969' FNL & 732' FWL--: LOCATION
CNTY.               Las Animas: COUNTY
SRVC.                Patterson: SERVICE COMPANY
DATE.          Sun Apr 09 14:25:03 2006: LOG DATE
UWI.           05 071 08714 00: UNIQUE WELL ID
STAT.                 Colorado: STATE
~Curve Information Block
DEPT.FT            0 000 00 00: Depth
SN.Ohm-m                      : IEL Short Normal
SP.mV                         : IEL Spontaneous Potential
DIR.Ohm-m                     : IEL Induction Resistivity
GR.GAPI                       : Gamma Ray
~Parameter Information Block
~A  Depth        SN          SP         DIR          GR     
# ...
   923.0000     45.1460   -132.2537     36.7845     82.4661
   923.2500     49.1176   -132.4471     39.5568     75.7944
   923.5000     53.7746   -132.6843     42.5907     67.9157
   923.7500     58.7048   -132.9629     45.8126     63.9092
   924.0000     63.2643   -133.2793     49.0982     59.3354
   924.2500     66.8038   -133.6259     52.1991     57.1650
   924.5000     68.8285   -133.9886     54.7055     55.3042
   924.7500     69.0546   -134.3446     56.1280     54.9188
   925.0000     67.4156   -134.6622     56.1055     55.0788
   925.2500     64.0834   -134.9042     54.6136     55.3741
   925.5000     59.5340   -135.0338     51.9937     56.4981
   925.7500     54.5248   -135.0214     48.7747     58.5897
   926.0000     49.8088   -134.8510     45.4422     65.2768
   926.2500     45.7894   -134.5240     42.3196     72.2251
   926.5000     42.4920   -134.0578     39.5708     85.1849
   926.7500     39.8078   -133.4820     37.2519     94.6122
   927.0000     37.7068   -132.8306     35.3520    108.7916
   927.2500     36.2718   -132.1359     33.8203    117.6530
   927.5000     35.5542   -131.4227     32.5966    128.5590
   927.7500     35.4282   -130.7079     31.6466    133.2687
   928.0000     35.6527   -130.0011     30.9862    135.6531
   928.2500     36.0575   -129.3088     30.6757    134.4824
   928.5000     36.6131   -128.6382     30.7889    130.2652
   928.7500     37.3558   -127.9998     31.3749    126.7811
   929.0000     38.2852   -127.4091     32.4298    121.3486
   929.2500     39.3236   -126.8850     33.8829    117.5890
   929.5000     40.3620   -126.4480     35.6012    111.4874
   929.7500     41.3469   -126.1172     37.4166    107.1042
   930.0000     42.3127   -125.9074     39.1688    100.5110
   930.2500     43.3352   -125.8283     40.7473     96.5704
   930.5000     44.4868   -125.8838     42.1084     92.1929
   930.7500     45.8205   -126.0725     43.2629     90.7473
   931.0000     47.3335   -126.3887     44.2512     91.2466
   931.2500     48.9123   -126.8221     45.1210     93.0582
   931.5000     50.3197   -127.3567     45.9087     95.9612
   931.7500     51.2593   -127.9692     46.6066     96.4330
   932.0000     51.4883   -128.6272     47.1217     93.5332
   932.2500     50.8931   -129.2892     47.2693     89.7959
   932.5000     49.5104   -129.9067     46.8465     84.2818
   932.7500     47.5214   -130.4297     45.7659     82.4376
   933.0000     45.1830   -130.8129     44.1317     84.3197
   933.2500     42.7114   -131.0231     42.1802     88.6601
   933.5000     40.2136   -131.0442     40.1411     97.6439
   933.7500     37.7187   -130.8786     38.1469    103.3228
   934.0000     35.2615   -130.5454     36.2360    108.9016
   934.2500     32.9386   -130.0754     34.4082    110.5315
   934.5000     30.8995   -129.5046     32.6718    111.3942
   934.7500     29.2707   -128.8682     31.0509    111.9483
   935.0000     28.0597   -128.1961     29.5676    113.4850
   935.2500     27.1398   -127.5106     28.2289    114.7095
   935.5000     26.3540   -126.8271     27.0322    115.9206
   935.7500     25.6301   -126.1558     25.9790    116.0835
   936.0000     24.9956   -125.5046     25.0814    115.9603
   936.2500     24.5225   -124.8820     24.3518    116.2690
   936.5000     24.2758   -124.2992     23.7881    118.1118
   936.7500     24.2676   -123.7712     23.3686    120.2601
   937.0000     24.4320   -123.3169     23.0603    123.8804
   937.2500     24.6555   -122.9576     22.8325    125.7082
   937.5000     24.8259   -122.7142     22.6635    126.8094
   937.7500     24.8706   -122.6039     22.5388    126.6699
   938.0000     24.7913   -122.6354     22.4460    125.7921
   938.2500     24.6503   -122.8059     22.3721    124.8686
   938.5000     24.5083   -123.0983     22.3066    123.0583
   938.7500     24.3917   -123.4827     22.2448    121.7603
   939.0000     24.3095   -123.9204     22.1886    119.7419
   939.2500     24.2641   -124.3713     22.1469    118.0580
   939.5000     24.2566   -124.8018     22.1356    114.7728
   939.7500     24.3010   -125.1915     22.1764    112.5652
   940.0000     24.4251   -125.5345     22.2906    110.7001
   940.2500     24.6423   -125.8374     22.4916    110.8337
   940.5000     24.9346   -126.1111     22.7825    112.3470
   940.7500     25.2761   -126.3636     23.1604    113.4834
   941.0000     25.6580   -126.5933     23.6239    114.7090
   941.2500     26.0942   -126.7872     24.1764    115.0701
   941.5000     26.6114   -126.9232     24.8233    114.5489
   941.7500     27.2242   -126.9760     25.5671    113.3256
   942.0000     27.9226   -126.9231     26.4040    110.3986
   942.2500     28.6892   -126.7497     27.3229    108.0099
   942.5000     29.5107   -126.4516     28.3080    104.2919
   942.7500     30.3791   -126.0350     29.3477    102.1634
   943.0000     31.2987   -125.5153     30.4436    100.3630
   943.2500     32.2859   -124.9146     31.6125    100.1881
   943.5000     33.3505   -124.2598     32.8749    100.3695
   943.7500     34.4971   -123.5802     34.2393     99.8454
   944.0000     35.7345   -122.9072     35.6911     97.5238
   944.2500     37.0551   -122.2732     37.1953     95.6005
   944.5000     38.4274   -121.7107     38.7051     93.8844
   944.7500     39.8379   -121.2509     40.1761     93.9506
   945.0000     41.3263   -120.9211     41.5789     95.0030
   945.2500     42.9452   -120.7416     42.9029     95.4857
   945.5000     44.6951   -120.7232     44.1527     95.2060
   945.7500     46.5312   -120.8647     45.3496     94.5755
   946.0000     48.4023   -121.1538     46.5436     93.5661
   946.2500     50.2406   -121.5692     47.8132     92.8595
   946.5000     51.9506   -122.0841     49.2370     91.2767
   946.7500     53.4237   -122.6701     50.8384     89.7583
   947.0000     54.5261   -123.2994     52.5362     87.1543
   947.2500     55.0892   -123.9461     54.1125     85.3628
   947.5000     54.9647   -124.5858     55.2241     82.3365
   947.7500     54.1234   -125.1947     55.4947     80.0442
   948.0000     52.7106   -125.7501     54.6964     77.1905
   948.2500     51.0041   -126.2318     52.9000     76.6692
   948.5000     49.2875   -126.6253     50.4380     79.1007
   948.7500     47.7103   -126.9244     47.7119     82.8351
   949.0000     46.2484   -127.1331     45.0303     90.6734
   949.2500     44.7974   -127.2649     42.5701     96.6162
   949.5000     43.2877   -127.3400     40.4100    105.2189
   949.7500     41.7164   -127.3814     38.5675    110.0590
   950.0000     40.1422   -127.4105     37.0218    115.1974
   950.2500     38.6919   -127.4434     35.7337    116.9704
   950.5000     37.5086   -127.4893     34.6710    117.1494
   950.7500     36.6523   -127.5506     33.8257    116.0158
   951.0000     36.0755   -127.6243     33.2113    113.8593
   951.2500     35.6985   -127.7040     32.8432    112.9737
   951.5000     35.4855   -127.7830     32.7204    113.0012
   951.7500     35.4452   -127.8559     32.8260    113.5972
   952.0000     35.5846   -127.9207     33.1439    114.5145
   952.2500     35.9001   -127.9788     33.6696    114.9054
   952.5000     36.4124   -128.0344     34.4003    115.2320
   952.7500     37.1584   -128.0937     35.3109    115.3415
   953.0000     38.1163   -128.1623     36.3424    115.1423
   953.2500     39.1728   -128.2443     37.4210    114.5904
   953.5000     40.2319   -128.3411     38.4989    113.1510
   953.7500     41.3529   -128.4505     39.5855    111.9227
   954.0000     42.7021   -128.5671     40.7403    109.5637
   954.2500     44.3604   -128.6829     42.0308    107.4016
   954.5000     46.2521   -128.7886     43.4854    103.4840
   954.7500     48.2450   -128.8747     45.0697    101.1764
   955.0000     50.2506   -128.9336     46.7041     99.5125
   955.2500     52.2249   -128.9608     48.3071     99.6077
   955.5000     54.1143   -128.9556     49.8296    100.0762
   955.7500     55.8577   -128.9216     51.2501     99.6232
   956.0000     57.4412   -128.8649     52.5375     97.3200
   956.2500     58.8918   -128.7933     53.6218     95.2136
