~Version Information
VERS.                      2.0: CWLS Log ASCII Standard - VERSION 2.0
WRAP.                       NO: One line per depth step
~Well Information Block
STRT.FT                -6.7500: 
STOP.FT              1544.5000: 
STEP.FT                 0.2500: 
NULL.                -999.2500: 
COMP.          Pioneer Natural Resources: COMPANY
WELL.          Lorencito 10-36-33-67: WELL
FLD.           Purgatorie River: FIELD
LOC.           2130' FSL & 2362' FEL--: LOCATION
STAT.                       CO: State
CNTY.               Las Animas: COUNTY
CTRY. USA : Country
SECT. 36 : Section
TOWN. 33S : Township
RANG. 67W : Range
SRVC.          Patterson Wireline: SERVICE COMPANY
DATE.          Fri Sep 02 09:21:42 2005: LOG DATE
API.           05 071 08501 00: UNIQUE WELL ID
~Curve Information Block
DEPT.FT            0 000 00 00: Depth
CCL.                          : Casing Collar Locator
TT3.usec                      : CBL 3' Travel Time
AMP3.mV                       : CBL 3' Amplitude
GR.GAPI                       : Gamma Ray
~Parameter Information Block
~A  Depth       CCL         TT3         AMP3         GR     
# ...
  1199.2500      0.0000    623.4703      7.7676     82.7632
  1199.5000      0.0000    628.5479      7.7336     83.1128
  1199.7500      0.0000    623.6283      7.6973     82.0210
  1200.0000      0.0000    609.5291      7.6707     81.2900
  1200.2500      0.0000    593.9722      7.6566     82.3702
  1200.5000      0.0000    585.4902      7.6508     85.1476
  1200.7500      0.0000    585.7209      7.6506     88.2387
  1201.0000      0.0000    588.3195      7.6577     90.1099
  1201.2500      0.0000    586.3246      7.6741     90.1285
  1201.5000      0.0000    579.6121      7.6965     88.9473
  1201.7500      0.0000    573.7519      7.7164     87.8245
  1202.0000      0.0000    572.7042      7.7241     87.1285
  1202.2500      0.0000    574.6254      7.7147     85.5176
  1202.5000      0.0000    573.8499      7.6931     81.2124
  1202.7500      0.0000    564.6060      7.6729     74.2579
  1203.0000      0.0000    543.5010      7.6673     67.0664
  1203.2500      0.0000    511.5627      7.6813     62.6003
  1203.5000      0.0000    475.0850      7.7107     62.3875
  1203.7500      0.0000    442.7409      7.7475     65.9905
  1204.0000      0.0000    420.5327      7.7848     71.5631
  1204.2500      0.0000    409.7898      7.8173     76.8207
  1204.5000      0.0000    409.7979      7.8394     80.3004
  1204.7500      0.0000    420.7597      7.8458     82.2177
  1205.0000      0.0000    442.3267      7.8340     83.8514
  1205.2500      0.0000    468.6960      7.8092     85.8506
  1205.5000      0.0000    487.5251      7.7864     87.5091
  1205.7500      0.0000    487.7124      7.7856     88.0232
  1206.0000      0.0000    469.3218      7.8226     88.0514
  1206.2500      0.0000    443.7428      7.9006     89.4992
  1206.5000      0.0000    423.8242      8.0095     93.7908
  1206.7500      0.0000    415.6382      8.1312    100.6270
  1207.0000      0.0000    418.8036      8.2464    108.3005
  1207.2500      0.0000    431.6434      8.3391    114.7048
  1207.5000      0.0000    454.8274      8.3981    118.0815
  1207.7500      0.0000    490.2010      8.4194    117.5264
  1208.0000      0.0000    535.7131      8.4088    113.2738
  1208.2500      0.0000    582.3020      8.3836    106.2691
  1208.5000      0.0000    618.4177      8.3700     97.4653
  1208.7500      0.0000    638.3769      8.3917     87.8788
  1209.0000      0.0000    644.7593      8.4578     79.0894
  1209.2500      0.0000    642.4940      8.5582     72.8725
  1209.5000      0.0000    632.9573      8.6708     70.0069
  1209.7500      0.0000    615.1509      8.7738     69.6465
  1210.0000      0.0000    591.5387      8.8527     69.9411
  1210.2500      0.0000    570.6138      8.9019     69.2458
  1210.5000      0.0000    562.4980      8.9208     67.0485
  1210.7500      0.0000    571.8516      8.9082     64.1189
  1211.0000      0.0000    594.5591      8.8594     61.7325
  1211.2500      0.0000    620.7120      8.7604     60.6276
  1211.5000      0.0000    641.1277      8.5815     60.7926
  1211.7500      0.0000    651.7646      8.2873     61.9810
  1212.0000      0.0000    652.8132      7.8803     63.8122
  1212.2500      0.0000    644.9614      7.4364     65.3944
  1212.5000      0.0000    627.3914      7.0583     65.5618
  1212.7500      0.0000    600.1098      6.7753     63.6427
  1213.0000      0.0000    568.2990      6.5291     59.7082
  1213.2500      0.0000    541.8316      6.2813     54.3699
  1213.5000      0.0000    527.0375      6.0840     48.7934
  1213.7500      0.0000    519.7620      6.0047     44.6275
  1214.0000      0.0000    510.3170      6.0259     43.3663
  1214.2500     -2.0000    495.6703      6.0553     45.5260
  1214.5000      0.0000    484.9014      6.0122     50.3178
  1214.7500      0.0000    492.1700      5.8897     56.0602
  1215.0000      0.0000    523.7495      5.7576     60.9838
  1215.2500      0.0000    571.0185      5.7084     63.8965
  1215.5000      0.0000    616.3852      5.7724     64.5146
  1215.7500      0.0000    646.1826      5.8861     63.5098
  1216.0000      0.0000    657.9944      5.9642     62.1878
  1216.2500      0.0000    657.7551      5.9968     61.8085
  1216.5000      0.0000    652.5386      6.0478     62.8740
  1216.7500      0.0000    646.2794      6.1706     64.9015
  1217.0000      0.0000    639.9421      6.3538     66.9721
  1217.2500      0.0000    633.6828      6.5444     68.5383
  1217.5000      0.0000    628.1148      6.6981     69.5730
  1217.7500      0.0000    624.0352      6.8017     70.1485
  1218.0000      0.0000    621.6766      6.8628     70.3390
  1218.2500      0.0000    620.6221      6.8947     70.4900
  1218.5000      0.0000    620.2551      6.9083     71.0724
  1218.7500      0.0000    620.1470      6.9100     72.1355
  1219.0000      0.0000    620.1211      6.9014     73.1621
  1219.2500      0.0000    620.1407      6.8822     73.6068
  1219.5000      0.0000    620.2082      6.8529     73.5550
  1219.7500      0.0000    620.3076      6.8145     73.8217
  1220.0000      0.0000    620.3939      6.7692     75.3546
  1220.2500      0.0000    620.4084      6.7208     78.4410
  1220.5000      0.0000    620.3149      6.6726     82.2888
  1220.7500      0.0000    620.1635      6.6225     85.1574
  1221.0000      0.0000    620.2064      6.5613     85.2001
  1221.2500      0.0000    621.0715      6.4801     81.8718
  1221.5000      0.0000    623.7917      6.3810     76.6545
  1221.7500      0.0000    629.3123      6.2810     72.0504
  1222.0000      0.0000    637.5114      6.2041     69.8044
  1222.2500      0.0000    646.6027      6.1666     70.2014
  1222.5000      0.0000    653.8486      6.1692     72.7141
  1222.7500      0.0000    657.1311      6.1989     76.7588
  1223.0000      0.0000    655.9216      6.2353     81.7700
  1223.2500      0.0000    651.1052      6.2558     87.0572
  1223.5000      0.0000    644.4133      6.2415     91.9955
  1223.7500      0.0000    637.8716      6.1838     96.1512
  1224.0000      0.0000    632.5346      6.0896     98.9977
  1224.2500      0.0000    626.8680      5.9792     99.8700
  1224.5000      0.0000    617.4165      5.8763     98.6155
  1224.7500      0.0000    603.1068      5.7950     96.0677
  1225.0000      0.0000    589.0794      5.7367     93.5938
  1225.2500      0.0000    584.2552      5.6986     92.3160
  1225.5000      0.0000    593.5927      5.6797     92.7572
  1225.7500      0.0000    613.1581      5.6774     94.7039
  1226.0000      0.0000    633.2409      5.6786     97.0922
  1226.2500      0.0000    645.7662      5.6591     98.4378
  1226.5000      0.0000    648.9265      5.5904     97.7488
  1226.7500      0.0000    646.4506      5.4530     94.9875
  1227.0000      0.0000    643.4637      5.2570     90.8387
  1227.2500      0.0000    642.4720      5.0578     86.3842
  1227.5000      0.0000    642.9244      4.9284     82.8885
  1227.7500      0.0000    644.5850      4.8923     81.3845
  1228.0000      0.0000    649.8802      4.8970     82.1817
  1228.2500      0.0000    661.6037      4.8805     84.6433
  1228.5000      0.0000    678.9926      4.8486     87.3764
  1228.7500      0.0000    697.3586      4.8586     88.9626
  1229.0000      0.0000    711.6223      4.9374     88.9756
  1229.2500      0.0000    719.9401      5.0419     88.1309
  1229.5000      2.0000    723.8531      5.0992     87.1436
  1229.7500      0.0000    724.9162      5.0786     85.8184
  1230.0000      0.0000    722.0494      5.0259     83.7622
  1230.2500      0.0000    713.5784      5.0252     81.6529
  1230.5000      0.0000    701.1479      5.1166     80.9674
  1230.7500      0.0000    689.5223      5.2568     82.3455
  1231.0000      0.0000    682.4571      5.3797     84.8671
  1231.2500      0.0000    680.3080      5.4785     87.0959
  1231.5000      0.0000    681.3805      5.6027     88.3821
  1231.7500      0.0000    683.8397      5.7847     89.0249
  1232.0000      0.0000    686.1650      5.9976     89.6207
  1232.2500      0.0000    687.5589      6.1855     90.5797
  1232.5000      0.0000    688.7094      6.3130     92.1203
