~Version Information
VERS.                      2.0: CWLS Log ASCII Standard - VERSION 2.0
WRAP.                       NO: One line per depth step
~Well Information Block
STRT.FT                -6.7500: 
STOP.FT              1544.5000: 
STEP.FT                 0.2500: 
NULL.                -999.2500: 
COMP.          Pioneer Natural Resources: COMPANY
WELL.          Lorencito 10-36-33-67: WELL
FLD.           Purgatorie River: FIELD
LOC.           2130' FSL & 2362' FEL--: LOCATION
STAT.                       CO: State
CNTY.               Las Animas: COUNTY
CTRY. USA : Country
SECT. 36 : Section
TOWN. 33S : Township
RANG. 67W : Range
SRVC.          Patterson Wireline: SERVICE COMPANY
DATE.          Fri Sep 02 09:21:42 2005: LOG DATE
API.           05 071 08501 00: UNIQUE WELL ID
~Curve Information Block
DEPT.FT            0 000 00 00: Depth
CCL.                          : Casing Collar Locator
TT3.usec                      : CBL 3' Travel Time
AMP3.mV                       : CBL 3' Amplitude
GR.GAPI                       : Gamma Ray
~Parameter Information Block
~A  Depth       CCL         TT3         AMP3         GR     
# ...
   897.7500      0.0000    720.0329     11.4605     70.2381
   898.0000      0.0000    710.7325     11.8852     74.4278
   898.2500      0.0000    704.0041     12.2447     79.2139
   898.5000      0.0000    705.1666     12.4483     86.0337
   898.7500      0.0000    716.2059     12.4174     95.5139
   899.0000      0.0000    734.2888     12.1231    106.8100
   899.2500      0.0000    752.9119     11.5978    118.4433
   899.5000      0.0000    765.9642     10.9191    129.0230
   899.7500      0.0000    772.0198     10.1822    136.8031
   900.0000      0.0000    774.3904      9.4743    139.3314
   900.2500      0.0000    776.7645      8.8606    134.6133
   900.5000      0.0000    779.5921      8.3849    123.0912
   900.7500      0.0000    780.8358      8.0722    108.1887
   901.0000      0.0000    779.1882      7.9264     94.3477
   901.2500      0.0000    775.8552      7.9292     84.4150
   901.5000      0.0000    773.2894      8.0489     78.8927
   901.7500      0.0000    772.4197      8.2559     77.0305
   902.0000      0.0000    771.6937      8.5360     77.9506
   902.2500      0.0000    769.2682      8.8968     81.1653
   902.5000      0.0000    765.4254      9.3640     86.7584
   902.7500      0.0000    762.1181      9.9579     95.0636
   903.0000      0.0000    760.5758     10.6495    105.8817
   903.2500      0.0000    759.9221     11.3298    118.0630
   903.5000      0.0000    757.9393     11.8384    129.7328
   903.7500      0.0000    753.4346     12.0407    138.8604
   904.0000      0.0000    748.3835     11.8916    144.0143
   904.2500      0.0000    747.1209     11.4457    144.9082
   904.5000      0.0000    752.3893     10.8203    142.1717
   904.7500      0.0000    762.4421     10.1411    136.7241
   905.0000      0.0000    772.5858      9.5018    129.5812
   905.2500      0.0000    779.1134      8.9570    121.9867
   905.5000      0.0000    781.1973      8.5348    115.1606
   905.7500      0.0000    779.9203      8.2461    109.7193
   906.0000      0.0000    777.2260      8.0813    105.6625
   906.2500      0.0000    775.8619      8.0083    103.2806
   906.5000      0.0000    778.3519      7.9858    103.7325
   906.7500      0.0000    784.5906      7.9810    108.1472
   907.0000      0.0000    791.2599      7.9805    116.1120
   907.2500      0.0000    794.6211      7.9878    125.4418
   907.5000      0.0000    793.5162      8.0100    133.4684
   907.7500      0.0000    789.5685      8.0458    138.4889
   908.0000      0.0000    785.4915      8.0863    140.3171
   908.2500      0.0000    783.4334      8.1266    139.9669
   908.5000      0.0000    783.8392      8.1747    139.0590
   908.7500      0.0000    785.1871      8.2458    139.1532
   909.0000      0.0000    785.1944      8.3471    140.9638
   909.2500      0.0000    782.8644      8.4700    143.8989
   909.5000      0.0000    779.6132      8.5960    146.4849
   909.7500      0.0000    778.2025      8.7074    147.3207
   910.0000      0.0000    780.2080      8.7938    145.7256
   910.2500      0.0000    784.6253      8.8495    141.8443
   910.5000      0.0000    789.1041      8.8702    136.4296
   910.7500      0.0000    792.0769      8.8513    130.4471
   911.0000      0.0000    793.4107      8.7943    124.6831
   911.2500      0.0000    793.5813      8.7135    119.6445
   911.5000      0.0000    792.8055      8.6342    115.6630
   911.7500      0.0000    790.9499      8.5797    112.8387
   912.0000      0.0000    788.1318      8.5583    110.9153
   912.2500      0.0000    785.3076      8.5639    109.4467
   912.5000      0.0000    783.9116      8.5867    108.0723
   912.7500      0.0000    784.5267      8.6183    106.5364
   913.0000      0.0000    786.1533      8.6500    104.7668
   913.2500      0.0000    787.1658      8.6742    103.2410
   913.5000      0.0000    786.7385      8.6879    102.9964
   913.7500      0.0000    784.9429      8.6909    104.8955
   914.0000      0.0000    781.7961      8.6815    108.9616
   914.2500      0.0000    777.0831      8.6585    114.5206
   914.5000      0.0000    771.4914      8.6262    120.5288
   914.7500      0.0000    767.3397      8.5938    125.2430
   915.0000      0.0000    767.1129      8.5690    126.0521
   915.2500      0.0000    771.0964      8.5552    120.9584
   915.5000      0.0000    777.1610      8.5554    110.8405
   915.7500      0.0000    782.9559      8.5739     99.5436
   916.0000      0.0000    787.3007      8.6131     91.0153
   916.2500      0.0000    789.7173      8.6655     86.5171
   916.5000      0.0000    790.3184      8.7144     84.7476
   916.7500      0.0000    790.1747      8.7447     84.0613
   917.0000      0.0000    790.4623      8.7524     83.9645
   917.2500      0.0000    791.3614      8.7426     84.6854
   917.5000      0.0000    792.4425      8.7211     85.9002
   917.7500      0.0000    793.6647      8.6948     86.3068
   918.0000      0.0000    795.4167      8.6784     84.5533
   918.2500      0.0000    797.6596      8.6911     80.5549
   918.5000      0.0000    799.3209      8.7403     75.9187
   918.7500      0.0000    798.9125      8.8112     72.9967
   919.0000      0.0000    795.9712      8.8759     73.2002
   919.2500      0.0000    791.5026      8.9099     75.9434
   919.5000      0.0000    786.7086      8.9040     79.2430
   919.7500      0.0000    782.1191      8.8672     81.3732
   920.0000      0.0000    778.4525      8.8239     82.0151
   920.2500      0.0000    777.1795      8.8017     82.1306
   920.5000      0.0000    779.0699      8.8154     82.9457
   920.7500      0.0000    782.8077      8.8622     85.0723
   921.0000      0.0000    786.0964      8.9301     88.4647
   921.2500      0.0000    787.8776      9.0081     92.7931
   921.5000      0.0000    788.7813      9.0846     97.2952
   921.7500      0.0000    789.6516      9.1397    100.6075
   922.0000      0.0000    790.2840      9.1486    101.7329
   922.2500      0.0000    789.7592      9.0996    101.2231
   922.5000      0.0000    787.7510      9.0072    100.7043
   922.7500      0.0000    785.2967      8.9043    101.1598
   923.0000      0.0000    784.1258      8.8200    102.0722
   923.2500      0.0000    784.9638      8.7667    102.0186
   923.5000      0.0000    786.4902      8.7438     99.8219
   923.7500      0.0000    786.0031      8.7504     95.3355
   924.0000      0.0000    781.2699      8.7903     89.4333
   924.2500      0.0000    772.5039      8.8636     83.4448
   924.5000      0.0000    763.2239      8.9553     78.6670
   924.7500      0.0000    758.3699      9.0393     76.1104
   925.0000      0.0000    760.2361      9.0948     76.1646
   925.2500      0.0000    766.4847      9.1182     78.3638
   925.5000      0.0000    772.9248      9.1198     81.7763
   925.7500      0.0000    777.5864      9.1158     85.8826
   926.0000      0.0000    781.2686      9.1239     90.9552
   926.2500      0.0000    785.0782      9.1584     97.3411
   926.5000      0.0000    788.8297      9.2216    104.5026
   926.7500      0.0000    791.6854      9.2987    111.2129
   927.0000      0.0000    793.2827      9.3655    116.5955
   927.2500      0.0000    793.9019      9.4030    120.4531
   927.5000      0.0000    794.0131      9.4074    122.9404
   927.7500      0.0000    793.9444      9.3891    124.6969
   928.0000      0.0000    793.8495      9.3674    126.8479
   928.2500      0.0000    793.7609      9.3657    129.8634
   928.5000      0.0000    793.5396      9.4045    132.6970
   928.7500      0.0000    792.6385      9.4933    133.8987
   929.0000      0.0000    789.7701      9.6224    133.2989
   929.2500      0.0000    783.1107      9.7488    131.8290
   929.5000      0.0000    771.9125      9.7810    130.0338
   929.7500      0.0000    758.9780      9.6026    127.6618
   930.0000      0.0000    750.6351      9.1606    124.5460
   930.2500      0.0000    751.8696      8.5467    121.0103
   930.5000      0.0000    760.9935      7.9542    117.3875
   930.7500      0.0000    770.9233      7.5360    113.7484
   931.0000      0.0000    776.0842      7.3189    110.3530
