~Version Information
VERS.                      2.0: CWLS Log ASCII Standard - VERSION 2.0
WRAP.                       NO: One line per depth step
~Well Information Block
STRT.FT                 0.0000: 
STOP.FT               878.0000: 
STEP.FT                 0.2500: 
NULL.                -999.2500: 
COMP.          Pioneer Natural Resources: COMPANY
WELL.           Hartford 31-18: WELL
FLD.           Purgatorie River: FIELD
LOC.           375' FNL & 1660' FEL: LOCATION
PROV.                 Colorado: PROVINCE
CNTY.               Las Animas: COUNTRY
SRVC.                Patterson: SERVICE COMPANY
DATE.          Mon Nov 28 12:10:49 2005: LOG DATE
UWI.             05-071-08555             : UNIQUE WELL ID
~Curve Information Block
DEPT.FT            0 000 00 00: Depth
CCL.                          : Casing Collar Locator
TT3.usec                      : CBL 3' Travel Time
AMP3.mV                       : CBL 3' Amplitude
GR.GAPI                       : Gamma Ray
~Parameter Information Block
~A  Depth       CCL         TT3         AMP3         GR     
# ...
   502.5000      0.0000    685.8345      7.5457     61.5670
   502.7500      0.0000    710.8562      6.8041     57.6796
   503.0000      0.0000    721.7034      6.4447     55.2961
   503.2500      0.0000    710.2458      6.4334     54.3003
   503.5000      2.0000    694.0547      6.5246     54.5262
   503.7500     -2.0000    693.4686      6.5780     55.6795
   504.0000      0.0000    709.2943      6.5773     57.2645
   504.2500      0.0000    729.4031      6.5799     58.8880
   504.5000      0.0000    742.5022      6.7226     60.4302
   504.7500      0.0000    742.9298      7.1261     61.6171
   505.0000      0.0000    732.6606      7.6789     61.7319
   505.2500      0.0000    719.9024      8.2292     60.2346
   505.5000      0.0000    712.7631      8.8704     57.5990
   505.7500      0.0000    713.3381      9.5718     55.1914
   506.0000      0.0000    717.4748     10.0358     54.1720
   506.2500      0.0000    720.6406     10.1573     54.4118
   506.5000      0.0000    721.8803     10.1300     54.4629
   506.7500      0.0000    722.1552     10.1419     52.8965
   507.0000      0.0000    722.1794     10.2179     49.8316
   507.2500      0.0000    722.1426     10.2992     46.9774
   507.5000      0.0000    722.0091     10.3574     46.1879
   507.7500      0.0000    721.5615     10.3907     48.2150
   508.0000      0.0000    719.9639     10.3696     52.5963
   508.2500      0.0000    715.3546     10.2643     58.0656
   508.5000      0.0000    706.3231     10.0979     62.9012
   508.7500      0.0000    694.8466      9.9247     65.5533
   509.0000      0.0000    685.5096      9.7775     65.6068
   509.2500      0.0000    680.7509      9.6388     64.0439
   509.5000      0.0000    679.3149      9.4670     62.3161
   509.7500      0.0000    679.0074      9.2652     61.3886
   510.0000      0.0000    678.7749      9.0762     61.8255
   510.2500      0.0000    678.5627      8.9259     64.2394
   510.5000      0.0000    678.4673      8.8284     69.1448
   510.7500      0.0000    678.3778      8.7947     76.5135
   511.0000      0.0000    678.2362      8.7990     85.6359
   511.2500      0.0000    678.3807      8.7975     95.4217
   511.5000      0.0000    679.6960      8.7901    105.0204
   511.7500      0.0000    683.1921      8.8113    114.1401
   512.0000      0.0000    688.2116      8.8676    122.4680
   512.2500      0.0000    691.9629      8.9149    129.0461
   512.5000      0.0000    694.0443      8.8866    132.9819
   512.7500      0.0000    698.1789      8.7527    134.8390
   513.0000      0.0000    704.8638      8.5592    136.5099
   513.2500      0.0000    708.1805      8.3909    139.1897
   513.5000      0.0000    703.5324      8.3122    141.7973
   513.7500      0.0000    693.5549      8.3495    141.9173
   514.0000      0.0000    684.4936      8.4610    138.3315
   514.2500      0.0000    679.6003      8.5254    132.3191
   514.5000      0.0000    677.9622      8.4620    126.4517
   514.7500      0.0000    677.6915      8.3384    122.4932
   515.0000      0.0000    678.0438      8.2894    120.4515
   515.2500      0.0000    679.5448      8.3785    119.0555
   515.5000      0.0000    683.3577      8.5690    116.8415
   515.7500      0.0000    689.7062      8.7890    113.2036
   516.0000      0.0000    696.9751      8.9817    108.8100
   516.2500      0.0000    704.0208      9.1054    104.8871
   516.5000      0.0000    711.0761      9.1477    101.9491
   516.7500      0.0000    717.1385      9.1437     99.3542
   517.0000      0.0000    720.4315      9.1348     96.3166
   517.2500      0.0000    720.2357      9.1153     93.2107
   517.5000      0.0000    715.7440      9.0586     91.5025
   517.7500      0.0000    706.3263      8.9679     92.2729
   518.0000      0.0000    694.5296      8.8551     95.1374
   518.2500      0.0000    685.2649      8.7152     98.7612
   518.5000      0.0000    680.9509      8.5616    102.0827
   518.7500      0.0000    680.6992      8.4342    104.8205
   519.0000      0.0000    683.2490      8.3546    107.1521
   519.2500      0.0000    687.2905      8.3062    109.3715
   519.5000      0.0000    691.1766      8.2864    111.8490
   519.7500      0.0000    694.9813      8.3628    114.9516
   520.0000      0.0000    698.4012      8.6013    118.6776
   520.2500      0.0000    697.6505      8.9456    122.3128
   520.5000      0.0000    691.4329      9.2544    124.5646
   520.7500      0.0000    684.5595      9.4416    124.2717
   521.0000      0.0000    681.8668      9.5235    121.2353
   521.2500      0.0000    684.8640      9.5530    116.4868
   521.5000      0.0000    692.6599      9.5584    111.6360
   521.7500      0.0000    701.2772      9.5351    107.8383
   522.0000      0.0000    706.3964      9.4743    105.4812
   522.2500      0.0000    708.8616      9.4099    104.8261
   522.5000      0.0000    711.5330      9.4102    106.4558
   522.7500      0.0000    712.7966      9.4822    110.6372
   523.0000      0.0000    709.9395      9.5474    116.4515
   523.2500      0.0000    704.4031      9.5609    122.0832
   523.5000      0.0000    699.1436      9.5708    126.0550
   523.7500      0.0000    696.2866      9.6161    127.9314
   524.0000      0.0000    697.6127      9.6805    127.8810
   524.2500      0.0000    700.8700      9.7388    126.1090
   524.5000      0.0000    700.1812      9.7445    123.1117
   524.7500      0.0000    694.9843      9.6449    120.1156
   525.0000      0.0000    692.0284      9.4538    118.5706
   525.2500      0.0000    696.5503      9.2452    119.1219
   525.5000      0.0000    706.2877      9.0762    121.3860
   525.7500      0.0000    715.0894      8.9635    124.5217
   526.0000      0.0000    719.5272      8.9128    127.4851
   526.2500      0.0000    719.6191      8.9225    128.8937
   526.5000      0.0000    715.2897      8.9696    127.5475
   526.7500      0.0000    706.2101      9.0323    123.5334
   527.0000      0.0000    695.0381      9.1178    118.4774
   527.2500      0.0000    687.2529      9.2432    114.3205
   527.5000      0.0000    687.0040      9.3902    111.7435
   527.7500      0.0000    694.4930      9.4961    109.8648
   528.0000      0.0000    705.7210      9.5185    107.5060
   528.2500      0.0000    715.0401      9.4789    104.4978
   528.5000      0.0000    719.8136      9.4098    101.6147
   528.7500      0.0000    721.2429      9.3056     99.6440
   529.0000      0.0000    721.1717      9.1503     98.7983
   529.2500      0.0000    719.6887      8.9598     98.6165
   529.5000      0.0000    714.9539      8.7742     98.2178
   529.7500      0.0000    705.5461      8.6249     97.0828
   530.0000      0.0000    693.7872      8.5317     95.8185
   530.2500      0.0000    684.5477      8.5064     95.8696
   530.5000      0.0000    680.2259      8.5337     98.3234
   530.7500      0.0000    679.8565      8.5772    103.0173
   531.0000      0.0000    682.0824      8.6096    108.8382
   531.2500      0.0000    685.4513      8.6371    114.7019
   531.5000      0.0000    687.6317      8.7121    119.9979
   531.7500      0.0000    688.0853      8.8670    124.1719
   532.0000      0.0000    689.4033      9.0474    126.4356
   532.2500      0.0000    694.3599      9.1652    126.2340
   532.5000      0.0000    702.1483      9.1928    123.7120
   532.7500      0.0000    706.9518      9.1773    119.4011
   533.0000      0.0000    703.7444      9.1716    113.7033
   533.2500      0.0000    694.6671      9.1800    106.9809
   533.5000      0.0000    685.9008      9.1721     99.8242
   533.7500      0.0000    680.8280      9.1247     92.9110
   534.0000      0.0000    678.9111      9.0510     86.8667
   534.2500      0.0000    678.7562      9.0014     82.4928
   534.5000      0.0000    680.1030      9.0181     80.8021
   534.7500      0.0000    683.5430      9.0832     82.4902
   535.0000      0.0000    688.2901      9.1529     87.4036
   535.2500      0.0000    690.8224      9.2393     94.5776
   535.5000      0.0000    688.6630      9.4053    102.5346
   535.7500      0.0000    684.1859      9.6883    109.4102
