~Version Information
VERS.                      2.0: CWLS Log ASCII Standard - VERSION 2.0
WRAP.                       NO: One line per depth step
~Well Information Block
STRT.FT               710.0000: 
STOP.FT              1983.0000: 
STEP.FT                 0.1000: 
NULL.                -999.2500: 
COMP.          Petrogulf Corporation: COMPANY
WELL.           State 16-23R-X: WELL
FLD.           Purgatorie River: FIELD
LOC.           2381' FSL & 2072' FWL: LOCATION
PROV.                 Colorado: PROVINCE
CNTY.               Las Animas: COUNTRY
SRVC.                Patterson: SERVICE COMPANY
DATE.          Mon Aug 08 07:36:34 2005: LOG DATE
UWI.                          : UNIQUE WELL ID
~Curve Information Block
DEPT.FT            0 000 00 00: Depth
DCAL.in                       : CDL Caliper
RHOB.g/cc                     : CDL Bulk Density
RHOC.g/cc                     : CDL Density Correction
DPOR.pu                       : CDL Density Porosity
GR.GAPI                       : Gamma Ray
NPOR.pu                       : Neutron Porosity
~Parameter Information Block
~A  Depth       DCAL        RHOB        RHOC        DPOR         GR         NPOR    
# ...
  1785.2000      7.8197      2.4724      0.1395     10.7633     56.9459     17.5036
  1785.3000      7.8146      2.4644      0.1181     11.2507     57.1438     17.8080
  1785.4000      7.8146      2.4495      0.1040     12.1531     60.3183     18.0230
  1785.5000      7.7966      2.4391      0.0663     12.7824     63.1125     18.0900
  1785.6000      7.7966      2.4419      0.0916     12.6120     62.4549     17.9675
  1785.7000      7.7966      2.4512      0.0705     12.0477     59.6699     17.6870
  1785.8000      7.8178      2.4548      0.0953     11.8307     57.7239     17.3892
  1785.9000      7.8178      2.4468      0.0692     12.3163     57.5699     17.1073
  1786.0000      7.8033      2.4328      0.0547     13.1611     59.1249     16.8996
  1786.1000      7.8033      2.4228      0.0714     13.7682     61.8989     16.9667
  1786.2000      7.8033      2.4254      0.0556     13.6098     64.5534     17.1526
  1786.3000      7.7858      2.4480      0.0563     12.2442     65.4802     17.0694
  1786.4000      7.7858      2.4812      0.1209     10.2322     63.2126     16.8467
  1786.5000      7.7972      2.4985      0.1227      9.1811     59.1586     16.9951
  1786.6000      7.7972      2.4904      0.1008      9.6734     55.8528     17.5166
  1786.7000      7.7972      2.4783      0.0653     10.4086     53.3543     18.0265
  1786.8000      7.8125      2.4837      0.0782     10.0796     51.7877     18.3441
  1786.9000      7.8125      2.5045      0.0611      8.8165     51.0930     18.4704
  1787.0000      7.8069      2.5256      0.1019      7.5392     50.3928     18.6267
  1787.1000      7.8069      2.5382      0.1305      6.7772     50.8722     19.0329
  1787.2000      7.8069      2.5468      0.0833      6.2516     53.4372     19.3958
  1787.3000      7.7902      2.5532      0.1288      5.8696     56.1847     19.2727
  1787.4000      7.7902      2.5534      0.0788      5.8573     57.2027     18.8789
  1787.5000      7.7965      2.5558      0.0818      5.7065     56.6281     18.8217
  1787.6000      7.7965      2.5650      0.0524      5.1490     55.0823     19.2366
  1787.7000      7.7965      2.5733      0.0938      4.6483     52.7342     19.7987
  1787.8000      7.8028      2.5775      0.0605      4.3947     51.1355     20.2678
  1787.9000      7.8028      2.5776      0.0742      4.3893     53.2108     20.6868
  1788.0000      7.8032      2.5668      0.0819      5.0434     59.4109     21.2490
  1788.1000      7.8032      2.5476      0.0545      6.2082     66.9313     21.7506
  1788.2000      7.8032      2.5349      0.0413      6.9762     72.3212     21.8994
  1788.3000      7.7997      2.5309      0.0605      7.2191     76.1823     21.8330
  1788.4000      7.7997      2.5218      0.0607      7.7669     83.3251     21.8207
  1788.5000      7.7988      2.5068     -0.0167      8.6764     93.8705     22.0633
  1788.6000      7.7988      2.4954      0.0466      9.3673    103.1409     22.5533
  1788.7000      7.7988      2.4905      0.0190      9.6678    109.9869     23.0327
  1788.8000      7.8427      2.5032      0.0156      8.8961    115.7805     23.2242
  1788.9000      7.8427      2.5376      0.1121      6.8147    120.4161     23.0683
  1789.0000      7.8456      2.5698      0.1598      4.8628    124.3895     22.7699
  1789.1000      7.8456      2.5836      0.1600      4.0225    128.3326     22.5995
  1789.2000      7.8456      2.5883      0.1451      3.7400    131.0140     22.7765
  1789.3000      7.8141      2.5872      0.1562      3.8064    131.8730     23.4028
  1789.4000      7.8141      2.5693      0.1525      4.8891    132.4486     24.2455
  1789.5000      7.8232      2.5356      0.1190      6.9308    134.2760     24.8984
  1789.6000      7.8232      2.5035      0.0559      8.8761    138.6913     25.1323
  1789.7000      7.8232      2.4860      0.0488      9.9404    144.1973     25.1362
  1789.8000      7.8664      2.4824      0.0307     10.1603    146.9970     25.2455
  1789.9000      7.8664      2.4860      0.0994      9.9415    147.6223     25.4547
  1790.0000      7.8721      2.4891      0.1034      9.7533    147.7103     25.4618
  1790.1000      7.8721      2.4913      0.1205      9.6207    146.8213     25.1389
  1790.2000      7.8721      2.4975      0.1318      9.2434    147.1203     24.6863
  1790.3000      7.8647      2.5052      0.1523      8.7778    149.7623     24.2673
  1790.4000      7.8647      2.5033      0.1597      8.8915    150.8716     23.9726
  1790.5000      7.8817      2.4868      0.1518      9.8911    150.1348     23.8326
  1790.6000      7.8817      2.4654      0.1230     11.1894    151.3290     23.8009
  1790.7000      7.8817      2.4541      0.0781     11.8742    153.8308     23.8733
  1790.8000      7.9321      2.4554      0.1363     11.7937    154.3417     24.0191
  1790.9000      7.9321      2.4621      0.0907     11.3849    153.3003     24.2358
  1791.0000      7.9437      2.4767      0.1327     10.5012    152.5173     24.7108
  1791.1000      7.9437      2.5023      0.1531      8.9491    152.1436     25.2368
  1791.2000      7.9437      2.5331      0.2011      7.0848    150.8795     25.3262
  1791.3000      7.8909      2.5578      0.2161      5.5862    149.0070     25.2861
  1791.4000      7.8909      2.5651      0.2105      5.1438    148.1510     25.6385
  1791.5000      7.8409      2.5547      0.1703      5.7733    147.7308     26.0725
  1791.6000      7.8409      2.5360      0.1916      6.9089    145.7005     26.2250
  1791.7000      7.8409      2.5167      0.0907      8.0800    142.3144     26.2596
  1791.8000      7.8334      2.5032      0.0936      8.8953    140.3844     26.3756
  1791.9000      7.8334      2.4961      0.0795      9.3282    139.2115     26.6115
  1792.0000      7.8284      2.4918      0.0649      9.5871    135.2892     26.7905
  1792.1000      7.8284      2.4913      0.0658      9.6152    130.6940     26.7465
  1792.2000      7.8284      2.4988      0.0719      9.1609    128.5247     26.6349
  1792.3000      7.8122      2.5154      0.0600      8.1574    127.8496     26.7641
  1792.4000      7.8122      2.5331      0.1205      7.0868    129.3191     27.1077
  1792.5000      7.8082      2.5413      0.0970      6.5890    133.2776     27.2890
  1792.6000      7.8082      2.5429      0.0679      6.4918    136.2297     27.1476
  1792.7000      7.8082      2.5456      0.1247      6.3283    135.4734     27.0542
  1792.8000      7.8026      2.5469      0.1066      6.2460    131.1256     27.1736
  1792.9000      7.8026      2.5425      0.1158      6.5172    125.6485     27.0775
  1793.0000      7.7927      2.5289      0.0935      7.3406    121.3543     26.7054
  1793.1000      7.7927      2.5062      0.0787      8.7171    118.6852     26.4721
  1793.2000      7.7927      2.4874      0.0409      9.8526    117.6223     26.4765
  1793.3000      7.7934      2.4906      0.0554      9.6616    116.6413     26.4258
  1793.4000      7.7934      2.5139      0.1068      8.2488    115.3773     26.0831
  1793.5000      7.7508      2.5391      0.1380      6.7209    114.1035     25.6483
  1793.6000      7.7508      2.5623      0.1085      5.3142    110.9576     25.4798
  1793.7000      7.7508      2.5927      0.1596      3.4734    107.9635     25.5514
  1793.8000      7.7304      2.6171      0.2281      1.9940    108.3693     25.8168
  1793.9000      7.7304      2.6168      0.1608      2.0092    110.4156     26.0959
  1794.0000      7.7134      2.6012      0.1811      2.9564    111.5448     26.0595
  1794.1000      7.7134      2.5861      0.1880      3.8708    112.0220     25.8141
  1794.2000      7.7134      2.5798      0.1581      4.2573    112.4905     25.6390
  1794.3000      7.6970      2.5860      0.1268      3.8779    111.9800     25.5876
  1794.4000      7.6970      2.5957      0.1329      3.2894    109.9607     25.5933
  1794.5000      7.7696      2.5973      0.1353      3.1935    106.5290     25.5110
  1794.6000      7.7696      2.5978      0.1444      3.1607    103.2527     25.0785
  1794.7000      7.7696      2.6100      0.1383      2.4226    101.6338     24.5582
