~Version Information
VERS.                      2.0: CWLS Log ASCII Standard - VERSION 2.0
WRAP.                       NO: One line per depth step
~Well Information Block
STRT.FT               245.0000: 
STOP.FT              1006.0000: 
STEP.FT                 0.1000: 
NULL.                -999.2500: 
COMP.          Pioneer Natural Resources: COMPANY
WELL.              Atlas 32-18: WELL
FLD.           Purgatoire River: FIELD
LOC.           1892' FNL & 1456' FEL: LOCATION
PROV.                 Colorado: PROVINCE
CNTY.               Las Animas: COUNTRY
SRVC.                Patterson: SERVICE COMPANY
DATE.          Mon Nov 21 08:58:56 2005: LOG DATE
UWI.           05 071 08556 00: UNIQUE WELL ID
~Curve Information Block
DEPT.FT            0 000 00 00: Depth
DCAL.in                       : CDL Caliper
RHOB.g/cc                     : CDL Bulk Density
RHOC.g/cc                     : CDL Density Correction
DPOR.pu                       : CDL Density Porosity
GR.GAPI                       : Gamma Ray
NPOR.pu                       : Neutron Porosity
~Parameter Information Block
~A  Depth       DCAL        RHOB        RHOC        DPOR         GR         NPOR    
# ...
   398.6000      8.0043      2.5492      0.1107      6.1070    106.6819     24.6972
   398.7000      8.0043      2.5848      0.1319      3.9519    113.9012     24.6974
   398.8000      7.9972      2.6171      0.1499      1.9943    119.7621     24.7097
   398.9000      7.9972      2.6410      0.1387      0.5477    118.6173     24.6920
   399.0000      7.9925      2.6542      0.1489     -0.2544    117.4136     24.8243
   399.1000      7.9925      2.6548      0.1016     -0.2898    121.0280     24.6580
   399.2000      7.9925      2.6415      0.1220      0.5147    121.2025     24.1506
   399.3000      7.9881      2.6096      0.0834      2.4497    113.0377     23.6711
   399.4000      7.9881      2.5570      0.0605      5.6389    104.3078     23.0243
   399.5000      7.9809      2.4973      0.0311      9.2570    105.5949     22.2486
   399.6000      7.9809      2.4579     -0.0163     11.6453    116.4085     21.8229
   399.7000      7.9809      2.4496     -0.0118     12.1441    128.2182     21.8652
   399.8000      7.9886      2.4596     -0.0463     11.5393    137.4263     21.9829
   399.9000      7.9886      2.4744      0.0143     10.6423    143.8897     21.9253
   400.0000      7.9870      2.4808      0.0453     10.2544    149.2848     21.8733
   400.1000      7.9870      2.4754      0.0510     10.5841    153.7425     21.9860
   400.2000      7.9870      2.4787      0.0467     10.3840    153.9549     22.2663
   400.3000      8.0102      2.5058      0.1141      8.7380    152.7601     22.7297
   400.4000      8.0102      2.5389      0.1759      6.7360    152.7426     23.3447
   400.5000      8.0719      2.5615      0.1120      5.3619    151.9421     24.1308
   400.6000      8.0719      2.5848      0.1174      3.9540    153.0970     25.2000
   400.7000      8.0719      2.6165      0.1450      2.0316    157.9154     26.2580
   400.8000      8.1767      2.6550      0.1646     -0.3029    162.0520     26.8767
   400.9000      8.1767      2.7003      0.1624     -3.0470    164.9848     27.2690
   401.0000      8.1726      2.7441      0.1908     -5.7035    168.4055     27.6791
   401.1000      8.1726      2.7630      0.2504     -6.8505    167.2296     27.9171
   401.2000      8.1726      2.7424      0.1827     -5.6026    157.0660     27.9520
   401.3000      8.1445      2.7028      0.1084     -3.1976    148.0256     28.0070
   401.4000      8.1445      2.6823      0.0235     -1.9597    149.3225     28.2266
   401.5000      8.1123      2.7034     -0.0275     -3.2333    151.9270     28.7160
   401.6000      8.1123      2.7448      0.0694     -5.7426    148.4895     29.3500
   401.7000      8.1123      2.7667      0.0445     -7.0741    145.0579     29.6906
   401.8000      8.1327      2.7699      0.0208     -7.2656    145.1743     29.9147
   401.9000      8.1327      2.7793      0.0858     -7.8369    145.3778     30.4120
   402.0000      8.0226      2.7945      0.1125     -8.7546    144.2085     30.6613
   402.1000      8.0226      2.7992      0.1031     -9.0409    142.8531     30.2136
   402.2000      8.0226      2.7893      0.0448     -8.4407    141.6846     29.5342
   402.3000      8.0196      2.7659      0.0249     -7.0268    139.6094     29.0382
   402.4000      8.0196      2.7266     -0.0309     -4.6448    135.7384     28.4452
   402.5000      8.0294      2.6708     -0.1007     -1.2632    133.5516     27.3495
   402.6000      8.0294      2.6071     -0.1394      2.5975    134.9112     26.0636
   402.7000      8.0294      2.5586     -0.2008      5.5394    135.9970     25.1958
   402.8000      8.0114      2.5444     -0.1193      6.4010    137.3309     24.9769
   402.9000      8.0114      2.5473     -0.0614      6.2257    138.7337     24.9521
   403.0000      8.0143      2.5393     -0.0432      6.7100    134.6601     24.5167
   403.1000      8.0143      2.5220     -0.0140      7.7568    127.6647     23.7098
   403.2000      8.0143      2.5113      0.0229      8.4058    128.3344     23.0783
   403.3000      8.0310      2.5140      0.0250      8.2430    135.4557     22.9898
   403.4000      8.0310      2.5305      0.0663      7.2429    141.4804     23.2839
   403.5000      8.0948      2.5526      0.1532      5.9006    147.7968     23.6709
   403.6000      8.0948      2.5613      0.1997      5.3776    157.6803     24.1325
   403.7000      8.0948      2.5413      0.1624      6.5849    168.9669     24.6494
   403.8000      8.1816      2.5008      0.1419      9.0396    175.9290     25.2035
   403.9000      8.1816      2.4709      0.0580     10.8527    176.0720     25.9190
   404.0000      8.1853      2.4787      0.1063     10.3799    172.6821     26.6899
   404.1000      8.1853      2.5128      0.1868      8.3126    168.2481     27.4880
   404.2000      8.1853      2.5536      0.1557      5.8395    164.5990     28.0953
   404.3000      8.0876      2.6092      0.1468      2.4751    164.4108     28.0981
   404.4000      8.0876      2.6647      0.2200     -0.8890    167.0367     27.8228
   404.5000      8.0197      2.6762      0.2051     -1.5901    167.2510     27.9467
   404.6000      8.0197      2.6424      0.1494      0.4609    161.2375     28.2666
   404.7000      8.0197      2.6047      0.1036      2.7477    151.3913     28.1037
   404.8000      8.0066      2.5858      0.0682      3.8926    141.8362     27.3195
   404.9000      8.0066      2.5726      0.1033      4.6933    134.1887     26.2247
   405.0000      8.0048      2.5527      0.0642      5.8940    132.0591     25.2387
   405.1000      8.0048      2.5341      0.0605      7.0216    139.5019     24.5365
   405.2000      8.0048      2.5198      0.0349      7.8884    150.1104     24.1047
   405.3000      7.9939      2.5064     -0.0204      8.7021    151.4087     23.9548
   405.4000      7.9939      2.4981      0.0425      9.2056    145.8976     24.2576
   405.5000      7.9893      2.5016      0.0414      8.9927    145.2916     25.0814
   405.6000      7.9893      2.5132      0.0773      8.2882    149.4787     25.8995
   405.7000      7.9893      2.5184      0.1102      7.9747    151.1006     26.0228
   405.8000      8.0058      2.5099      0.0845      8.4918    152.4157     25.5698
   405.9000      8.0058      2.4960      0.0776      9.3319    160.1356     24.9095
   406.0000      8.0688      2.4897      0.0651      9.7128    170.2326     24.0832
   406.1000      8.0688      2.4965      0.0455      9.3027    174.2376     23.3824
   406.2000      8.0688      2.5048      0.0689      8.7980    170.9743     23.1632
   406.3000      8.0777      2.4920      0.0379      9.5778    164.8933     23.3460
   406.4000      8.0777      2.4526      0.0808     11.9612    162.2144     23.6865
   406.5000      8.1093      2.4125     -0.0178     14.3952    162.9445     24.0917
   406.6000      8.1093      2.3930      0.0615     15.5741    161.0067     24.6327
   406.7000      8.1093      2.3848      0.0215     16.0704    157.1643     25.2767
   406.8000      8.1150      2.3855      0.0137     16.0287    158.9987     25.8486
   406.9000      8.1150      2.4001      0.0600     15.1471    163.1896     26.3431
   407.0000      8.0880      2.4261      0.0133     13.5707    158.6120     26.8584
   407.1000      8.0880      2.4664      0.0922     11.1244    147.9442     27.1318
   407.2000      8.0880      2.5191      0.1351      7.9351    141.5317     26.7365
   407.3000      8.0344      2.5741      0.2012      4.5983    139.7726     26.0143
   407.4000      8.0344      2.6123      0.2199      2.2834    135.5049     25.7330
   407.5000      8.0109      2.6146      0.1292      2.1452    126.0298     25.8149
   407.6000      8.0109      2.5909      0.0582      3.5847    116.2761     25.7763
   407.7000      8.0109      2.5687      0.0783      4.9264    110.3446     25.5174
   407.8000      7.9978      2.5591      0.0579      5.5109    107.8387     25.3226
   407.9000      7.9978      2.5542      0.0657      5.8050    106.3621     25.2200
   408.0000      7.9828      2.5439      0.0346      6.4312    104.1867     24.9334
   408.1000      7.9828      2.5258      0.0153      7.5293    103.5676     24.5363
