~Version Information
VERS.                      2.0: CWLS Log ASCII Standard - VERSION 2.0
WRAP.                       NO: One line per depth step
~Well Information Block
STRT.FT               460.0000: 
STOP.FT              2811.5000: 
STEP.FT                 0.1000: 
NULL.                -999.2500: 
COMP.          Pioneer Natural Resources: COMPANY
WELL.           Dolzanie 34-12: WELL
FLD.           Purgatoire River: FIELD
LOC.           1001' FSL & 1750' FEL--: LOCATION
PROV.                 Colorado: PROVINCE
CNTY.               Las Animas: COUNTRY
SRVC.                Patterson: SERVICE COMPANY
DATE.          Wed Jul 20 07:56:24 2005: LOG DATE
UWI.           05 071 08439 00: UNIQUE WELL ID
~Curve Information Block
DEPT.FT            0 000 00 00: Depth
DCAL.in                       : CDL Caliper
DPOR.pu                       : CDL Density Porosity
NPOR.pu                       : Neutron Porosity
RHOB.g/cc                     : CDL Bulk Density
RHOC.g/cc                     : CDL Density Correction
GR.GAPI                       : Gamma Ray
~Parameter Information Block
~A  Depth       DCAL        DPOR        NPOR        RHOB        RHOC         GR     
# ...
  2015.2000      8.6417     27.7432     31.9835      2.1922      0.1753    152.9729
  2015.3000      8.7041     29.8225     32.1597      2.1579      0.1224    152.8170
  2015.4000      8.7041     29.4485     31.7360      2.1641      0.2441    152.3410
  2015.5000      8.7426     27.8369     31.4336      2.1907      0.2872    154.5504
  2015.6000      8.7426     26.4500     31.8259      2.2136      0.2727    156.0605
  2015.7000      8.7426     25.4842     32.4632      2.2295      0.2934    151.8173
  2015.8000      8.7922     25.1182     32.3939      2.2355      0.3659    147.4478
  2015.9000      8.7922     25.7503     31.7292      2.2251      0.3220    147.2817
  2016.0000      8.9147     27.5577     31.4306      2.1953      0.3024    149.0256
  2016.1000      8.9147     30.8048     31.7511      2.1417      0.2821    153.1099
  2016.2000      8.9147     34.9963     32.0709      2.0726      0.1658    160.0742
  2016.3000      9.0860     38.4339     32.2122      2.0158      0.1169    165.7616
  2016.4000      9.0860     40.0141     32.5947      1.9898      0.1358    170.3002
  2016.5000      9.1749     39.2768     33.1787      2.0019      0.1377    175.7932
  2016.6000      9.1749     35.8940     33.5325      2.0577      0.2304    175.3777
  2016.7000      9.1749     31.3397     33.6240      2.1329      0.3746    166.4220
  2016.8000      9.1783     28.2721     33.6712      2.1835      0.3975    159.6292
  2016.9000      9.1783     27.7345     33.2571      2.1924      0.3852    160.4406
  2017.0000      9.1799     28.7754     31.8170      2.1752      0.3561    163.6216
  2017.1000      9.1799     29.1899     30.2244      2.1684      0.2317    166.0109
  2017.2000      9.1799     27.0041     29.6681      2.2044      0.1903    167.1012
  2017.3000      9.1450     22.7186     29.8862      2.2751      0.2110    163.0214
  2017.4000      9.1450     18.6177     29.8892      2.3428      0.2372    152.5892
  2017.5000      8.9246     16.5674     29.4832      2.3766      0.3080    142.6657
  2017.6000      8.9246     17.0417     29.0634      2.3688      0.2947    141.5440
  2017.7000      8.9246     19.0114     28.8211      2.3363      0.2609    146.8326
  2017.8000      8.5858     21.0548     29.0740      2.3026      0.2354    151.2902
  2017.9000      8.5858     22.3326     29.7565      2.2815      0.1774    153.0534
  2018.0000      8.3781     22.2191     30.3566      2.2834      0.1486    154.9570
  2018.1000      8.3781     20.2220     30.8922      2.3163      0.1172    160.2014
  2018.2000      8.3781     16.7656     31.4632      2.3734      0.2044    165.4006
  2018.3000      8.3200     13.4149     31.7737      2.4287      0.2836    167.4545
  2018.4000      8.3200     11.7549     31.5880      2.4560      0.3316    167.9642
  2018.5000      8.3075     12.3553     30.8600      2.4461      0.3465    170.1456
  2018.6000      8.3075     14.3734     30.0224      2.4128      0.3204    175.7086
  2018.7000      8.3075     16.1473     29.8605      2.3836      0.2865    181.8322
  2018.8000      8.2969     16.8746     30.3440      2.3716      0.2873    182.9265
  2018.9000      8.2969     17.1882     30.7292      2.3664      0.2378    178.0959
  2019.0000      8.2665     17.9987     30.5419      2.3530      0.1383    170.4535
  2019.1000      8.2665     19.2363     30.0816      2.3326      0.0551    163.5147
  2019.2000      8.2665     20.3049     29.7311      2.3150      0.0499    160.4664
  2019.3000      8.2006     21.1607     29.1620      2.3008      0.0723    161.5227
  2019.4000      8.2006     21.9150     28.3842      2.2884      0.0918    161.2220
  2019.5000      8.1397     22.0642     28.0709      2.2859      0.0744    156.2696
  2019.6000      8.1397     20.4425     28.3488      2.3127      0.0379    150.2495
  2019.7000      8.1397     16.2498     28.4345      2.3819      0.0995    149.0912
  2019.8000      8.1203     10.3770     27.7603      2.4788      0.1154    154.9131
  2019.9000      8.1203      4.9895     26.6137      2.5677      0.1957    159.3914
  2020.0000      8.1550      2.1561     25.6144      2.6144      0.2397    155.1222
  2020.1000      8.1550      2.0805     25.3776      2.6157      0.2143    148.0546
  2020.2000      8.1550      3.3236     25.8350      2.5952      0.2077    144.1629
  2020.3000      8.2042      5.1210     26.0469      2.5655      0.2596    143.3776
  2020.4000      8.2042      6.9416     25.4524      2.5355      0.1333    141.3387
  2020.5000      8.1626      7.1986     24.8159      2.5312      0.0408    135.4865
  2020.6000      8.1626      5.4487     24.8711      2.5601      0.0654    130.3651
  2020.7000      8.1626      3.4959     25.1541      2.5923      0.0935    128.3112
  2020.8000      8.0467      2.8416     25.0688      2.6031      0.1017    123.6903
  2020.9000      8.0467      2.9912     24.3083      2.6006      0.0706    114.9680
  2021.0000      7.9748      2.9078     23.1394      2.6020      0.0832    106.3220
  2021.1000      7.9748      2.8037     22.5677      2.6037      0.0904    102.2712
  2021.2000      7.9748      3.1404     22.9652      2.5982      0.0694    106.7256
  2021.3000      7.9554      3.4896     23.8865      2.5924      0.0430    115.5829
  2021.4000      7.9554      3.6788     24.6523      2.5893      0.0799    119.4871
  2021.5000      7.9523      4.1940     24.6263      2.5808      0.0838    115.9707
  2021.6000      7.9523      5.0133     24.2321      2.5673      0.0443    109.8822
  2021.7000      7.9523      5.7834     24.4761      2.5546      0.0397    107.2907
  2021.8000      7.9627      6.9331     25.2071      2.5356      0.0560    111.0222
  2021.9000      7.9627      8.5949     25.8564      2.5082      0.0152    119.5451
  2022.0000      7.9821      9.7461     26.2976      2.4892      0.0013    128.1733
  2022.1000      7.9821      9.9301     26.4826      2.4862      0.0278    132.5739
  2022.2000      7.9821     10.2601     26.6607      2.4807      0.0850    136.3884
  2022.3000      7.9960     11.9478     27.1594      2.4529      0.0330    146.3639
  2022.4000      7.9960     15.1411     27.9556      2.4002      0.0373    153.4760
  2022.5000      8.0015     19.2787     28.7388      2.3319     -0.0030    148.7664
  2022.6000      8.0015     22.4873     29.2123      2.2790      0.0017    141.0973
  2022.7000      8.0015     22.6215     29.2210      2.2767     -0.0044    138.7298
  2022.8000      8.0045     19.8184     28.5711      2.3230      0.0657    141.0009
  2022.9000      8.0045     16.0662     27.5601      2.3849      0.1247    143.3556
  2023.0000      8.0122     12.7181     26.8424      2.4402      0.1954    141.8720
  2023.1000      8.0122      9.9762     26.2819      2.4854      0.2512    134.9563
  2023.2000      8.0122      7.9509     25.3327      2.5188      0.3111    126.5338
  2023.3000      8.0268      6.7244     23.9765      2.5390      0.3404    121.3471
  2023.4000      8.0268      5.6885     22.6119      2.5561      0.3123    117.9457
  2023.5000      8.0310      4.0962     21.4435      2.5824      0.2676    115.4218
  2023.6000      8.0310      2.2154     20.4451      2.6134      0.2454    114.5620
  2023.7000      8.0310      0.6602     19.6449      2.6391      0.1263    111.3446
  2023.8000      8.0097     -0.5358     19.3537      2.6588      0.1166    104.4495
  2023.9000      8.0097     -1.3354     19.6267      2.6720      0.0866     97.8372
  2024.0000      7.9799     -1.6007     20.0321      2.6764      0.1017     92.9732
  2024.1000      7.9799     -1.1901     20.0031      2.6696      0.0756     89.6625
  2024.2000      7.9799     -0.3186     19.2787      2.6553      0.0449     86.7544
  2024.3000      7.9663      0.3121     18.4894      2.6449      0.0201     82.3442
  2024.4000      7.9663      0.2508     18.1851      2.6459      0.0234     75.8993
  2024.5000      7.9655     -0.2148     17.9853      2.6535      0.0524     70.6235
  2024.6000      7.9655     -1.0106     17.7903      2.6667      0.0210     67.4295
  2024.7000      7.9655     -2.3867     18.0552      2.6894      0.0613     62.5224
