~Version Information
 VERS.                                  2.0 : CWLS LAS VERSION
 WRAP.                                   NO : WRAPING MODE
 SWARE .                  MController 2.5.1 : SOFTWARE VERSION
~Well Information
 WELL.                    Sparrowhawk 22-12 : WELL
 COMP.  Pioneer Natural Resources USA, Inc. : COMPANY
 FLD.                      Purgatoire River : FIELD
 LOC.             SE/NE Sec. 12, T32S, R66W : LOCATION
 DATE.                03/22/2006-03/23/2006 : DATE(S) LOGGED
 SRVC.                  Entrada GeoSciences : SERVICE COMPANY
 STAT.                             Colorado : STATE
 CNTY.                           Las Animas : COUNTY
 CTRY.                        United States : COUNTRY
 API.                          05-071-08484 : API NUMBER
 STRT.FT                             533.00 : START DEPTH
 STOP.FT                            2380.00 : STOP DEPTH
 STEP.FT                               1.00 : DEPTH INCREMENT
 NULL.                                -9999 : NULL VALUE
~Curve information
 DEPTH.FT                                   :
 ROP.MIN/FT                                 :
 GAS.UNITS                                  :
~ASCII Log data
# ...
     1733.00         0.32        475.0 
     1734.00         0.27        483.8 
     1735.00         0.33        486.2 
     1736.00         0.27        509.3 
     1737.00         0.57        516.6 
     1738.00         0.43        511.4 
     1739.00         0.40        495.0 
     1740.00         0.40        480.9 
     1741.00         0.38        486.2 
     1742.00         0.47        558.0 
     1743.00         0.50        679.8 
     1744.00         0.77        900.7 
     1745.00         0.63        884.6 
     1746.00         0.70        778.3 
     1747.00         0.72        675.7 
     1748.00         0.63        614.5 
     1749.00         0.60        578.2 
     1750.00         0.33        568.2 
     1751.00         0.43        556.2 
     1752.00         0.37        550.9 
     1753.00         0.37        538.0 
     1754.00         0.32        541.0 
     1755.00         0.33        534.8 
     1756.00         0.33        532.2 
     1757.00         0.57        526.6 
     1758.00         0.53        528.1 
     1759.00         0.50        529.8 
     1760.00         0.33        530.4 
     1761.00         0.55        527.5 
     1762.00         0.57        514.9 
     1763.00         0.40        504.0 
     1764.00         0.73        501.4 
     1765.00         0.73        509.9 
     1766.00         0.47        511.7 
     1767.00         0.83        489.4 
     1768.00         0.77        450.4 
     1769.00         0.60        470.9 
     1770.00         0.52        545.4 
     1771.00         0.63        718.2 
     1772.00         0.50        840.1 
     1773.00         0.30        857.7 
     1774.00         0.47        816.6 
     1775.00         0.40        759.8 
     1776.00         0.57        682.5 
     1777.00         0.48        633.5 
     1778.00         0.63        581.7 
     1779.00         0.53        552.4 
     1780.00         0.43        534.8 
     1781.00         0.53        526.3 
     1782.00         0.27        524.0 
     1783.00         0.27        525.1 
     1784.00         0.28        523.1 
     1785.00         0.30        513.7 
     1786.00         0.60        513.7 
     1787.00         0.43        508.7 
     1788.00         0.27        496.4 
     1789.00         0.60        473.9 
     1790.00         0.33        461.3 
     1791.00         0.30        452.5 
     1792.00         0.33        444.9 
     1793.00         0.45        439.6 
     1794.00         0.23        430.8 
     1795.00         0.27        433.1 
     1796.00         0.43        426.7 
     1797.00         0.30        407.7 
     1798.00         0.33        404.4 
     1799.00         0.33        403.6 
     1800.00         0.37        418.8 
     1801.00         0.38        460.4 
     1802.00         0.37        528.9 
     1803.00         0.33        621.8 
     1804.00         0.30        710.6 
     1805.00         0.23        753.4 
     1806.00         0.30        768.6 
     1807.00         0.30        735.5 
     1808.00         0.27        684.5 
     1809.00         0.27        645.0 
     1810.00         0.23        619.2 
     1811.00         0.27        597.5 
     1812.00         0.25        580.5 
     1813.00         0.23        565.0 
     1814.00         0.23        546.8 
     1815.00         0.23        531.9 
     1816.00         0.27        517.8 
     1817.00         0.23        504.3 
     1818.00         0.23        493.5 
     1819.00         0.17        489.1 
     1820.00         0.23        477.4 
     1821.00         0.27        477.1 
     1822.00         0.33        472.1 
     1823.00         0.27        471.8 
     1824.00         0.27        471.8 
     1825.00         0.35        447.2 
     1826.00         0.30        446.9 
     1827.00         0.37        427.6 
     1828.00         0.33        417.3 
     1829.00         0.37        415.9 
     1830.00         0.27        430.2 
     1831.00         0.23        456.9 
     1832.00         0.30        506.4 
     1833.00         0.37        598.4 
     1834.00         0.20        659.3 
     1835.00         0.25        734.0 
     1836.00         0.23        778.3 
     1837.00         0.20        795.3 
     1838.00         0.20        787.9 
     1839.00         0.23        750.4 
     1840.00         0.23        718.2 
     1841.00         0.23        682.8 
     1842.00         0.23        655.8 
     1843.00         0.23        631.5 
     1844.00         0.30        588.1 
     1845.00         0.33        555.9 
     1846.00         0.30        540.1 
     1847.00         0.23        523.1 
     1848.00         0.23        511.4 
     1849.00         0.28        495.0 
     1850.00         0.23        489.4 
     1851.00         0.20        483.5 
     1852.00         0.23        473.3 
     1853.00         0.20        471.8 
     1854.00         0.23        474.8 
     1855.00         0.27        471.5 
     1856.00         0.27        463.3 
     1857.00         0.30        462.7 
     1858.00         0.33        457.8 
     1859.00         0.27        450.7 
     1860.00         0.23        439.6 
     1861.00         0.30        423.2 
     1862.00         0.27        423.8 
     1863.00         0.28        427.0 
     1864.00         0.27        422.6 
     1865.00         0.40        473.6 
     1866.00         0.43        562.9 
     1867.00         0.37        674.0 
     1868.00         0.40        766.3 
     1869.00         0.20        783.0 
     1870.00         0.30        765.1 
     1871.00         0.37        710.6 
     1872.00         0.40        667.8 
     1873.00         0.42        624.5 
     1874.00         0.33        590.8 
     1875.00         0.40        552.4 
     1876.00         0.33        522.5 
     1877.00         0.37        505.8 
     1878.00         0.27        497.3 
     1879.00         0.23        487.6 
     1880.00         0.20        483.2 
     1881.00         0.23        482.1 
     1882.00         0.30        482.7 
     1883.00         0.20        485.3 
     1884.00         0.17        486.8 
     1885.00         0.22        483.2 
     1886.00         0.33        457.2 
     1887.00         0.30        452.5 
     1888.00         0.30        445.7 
     1889.00         0.27        429.0 
     1890.00         0.40        424.1 
     1891.00         0.33        418.5 
     1892.00         0.27        424.4 
     1893.00         0.23        443.1 
     1894.00         0.30        478.9 
     1895.00         0.23        523.4 
     1896.00         0.22        575.2 
     1897.00         0.23        642.3 
     1898.00         0.23        709.7 
     1899.00         0.23        751.9 
     1900.00         0.17        763.0 
     1901.00         0.20        760.1 
     1902.00         0.20        741.6 
     1903.00         0.23        715.9 
     1904.00         0.20        692.7 
     1905.00         0.20        671.9 
     1906.00         0.20        650.5 
     1907.00         0.17        630.0 
     1908.00         0.20        603.4 
     1909.00         0.23        585.2 
     1910.00         0.23        561.8 
     1911.00         0.23        540.7 
     1912.00         0.25        524.0 
     1913.00         0.27        508.7 
     1914.00         0.23        497.3 
     1915.00         0.27        490.3 
     1916.00         0.37        473.3 
     1917.00         0.40        470.6 
     1918.00         0.40        462.7 
     1919.00         0.37        450.1 
     1920.00         0.33        432.9 
     1921.00         0.33        424.1 
     1922.00         0.30        424.4 
     1923.00         0.33        442.2 
     1924.00         0.32        480.6 
     1925.00         0.30        543.9 
     1926.00         0.23        599.8 
     1927.00         0.23        648.5 
     1928.00         0.20        673.4 
     1929.00         0.23        677.5 
     1930.00         0.20        676.3 
     1931.00         0.20        671.3 
     1932.00         0.23        657.9 
