~Version Information
VERS.                      2.0: CWLS Log ASCII Standard - VERSION 2.0
WRAP.                       NO: One line per depth step
~Well Information Block
STRT.FT                -6.5000: 
STOP.FT              1564.2500: 
STEP.FT                 0.2500: 
NULL.                -999.2500: 
COMP.          Pioneer Natural Resources: COMPANY
WELL.            Bluesky 44-17: WELL
FLD.           Purgatorie River: FIELD
LOC.           --39' FSL & 288' FEL------: LOCATION
STAT.                       CO: State
CNTY.               Las Animas: COUNTY
CTRY. USA : Country
SECT. 17 : Section
TOWN. 33S : Township
RANG. 66W : Range
SRVC.          Patterson Wireline: SERVICE COMPANY
DATE.          Tue Sep 13 13:24:14 2005: LOG DATE
API.           05 071 08511 00: UNIQUE WELL ID
~Curve Information Block
DEPT.FT            0 000 00 00: Depth
CCL.                          : Casing Collar Locator
TT3.usec                      : CBL 3' Travel Time
AMP3.mV                       : CBL 3' Amplitude
GR.GAPI                       : Gamma Ray
~Parameter Information Block
~A  Depth       CCL         TT3         AMP3         GR     
# ...
  1434.0000      0.0000    688.3911      6.7598     76.5075
  1434.2500      0.0000    690.1677      6.7805     80.4979
  1434.5000      0.0000    692.3500      6.7984     85.2199
  1434.7500      0.0000    692.6730      6.8038     88.8167
  1435.0000      0.0000    691.0029      6.7891     89.9821
  1435.2500      0.0000    689.4318      6.7582     88.6620
  1435.5000      0.0000    690.2349      6.7246     85.9710
  1435.7500      0.0000    693.7456      6.7007     83.2370
  1436.0000      0.0000    698.2581      6.6894     80.9769
  1436.2500      0.0000    701.6896      6.6833     78.8728
  1436.5000      0.0000    702.8561      6.6701     76.6866
  1436.7500      0.0000    701.3438      6.6416     74.9032
  1437.0000      0.0000    697.1143      6.5989     74.4698
  1437.2500      0.0000    690.9440      6.5500     76.0598
  1437.5000      0.0000    685.0126      6.5044     79.4660
  1437.7500      0.0000    682.0280      6.4690     83.5270
  1438.0000      0.0000    683.0362      6.4485     86.6261
  1438.2500      0.0000    686.2572      6.4464     87.4054
  1438.5000      0.0000    688.6437      6.4647     85.4998
  1438.7500      0.0000    688.6575      6.5041     82.0089
  1439.0000      0.0000    687.2726      6.5626     78.9305
  1439.2500      0.0000    686.0580      6.6351     77.5656
  1439.5000      0.0000    684.1712      6.7129     77.5004
  1439.7500      0.0000    677.8134      6.7883     77.3583
  1440.0000      0.0000    664.2224      6.8592     76.3274
  1440.2500      0.0000    646.3404      6.9219     74.7902
  1440.5000      0.0000    631.7660      6.9589     73.8092
  1440.7500      0.0000    626.6536      6.9427     74.2260
  1441.0000      0.0000    631.8685      6.8661     76.0928
  1441.2500      0.0000    644.2806      6.7725     78.8428
  1441.5000      0.0000    659.2546      6.7329     81.8591
  1441.7500      0.0000    672.1749      6.7618     84.5003
  1442.0000      0.0000    680.5343      6.7685     85.7578
  1442.2500      0.0000    685.5887      6.6437     84.6551
  1442.5000      0.0000    690.7701      6.4020     81.1738
  1442.7500      0.0000    697.9868      6.1918     76.4089
  1443.0000      0.0000    705.9628      6.1454     71.9958
  1443.2500      0.0000    712.1494      6.2593     69.6060
  1443.5000      0.0000    715.7471      6.4304     70.3345
  1443.7500     -2.0000    718.3983      6.5666     73.9527
  1444.0000      0.0000    722.1124      6.6508     79.0317
  1444.2500      0.0000    727.1083      6.7354     84.0131
  1444.5000      0.0000    731.8997      6.8845     87.9711
  1444.7500      0.0000    734.6931      7.0991     90.6290
  1445.0000      0.0000    734.1641      7.3062     92.2441
  1445.2500      0.0000    729.4518      7.4489     93.3707
  1445.5000      0.0000    720.2596      7.5580     94.1250
  1445.7500      0.0000    707.3889      7.6969     93.5981
  1446.0000      0.0000    693.1415      7.8641     90.6093
  1446.2500      0.0000    680.6078      7.9968     85.2329
  1446.5000      0.0000    671.9285      8.0469     79.0668
  1446.7500      0.0000    667.2339      8.0191     73.7537
  1447.0000      0.0000    665.2930      7.9479     69.7484
  1447.2500      0.0000    664.9095      7.8650     66.7158
  1447.5000      0.0000    665.7356      7.7871     64.4339
  1447.7500      0.0000    668.1187      7.7190     62.8391
  1448.0000      0.0000    672.2463      7.6599     61.7194
  1448.2500      0.0000    677.1289      7.6099     60.9233
  1448.5000      0.0000    680.5164      7.5691     60.6418
  1448.7500      0.0000    680.3920      7.5328     61.2605
  1449.0000      0.0000    676.7612      7.4896     63.0853
  1449.2500      0.0000    671.6514      7.4252     66.1167
  1449.5000      0.0000    667.3163      7.3315     69.8384
  1449.7500      0.0000    664.7386      7.2128     73.3368
  1450.0000      0.0000    663.6592      7.0841     75.7815
  1450.2500      0.0000    663.3980      6.9645     76.8058
  1450.5000      0.0000    663.4186      6.8713     76.5838
  1450.7500      0.0000    663.4506      6.8175     75.6681
  1451.0000      0.0000    663.4293      6.8086     74.8078
  1451.2500      0.0000    663.4534      6.8377     74.8198
  1451.5000      0.0000    663.8163      6.8857     76.0885
  1451.7500      0.0000    665.0667      6.9278     77.8727
  1452.0000      0.0000    667.7973      6.9432     78.8145
  1452.2500      0.0000    671.9183      6.9223     78.7771
  1452.5000      0.0000    675.9636      6.8697     79.5802
  1452.7500      0.0000    677.7178      6.7984     83.1875
  1453.0000      0.0000    676.1728      6.7200     89.2866
  1453.2500      0.0000    672.6400      6.6396     95.0395
  1453.5000      0.0000    669.3990      6.5594     97.2859
  1453.7500      0.0000    667.3460      6.4858     94.9260
  1454.0000      0.0000    665.2418      6.4303     89.3504
  1454.2500      0.0000    661.2202      6.4020     83.1373
  1454.5000      0.0000    654.8472      6.4014     78.6433
  1454.7500      0.0000    647.4719      6.4209     77.2353
  1455.0000      0.0000    640.5313      6.4501     78.9806
  1455.2500      0.0000    633.9213      6.4793     82.7004
  1455.5000      0.0000    626.3351      6.5029     86.4313
  1455.7500      0.0000    617.0871      6.5209     88.2940
  1456.0000      0.0000    607.3937      6.5373     87.5424
  1456.2500      0.0000    599.8952      6.5578     85.0583
  1456.5000      0.0000    597.0673      6.5876     82.6425
  1456.7500      0.0000    599.9735      6.6287     81.6749
  1457.0000      0.0000    607.9435      6.6768     82.4085
  1457.2500      0.0000    619.0366      6.7191     84.3627
  1457.5000      0.0000    631.0482      6.7381     86.9517
  1457.7500      0.0000    642.4908      6.7205     89.4848
  1458.0000      0.0000    652.7375      6.6654     90.9260
  1458.2500      0.0000    661.3683      6.5867     90.2904
  1458.5000      0.0000    667.6700      6.5056     87.5238
  1458.7500      0.0000    671.0386      6.4410     83.9216
  1459.0000      0.0000    671.9907      6.4023     81.6147
  1459.2500      0.0000    672.3656      6.3880     82.4497
  1459.5000      0.0000    673.8221      6.3892     86.9920
  1459.7500      0.0000    676.0328      6.3960     94.1626
  1460.0000      0.0000    676.9550      6.4020    101.4672
  1460.2500      0.0000    675.1498      6.4035    105.9065
  1460.5000      0.0000    671.3389      6.3937    105.7506
  1460.7500      0.0000    667.4461      6.3555    102.0665
  1461.0000      0.0000    664.7352      6.2634     97.9944
  1461.2500      0.0000    663.2943      6.0947     95.8706
  1461.5000      0.0000    662.8214      5.8404     95.1300
  1461.7500      0.0000    663.4574      5.5066     93.3258
  1462.0000      0.0000    665.9175      5.1113     88.8139
  1462.2500      0.0000    670.8738      4.6832     81.8662
  1462.5000      0.0000    678.0773      4.2588     73.6655
  1462.7500      0.0000    686.0786      3.8715     65.2673
  1463.0000      0.0000    692.8843      3.5386     57.5804
  1463.2500      0.0000    696.8614      3.2599     51.4953
  1463.5000      0.0000    697.2357      3.0270     47.5466
  1463.7500      0.0000    694.0560      2.8347     45.6284
  1464.0000      0.0000    688.1034      2.6857     45.0879
  1464.2500      0.0000    681.5436      2.5876     44.9714
  1464.5000      0.0000    678.5063      2.5503     44.5018
  1464.7500      0.0000    683.1885      2.5843     43.8311
  1465.0000      0.0000    695.9608      2.6976     44.2592
  1465.2500      0.0000    711.7688      2.8937     47.2494
  1465.5000      0.0000    723.1172      3.1716     52.9606
  1465.7500      0.0000    725.2368      3.5285     59.8800
  1466.0000      0.0000    719.1710      3.9622     66.0966
  1466.2500      0.0000    710.2993      4.4683     70.8401
  1466.5000      0.0000    703.7305      5.0356     74.5888
  1466.7500      0.0000    701.0818      5.6384     78.1015
  1467.0000      0.0000    701.3688      6.2324     81.9699
  1467.2500      0.0000    703.5013      6.7584     86.6602
