~Version Information
VERS.                      2.0: CWLS Log ASCII Standard - VERSION 2.0
WRAP.                       NO: One line per depth step
~Well Information Block
STRT.FT               -10.0000: 
STOP.FT              1300.0000: 
STEP.FT                10.0000: 
NULL.                -999.2500: 
COMP.          Pioneer Natural Resources: COMPANY
WELL.          Lorencito 9-4-34-66: WELL
FLD.           Purgatorie River: FIELD
LOC.           2540' FSL & 438' FEL--: LOCATION
STAT.                       CO: State
CNTY.               Las Animas: COUNTY
CTRY. USA : Country
SECT. 4 : Section
TOWN. 34S : Township
RANG. 66W : range
SRVC.          Patterson Wireline: SERVICE COMPANY
DATE.          Wed Sep 21 09:36:56 2005: LOG DATE
API.           05 071 08498 00: UNIQUE WELL ID
~Curve Information Block
DEPT.FT            0 000 00 00: Depth
CCL.                          : Casing Collar Locator
TT3.usec                      : CBL 3' Travel Time
AMP3.mV                       : CBL 3' Amplitude
GR.GAPI                       : Gamma Ray
~Parameter Information Block
~A  Depth       CCL         TT3         AMP3         GR     
   -10.0000   -999.2500   -999.2500   -999.2500   -999.2500
     0.0000   -999.2500   1143.0000      2.4737     55.6110
    10.0000      0.0000    260.0493     57.8014     63.7289
    20.0000      0.0000   1008.0024      9.6875     42.8273
    30.0000      0.0000   1122.3257     11.4601     66.2013
    40.0000      0.0000   1098.2144     11.3263     56.3682
    50.0000      0.0000    772.5264     14.5980     85.2559
    60.0000      0.0000    836.8898     14.0204     76.8314
    70.0000      0.0000    850.7407     14.1739     98.5286
    80.0000      0.0000   1001.4139     10.5184     55.8186
    90.0000      0.0000   1000.2352     15.7464     70.5614
   100.0000      0.0000    909.8955     14.5470    113.0203
   110.0000      0.0000   1012.9201     18.0703     67.2397
   120.0000      0.0000    969.4739     11.8228     29.2163
   130.0000      0.0000    993.7784     16.8988     64.4849
   140.0000      0.0000    914.1728     16.4548     93.7043
   150.0000      0.0000    910.3833     16.6416     48.2501
   160.0000      0.0000   1076.5562     10.8395     81.9812
   170.0000      0.0000    871.2299     15.9165     70.5673
   180.0000      0.0000    900.9749     15.3141     92.3950
   190.0000      0.0000    898.8869     15.1493     78.4443
   200.0000      0.0000    847.1226     12.5998     57.8557
   210.0000      0.0000    762.4023     17.2141     81.8737
   220.0000      0.0000    576.9282     17.6287     39.8633
   230.0000      0.0000    612.6985     15.8347     74.5287
   240.0000      0.0000    853.3194     16.5972     67.6216
   250.0000      0.0000    898.7434     15.9756     60.5225
   260.0000      0.0000    774.0108     15.4207     86.9839
   270.0000      0.0000    832.7314     17.8445     59.6197
   280.0000      0.0000    838.7949     16.2116     54.6378
   290.0000      0.0000    819.4028     18.8546     61.8515
   300.0000      0.0000    876.6192     17.1223     47.3658
   310.0000      0.0000    845.4778     19.3753     80.9987
   320.0000      0.0000    852.8455     16.6006    119.2649
   330.0000      0.0000    814.3533     14.8930    116.1409
   340.0000      0.0000    812.9026     15.9367    138.5054
   350.0000      0.0000    821.9279     12.2311     95.2692
   360.0000      0.0000    823.6700     16.3424     42.5744
   370.0000      0.0000    375.7188     16.2391     92.2428
   380.0000      0.0000    450.9091     14.8311    106.7322
   390.0000      0.0000    821.9219     15.1582    100.0770
   400.0000      0.0000    728.4702     16.0580    136.8437
   410.0000      0.0000    470.2291     17.6535    106.5538
   420.0000      0.0000    814.7907     15.5281     93.8712
   430.0000      0.0000    418.7205     19.0832     88.3387
   440.0000      0.0000    473.0116     18.2189     71.1933
   450.0000      0.0000    436.6143     20.8556     59.9929
   460.0000      0.0000    817.8104     17.2118    175.7375
   470.0000      0.0000    810.2975     13.4843    144.4575
   480.0000      0.0000    817.9494     14.6479    118.4702
   490.0000      0.0000    817.9454     16.2631     98.3693
   500.0000      0.0000    801.8007     15.5481    132.4075
   510.0000      0.0000    799.9477     14.3947     84.9121
   520.0000      0.0000    797.8791     15.4563    130.8469
   530.0000      0.0000    682.2278     15.4028     95.7103
   540.0000      0.0000    803.5061     14.8680     83.7868
   550.0000      0.0000    592.8315     17.1363    145.4837
   560.0000      0.0000    803.2864     15.2956    190.6191
   570.0000      0.0000    749.9641     11.8842    120.3601
   580.0000      0.0000    408.4729     19.5446     86.2737
   590.0000      0.0000    373.0767     19.8408    157.9669
   600.0000      0.0000    554.6958     15.4174    135.6783
   610.0000      0.0000    752.0510     12.4977     96.2085
   620.0000      0.0000    735.8472     17.6974    129.2197
   630.0000      0.0000    762.3813     15.1449     86.3711
   640.0000      0.0000    801.8508     15.0323    153.9772
   650.0000      0.0000    701.4440     10.6279     80.9550
   660.0000      0.0000    797.7020     14.0942    140.0372
   670.0000      0.0000    797.0938     14.2072    147.0865
   680.0000      0.0000    757.1727     12.4409    117.9707
   690.0000      0.0000    733.5961     10.5998     84.3140
   700.0000      0.0000    799.6635     13.7605    156.3299
   710.0000      0.0000    755.8758     12.4325    153.9533
   720.0000      0.0000    724.4506     11.6971    123.5541
   730.0000      0.0000    745.0282     10.3668     89.1847
   740.0000      0.0000    299.6402     35.2221    129.6077
   750.0000      0.0000    558.9907     16.1177     93.5556
   760.0000      0.0000    586.0977     16.6439    123.0890
   770.0000      0.0000    590.5923     14.7332     84.9993
   780.0000      0.0000    794.1453     13.8768    112.2862
   790.0000      0.0000    535.5335     16.5924    106.0227
   800.0000      0.0000    445.3890     15.8100    104.7429
   810.0000      0.0000    436.8949     15.0856    138.3095
   820.0000      0.0000    335.8426     19.0847    116.9446
   830.0000      0.0000    366.9304     17.3161     67.7088
   840.0000      0.0000    497.7175     15.9904     78.7468
   850.0000      0.0000    627.6071     13.8840    101.7226
   860.0000      0.0000    504.3741     17.5969     91.3949
   870.0000      0.0000    301.0579     31.4721    117.8219
   880.0000      0.0000    379.7276     21.6568     36.6464
   890.0000      0.0000    427.0966     13.3785    101.7869
   900.0000      0.0000    302.9944     24.4951     97.9770
   910.0000      0.0000    301.4369     24.1419    104.9808
   920.0000      0.0000    299.6611     32.0583     78.7274
   930.0000      0.0000    337.0371     15.5930     58.3021
   940.0000      0.0000    304.7836     22.4775    106.1043
   950.0000      0.0000    443.8388     19.9342     75.2012
   960.0000      0.0000    364.1541     20.4192     54.3735
   970.0000      0.0000    365.6895     13.1589     73.2993
   980.0000      0.0000    435.3889     10.0627     46.6025
   990.0000      0.0000    601.3041      9.8902     90.5686
  1000.0000      0.0000    348.0359     15.8553    108.6481
  1010.0000      0.0000    394.1473     15.1412     94.0760
  1020.0000      0.0000    376.2832     14.7519     99.1209
  1030.0000      0.0000    686.4050      9.0279     71.6552
  1040.0000      0.0000    697.1739     16.6982     85.5275
  1050.0000      0.0000    694.8821     17.2447     76.8826
  1060.0000      0.0000    710.1202     11.3425     75.3397
  1070.0000      0.0000    814.7233      9.1618     83.9276
  1080.0000      0.0000    376.0152     11.6961     36.9828
  1090.0000      0.0000    364.8827     12.2775     68.5409
  1100.0000      0.0000    526.7524     13.4355     78.8497
  1110.0000      0.0000    647.9039     10.3038     68.4799
  1120.0000      0.0000    506.9745     18.5389     49.3463
  1130.0000      0.0000    392.8030     15.9917     92.0955
  1140.0000      0.0000    663.9124     13.6402     60.6566
  1150.0000      0.0000    717.8228      9.0933     70.8336
  1160.0000      0.0000    571.2681     10.9267     49.9737
  1170.0000      0.0000    647.5627     14.2615     74.8804
  1180.0000      0.0000    731.1348     10.3812     66.3195
  1190.0000      0.0000    590.0062     10.4100     95.7767
  1200.0000      0.0000    782.4706     12.4248    100.6547
  1210.0000      0.0000    543.7623     21.1526     62.8988
  1220.0000      0.0000    355.1322     21.3136     57.6792
  1230.0000      0.0000    682.0356      8.0911     86.3590
  1240.0000      0.0000    374.4344      9.5232     83.9649
  1250.0000      0.0000    374.8349     10.0467     60.6442
  1260.0000      0.0000    533.7260     11.0087     58.7209
  1270.0000      0.0000    627.8474      9.6772     70.3435
  1280.0000      0.0000    335.1942     22.0477     63.5231
  1290.0000      0.0000    303.6605     32.4247     55.9994
  1300.0000      0.0000      4.3019      1.8414   -999.2500
