~Version Information
VERS.                                  2.0 : CWLS LAS VERSION
WRAP.                                   NO : WRAPING MODE
SWARE .                  MController 2.5.1 : SOFTWARE VERSION
~Well Information
WELL.                  Horesfeathers 24-34 : WELL
COMP.  Pioneer Natural Resources USA, Inc. : COMPANY
FLD.                      Purgatoire River : FIELD
LOC.                      SE/SW 34-32S-67W : LOCATION
DATE.                02/03/2006-02/05/2006 : DATE(S) LOGGED
SRVC.                  Entrada GeoSciences : SERVICE COMPANY
STAT.                             Colorado : STATE
CNTY.                           Las Animas : COUNTY
CTRY.                        United States : COUNTRY
API.                          05-071-xxxxx : API NUMBER
STRT.FT                             514.00 : START DEPTH
STOP.FT                            2575.00 : STOP DEPTH
STEP.FT                               1.00 : DEPTH INCREMENT
NULL.                                -9999 : NULL VALUE
~Curve information
DEPTH.FT                                   :
ROP.MIN/FT                                 :
GAS.UNITS                                  :
~ASCII Log data
# ...
     1338.00         0.17         22.0
     1339.00         0.23         21.8
     1340.00         0.20         22.1
     1341.00         0.33         21.2
     1342.00         0.27         20.8
     1343.00         0.37          9.1
     1344.00         0.27         10.4
     1345.00         0.17         10.9
     1346.00         0.37         14.1
     1347.00         0.17         20.2
     1348.00         0.27         25.2
     1349.00         0.17         25.2
     1350.00         0.20         26.4
     1351.00         0.17         27.4
     1352.00         0.20         26.2
     1353.00         0.23         22.7
     1354.00         0.22         21.7
     1355.00         0.23         15.1
     1356.00         0.17         10.9
     1357.00         0.10         10.9
     1358.00         0.33         11.0
     1359.00         0.37          9.3
     1360.00         0.20         10.0
     1361.00         0.20          9.5
     1362.00         0.13          9.2
     1363.00         0.17          9.2
     1364.00         0.20          9.2
     1365.00         0.20         10.9
     1366.00         0.27         11.4
     1367.00         0.20         12.2
     1368.00         0.27         12.8
     1369.00         0.28         13.1
     1370.00         0.27         13.1
     1371.00         0.42         12.8
     1372.00         0.40         13.0
     1373.00         0.37         13.7
     1374.00         0.37         14.0
     1375.00         0.43         10.0
     1376.00         0.33          9.6
     1377.00         0.17          9.1
     1378.00         0.20          9.6
     1379.00         0.20          9.8
     1380.00         0.23         10.5
     1381.00         0.27         11.2
     1382.00         0.23         23.1
     1383.00         0.25         25.8
     1384.00         0.30         39.9
     1385.00         0.33         40.9
     1386.00         0.27         40.0
     1387.00         0.17         38.3
     1388.00         0.17         36.5
     1389.00         0.33         35.7
     1390.00         0.27         33.7
     1391.00         0.27         24.4
     1392.00         0.23         17.8
     1393.00         0.27         14.3
     1394.00         0.23         12.9
     1395.00         0.20         11.5
     1396.00         0.22         11.0
     1397.00         0.27          9.9
     1398.00         0.23          9.1
     1399.00         0.23          9.2
     1400.00         0.33         10.0
     1401.00         1.17         16.3
     1402.00         0.40         18.0
     1403.00         0.53         18.0
     1404.00         0.43         18.0
     1405.00         0.40          9.4
     1406.00         0.42         10.1
     1407.00         0.40         11.1
     1408.00         0.30         20.4
     1409.00         0.20         20.4
     1410.00         0.17         27.3
     1411.00         0.23         31.1
     1412.00         0.20         29.9
     1413.00         0.20         29.5
     1414.00         0.17         29.5
     1415.00         0.17         28.9
     1416.00         0.33         23.8
     1417.00         0.17         22.8
     1418.00         0.17         21.2
     1419.00         0.23         18.2
     1420.00         0.22         11.6
     1421.00         0.33         11.0
     1422.00         0.20          8.9
     1423.00         0.17          9.0
     1424.00         0.23          9.1
     1425.00         0.17          9.1
     1426.00         0.23          9.8
     1427.00         0.30         10.1
     1428.00         0.27         10.1
     1429.00         0.27         10.2
     1430.00         1.62         12.0
     1431.00         0.47         11.7
     1432.00         0.33         11.9
     1433.00         0.33         12.0
     1434.00         0.33         11.9
     1435.00         0.37         12.0
     1436.00         0.40         11.2
     1437.00         0.50         18.0
     1438.00         0.65         18.3
     1439.00         0.60         15.7
     1440.00         0.33         20.1
     1441.00         0.33         18.2
     1442.00         0.33         13.8
     1443.00         0.23         10.5
     1444.00         0.23          9.2
     1445.00         0.23          8.6
     1446.00         0.17          8.6
     1447.00         0.20          8.4
     1448.00         0.27          8.6
     1449.00         0.28          9.0
     1450.00         0.27          9.5
     1451.00         0.27          9.1
     1452.00         0.27          8.9
     1453.00         0.17          9.5
     1454.00         0.20         10.7
     1455.00         0.20         10.7
     1456.00         0.23         10.6
     1457.00         0.17         11.0
     1458.00         0.17         11.0
     1459.00         0.20         11.5
     1460.00         0.30         12.1
     1461.00         0.53         11.4
     1462.00         0.40         10.8
     1463.00         0.23         10.3
     1464.00         0.13         60.1
     1465.00         0.23         60.1
     1466.00         0.23         97.9
     1467.00         0.13        108.9
     1468.00         0.17        111.4
     1469.00         0.23         97.9
     1470.00         0.27         89.7
     1471.00         0.20         56.7
     1472.00         0.20         39.9
     1473.00         0.23         31.7
     1474.00         0.20         21.3
     1475.00         0.23         19.4
     1476.00         0.25         14.2
     1477.00         0.23         13.0
     1478.00         0.27         12.2
     1479.00         0.23         12.2
     1480.00         0.23         14.4
     1481.00         0.33         15.3
     1482.00         0.33         17.7
     1483.00         0.30         19.6
     1484.00         0.27         20.1
     1485.00         0.37         21.8
     1486.00         0.23         22.1
     1487.00         0.27         21.4
     1488.00         0.28         21.2
     1489.00         0.30         20.7
     1490.00         0.27         20.4
     1491.00         0.37         20.2
     1492.00         0.30         18.6
     1493.00         0.33         18.0
     1494.00         0.23         16.3
     1495.00         0.27         15.1
     1496.00         0.27         19.2
     1497.00         0.35          8.8
     1498.00         0.30         11.8
     1499.00         0.33         23.4
     1500.00         0.33         30.3
     1501.00         0.30         35.4
     1502.00         0.30         34.3
     1503.00         0.27         33.9
     1504.00         0.27         29.6
     1505.00         0.30         12.4
     1506.00         0.27         11.0
     1507.00         0.27          8.2
     1508.00         0.23          6.8
     1509.00         0.25          7.8
     1510.00         0.27         10.7
     1511.00         0.23         10.7
     1512.00         0.27         13.7
     1513.00         0.27         16.2
     1514.00         0.53         18.1
     1515.00         0.17         18.4
     1516.00         0.20         20.2
     1517.00         0.20         23.2
     1518.00         0.13         23.8
     1519.00         0.23         31.5
     1520.00         0.27         42.4
     1521.00         0.23         59.4
     1522.00         0.23         75.4
     1523.00         0.20         84.2
     1524.00         0.23         84.2
     1525.00         0.13         84.2
     1526.00         0.13         83.8
     1527.00         0.17         79.0
     1528.00         0.13         38.0
     1529.00         0.13         70.8
     1530.00         0.13         76.5
     1531.00         0.23        129.3
     1532.00         0.35        184.0
     1533.00         0.37        167.9
     1534.00         0.23        153.8
     1535.00         0.37        122.0
     1536.00         0.33        105.8
     1537.00         0.37         72.6
     1538.00         0.10         33.2
     1539.00         0.20         30.7
     1540.00         0.27         13.2
     1541.00         0.43         10.4
     1542.00         0.37          7.2
     1543.00         0.28          6.8
