~Version Information
VERS.                      2.0: CWLS Log ASCII Standard - VERSION 2.0
WRAP.                       NO: One line per depth step
~Well Information Block
STRT.FT               330.0000: 
STOP.FT              1972.5000: 
STEP.FT                 0.1000: 
NULL.                -999.2500: 
COMP.          Pioneer Natural Resources: COMPANY
WELL.           Willys 32-8 Tr: WELL
FLD.           Purgatoire River: FIELD
LOC.           1843' FNL & 2355' FEL: LOCATION
CNTY.               Las Animas: COUNTY
SRVC.                Patterson: SERVICE COMPANY
DATE.          Thu Feb 09 10:31:59 2006: LOG DATE
UWI.           05 071 08688 00: UNIQUE WELL ID
STAT.                 Colorado: STATE
~Curve Information Block
DEPT.FT            0 000 00 00: Depth
DCAL.in                       : CDL Caliper
RHOB.g/cc                     : CDL Bulk Density
RHOC.g/cc                     : CDL Density Correction
DPOR.pu                       : CDL Density Porosity
GR.GAPI                       : Gamma Ray
~Parameter Information Block
~A  Depth       DCAL        RHOB        RHOC        DPOR         GR     
# ...
   878.8000      8.0220      2.2623     -0.0049     23.4967    162.1823
   878.9000      8.0220      2.1532     -0.0208     30.1071    155.9475
   879.0000      8.0481      2.0248     -0.1053     37.8888    150.1344
   879.1000      8.0481      1.9068     -0.0997     45.0416    144.6267
   879.2000      8.0481      1.8053     -0.1050     51.1968    135.2024
   879.3000      8.0742      1.7080     -0.0446     57.0890    123.9604
   879.4000      8.0742      1.6091     -0.1172     63.0865    115.9702
   879.5000      8.0846      1.5280     -0.0577     68.0022    108.8883
   879.6000      8.0846      1.4838     -0.0027     70.6789    100.0015
   879.7000      8.0846      1.4669      0.0457     71.7048     90.5312
   879.8000      8.0622      1.4590      0.0608     72.1795     80.4146
   879.9000      8.0622      1.4539      0.0435     72.4933     70.2192
   880.0000      8.1001      1.4464      0.0832     72.9432     60.9771
   880.1000      8.1001      1.4261      0.0337     74.1786     54.2475
   880.2000      8.1001      1.3877      0.0556     76.5003     52.1982
   880.3000      8.1046      1.3439      0.0121     79.1602     52.7065
   880.4000      8.1046      1.3196      0.0258     80.6308     50.1089
   880.5000      8.0993      1.3271      0.0606     80.1774     43.8682
   880.6000      8.0993      1.3562      0.0742     78.4124     38.7299
   880.7000      8.0993      1.3931      0.0908     76.1749     37.8653
   880.8000      8.0842      1.4390      0.0560     73.3959     40.6840
   880.9000      8.0842      1.5058      0.0727     69.3469     45.3937
   881.0000      8.1471      1.6024      0.1209     63.4912     49.5877
   881.1000      8.1471      1.7299      0.1676     55.7622     51.8147
   881.2000      8.1471      1.8678      0.3154     47.4080     54.3448
   881.3000      8.2742      1.9795      0.3408     40.6376     59.4820
   881.4000      8.2742      2.0460      0.3588     36.6083     66.3157
   881.5000      8.3177      2.0773      0.2481     34.7116     72.3999
   881.6000      8.3177      2.1019      0.1978     33.2167     76.0409
   881.7000      8.3177      2.1388      0.2000     30.9802     80.0202
   881.8000      8.1448      2.1839      0.1637     28.2512     88.4010
   881.9000      8.1448      2.2161      0.1853     26.2940     99.0310
   882.0000      8.0802      2.2176      0.1171     26.2052    105.5479
   882.1000      8.0802      2.1980      0.0937     27.3956    108.4144
   882.2000      8.0802      2.1674      0.1154     29.2511    112.3609
   882.3000      8.0771      2.1105      0.1202     32.6993    113.0786
   882.4000      8.0771      2.0148      0.0684     38.4996    106.4892
   882.5000      8.0874      1.8934      0.0008     45.8567     99.1393
   882.6000      8.0874      1.7707     -0.0405     53.2922     96.9609
   882.7000      8.0874      1.6554     -0.0125     60.2803     97.9646
   882.8000      8.0999      1.5417     -0.0632     67.1669     97.9172
   882.9000      8.0999      1.4303     -0.0639     73.9193     93.7313
   883.0000      8.1111      1.3360     -0.1109     79.6387     86.2838
   883.1000      8.1111      1.2806     -0.0477     82.9967     79.6672
   883.2000      8.1111      1.2763     -0.0001     83.2531     75.8276
   883.3000      8.0843      1.3234      0.0688     80.3978     74.1511
   883.4000      8.0843      1.4095      0.2105     75.1842     74.2189
   883.5000      8.1454      1.5113      0.2478     69.0117     75.8988
   883.6000      8.1454      1.6105      0.3332     63.0021     77.1139
   883.7000      8.1454      1.7032      0.3208     57.3810     76.3716
   883.8000      8.3864      1.8048      0.2972     51.2215     73.9842
   883.9000      8.3864      1.9220      0.3344     44.1221     72.8450
   884.0000      8.6217      2.0337      0.3312     37.3489     77.4139
   884.1000      8.6217      2.1219      0.3236     32.0072     86.2364
   884.2000      8.6217      2.1963      0.1877     27.4951     94.0790
   884.3000      8.2279      2.2765      0.2292     22.6391    102.6377
   884.4000      8.2279      2.3450      0.2642     18.4824    114.7229
   884.5000      8.0976      2.3552      0.1982     17.8637    124.1083
   884.6000      8.0976      2.2837      0.1137     22.2016    126.0499
   884.7000      8.0976      2.1509      0.0366     30.2471    124.5311
   884.8000      8.0749      2.0001     -0.0057     39.3889    123.0242
   884.9000      8.0749      1.8644     -0.0591     47.6091    120.9932
   885.0000      8.0793      1.7607     -0.0928     53.8945    117.6058
   885.1000      8.0793      1.6996     -0.1171     57.5990    116.5832
   885.2000      8.0793      1.6803     -0.0761     58.7675    120.0152
   885.3000      8.1033      1.6929     -0.0507     58.0056    123.6216
   885.4000      8.1033      1.7403     -0.0320     55.1307    123.2416
   885.5000      8.2841      1.8355      0.0867     49.3663    118.9704
   885.6000      8.2841      1.9745      0.2335     40.9389    115.5647
   885.7000      8.2841      2.1273      0.3064     31.6766    117.8360
   885.8000      8.4015      2.2517      0.3668     24.1384    125.8066
   885.9000      8.4015      2.3201      0.2782     19.9912    134.8792
   886.0000      8.3796      2.3463      0.0806     18.4064    143.1311
   886.1000      8.3796      2.3652      0.0894     17.2614    153.6192
   886.2000      8.3796      2.3900      0.0406     15.7583    159.3111
   886.3000      8.1676      2.4164      0.0495     14.1553    152.0072
   886.4000      8.1676      2.4414      0.0135     12.6450    145.1685
   886.5000      8.1421      2.4625      0.0714     11.3661    150.7546
   886.6000      8.1421      2.4732      0.0966     10.7125    156.2076
   886.7000      8.1421      2.4764      0.0580     10.5233    147.4587
   886.8000      8.1371      2.4876      0.0671      9.8421    130.2302
   886.9000      8.1371      2.5072      0.0738      8.6539    119.3520
   887.0000      8.0785      2.5219      0.0283      7.7648    121.8569
   887.1000      8.0785      2.5338      0.0199      7.0398    129.8526
   887.2000      8.0785      2.5488      0.0323      6.1362    131.6971
   887.3000      8.0976      2.5545      0.0490      5.7882    125.3347
   887.4000      8.0976      2.5375      0.0592      6.8205    117.5273
   887.5000      7.9769      2.5095     -0.0217      8.5122    114.2631
   887.6000      7.9769      2.4874      0.0145      9.8554    116.5178
   887.7000      7.9769      2.4617      0.0523     11.4140    120.8335
   887.8000      7.9141      2.4284      0.0091     13.4331    123.7560
   887.9000      7.9141      2.4133     -0.0423     14.3432    126.4895
   888.0000      7.9076      2.4392     -0.0418     12.7773    129.4743
   888.1000      7.9076      2.4914      0.0255      9.6094    129.3760
   888.2000      7.9076      2.5365      0.0757      6.8799    126.9447
   888.3000      7.8863      2.5600      0.1114      5.4565    125.9082
   888.4000      7.8863      2.5696      0.1444      4.8714    128.7618
   888.5000      7.8946      2.5753      0.1667      4.5294    133.2901
   888.6000      7.8946      2.5730      0.2129      4.6678    134.7237
   888.7000      7.8946      2.5497      0.1799      6.0796    136.9088
   888.8000      7.8566      2.5079      0.1333      8.6097    143.3729
   888.9000      7.8566      2.4651      0.1308     11.2047    147.3909
   889.0000      7.8427      2.4386      0.0694     12.8105    145.3208
   889.1000      7.8427      2.4470      0.0971     12.3005    143.8375
   889.2000      7.8427      2.4960      0.1646      9.3325    149.2933
   889.3000      7.8558      2.5687      0.2295      4.9269    160.6077
   889.4000      7.8558      2.6417      0.2238      0.5012    168.8227
   889.5000      7.8828      2.6948      0.2774     -2.7133    166.7646
   889.6000      7.8828      2.7078      0.2672     -3.5035    160.0879
   889.7000      7.8828      2.6873      0.1873     -2.2580    153.9605
   889.8000      7.9119      2.6593      0.1948     -0.5619    148.0131
   889.9000      7.9119      2.6293      0.1115      1.2527    141.8386
