~Version Information
VERS.                      2.0: CWLS Log ASCII Standard - VERSION 2.0
WRAP.                       NO: One line per depth step
~Well Information Block
STRT.FT                -0.5000: 
STOP.FT              1417.0000: 
STEP.FT                 0.2500: 
NULL.                -999.2500: 
COMP.          Pioneer Natural Resources: COMPANY
WELL.              Darren 11-7: WELL
FLD.           Purgatoire River: FIELD
LOC.           230' FNL & 596' FWL: LOCATION
CNTY.               Las Animas: COUNTY
SRVC.                Patterson: SERVICE COMPANY
DATE.          Thu Mar 30 10:43:52 2006: LOG DATE
UWI.           05 071 08720 00: UNIQUE WELL ID
STAT.                 Colorado: STATE
~Curve Information Block
DEPT.FT            0 000 00 00: Depth
GR.GAPI                       : Gamma Ray
CCL.                          : Casing Collar Locator
TT3.usec                      : CBL 3' Travel Time
AMP3.mV                       : CBL 3' Amplitude
~Parameter Information Block
~A  Depth        GR         CCL         TT3         AMP3    
# ...
   267.5000     76.4927      0.0000    715.3660     15.0331
   267.7500     75.3021      0.0000    717.0309     15.0957
   268.0000     72.4977      0.0000    721.1726     15.2029
   268.2500     70.4336      0.0000    728.7020     15.3565
   268.5000     71.1258      0.0000    739.5873     15.5406
   268.7500     74.8662      0.0000    752.5088     15.7349
   269.0000     80.2514      0.0000    764.7250     15.9345
   269.2500     85.3198      0.0000    773.2122     16.1529
   269.5000     88.6881      0.0000    776.3836     16.3986
   269.7500     90.1133      0.0000    774.3060     16.6471
   270.0000     90.5627      0.0000    767.6438     16.8456
   270.2500     91.8281      0.0000    757.3661     16.9495
   270.5000     95.7122      0.0000    745.1904     16.9500
   270.7500    103.0429      0.0000    733.1353     16.8671
   271.0000    112.9846      0.0000    722.5635     16.7257
   271.2500    123.0705      0.0000    714.3209     16.5454
   271.5000    130.2405      0.0000    709.4899     16.3497
   271.7500    132.6249      0.0000    708.9460     16.1719
   272.0000    130.8795      0.0000    712.0559     16.0366
   272.2500    127.7720      0.0000    716.6407     15.9272
   272.5000    126.2668      0.0000    720.5570     15.7855
   272.7500    127.6994      0.0000    723.0189     15.5598
   273.0000    131.2283      0.0000    724.5201     15.2579
   273.2500    134.6233      0.0000    726.1106     14.9483
   273.5000    135.8672      0.0000    728.9269     14.7142
   273.7500    134.4698      0.0000    733.8369     14.6003
   274.0000    131.3181      0.0000    740.8423     14.5928
   274.2500    127.4389      0.0000    748.7115     14.6417
   274.5000    123.4306      0.0000    755.5720     14.7025
   274.7500    120.0269      0.0000    760.0913     14.7601
   275.0000    118.4101      0.0000    762.0322     14.8207
   275.2500    119.3695      0.0000    761.7642     14.8926
   275.5000    122.2610      0.0000    759.5502     14.9742
   275.7500    125.1193      0.0000    755.5466     15.0539
   276.0000    126.1143      0.0000    750.4286     15.1194
   276.2500    125.1238      0.0000    745.6187     15.1731
   276.5000    123.7998      0.0000    742.3965     15.2380
   276.7500    123.8793      0.0000    740.7385     15.3380
   277.0000    125.5295      0.0000    739.3554     15.4690
   277.2500    127.4997      0.0000    736.9644     15.6015
   277.5000    128.5724      0.0000    733.4093     15.7118
   277.7500    128.4847      0.0000    729.6432     15.8039
   278.0000    127.6847      0.0000    726.8606     15.8917
   278.2500    126.6855      0.0000    725.7868     15.9705
   278.5000    125.7245      0.0000    726.5605     16.0097
   278.7500    124.9482      0.0000    728.7258     15.9729
   279.0000    124.7545      0.0000    731.0969     15.8408
   279.2500    125.5411      0.0000    732.1473     15.6193
   279.5000    127.0614      0.0000    731.1219     15.3338
   279.7500    128.5020      0.0000    728.6826     15.0214
   280.0000    129.2965      0.0000    726.1736     14.7303
   280.2500    129.3877      0.0000    724.4466     14.5125
   280.5000    128.6221      0.0000    723.5076     14.4000
   280.7500    126.4068      0.0000    722.9072     14.3730
   281.0000    122.2865      0.0000    721.8729     14.3556
   281.2500    116.7654      0.0000    718.8791     14.2384
   281.5000    111.5197      0.0000    711.2745     13.9235
   281.7500    108.6639      0.0000    696.6302     13.3916
   282.0000    109.3695      0.0000    676.6259     12.7478
   282.2500    112.8607      0.0000    660.0638     12.1678
   282.5000    116.8355      0.0000    658.7025     11.7722
   282.7500    118.9911      0.0000    676.8860     11.5823
   283.0000    118.2742      0.0000    706.6114     11.5719
   283.2500    115.1101      0.0000    734.9117     11.6912
   283.5000    110.9161      0.0000    754.2477     11.8465
   283.7500    107.3794      3.0000    763.9899     11.9382
   284.0000    105.7402      0.0000    765.0925     11.9370
   284.2500    106.3387      0.0000    757.0280     11.9107
   284.5000    108.7302      0.0000    739.3503     11.9882
   284.7500    112.2409      0.0000    714.2421     12.2722
   285.0000    116.2425      0.0000    687.0063     12.7315
   285.2500    119.9541      0.0000    663.6754     13.1911
   285.5000    122.5290      0.0000    647.7787     13.4982
   285.7500    123.6382      0.0000    640.8194     13.6664
   286.0000    123.7703      0.0000    644.8575     13.7938
   286.2500    123.8548      0.0000    660.5402     13.9021
   286.5000    124.7206      0.0000    682.9017     13.9318
   286.7500    126.8110      0.0000    703.4630     13.8403
   287.0000    130.0481      0.0000    716.8237     13.6379
   287.2500    133.7442      0.0000    723.0933     13.3567
   287.5000    136.8549      0.0000    724.9908     13.0231
   287.7500    138.6498      0.0000    724.6643     12.6549
   288.0000    139.1831      0.0000    722.9995     12.2657
   288.2500    138.9395      0.0000    720.4456     11.8733
   288.5000    137.8692      0.0000    717.9174     11.5078
   288.7500    134.8181      0.0000    716.7324     11.2142
   289.0000    128.2358      0.0000    717.5748     11.0341
   289.2500    117.7196      0.0000    719.8539     10.9765
   289.5000    104.8236      0.0000    722.3101     11.0092
   289.7500     92.4935      0.0000    724.0864     11.0858
   290.0000     83.9881      0.0000    725.0735     11.1815
   290.2500     81.7902      0.0000    725.5334     11.3021
   290.5000     86.2988      0.0000    725.7117     11.4743
   290.7500     95.0772      0.0000    725.7507     11.7350
   291.0000    104.0574      0.0000    725.7521     12.1132
   291.2500    110.1500      0.0000    725.8036     12.5991
   291.5000    112.8459      0.0000    725.9501     13.1273
   291.7500    113.5351      0.0000    726.1641     13.5959
   292.0000    113.7583      0.0000    726.3793     13.9125
   292.2500    114.2536      0.0000    726.5524     14.0385
   292.5000    115.2795      0.0000    726.6843     14.0055
   292.7500    117.2018      0.0000    726.7841     13.8926
   293.0000    120.2799      0.0000    726.8318     13.7734
   293.2500    124.0150      0.0000    726.7920     13.6779
   293.5000    127.2403      0.0000    726.6539     13.5965
   293.7500    128.9747      0.0000    726.4480     13.5142
   294.0000    128.8080      0.0000    726.2222     13.4375
   294.2500    126.4438      0.0000    726.0062     13.3916
   294.5000    121.5948      0.0000    725.7667     13.3983
   294.7500    114.7001      0.0000    725.3175     13.4557
   295.0000    107.2875      0.0000    724.1678     13.5351
   295.2500    101.2446      0.0000    721.5139     13.5964
   295.5000     97.7764      0.0000    716.7609     13.6102
   295.7500     96.8795      0.0000    710.5882     13.5718
   296.0000     97.4061      0.0000    705.5614     13.4941
   296.2500     97.6735      0.0000    705.0442     13.3883
   296.5000     96.3807      0.0000    710.7187     13.2544
   296.7500     93.1348      0.0000    720.9760     13.0966
   297.0000     88.2989      0.0000    732.0403     12.9402
   297.2500     82.6776      0.0000    740.8706     12.8259
   297.5000     77.3899      0.0000    746.8848     12.7848
   297.7500     73.7499      0.0000    751.0941     12.8221
   298.0000     72.8697      0.0000    754.3339     12.9195
   298.2500     75.0547      0.0000    756.7056     13.0424
   298.5000     79.5508      0.0000    758.1389     13.1503
   298.7500     85.0561      0.0000    758.8204     13.2107
   299.0000     90.6631      0.0000    759.0839     13.2142
   299.2500     96.3782      0.0000    759.1836     13.1745
   299.5000    102.7272      0.0000    759.2302     13.1143
   299.7500    109.8025      0.0000    759.2455     13.0470
   300.0000    116.7397      0.0000    759.2291     12.9713
   300.2500    122.3016      0.0000    759.1938     12.8763
   300.5000    125.8607      0.0000    759.1573     12.7539
   300.7500    127.4888      0.0000    759.0977     12.6076
