~Version Information
VERS.                      2.0: CWLS Log ASCII Standard - VERSION 2.0
WRAP.                       NO: One line per depth step
~Well Information Block
STRT.FT               230.0000: 
STOP.FT               706.5000: 
STEP.FT                 0.1000: 
NULL.                -999.2500: 
COMP.          Pioneer Natural Resources: COMPANY
WELL.          Razor Clam 23-27: WELL
FLD.           Purgatoire River: FIELD
LOC.           2499' FSL & 2636' FWL: LOCATION
CNTY.               Las Animas: COUNTY
SRVC.                Patterson: SERVICE COMPANY
DATE.          Mon Feb 13 07:31:47 2006: LOG DATE
UWI.           05 071 08667 00: UNIQUE WELL ID
STAT.                 Colorado: STATE
~Curve Information Block
DEPT.FT            0 000 00 00: Depth
DCAL.in                       : CDL Caliper
RHOB.g/cc                     : CDL Bulk Density
RHOC.g/cc                     : CDL Density Correction
DPOR.pu                       : CDL Density Porosity
GR.GAPI                       : Gamma Ray
NPOR.pu                       : Neutron Porosity
~Parameter Information Block
~A  Depth       DCAL        RHOB        RHOC        DPOR         GR         NPOR    
# ...
   594.8000      7.9411      2.5309      0.0186      7.2181     71.4773     25.1269
   594.9000      7.9411      2.5325      0.0572      7.1216     70.5664     24.4905
   595.0000      7.9418      2.5282      0.0107      7.3826     66.0493     24.3823
   595.1000      7.9418      2.5282      0.0764      7.3846     58.6909     24.4806
   595.2000      7.9418      2.5222      0.0590      7.7449     53.9747     24.1012
   595.3000      7.9418      2.5056      0.0041      8.7489     53.5201     23.2013
   595.4000      7.9418      2.4897      0.0237      9.7127     56.1751     22.7262
   595.5000      7.9408      2.4727      0.0350     10.7448     58.9643     23.3918
   595.6000      7.9408      2.4446      0.0163     12.4485     61.0763     24.2433
   595.7000      7.9408      2.4099     -0.0193     14.5518     64.8695     24.5233
   595.8000      7.9405      2.3782      0.0082     16.4735     71.9326     24.9033
   595.9000      7.9405      2.3547     -0.0376     17.8998     78.5895     25.5754
   596.0000      7.9413      2.3465     -0.0140     18.3938     79.9150     25.9252
   596.1000      7.9413      2.3554      0.0136     17.8544     76.4305     25.9727
   596.2000      7.9413      2.3756      0.0339     16.6313     68.3276     25.9020
   596.3000      7.9427      2.3949      0.0768     15.4587     58.3318     25.4235
   596.4000      7.9427      2.3984      0.0669     15.2470     54.5799     24.8891
   596.5000      7.9418      2.3873      0.0609     15.9227     57.7297     24.9380
   596.6000      7.9418      2.3765      0.0262     16.5744     60.6577     25.2283
   596.7000      7.9418      2.3721      0.0440     16.8436     60.7445     25.3368
   596.8000      7.9400      2.3693      0.0382     17.0103     59.3912     25.8567
   596.9000      7.9400      2.3658      0.0409     17.2212     56.8812     27.1508
   597.0000      7.9413      2.3653      0.0182     17.2543     56.4101     28.2919
   597.1000      7.9413      2.3719      0.0266     16.8539     59.9528     28.2046
   597.2000      7.9413      2.3800      0.0738     16.3662     66.1992     27.0342
   597.3000      7.9411      2.3834      0.0232     16.1549     73.3329     25.8446
   597.4000      7.9411      2.3913      0.0485     15.6787     79.6373     25.6171
   597.5000      7.9403      2.4106      0.0331     14.5108     82.7952     26.3745
   597.6000      7.9403      2.4312      0.0590     13.2612     81.8794     27.3011
   597.7000      7.9403      2.4357      0.0565     12.9899     80.0187     27.8084
   597.8000      7.9393      2.4232      0.0318     13.7464     77.5041     27.5830
   597.9000      7.9393      2.4177      0.0097     14.0791     72.2191     26.5064
   598.0000      7.9395      2.4309      0.0475     13.2766     66.8175     25.1147
   598.1000      7.9395      2.4430      0.0415     12.5465     63.9665     24.3598
   598.2000      7.9395      2.4427      0.0064     12.5653     62.0375     24.7106
   598.3000      7.9418      2.4391      0.0363     12.7813     60.8365     25.5514
   598.4000      7.9418      2.4345      0.0421     13.0630     62.4395     25.9763
   598.5000      7.9412      2.4301      0.0294     13.3250     67.5177     26.0049
   598.6000      7.9412      2.4253      0.0920     13.6187     73.3067     26.0224
   598.7000      7.9412      2.4110      0.0375     14.4877     73.4292     26.2462
   598.8000      7.9405      2.3916      0.0248     15.6624     65.2802     26.8779
   598.9000      7.9405      2.3826      0.0284     16.2042     55.5211     27.4851
   599.0000      7.9407      2.3893      0.0462     15.8028     52.1031     27.3871
   599.1000      7.9407      2.4010      0.0543     15.0904     54.5164     26.8444
   599.2000      7.9407      2.4082      0.0247     14.6567     56.4937     26.2659
   599.3000      7.9408      2.4147      0.0313     14.2597     55.6084     25.5833
   599.4000      7.9408      2.4281      0.0472     13.4482     55.1248     25.1348
   599.5000      7.9405      2.4460      0.0604     12.3611     58.3896     25.1993
   599.6000      7.9405      2.4603      0.0574     11.4987     63.9813     24.9849
   599.7000      7.9405      2.4682      0.0543     11.0184     67.9760     24.3860
   599.8000      7.9498      2.4701      0.0757     10.9061     68.5227     24.1674
   599.9000      7.9498      2.4667      0.0321     11.1117     68.6786     24.4188
   600.0000      7.9405      2.4628      0.0104     11.3465     71.2378     24.9075
   600.1000      7.9405      2.4594      0.0197     11.5498     74.5380     25.3416
   600.2000      7.9405      2.4536      0.0173     11.9055     76.2061     25.3002
   600.3000      7.9408      2.4450      0.0155     12.4257     73.7276     24.7386
   600.4000      7.9408      2.4379     -0.0029     12.8521     68.2858     24.3834
   600.5000      7.9408      2.4403     -0.0054     12.7075     65.6785     24.6792
   600.6000      7.9408      2.4550      0.0192     11.8189     68.7577     25.2258
   600.7000      7.9408      2.4701      0.0629     10.9053     74.9237     25.7421
   600.8000      7.9407      2.4730      0.0485     10.7269     82.0837     26.1716
   600.9000      7.9407      2.4705      0.0263     10.8791     87.8648     26.3056
   601.0000      7.9404      2.4734      0.0546     10.7056     86.2566     26.0097
   601.1000      7.9404      2.4822      0.0436     10.1711     79.1715     25.3723
   601.2000      7.9404      2.4934      0.0502      9.4928     77.5705     24.7819
   601.3000      7.9406      2.5049      0.0488      8.7962     82.5038     24.6625
   601.4000      7.9406      2.5170      0.0393      8.0599     87.3555     24.7901
   601.5000      7.9399      2.5281      0.0782      7.3876     91.1259     25.0058
   601.6000      7.9399      2.5409      0.0071      6.6139     93.2182     25.5260
   601.7000      7.9399      2.5568      0.0687      5.6480     90.4290     26.0287
   601.8000      7.9390      2.5597      0.0609      5.4744     81.9027     26.1032
   601.9000      7.9390      2.5400      0.0330      6.6673     74.5735     25.8428
   602.0000      7.9391      2.5054      0.0720      8.7660     70.7838     25.7952
   602.1000      7.9391      2.4677      0.0059     11.0484     66.6872     26.2518
   602.2000      7.9391      2.4434     -0.0047     12.5226     67.5869     26.6604
   602.3000      7.9388      2.4395      0.0402     12.7557     77.7941     26.4965
   602.4000      7.9388      2.4499      0.0460     12.1285     89.0423     25.9942
   602.5000      7.9385      2.4656      0.0404     11.1744     93.7878     25.4656
   602.6000      7.9385      2.4783      0.0546     10.4075     93.0114     25.2770
   602.7000      7.9385      2.4855      0.0584      9.9723     93.5663     25.7637
   602.8000      7.9384      2.4951      0.0486      9.3858     99.9317     26.4550
   602.9000      7.9384      2.5172      0.0664      8.0463    108.4556     26.8915
   603.0000      7.9400      2.5489      0.1019      6.1257    109.1790     26.7447
   603.1000      7.9400      2.5721      0.1544      4.7211    100.0439     26.0351
   603.2000      7.9400      2.5762      0.0805      4.4707     93.5061     25.2263
   603.3000      7.9520      2.5718      0.0891      4.7369     95.7687     24.6428
   603.4000      7.9520      2.5650      0.0839      5.1488    100.7141     24.5188
   603.5000      7.9563      2.5559      0.0436      5.7014    100.9736     24.6295
   603.6000      7.9563      2.5521     -0.0079      5.9308     94.2752     24.4189
   603.7000      7.9563      2.5510      0.0538      6.0005     86.7549     23.9993
   603.8000      7.9549      2.5421      0.0290      6.5410     85.2917     23.7954
   603.9000      7.9549      2.5314      0.0281      7.1883     87.2569     23.6103
   604.0000      7.9544      2.5269      0.0466      7.4600     86.8581     23.3201
   604.1000      7.9544      2.5258      0.0165      7.5297     85.0695     23.3128
   604.2000      7.9544      2.5273      0.0239      7.4390     85.2798     23.5517
   604.3000      7.9550      2.5285      0.0518      7.3656     85.4492     23.6011
