~Version Information
VERS.                      2.0: CWLS Log ASCII Standard - VERSION 2.0
WRAP.                       NO: One line per depth step
~Well Information Block
STRT.FT               340.0000: 
STOP.FT              2342.7000: 
STEP.FT                 0.1000: 
NULL.                -999.2500: 
COMP.          Pioneer Natural Resources: COMPANY
WELL.          Pinkerton 41-12: WELL
FLD.           Purgatoire River: FIELD
LOC.           1222' FNL & 670' FEL--: LOCATION
CNTY.               Las Animas: COUNTY
SRVC.                Patterson: SERVICE COMPANY
DATE.          Thu Mar 16 06:39:17 2006: LOG DATE
UWI.           05 071 08500 00: UNIQUE WELL ID
STAT.                 Colorado: STATE
~Curve Information Block
DEPT.FT            0 000 00 00: Depth
DCAL.in                       : CDL Caliper
RHOB.g/cc                     : CDL Bulk Density
RHOC.g/cc                     : CDL Density Correction
DPOR.pu                       : CDL Density Porosity
NPOR.pu                       : Neutron Porosity
GR.GAPI                       : Gamma Ray
~Parameter Information Block
~A  Depth       DCAL        RHOB        RHOC        DPOR        NPOR         GR     
# ...
  2048.8000      8.1599      2.6021      0.0586      2.9056     23.8220     75.0840
  2048.9000      8.1599      2.5715      0.0570      4.7565     23.5325     71.1065
  2049.0000      8.1697      2.5598      0.0489      5.4648     22.8379     68.6604
  2049.1000      8.1697      2.5609      0.0795      5.4001     22.0059     67.8600
  2049.2000      8.1697      2.5649      0.0453      5.1560     21.2315     67.8698
  2049.3000      8.1815      2.5672      0.0945      5.0189     20.4472     69.3686
  2049.4000      8.1815      2.5602      0.0875      5.4426     19.8064     73.4408
  2049.5000      8.2059      2.5471      0.0096      6.2348     19.6558     77.8062
  2049.6000      8.2059      2.5431      0.0439      6.4791     19.9219     81.4109
  2049.7000      8.2059      2.5497      0.0436      6.0762     20.4410     85.1435
  2049.8000      8.2355      2.5574      0.0922      5.6096     21.1030     87.3627
  2049.9000      8.2355      2.5637      0.0430      5.2312     21.5153     84.5802
  2050.0000      8.2515      2.5704      0.0653      4.8272     21.4563     76.3962
  2050.1000      8.2515      2.5735      0.0737      4.6383     21.3380     68.1479
  2050.2000      8.2515      2.5736      0.0506      4.6291     21.6682     64.4002
  2050.3000      8.2415      2.5763      0.0507      4.4694     22.4257     64.1477
  2050.4000      8.2415      2.5832      0.0754      4.0474     23.1200     65.1555
  2050.5000      8.2209      2.5950      0.0857      3.3316     23.3613     69.2554
  2050.6000      8.2209      2.6039      0.0829      2.7922     23.1973     78.5499
  2050.7000      8.2209      2.5950      0.0639      3.3354     22.9518     86.4120
  2050.8000      8.2182      2.5721      0.0626      4.7220     22.8789     84.9236
  2050.9000      8.2182      2.5593      0.0328      5.4968     23.0209     80.1068
  2051.0000      8.2171      2.5630      0.0711      5.2757     23.1389     78.9428
  2051.1000      8.2171      2.5626      0.0948      5.2971     22.8338     78.8712
  2051.2000      8.2171      2.5529      0.0372      5.8828     22.4430     79.5339
  2051.3000      8.2171      2.5417      0.0822      6.5612     22.4016     81.4045
  2051.4000      8.2171      2.5296      0.0232      7.2971     22.1475     78.9465
  2051.5000      8.2100      2.5248      0.0208      7.5868     21.3819     73.3410
  2051.6000      8.2100      2.5291      0.0769      7.3248     20.7765     72.2254
  2051.7000      8.2100      2.5350      0.0197      6.9699     20.7492     72.0714
  2051.8000      8.2052      2.5473      0.0290      6.2223     20.8211     66.1026
  2051.9000      8.2052      2.5685      0.0658      4.9421     20.5785     61.1971
  2052.0000      8.1970      2.5899      0.0777      3.6400     20.2931     62.4060
  2052.1000      8.1970      2.6070      0.0862      2.6047     20.3271     62.7256
  2052.2000      8.1970      2.6115      0.1008      2.3357     20.6386     60.2277
  2052.3000      8.1962      2.5944      0.0715      3.3684     21.1993     62.0137
  2052.4000      8.1962      2.5644     -0.0007      5.1894     22.0976     68.2452
  2052.5000      8.1956      2.5241      0.0561      7.6276     23.3609     72.9824
  2052.6000      8.1956      2.4508      0.0260     12.0751     24.6669     76.4472
  2052.7000      8.1956      2.3387     -0.0510     18.8649     25.4402     79.7182
  2052.8000      8.1965      2.2129     -0.0751     26.4887     25.7531     78.8938
  2052.9000      8.1965      2.0858     -0.0823     34.1963     26.4769     71.4712
  2053.0000      8.2000      1.9561     -0.2221     42.0564     27.9838     61.6789
  2053.1000      8.2000      1.8323     -0.1726     49.5601     29.4296     56.4364
  2053.2000      8.2000      1.7217     -0.1867     56.2626     30.1744     57.8316
  2053.3000      8.2018      1.6215     -0.1829     62.3355     30.6841     61.9428
  2053.4000      8.2018      1.5198     -0.1789     68.4976     31.4860     64.0505
  2053.5000      8.1848      1.4300     -0.2247     73.9382     32.2985     62.6100
  2053.6000      8.1848      1.4013     -0.1656     75.6764     32.7864     58.2092
  2053.7000      8.1848      1.4538      0.0339     72.4976     32.9723     53.4132
  2053.8000      8.1686      1.5555      0.1086     66.3317     32.6275     49.8994
  2053.9000      8.1686      1.6718      0.1624     59.2822     31.7215     46.7007
  2054.0000      8.1875      1.7850      0.1945     52.4225     30.9283     45.7014
  2054.1000      8.1875      1.8903      0.1966     46.0447     30.5607     51.6668
  2054.2000      8.1875      1.9957      0.2228     39.6555     30.0606     64.3932
  2054.3000      8.1981      2.1080      0.2436     32.8468     29.0192     76.1694
  2054.4000      8.1981      2.2157      0.2929     26.3240     27.9004     80.4069
  2054.5000      8.2108      2.2979      0.2621     21.3411     27.3392     80.3302
  2054.6000      8.2108      2.3569      0.2208     17.7606     27.3054     80.4469
  2054.7000      8.2108      2.4148      0.1672     14.2547     27.3210     82.7068
  2054.8000      8.2385      2.4698      0.1813     10.9194     27.1348     92.2109
  2054.9000      8.2385      2.4903      0.1671      9.6791     27.1817    106.8984
  2055.0000      8.2665      2.4701      0.0406     10.9059     27.5718    115.9714
  2055.1000      8.2665      2.4526     -0.0019     11.9661     27.7300    117.1081
  2055.2000      8.2665      2.4671      0.0688     11.0831     27.5337    116.0306
  2055.3000      8.2687      2.4929      0.0910      9.5224     27.3873    114.2234
  2055.4000      8.2687      2.5062      0.0838      8.7151     27.4706    109.2965
  2055.5000      8.2560      2.5048      0.0713      8.7982     27.5722    104.2902
  2055.6000      8.2560      2.4943      0.0536      9.4375     27.6146    104.0002
  2055.7000      8.2560      2.4851      0.0528      9.9939     27.8634    105.9109
  2055.8000      8.2389      2.4752      0.0762     10.5953     28.4512    105.8432
  2055.9000      8.2389      2.4420      0.0622     12.6049     29.2038    103.2682
  2056.0000      8.2284      2.3714      0.0369     16.8863     29.9624     98.8616
  2056.1000      8.2284      2.2630     -0.0112     23.4555     30.8308     94.7238
  2056.2000      8.2284      2.1268     -0.0608     31.7099     31.5670     93.5036
  2056.3000      8.2303      1.9866     -0.1063     40.2038     31.5544     93.3671
  2056.4000      8.2303      1.8629     -0.1340     47.7010     31.1167     91.7974
  2056.5000      8.2146      1.7613     -0.1618     53.8579     31.1974     91.6588
  2056.6000      8.2146      1.6915     -0.1869     58.0882     31.8078     94.0825
  2056.7000      8.2146      1.6729     -0.1230     59.2152     32.3231     93.7606
  2056.8000      8.1853      1.7120     -0.0442     56.8507     32.4152     89.9843
  2056.9000      8.1853      1.7882      0.1126     52.2332     31.8979     88.9309
  2057.0000      8.1853      1.8731      0.1581     47.0855     30.7625     91.9243
  2057.1000      8.1853      1.9555      0.2153     42.0890     29.6694     93.6739
  2057.2000      8.1853      2.0382      0.2429     37.0801     29.3662     93.8916
  2057.3000      8.2156      2.1285      0.2519     31.6081     29.6961    101.8202
  2057.4000      8.2156      2.2258      0.2486     25.7110     29.8584    122.4780
  2057.5000      8.2543      2.3059      0.2772     20.8535     29.5673    143.8057
  2057.6000      8.2543      2.3492      0.1546     18.2282     29.1219    148.8913
  2057.7000      8.2543      2.3761      0.0739     16.5998     28.6999    141.6743
  2057.8000      8.2581      2.4099      0.0898     14.5499     28.2398    138.4733
  2057.9000      8.2581      2.4402      0.1349     12.7164     27.8675    140.6564
  2058.0000      8.2073      2.4516      0.1241     12.0271     27.8747    141.2711
  2058.1000      8.2073      2.4518      0.0927     12.0094     28.1213    140.9439
  2058.2000      8.2073      2.4547      0.0908     11.8373     28.4250    138.8459
  2058.3000      8.1599      2.4609      0.0628     11.4576     28.8440    131.6781
