~Version Information
VERS.                      2.0: CWLS Log ASCII Standard - VERSION 2.0
WRAP.                       NO: One line per depth step
~Well Information Block
STRT.FT                10.0000: 
STOP.FT              1458.0000: 
STEP.FT                 0.1000: 
NULL.                -999.2500: 
COMP.          Pioneer Natural Resources: COMPANY
WELL.            Bordeaux 42-2: WELL
FLD.           Purgatorie River: FIELD
LOC.           1963' FNL & 1148' FEL: LOCATION
PROV.                 Colorado: PROVINCE
CNTY.               Las Animas: COUNTRY
SRVC.                Patterson: SERVICE COMPANY
DATE.          Tue Nov 29 07:11:03 2005: LOG DATE
UWI.                          : UNIQUE WELL ID
~Curve Information Block
DEPT.FT            0 000 00 00: Depth
DCAL.in                       : CDL Caliper
RHOB.g/cc                     : CDL Bulk Density
RHOC.g/cc                     : CDL Density Correction
DPOR.pu                       : CDL Density Porosity
GR.GAPI                       : Gamma Ray
NPOR.pu                       : Neutron Porosity
~Parameter Information Block
~A  Depth       DCAL        RHOB        RHOC        DPOR         GR         NPOR    
# ...
   864.4000      7.9145      2.5176     -0.0597      8.0232    161.5526     25.8210
   864.5000      7.9227      2.5340     -0.0068      7.0303    161.5304     25.7949
   864.6000      7.9227      2.5584      0.0238      5.5530    163.4743     25.7930
   864.7000      7.9227      2.5701      0.0536      4.8424    163.0606     25.8651
   864.8000      7.9437      2.5703     -0.0007      4.8333    162.2527     25.9748
   864.9000      7.9437      2.5743      0.0611      4.5902    166.4697     26.1254
   865.0000      7.9433      2.5722      0.0637      4.7134    171.8069     26.3846
   865.1000      7.9433      2.5518      0.0346      5.9535    172.6162     26.7521
   865.2000      7.9433      2.5267     -0.0257      7.4697    172.4015     27.2460
   865.3000      7.9494      2.5150      0.0356      8.1794    175.2011     27.7615
   865.4000      7.9494      2.5171      0.0278      8.0551    177.6362     28.0809
   865.5000      7.9473      2.5247      0.0023      7.5960    175.4914     28.3605
   865.6000      7.9473      2.5336      0.0104      7.0546    170.9902     28.6295
   865.7000      7.9473      2.5414      0.0128      6.5845    169.3943     28.5421
   865.8000      7.9542      2.5373      0.0389      6.8318    170.2980     28.1244
   865.9000      7.9542      2.5157     -0.0480      8.1372    171.5695     27.7011
   866.0000      7.9545      2.4915      0.0010      9.6059    174.5493     27.4396
   866.1000      7.9545      2.4771     -0.0035     10.4762    178.2907     27.2341
   866.2000      7.9545      2.4759      0.0009     10.5506    178.8925     26.9868
   866.3000      7.9345      2.4866      0.0060      9.9035    174.7925     26.7723
   866.4000      7.9345      2.4986      0.0623      9.1751    168.1606     26.5051
   866.5000      7.9338      2.5035      0.0057      8.8776    162.3571     26.1033
   866.6000      7.9338      2.5069      0.0478      8.6727    158.3563     25.7069
   866.7000      7.9338      2.5139      0.0600      8.2498    155.5924     25.4471
   866.8000      7.9260      2.5201      0.0814      7.8732    153.9748     25.4083
   866.9000      7.9260      2.5195      0.0815      7.9061    153.6847     25.3709
   867.0000      7.9179      2.5198      0.1023      7.8892    156.8944     25.0736
   867.1000      7.9179      2.5330      0.1351      7.0900    163.3225     24.6941
   867.2000      7.9179      2.5574      0.1302      5.6129    169.2524     24.4541
   867.3000      7.9180      2.5808      0.1622      4.1931    171.6067     24.5015
   867.4000      7.9180      2.5929      0.1683      3.4589    170.5719     25.1145
   867.5000      7.9208      2.5966      0.1216      3.2343    170.7512     26.1430
   867.6000      7.9208      2.5935      0.1560      3.4246    175.0661     27.0219
   867.7000      7.9208      2.5801      0.1323      4.2382    180.5890     27.5711
   867.8000      7.9375      2.5666      0.1424      5.0572    182.8922     27.8881
   867.9000      7.9375      2.5662      0.1423      5.0811    181.2062     28.0677
   868.0000      7.9176      2.5831      0.0975      4.0547    177.0349     28.4090
   868.1000      7.9176      2.6114      0.1083      2.3365    170.7602     28.8123
   868.2000      7.9176      2.6327      0.1081      1.0511    163.7811     28.8458
   868.3000      7.9087      2.6285      0.1470      1.3013    158.7023     28.5720
   868.4000      7.9087      2.6010      0.0856      2.9669    155.7920     28.3491
   868.5000      7.9106      2.5717      0.0440      4.7438    154.3955     28.4801
   868.6000      7.9106      2.5568      0.0811      5.6455    155.3350     28.9611
   868.7000      7.9106      2.5595      0.0376      5.4832    156.9758     29.3767
   868.8000      7.9157      2.5720      0.0671      4.7246    156.3502     29.4216
   868.9000      7.9157      2.5791      0.0272      4.2991    154.1788     29.1708
   869.0000      7.9137      2.5785      0.0610      4.3310    151.4992     28.8082
   869.1000      7.9137      2.5789      0.0722      4.3118    148.9126     28.5081
   869.2000      7.9137      2.5771      0.0708      4.4199    147.3451     28.3273
   869.3000      7.9157      2.5633      0.0923      5.2543    147.1952     28.2358
   869.4000      7.9157      2.5442      0.0486      6.4104    149.2008     28.1503
   869.5000      7.9113      2.5382      0.0642      6.7758    153.4602     27.9996
   869.6000      7.9113      2.5480      0.0618      6.1814    158.5712     27.9534
   869.7000      7.9113      2.5660      0.0927      5.0899    161.6264     28.0789
   869.8000      7.9133      2.5896      0.0954      3.6589    161.9160     27.9303
   869.9000      7.9133      2.6128      0.1287      2.2545    162.6251     27.3627
   870.0000      7.9102      2.6261      0.0810      1.4508    165.5540     26.9376
   870.1000      7.9102      2.6270      0.1518      1.3953    168.0426     27.0238
   870.2000      7.9102      2.6223      0.1159      1.6816    168.9040     27.3395
   870.3000      7.9071      2.6271      0.0904      1.3887    169.0021     27.5190
   870.4000      7.9071      2.6433      0.1310      0.4073    167.2952     27.5620
   870.5000      7.9112      2.6501      0.1217     -0.0068    164.5379     27.6956
   870.6000      7.9112      2.6348      0.0946      0.9202    165.3734     28.0310
   870.7000      7.9112      2.6067      0.0875      2.6263    170.2586     28.3260
   870.8000      7.9192      2.5832      0.0450      4.0497    172.4829     28.1341
   870.9000      7.9192      2.5688      0.0490      4.9224    168.7117     27.4933
   871.0000      7.8993      2.5527      0.0198      5.8953    164.8460     27.0087
   871.1000      7.8993      2.5393     -0.0069      6.7083    165.4907     26.8849
   871.2000      7.8993      2.5394      0.0321      6.7028    166.4322     26.8563
   871.3000      7.8952      2.5389      0.0260      6.7342    165.0979     26.8421
   871.4000      7.8952      2.5233      0.0303      7.6793    165.2807     26.7926
   871.5000      7.9164      2.5036      0.0408      8.8737    167.7544     26.5365
   871.6000      7.9164      2.4944     -0.0017      9.4327    169.8273     26.2627
   871.7000      7.9164      2.4961     -0.0064      9.3285    171.1284     26.3914
   871.8000      7.9271      2.5064     -0.0132      8.7036    173.1044     26.7571
   871.9000      7.9271      2.5227      0.0380      7.7149    177.7206     26.8841
   872.0000      7.9233      2.5330      0.0224      7.0937    182.9851     26.8463
   872.1000      7.9233      2.5343     -0.0016      7.0095    185.1684     26.9455
   872.2000      7.9233      2.5371      0.0133      6.8401    185.7446     27.2136
   872.3000      7.9107      2.5460      0.0301      6.3057    188.3244     27.4027
   872.4000      7.9107      2.5622      0.0588      5.3234    191.9591     27.3140
   872.5000      7.9201      2.5858      0.0651      3.8916    191.3942     27.3194
   872.6000      7.9201      2.6083      0.0646      2.5278    184.5262     27.7779
   872.7000      7.9201      2.6181      0.0771      1.9310    174.5648     28.2881
   872.8000      7.9340      2.6153      0.0676      2.1005    167.4528     28.4322
   872.9000      7.9340      2.6128      0.0342      2.2561    165.7121     28.4765
   873.0000      7.9214      2.6236      0.0451      1.5972    165.5939     28.6343
   873.1000      7.9214      2.6545      0.0436     -0.2731    163.0588     28.7432
   873.2000      7.9214      2.7061      0.0677     -3.3971    158.2735     28.9180
   873.3000      7.9112      2.7616      0.1335     -6.7661    152.1072     29.4149
   873.4000      7.9112      2.8028      0.0750     -9.2633    144.3532     29.9411
   873.5000      7.9089      2.8372      0.1086    -11.3441    137.9961     29.9999
   873.6000      7.9089      2.8725      0.0750    -13.4839    135.9386     29.6196
   873.7000      7.9089      2.8941      0.0926    -14.7941    135.3394     29.0866
   873.8000      7.9059      2.8878      0.0094    -14.4112    133.2012     28.5203
   873.9000      7.9059      2.8644     -0.0173    -12.9914    130.9451     27.9176
