~Version Information
VERS.                      2.0: CWLS Log ASCII Standard - VERSION 2.0
WRAP.                       NO: One line per depth step
~Well Information Block
STRT.FT                -8.0000: 
STOP.FT              1323.7500: 
STEP.FT                 0.2500: 
NULL.                -999.2500: 
COMP.          Pioneer Natural Resources: COMPANY
WELL.              Geyser 41-2: WELL
FLD.           Purgatorie River: FIELD
LOC.           506' FNL & 1127' FEL--: LOCATION
PROV.                       CO: PROVINCE
CNTY.               Las Animas: COUNTRY
SRVC.          Patterson Wireline: SERVICE COMPANY
DATE.          Tue Dec 06 09:28:14 2005: LOG DATE
UWI.           08 071 08598 00: UNIQUE WELL ID
~Curve Information Block
DEPT.FT            0 000 00 00: Depth
CCL.                          : Casing Collar Locator
TT3.usec                      : CBL 3' Travel Time
AMP3.mV                       : CBL 3' Amplitude
GR.GAPI                       : Gamma Ray
~Parameter Information Block
~A  Depth       CCL         TT3         AMP3         GR     
# ...
   427.5000      0.0000    808.3689     11.8461    127.3046
   427.7500      0.0000    803.3714     11.8742    128.5773
   428.0000      0.0000    799.0994     11.8188    127.5664
   428.2500      0.0000    796.7194     11.6950    124.8389
   428.5000      0.0000    796.4681     11.5387    121.7952
   428.7500      0.0000    798.3938     11.3945    119.8679
   429.0000      0.0000    802.3380     11.3005    119.9640
   429.2500      0.0000    807.1666     11.2723    121.8833
   429.5000      0.0000    810.5909     11.2985    124.1238
   429.7500      0.0000    810.5585     11.3546    124.4674
   430.0000      0.0000    807.0418     11.4210    121.3033
   430.2500      0.0000    802.0509     11.4876    115.1665
   430.5000      0.0000    797.8126     11.5443    109.1977
   430.7500      0.0000    795.2618     11.5714    107.5099
   431.0000      0.0000    794.0971     11.5450    112.2040
   431.2500      0.0000    793.6379     11.4567    121.3248
   431.5000      0.0000    793.3710     11.3283    129.6724
   431.7500      0.0000    792.9693     11.2019    132.3738
   432.0000      0.0000    792.0983     11.1092    128.4357
   432.2500      0.0000    790.3956     11.0498    121.1153
   432.5000      0.0000    787.8152     10.9992    114.9926
   432.7500      0.0000    784.9638     10.9355    112.7103
   433.0000      0.0000    782.6409     10.8543    114.1013
   433.2500      0.0000    780.6883     10.7644    117.6035
   433.5000      0.0000    777.6852     10.6790    121.8601
   433.7500      0.0000    772.3729     10.6113    126.0902
   434.0000      0.0000    765.2297     10.5706    129.8541
   434.2500      0.0000    758.1888     10.5577    133.0163
   434.5000      0.0000    752.9498     10.5673    135.4666
   434.7500      0.0000    749.9136     10.5958    136.5444
   435.0000      0.0000    748.5093     10.6410    135.2119
   435.2500      0.0000    748.0057     10.6947    131.2343
   435.5000      0.0000    747.9160     10.7410    125.8841
   435.7500      0.0000    747.9747     10.7668    121.1599
   436.0000      0.0000    747.9874     10.7729    118.4104
   436.2500      0.0000    747.7000     10.7721    117.6921
   436.5000      0.0000    746.6846     10.7779    118.0835
   436.7500      0.0000    744.3767     10.7980    118.4240
   437.0000      0.0000    740.5371     10.8367    118.0010
   437.2500      0.0000    736.0033     10.8979    116.8954
   437.5000      0.0000    732.7635     10.9829    115.8238
   437.7500      0.0000    732.6257     11.0866    115.5335
   438.0000      0.0000    735.5511     11.1970    116.2539
   438.2500      0.0000    739.5985     11.3025    117.5802
   438.5000      0.0000    742.5154     11.4022    118.7971
   438.7500      0.0000    743.1777     11.5099    119.4827
   439.0000      0.0000    741.8912     11.6419    119.9171
   439.2500      0.0000    740.0007     11.8005    120.6008
   439.5000      0.0000    739.1097     11.9706    121.1685
   439.7500      0.0000    740.0146     12.1311    120.1020
   440.0000      0.0000    742.1873     12.2677    115.9650
   440.2500      0.0000    744.4467     12.3722    108.9841
   440.5000      0.0000    746.0148     12.4336    101.2739
   440.7500      0.0000    746.8297     12.4370     95.5050
   441.0000      0.0000    747.1577     12.3789     93.4604
   441.2500      0.0000    747.2104     12.2840     95.6501
   441.5000      0.0000    747.0782     12.1979    101.5134
   441.7500      0.0000    746.8143     12.1539    109.2652
   442.0000      0.0000    746.4800     12.1377    115.8307
   442.2500      0.0000    746.1387     12.0831    117.8747
   442.5000      0.0000    745.8410     11.9078    113.5463
   442.7500      0.0000    745.6208     11.5680    103.4911
   443.0000      0.0000    745.4847     11.0946     90.4181
   443.2500      0.0000    745.4067     10.5826     77.6346
   443.5000      0.0000    745.3524     10.1406     67.3666
   443.7500      0.0000    745.3130      9.8322     59.9893
   444.0000      0.0000    745.3055      9.6515     54.9820
   444.2500      0.0000    745.3445      9.5511     52.5713
   444.5000      0.0000    745.4283      9.4956     54.0254
   444.7500      0.0000    745.5504      9.4904     60.3564
   445.0000      0.0000    745.7001      9.5684     71.1206
   445.2500      0.0000    745.8480      9.7657     84.4838
   445.5000      0.0000    745.9486     10.1144     98.2152
   445.7500      0.0000    745.9666     10.6411    110.6337
   446.0000      0.0000    745.8925     11.3437    120.8018
   446.2500      0.0000    745.7419     12.1541    127.9586
   446.5000      0.0000    745.5549     12.9266    130.9984
   446.7500      0.0000    745.3810     13.4859    128.9221
   447.0000      0.0000    745.2504     13.7218    122.1013
   447.2500      0.0000    745.1602     13.6565    112.8168
   447.5000      0.0000    745.0930     13.4214    103.8941
   447.7500      0.0000    745.0367     13.1699     96.6694
   448.0000      0.0000    744.9804     13.0010     90.5617
   448.2500      0.0000    744.9073     12.9401     84.4182
   448.5000      0.0000    744.8084     12.9596     77.7739
   448.7500      0.0000    744.6993     13.0110     70.9539
   449.0000      0.0000    744.6169     13.0443     64.5205
   449.2500      0.0000    744.5918     13.0183     58.8588
   449.5000      0.0000    744.6218     12.9114     54.1646
   449.7500      0.0000    744.6736     12.7346     50.6432
   450.0000      0.0000    744.7109     12.5285     48.6186
   450.2500      0.0000    744.7153     12.3348     48.3709
   450.5000      0.0000    744.6850     12.1666     49.7963
   450.7500      0.0000    744.6234     12.0052     52.2717
   451.0000      0.0000    744.5330     11.8286     55.0961
   451.2500      0.0000    744.4172     11.6363     58.1158
   451.5000      0.0000    744.2839     11.4456     61.5745
   451.7500      0.0000    744.1452     11.2688     65.2150
   452.0000      0.0000    744.0111     11.1021     67.9473
   452.2500      0.0000    743.8876     10.9367     68.5869
   452.5000      0.0000    743.7790     10.7747     66.6577
   452.7500      0.0000    743.6899     10.6359     62.5021
   453.0000      0.0000    743.6232     10.5503     57.0247
   453.2500      0.0000    743.5784     10.5412     51.4276
   453.5000      0.0000    743.5547     10.6097     46.8967
   453.7500      0.0000    743.5599     10.7389     44.2865
   454.0000      0.0000    743.6125     10.9122     43.8885
   454.2500      0.0000    743.7315     11.1238     45.2652
   454.5000      0.0000    743.9207     11.3718     47.4349
   454.7500      0.0000    744.1668     11.6490     49.6489
   455.0000      0.0000    744.4504     11.9416     52.1078
   455.2500      0.0000    744.7559     12.2345     55.8800
   455.5000      0.0000    745.0664     12.5182     62.3095
   455.7500      0.0000    745.3528     12.7873     72.4955
   456.0000      0.0000    745.5771     13.0345     86.7089
   456.2500      0.0000    745.7182     13.2448    103.6733
   456.5000      0.0000    745.7991     13.4004    120.4696
   456.7500      0.0000    745.8804     13.4868    133.5755
   457.0000      0.0000    746.0172     13.4978    140.5706
   457.2500      0.0000    746.2098     13.4393    141.4099
   457.5000      0.0000    746.3600     13.3285    138.2687
   457.7500      0.0000    746.2222     13.1764    133.9709
   458.0000      0.0000    745.4224     12.9546    130.3196
   458.2500      0.0000    743.7294     12.5743    127.6790
   458.5000      0.0000    741.8240     11.9383    125.6952
   458.7500      0.0000    742.1733     11.0749    123.9621
   459.0000      0.0000    748.7669     10.2083    122.2643
   459.2500      0.0000    764.7570      9.6093    120.9239
   459.5000      0.0000    789.2534      9.3573    120.7891
   459.7500      0.0000    816.4954      9.3134    122.0593
   460.0000      0.0000    839.3573      9.3102    123.1016
   460.2500      0.0000    854.3087      9.2853    121.4756
   460.5000      0.0000    862.4634      9.2510    116.5671
   460.7500     -2.0000    865.9633      9.2323    110.6699
