~Version Information
VERS.                      2.0: CWLS Log ASCII Standard - VERSION 2.0
WRAP.                       NO: One line per depth step
~Well Information Block
STRT.FT                 0.0000: 
STOP.FT              2473.5000: 
STEP.FT                 0.2500: 
NULL.                -999.2500: 
COMP.          Petrogulf Corporation: COMPANY
WELL.          Montoya 18-11V-B: WELL
FLD.           Purgatorie River: FIELD
LOC.           848' FNL & 619' FWL: LOCATION
PROV.                 Colorado: PROVINCE
CNTY.               Las Animas: COUNTRY
SRVC.                Patterson: SERVICE COMPANY
DATE.          Wed Nov 09 10:15:13 2005: LOG DATE
UWI.                          : UNIQUE WELL ID
~Curve Information Block
DEPT.FT            0 000 00 00: Depth
CCL.                          : Casing Collar Locator
TT3.usec                      : CBL 3' Travel Time
AMP3.mV                       : CBL 3' Amplitude
GR.GAPI                       : Gamma Ray
~Parameter Information Block
~A  Depth       CCL         TT3         AMP3         GR     
# ...
  1809.0000      0.0000    739.4048      2.5203     53.2793
  1809.2500      0.0000    734.3752      2.3274     57.9441
  1809.5000      0.0000    728.8235      2.1050     66.5159
  1809.7500      0.0000    727.5533      1.9247     77.8115
  1810.0000      0.0000    727.8787      1.8274     90.1823
  1810.2500      0.0000    728.5939      1.8162    101.9866
  1810.5000      0.0000    736.1071      1.8906    111.8614
  1810.7500      0.0000    755.8240      2.0475    118.8011
  1811.0000      0.0000    779.3044      2.2722    122.2940
  1811.2500      0.0000    785.9735      2.5350    122.7894
  1811.5000      0.0000    770.2201      2.7939    121.9627
  1811.7500      0.0000    754.4066      3.0317    121.8391
  1812.0000      0.0000    758.4735      3.3061    123.2020
  1812.2500      0.0000    774.3571      3.7181    125.0346
  1812.5000      0.0000    781.5821      4.3117    125.6596
  1812.7500      0.0000    775.2614      5.0444    124.2437
  1813.0000      0.0000    767.7828      5.8433    121.1714
  1813.2500      0.0000    766.1126      6.6213    117.3283
  1813.5000      0.0000    762.7094      7.2462    113.2971
  1813.7500      0.0000    749.4026      7.6183    109.2974
  1814.0000      0.0000    726.5969      7.8118    105.8246
  1814.2500      0.0000    703.9853      8.0331    103.9608
  1814.5000      0.0000    697.1010      8.3971    104.6654
  1814.7500      0.0000    714.0640      8.7926    107.8591
  1815.0000      0.0000    744.7532      8.9700    112.4426
  1815.2500      0.0000    767.4565      8.7236    117.1100
  1815.5000      0.0000    766.5450      8.0387    121.1080
  1815.7500      0.0000    745.1418      7.1127    124.5639
  1816.0000      0.0000    721.7935      6.2081    128.2383
  1816.2500      0.0000    712.8705      5.4455    132.6186
  1816.5000      0.0000    721.4988      4.7693    136.9814
  1816.7500      0.0000    741.4943      4.1059    139.4921
  1817.0000      0.0000    767.9819      3.4623    138.4489
  1817.2500      0.0000    804.6245      2.8833    133.5361
  1817.5000      0.0000    846.8849      2.3979    125.9013
  1817.7500      0.0000    869.2368      2.0112    117.1449
  1818.0000      0.0000    863.3046      1.7201    108.3617
  1818.2500      0.0000    858.5879      1.5433    100.1244
  1818.5000      0.0000    874.3604      1.5280     93.0586
  1818.7500      0.0000    898.8713      1.7088     88.0590
  1819.0000      0.0000    916.7632      2.0711     85.9026
  1819.2500      0.0000    919.2773      2.5724     86.8784
  1819.5000      0.0000    903.3381      3.1848     90.8959
  1819.7500      0.0000    867.0726      3.9275     97.7981
  1820.0000      0.0000    808.9247      4.9228    107.4042
  1820.2500      0.0000    740.5723      6.3469    119.2349
  1820.5000      0.0000    679.8297      8.2686    132.0252
  1820.7500      0.0000    623.7318     10.6579    143.3838
  1821.0000      0.0000    554.2574     13.4744    150.3572
  1821.2500      0.0000    472.7817     16.5643    151.0952
  1821.5000      0.0000    403.0414     19.5650    146.1147
  1821.7500      0.0000    360.5880     22.1012    137.7971
  1822.0000      0.0000    341.3555     24.0612    128.9919
  1822.2500      0.0000    334.5942     25.5453    122.0417
  1822.5000      0.0000    332.2779     26.6009    118.0929
  1822.7500      0.0000    330.1218     27.2202    116.7355
  1823.0000      0.0000    327.2860     27.4834    116.4636
  1823.2500      0.0000    325.8894     27.4878    115.4980
  1823.5000      0.0000    327.6208     27.2195    112.4413
  1823.7500      0.0000    331.0322     26.5645    107.1124
  1824.0000      0.0000    334.5682     25.4162    101.1523
  1824.2500      0.0000    339.8115     23.8346     97.1007
  1824.5000      0.0000    349.2595     22.0820     96.3218
  1824.7500      0.0000    363.2540     20.4344     97.8536
  1825.0000      0.0000    385.0199     18.9954     99.0821
  1825.2500      0.0000    429.5925     17.6534     97.2821
  1825.5000      0.0000    513.5469     16.1977     90.8566
  1825.7500      0.0000    624.7733     14.5576     79.9677
  1826.0000      0.0000    720.9729     12.8581     66.5396
  1826.2500      0.0000    771.1264     11.2426     53.5522
  1826.5000      0.0000    776.9127      9.7845     43.7716
  1826.7500      0.0000    756.2266      8.5484     38.5387
  1827.0000      0.0000    729.3404      7.6022     37.3701
  1827.2500      0.0000    710.7297      6.9510     38.6601
  1827.5000      0.0000    702.7903      6.5236     40.8435
  1827.7500      0.0000    700.7877      6.2166     42.9825
  1828.0000      0.0000    700.7975      5.9353     44.5431
  1828.2500      0.0000    701.8571      5.6310     45.1573
  1828.5000      0.0000    705.3079      5.3193     44.9056
  1828.7500      0.0000    714.0496      5.0347     44.4853
  1829.0000      0.0000    729.2085      4.7778     44.5996
  1829.2500      0.0000    745.5046      4.5529     45.2713
  1829.5000      0.0000    755.6609      4.3912     46.2103
  1829.7500      0.0000    761.2416      4.2941     47.8693
  1830.0000      0.0000    768.7223      4.2228     51.7001
  1830.2500      0.0000    773.6769      4.1652     59.2998
  1830.5000      0.0000    763.3193      4.1661     71.5154
  1830.7500      0.0000    736.3820      4.2603     88.1040
  1831.0000      0.0000    706.3751      4.4104    107.5053
  1831.2500      0.0000    685.9327      4.5575    126.7808
  1831.5000      0.0000    677.5643      4.7042    142.4594
  1831.7500      0.0000    676.1144      4.8882    151.9304
  1832.0000      0.0000    676.8359      5.0868    154.1389
  1832.2500      0.0000    680.3214      5.2169    149.4806
  1832.5000      0.0000    687.6899      5.2192    139.7106
  1832.7500      0.0000    696.8021      5.0875    127.7993
  1833.0000      0.0000    705.1904      4.8638    117.0630
  1833.2500      0.0000    711.8070      4.6356    109.8427
  1833.5000      0.0000    717.1368      4.4747    106.6890
  1833.7500      0.0000    722.2735      4.3776    106.4638
  1834.0000      0.0000    726.1408      4.3047    107.2067
  1834.2500      0.0000    725.8529      4.2482    107.4593
  1834.5000      0.0000    719.6088      4.2161    107.1029
  1834.7500      0.0000    707.9686      4.1880    106.8146
  1835.0000      0.0000    693.4266      4.1527    106.8232
  1835.2500      0.0000    679.8392      4.1401    106.7252
  1835.5000      0.0000    671.7903      4.1855    106.4828
  1835.7500      0.0000    672.9427      4.3347    106.7985
  1836.0000      0.0000    684.0557      4.6248    108.1306
  1836.2500      0.0000    700.2208      4.9907    110.0164
  1836.5000      0.0000    711.0634      5.3358    111.9119
  1836.7500      0.0000    710.0486      5.6700    114.1843
  1837.0000      0.0000    703.8201      5.9737    117.5903
  1837.2500      0.0000    705.3354      6.1955    121.9040
  1837.5000      0.0000    716.8793      6.4517    125.5844
  1837.7500      0.0000    727.1580      6.8069    127.0708
  1838.0000      0.0000    728.0822      7.1108    126.2907
  1838.2500      2.0000    728.0559      7.2825    124.6682
  1838.5000     -2.0000    739.3157      7.4148    123.7625
  1838.7500      0.0000    756.5665      7.5570    124.2074
  1839.0000      0.0000    762.1824      7.5946    125.7368
  1839.2500      0.0000    748.1443      7.4083    127.7184
  1839.5000      0.0000    724.8011      7.0367    129.5847
  1839.7500      0.0000    707.5709      6.5692    131.0184
  1840.0000      0.0000    696.6302      6.1308    131.8933
  1840.2500      0.0000    682.6989      5.9370    132.1455
  1840.5000      0.0000    668.2256      5.9848    131.7906
  1840.7500      0.0000    661.7115      5.9913    131.1720
  1841.0000      0.0000    662.2079      5.8189    131.1715
  1841.2500      0.0000    664.0269      5.5788    132.8218
  1841.5000      0.0000    664.9964      5.3565    136.3002
  1841.7500      0.0000    665.2278      5.1236    140.3677
  1842.0000      0.0000    664.8122      4.8562    143.1384
  1842.2500      0.0000    664.5991      4.5789    143.4737
