~Version Information
 VERS.                                  2.0 : CWLS LAS VERSION
 WRAP.                                   NO : WRAPING MODE
 SWARE .                 MController 2.5.0N : SOFTWARE VERSION
~Well Information
 WELL.                      Pavillion 44-25 : WELL
 COMP.    Pioneer Natural Resouces USA Inc. : COMPANY
 FLD.                      Purgatoire River : FIELD
 LOC.             SW/SW Sec 25 , T34S, R65W : LOCATION
 DATE.                             12/13/05 : DATE(S) LOGGED
 SRVC.       BLANCO Geological Services LLC : SERVICE COMPANY
 STAT.                                   CO : STATE
 CNTY.                           Las Animas : COUNTY
 CTRY.                                  USA : COUNTRY
 API.                          05-071-08624 : API NUMBER
 STRT.FT                             258.00 : START DEPTH
 STOP.FT                            1100.00 : STOP DEPTH
 STEP.FT                               1.00 : DEPTH INCREMENT
 NULL.                                -9999 : NULL VALUE
~Curve information
 DEPTH.FT                                   :
 ROP.MIN/FT                                 :
 GAS.UNITS                                  :
~ASCII Log data    
# ...
       858.0         0.20          1.9 
       859.0         0.50          1.4 
       860.0         0.10          1.0 
       861.0         3.25          2.1 
       862.0         0.40          2.3 
       863.0         0.42          2.2 
       864.0         0.37         14.3 
       865.0         0.33          1.1 
       866.0         0.33          1.7 
       867.0         0.30          1.5 
       868.0         0.27          2.0 
       869.0         0.37          2.2 
       870.0         0.50          2.7 
       871.0         0.47          2.6 
       872.0         0.32          2.6 
       873.0         0.33          2.6 
       874.0         0.37          2.5 
       875.0         0.30          2.1 
       876.0         0.37          2.2 
       877.0         0.37          2.0 
       878.0         0.37          2.3 
       879.0         0.37          2.1 
       880.0         0.33          2.5 
       881.0         0.17          2.2 
       882.0         0.22          2.4 
       883.0         0.27          2.2 
       884.0         0.30          2.3 
       885.0         0.30          2.6 
       886.0         0.20          3.1 
       887.0         0.20         51.3 
       888.0         0.27          2.6 
       889.0         0.27          1.2 
       890.0         0.37          1.4 
       891.0         3.58          2.2 
       892.0         0.43          2.0 
       893.0         0.40          2.4 
       894.0         0.38          2.1 
       895.0         0.37          2.5 
       896.0         0.40          2.3 
       897.0         0.37          2.2 
       898.0         0.37          2.3 
       899.0         0.37          1.9 
       900.0         0.33          2.0 
       901.0         0.40          2.6 
       902.0         0.45          2.3 
       903.0         0.40          2.3 
       904.0         0.40          2.2 
       905.0         0.40          2.2 
       906.0         0.40          2.4 
       907.0         0.37          2.7 
       908.0         0.40          3.1 
       909.0         0.37          2.4 
       910.0         0.37          2.5 
       911.0         0.38          2.2 
       912.0         0.37          2.9 
       913.0         0.40          2.6 
       914.0         0.40          2.5 
       915.0         0.47          2.4 
       916.0         0.43          2.0 
       917.0         0.43          2.6 
       918.0         0.47         22.9 
       919.0         0.28          0.8 
       920.0         0.40          1.5 
       921.0         4.62          2.3 
       922.0         0.47          2.3 
       923.0         0.47          2.5 
       924.0         0.50          2.3 
       925.0         0.48          2.4 
       926.0         0.47          2.3 
       927.0         0.43          2.3 
       928.0         0.47          2.6 
       929.0         0.43          2.3 
       930.0         0.43          2.3 
       931.0         0.40          2.6 
       932.0         0.42          2.7 
       933.0         0.37          2.6 
       934.0         0.37          2.5 
       935.0         0.40          2.4 
       936.0         0.37          2.5 
       937.0         0.37          2.3 
       938.0         0.37          2.4 
       939.0         0.40          2.7 
       940.0         0.33          2.2 
       941.0         0.42          2.2 
       942.0         0.37          2.3 
       943.0         0.37          1.9 
       944.0         0.37          2.3 
       945.0         0.37          2.0 
       946.0         0.40         90.5 
       947.0         0.37        149.1 
       948.0         0.33          3.0 
       949.0         0.50          0.6 
       950.0         0.62          1.1 
       951.0         3.18          2.3 
       952.0         0.53          2.1 
       953.0         0.50          2.3 
       954.0         0.43          2.1 
       955.0         0.50          2.2 
       956.0         0.47          2.1 
       957.0         0.50          2.1 
       958.0         0.52          2.5 
       959.0         0.37          2.1 
       960.0         0.40          2.2 
       961.0         0.40          2.5 
       962.0         0.40          2.5 
       963.0         0.37          2.3 
       964.0         0.33          2.6 
       965.0         0.33          2.4 
       966.0         0.38          2.6 
       967.0         0.37          2.3 
       968.0         0.33          2.6 
       969.0         0.33          2.5 
       970.0         0.37          2.5 
       971.0         0.40          2.8 
       972.0         0.40          2.0 
       973.0         0.33          2.3 
       974.0         0.37          2.5 
       975.0         0.33          2.0 
       976.0         0.35          2.5 
       977.0         0.30         32.6 
       978.0         0.30         17.2 
       979.0         0.27          0.8 
       980.0         0.27          2.0 
       981.0         4.08          2.6 
       982.0         0.80          2.5 
       983.0         0.45          2.3 
       984.0         0.47          1.8 
       985.0         0.43          2.0 
       986.0         0.47          2.3 
       987.0         0.50          2.2 
       988.0         0.40          2.2 
       989.0         0.37          2.0 
       990.0         0.33          2.1 
       991.0         0.38          2.3 
       992.0         0.37          2.3 
       993.0         0.33          2.6 
       994.0         0.37          2.2 
       995.0         0.37          2.1 
       996.0         0.30          2.5 
       997.0         0.30          2.1 
       998.0         0.30          2.4 
       999.0         0.47          2.8 
      1000.0         0.33          2.0 
      1001.0         0.38          2.3 
      1002.0         0.30          2.4 
      1003.0         0.37          2.3 
      1004.0         0.47          2.4 
      1005.0         0.40          2.4 
      1006.0         0.33         10.2 
      1007.0         0.37         84.2 
      1008.0         0.37          6.4 
      1009.0         0.37          0.9 
      1010.0         0.65          2.2 
      1011.0         3.48          2.7 
      1012.0         0.50          3.1 
      1013.0         0.40          2.0 
      1014.0         0.37          2.2 
      1015.0         0.37          2.4 
      1016.0         0.33          2.4 
      1017.0         0.43          2.5 
      1018.0         0.38          2.5 
      1019.0         0.37          2.5 
      1020.0         0.30          2.3 
      1021.0         0.33          2.3 
      1022.0         0.33          2.0 
      1023.0         0.30          2.3 
      1024.0         0.37          2.1 
      1025.0         0.40          2.4 
      1026.0         0.50          2.2 
      1027.0         0.33          2.1 
      1028.0         0.32          2.1 
      1029.0         0.37          2.1 
      1030.0         0.37          2.2 
      1031.0         0.33          2.0 
      1032.0         0.30          2.3 
      1033.0         0.33          2.4 
      1034.0         0.30          1.9 
      1035.0         0.33          2.3 
      1036.0         0.30          2.2 
      1037.0         0.33          2.6 
      1038.0         0.38          2.5 
      1039.0         0.27          2.5 
      1040.0         0.27          2.2 
      1041.0         5.58          2.5 
      1042.0         0.45          2.0 
      1043.0         0.70          1.9 
      1044.0         0.40          2.3 
      1045.0         0.33          2.8 
      1046.0         0.33          2.5 
      1047.0         0.33          2.2 
      1048.0         0.33          2.3 
      1049.0         0.33          2.2 
      1050.0         0.30          2.2 
      1051.0         0.32          2.3 
      1052.0         0.30          2.3 
      1053.0         0.33          2.3 
      1054.0         0.27          2.1 
      1055.0         0.30          2.0 
      1056.0         0.30          2.2 
      1057.0         0.30          2.3 
