~Version Information
VERS.                      2.0: CWLS Log ASCII Standard - VERSION 2.0
WRAP.                       NO: One line per depth step
~Well Information Block
STRT.FT                -9.2500: 
STOP.FT              1854.7500: 
STEP.FT                 0.2500: 
NULL.                -999.2500: 
COMP.          Pioneer Natural Resources: COMPANY
WELL.          State Wildlife 32-16 Tr: WELL
FLD.           Purgatoire River: FIELD
LOC.           1838' FNL & 1850' FEL--: LOCATION
STAT.                       CO: State
CNTY.               Las Animas: COUNTY
CTRY. USA : Country
SECT. 16 : Section
TOWN. 32S : Township
RANG. 66W : Range
SRVC.          Patterson Wireline: SERVICE COMPANY
DATE.          Tue Nov 22 10:17:13 2005: LOG DATE
API.           05 071 08568 00: UNIQUE WELL ID
~Curve Information Block
DEPT.FT            0 000 00 00: Depth
CCL.                          : Casing Collar Locator
TT3.usec                      : CBL 3' Travel Time
AMP3.mV                       : CBL 3' Amplitude
GR.GAPI                       : Gamma Ray
~Parameter Information Block
~A  Depth       CCL         TT3         AMP3         GR     
# ...
   861.7500      0.0000    759.8865      8.0476     92.1917
   862.0000      0.0000    755.4627      8.2136     95.3442
   862.2500      0.0000    752.1683      8.3913     97.9481
   862.5000      0.0000    751.1982      8.5356     99.3757
   862.7500      0.0000    752.2914      8.6328     99.0788
   863.0000      0.0000    754.0868      8.6919     96.9224
   863.2500      0.0000    754.9691      8.7195     93.8813
   863.5000      0.0000    754.3196      8.7166     91.9665
   863.7500      0.0000    753.2271      8.6918     93.2495
   864.0000      0.0000    753.8231      8.6628     98.5634
   864.2500      0.0000    757.7868      8.6425    106.5645
   864.5000      0.0000    765.3826      8.6305    114.1278
   864.7500      0.0000    775.7807      8.6184    118.4989
   865.0000      0.0000    788.4878      8.5994    119.4833
   865.2500      0.0000    804.0087      8.5709    119.3205
   865.5000      0.0000    821.6550      8.5313    120.5293
   865.7500      0.0000    836.4116      8.4795    124.1338
   866.0000      0.0000    840.5557      8.4223    129.3739
   866.2500      0.0000    830.6718      8.3787    134.3000
   866.5000      0.0000    811.5749      8.3663    136.8799
   866.7500      0.0000    791.5568      8.3807    136.2176
   867.0000      0.0000    775.5140      8.3980    132.8728
   867.2500      0.0000    763.9240      8.4020    128.0814
   867.5000      0.0000    755.8817      8.3992    122.8640
   867.7500      0.0000    750.7823      8.3998    117.7717
   868.0000      0.0000    748.0092      8.3998    113.1070
   868.2500      0.0000    746.6956      8.3974    109.1121
   868.5000      0.0000    746.0864      8.4178    105.9453
   868.7500      0.0000    745.7709      8.4990    103.6129
   869.0000      0.0000    745.6121      8.6543    101.9166
   869.2500      0.0000    745.5529      8.8588    100.2963
   869.5000      0.0000    745.5324      9.0684     97.7773
   869.7500      0.0000    745.5215      9.2447     93.5508
   870.0000      0.0000    745.6212      9.3737     87.9265
   870.2500      0.0000    746.1468      9.4759     82.4631
   870.5000      0.0000    747.6655      9.5948     78.8047
   870.7500      0.0000    750.9078      9.7662     77.4792
   871.0000      0.0000    756.4027      9.9925     78.1204
   871.2500      0.0000    763.8693     10.2481     80.5995
   871.5000      0.0000    771.9563     10.5023     85.1404
   871.7500      0.0000    778.9369     10.7290     91.0468
   872.0000      0.0000    784.1961     10.8892     96.0839
   872.2500      0.0000    789.6028     10.9085     97.9047
   872.5000      0.0000    800.2903     10.6922     96.1201
   872.7500      0.0000    823.8486     10.1897     92.9159
   873.0000      0.0000    865.7875      9.4598     91.6676
   873.2500      0.0000    921.4656      8.6699     94.4517
   873.5000      0.0000    972.2547      8.0184    100.3520
   873.7500      0.0000    995.0786      7.6385    106.3512
   874.0000      0.0000    981.0020      7.5496    110.1139
   874.2500      0.0000    943.8143      7.6750    111.7205
   874.5000      0.0000    907.0241      7.8999    112.9955
   874.7500      0.0000    882.5720      8.1253    115.8501
   875.0000      0.0000    865.2128      8.2876    121.0757
   875.2500      0.0000    846.4901      8.3493    127.9638
   875.5000      0.0000    828.3421      8.2815    134.8774
   875.7500      0.0000    820.6843      8.0627    140.3183
   876.0000      0.0000    829.5390      7.7053    143.3921
   876.2500      0.0000    850.6788      7.2728    143.5425
   876.5000      0.0000    874.0093      6.8311    140.3704
   876.7500      0.0000    892.1987      6.3757    133.6534
   877.0000      0.0000    904.4891      5.8581    123.3281
   877.2500      0.0000    914.3835      5.2870    109.8605
   877.5000      0.0000    926.7672      4.7463     94.9038
   877.7500      2.0000    945.4677      4.3141     81.0665
   878.0000      0.0000    970.2219      4.0089     70.5166
   878.2500      0.0000    996.8259      3.8048     63.8531
   878.5000      0.0000   1020.2383      3.6653     60.4072
   878.7500      0.0000   1034.8768      3.5797     59.4432
   879.0000      0.0000   1034.8163      3.5904     61.0291
   879.2500      0.0000   1019.6629      3.7702     65.7096
   879.5000      0.0000    998.7401      4.1593     73.0832
   879.7500      0.0000    982.9173      4.7454     81.0790
   880.0000      0.0000    972.2081      5.4992     87.4635
   880.2500      0.0000    957.0089      6.3995     92.0602
   880.5000      0.0000    931.8000      7.4240     96.6765
   880.7500      0.0000    902.1151      8.5394    102.7678
   881.0000      0.0000    876.5690      9.7004    109.9440
   881.2500      0.0000    856.9594     10.8470    116.8525
   881.5000      0.0000    839.4104     11.9040    122.6375
   881.7500      0.0000    821.9188     12.7901    127.0314
   882.0000      0.0000    806.7234     13.4338    129.7384
   882.2500      0.0000    796.4964     13.7962    130.6329
   882.5000      0.0000    791.3038     13.8954    130.4163
   882.7500      0.0000    789.2908     13.8079    130.1967
   883.0000      0.0000    788.5644     13.6379    130.2769
   883.2500      0.0000    787.9312     13.4781    130.0558
   883.5000      0.0000    786.5945     13.3800    129.2108
   883.7500      0.0000    783.7232     13.3356    128.2579
   884.0000      0.0000    778.5643     13.2811    127.7327
   884.2500      0.0000    771.1583     13.1319    127.3593
   884.5000      0.0000    762.8025     12.8310    126.1619
   884.7500      0.0000    755.4416     12.3709    123.2050
   885.0000      0.0000    750.4316     11.7890    118.4804
   885.2500      0.0000    747.9705     11.1604    113.3892
   885.5000      0.0000    747.5994     10.5827    110.1533
   885.7500      0.0000    748.8514     10.1358    110.3009
   886.0000      0.0000    751.1991      9.8356    113.3895
   886.2500      0.0000    753.6519      9.6304    117.0375
   886.5000      0.0000    755.0429      9.4502    118.5549
   886.7500      0.0000    755.1412      9.2638    117.2259
   887.0000      0.0000    755.2303      9.0854    115.1997
   887.2500      0.0000    757.0441      8.9273    115.6503
   887.5000      0.0000    761.0363      8.7567    119.7341
   887.7500      0.0000    766.0134      8.5072    125.4663
   888.0000      0.0000    770.5447      8.1406    129.4845
   888.2500      0.0000    774.3061      7.6918    129.6433
   888.5000      0.0000    777.7676      7.2430    126.2189
   888.7500      0.0000    781.1102      6.8528    121.3291
   889.0000      0.0000    784.3110      6.5228    117.3758
   889.2500      0.0000    788.5790      6.2327    115.5494
   889.5000      0.0000    797.7231      5.9853    115.2283
   889.7500      0.0000    817.7435      5.8056    114.5293
   890.0000      0.0000    852.7502      5.7079    111.6012
   890.2500      0.0000    898.5391      5.6790    105.9563
   890.5000      0.0000    940.7306      5.6915     99.1368
   890.7500      0.0000    962.6815      5.7295     94.3142
   891.0000      0.0000    956.8062      5.8016     94.8250
   891.2500      0.0000    928.2809      5.9305    102.2791
   891.5000      0.0000    889.7804      6.1299    115.4762
   891.7500      0.0000    853.4774      6.3950    130.8721
   892.0000      0.0000    825.1811      6.7074    144.4017
   892.2500      0.0000    803.7225      7.0441    153.6035
   892.5000      0.0000    785.6345      7.3862    158.5159
   892.7500      0.0000    769.7900      7.7210    160.5869
   893.0000      0.0000    757.4740      8.0299    161.0153
   893.2500      0.0000    749.7002      8.2772    160.4362
   893.5000      0.0000    745.8837      8.4257    159.5542
   893.7500      0.0000    744.7139      8.4713    158.9431
   894.0000      0.0000    745.4387      8.4564    158.0132
   894.2500      0.0000    748.4474      8.4478    154.9184
   894.5000      0.0000    754.9770      8.4944    148.1204
   894.7500      0.0000    766.3505      8.5963    137.9904
   895.0000      0.0000    783.0876      8.7106    126.6219
