~Version Information
VERS.                      2.0: CWLS Log ASCII Standard - VERSION 2.0
WRAP.                       NO: One line per depth step
~Well Information Block
STRT.FT                -7.5000: 
STOP.FT              1517.5000: 
STEP.FT                 0.2500: 
NULL.                -999.2500: 
COMP.          Pioneer Natural Resources: COMPANY
WELL.          McClaren 13-34 Tr: WELL
FLD.           Purgatorie River: FIELD
LOC.           1934' FSL & 826' WL--: LOCATION
PROV.                       CO: PROVINCE
CNTY.               Las Animas: COUNTRY
SRVC.          Patterson Wireline: SERVICE COMPANY
DATE.          Fri Jul 15 13:10:35 2005: LOG DATE
UWI.           05 071 08437 00: UNIQUE WELL ID
~Curve Information Block
DEPT.FT            0 000 00 00: Depth
CCL.                          : Casing Collar Locator
TT3.usec                      : CBL 3' Travel Time
AMP3.mV                       : CBL 3' Amplitude
GR.GAPI                       : Gamma Ray
~Parameter Information Block
~A  Depth       CCL         TT3         AMP3         GR     
# ...
   193.5000      0.0000    303.9175     28.3120     44.2723
   193.7500      0.0000    303.9323     28.2514     45.4875
   194.0000      0.0000    303.9521     28.2148     46.9644
   194.2500      0.0000    303.9760     28.1997     48.3589
   194.5000      0.0000    304.0024     28.2003     49.3379
   194.7500      0.0000    304.0264     28.2034     50.1120
   195.0000      0.0000    304.0388     28.1906     51.2440
   195.2500      0.0000    304.0316     28.1496     52.7957
   195.5000      0.0000    304.0038     28.0877     54.1664
   195.7500      0.0000    303.9622     28.0277     55.1864
   196.0000      0.0000    303.9180     27.9868     56.9983
   196.2500      0.0000    303.8821     27.9633     61.2955
   196.5000      0.0000    303.8654     27.9420     68.6674
   196.7500      0.0000    303.8764     27.9044     78.0048
   197.0000      0.0000    303.9156     27.8375     87.6013
   197.2500      0.0000    303.9717     27.7446     96.3941
   197.5000      0.0000    304.0266     27.6495    103.8960
   197.7500      0.0000    304.0687     27.5789    109.4537
   198.0000      0.0000    304.0995     27.5421    112.2949
   198.2500      0.0000    304.1248     27.5293    112.2788
   198.5000      0.0000    304.1420     27.5288    110.2587
   198.7500      0.0000    304.1388     27.5400    107.6867
   199.0000      0.0000    304.1040     27.5689    105.8161
   199.2500      0.0000    304.0394     27.6134    104.8542
   199.5000      0.0000    303.9633     27.6543    103.7924
   199.7500      0.0000    303.9019     27.6618    101.4929
   200.0000      0.0000    303.8752     27.6129     98.1477
   200.2500      0.0000    303.8859     27.5082     95.4498
   200.5000      0.0000    303.9252     27.3724     95.2481
   200.7500      0.0000    303.9830     27.2378     97.9815
   201.0000      0.0000    304.0528     27.1282    102.1855
   201.2500      0.0000    304.1263     27.0561    105.3602
   201.5000      0.0000    304.1925     27.0268    105.6332
   201.7500      0.0000    304.2418     27.0425    103.0892
   202.0000      0.0000    304.2681     27.0992     99.7739
   202.2500      0.0000    304.2671     27.1791     98.2471
   202.5000      0.0000    304.2413     27.2486     99.8503
   202.7500      0.0000    304.2042     27.2755    104.0595
   203.0000      0.0000    304.1724     27.2523    108.9930
   203.2500      0.0000    304.1552     27.1959    112.2243
   203.5000      0.0000    304.1557     27.1242    111.7454
   203.7500      0.0000    304.1724     27.0446    107.1213
   204.0000      0.0000    304.1934     26.9660    100.0603
   204.2500      0.0000    304.1995     26.9093     93.6060
   204.5000      0.0000    304.1786     26.8999     90.3988
   204.7500      0.0000    304.1332     26.9488     91.1701
   205.0000      0.0000    304.0761     27.0417     94.6411
   205.2500      0.0000    304.0269     27.1400     98.8852
   205.5000      0.0000    304.0098     27.1986    102.6533
   205.7500      0.0000    304.0404     27.1907    105.4427
   206.0000      0.0000    304.1101     27.1229    107.0363
   206.2500      0.0000    304.1906     27.0258    107.3859
   206.5000      0.0000    304.2554     26.9326    106.4332
   206.7500      0.0000    304.2933     26.8650    103.8524
   207.0000      0.0000    304.3062     26.8303     99.5758
   207.2500      0.0000    304.2992     26.8252     94.7960
   207.5000      0.0000    304.2784     26.8390     91.8858
   207.7500      0.0000    304.2549     26.8588     92.7763
   208.0000      0.0000    304.2444     26.8790     97.3568
   208.2500      0.0000    304.2539     26.9067    103.5445
   208.5000      0.0000    304.2721     26.9557    108.6389
   208.7500      0.0000    304.2773     27.0324    110.5721
   209.0000      0.0000    304.2559     27.1305    108.6441
   209.2500      0.0000    304.2091     27.2376    103.6666
   209.5000      0.0000    304.1475     27.3427     97.3113
   209.7500      0.0000    304.0846     27.4370     91.2353
   210.0000      0.0000    304.0328     27.5106     86.5613
   210.2500      0.0000    304.0009     27.5555     83.4573
   210.5000      0.0000    303.9931     27.5726     80.9230
   210.7500      0.0000    304.0082     27.5751     77.6020
   211.0000      0.0000    304.0354     27.5837     73.2932
   211.2500      0.0000    304.0550     27.6141     69.4495
   211.5000      0.0000    304.0511     27.6672     67.9564
   211.7500      0.0000    304.0264     27.7281     69.4570
   212.0000      0.0000    303.9986     27.7758     72.7295
   212.2500      0.0000    303.9833     27.7965     75.5134
   212.5000      0.0000    303.9817     27.7886     76.1356
   212.7500      0.0000    303.9887     27.7579     74.7248
   213.0000      0.0000    304.0041     27.7138     72.9651
   213.2500      0.0000    304.0278     27.6696     72.6020
   213.5000      0.0000    304.0515     27.6367     74.1775
   213.7500      0.0000    304.0657     27.6165     77.0485
   214.0000      0.0000    304.0716     27.6004     80.2522
   214.2500      0.0000    304.0757     27.5788     83.1185
   214.5000      0.0000    304.0963     27.5467     85.2669
   214.7500      0.0000    304.1919     27.4960     86.5681
   215.0000      0.0000    304.6519     27.3901     87.3847
   215.2500      0.0000    306.3618     27.1202     88.3696
   215.5000      0.0000    311.1594     26.4777     89.4862
   215.7500      0.0000    321.1870     25.2333     89.6298
   216.0000      0.0000    336.3472     23.3473     87.8964
   216.2500      0.0000    351.7215     21.1427     84.8267
   216.5000      0.0000    359.4149     19.1911     81.8248
   216.7500      0.0000    355.1639     17.9478     79.8177
   217.0000      0.0000    342.4577     17.4838     78.7992
   217.2500      0.0000    328.8748     17.5426     78.1140
   217.5000      0.0000    319.5321     17.7863     76.9456
   217.7500      0.0000    314.9427     17.9967     74.8987
   218.0000     -1.9196    313.2893     18.1455     72.1747
   218.2500      0.0000    312.8586     18.3778     69.2093
   218.5000      0.0000    312.7196     18.9555     66.5758
   218.7500      0.0000    312.4327     20.1155     65.2244
   219.0000      0.0000    311.7669     21.8289     66.0598
   219.2500      0.0000    310.6347     23.6759     68.9142
   219.5000      0.0000    309.1570     25.0975     72.3038
   219.7500      0.0000    307.6156     25.8374     74.5163
   220.0000      0.0000    306.2998     26.0703     75.0357
   220.2500      0.0000    305.3641     26.1220     74.9955
   220.5000      0.0000    304.8054     26.1875     76.1811
   220.7500      0.0000    304.5318     26.3059     79.3995
   221.0000      0.0000    304.4300     26.4619     83.7266
   221.2500      0.0000    304.3965     26.6403     87.3827
   221.5000      0.0000    304.3587     26.8285     89.2620
   221.7500      0.0000    304.2889     27.0175     89.6354
   222.0000      0.0000    304.1972     27.2086     89.6677
   222.2500      0.0000    304.1089     27.4106     90.5106
   222.5000      0.0000    304.0421     27.6312     92.7120
   222.7500      0.0000    303.9950     27.8775     96.2531
   223.0000      0.0000    303.9472     28.1568    101.0300
   223.2500      0.0000    303.8785     28.4682    107.0895
   223.5000      0.0000    303.7896     28.7933    114.0520
   223.7500      0.0000    303.6995     29.1041    120.4043
   224.0000      0.0000    303.6246     29.3789    124.0323
   224.2500      0.0000    303.5665     29.6082    123.8836
   224.5000      0.0000    303.5219     29.7926    120.8183
   224.7500      0.0000    303.4946     29.9481    116.5731
   225.0000      0.0000    303.4878     30.1075    112.0791
   225.2500      0.0000    303.4891     30.3035    107.1320
   225.5000      0.0000    303.4769     30.5459    101.4980
   225.7500      0.0000    303.4406     30.8149     95.5921
   226.0000      0.0000    303.3869     31.0713     89.8215
   226.2500      0.0000    303.3298     31.2686     83.9971
   226.5000      0.0000    303.2817     31.3683     77.7191
   226.7500      0.0000    303.2540     31.3651     70.9284
