~Version Information
VERS.                      2.0: CWLS Log ASCII Standard - VERSION 2.0
WRAP.                       NO: One line per depth step
~Well Information Block
STRT.FT               420.0000: 
STOP.FT              2888.7500: 
STEP.FT                 0.2500: 
NULL.                -999.2500: 
COMP.          Pioneer Natural Resources: COMPANY
WELL.          Touchstone 11-32: WELL
FLD.           Purgatoire River: FIELD
LOC.           853' FNL & 407' FWL--: LOCATION
CNTY.               Las Animas: COUNTY
SRVC.                Patterson: SERVICE COMPANY
DATE.          Thu Feb 23 14:02:36 2006: LOG DATE
UWI.           05 071 08564 00: UNIQUE WELL ID
STAT.                 Colorado: STATE
~Curve Information Block
DEPT.FT            0 000 00 00: Depth
SN.Ohm-m                      : IEL Short Normal
SP.mV                         : IEL Spontaneous Potential
DIR.Ohm-m                     : IEL Induction Resistivity
GR.GAPI                       : Gamma Ray
~Parameter Information Block
~A  Depth        SN          SP         DIR          GR     
# ...
  1391.5000   2000.0000   1974.0000     27.9980     87.4009
  1391.7500   2000.0000   1974.0000     27.6428     88.8579
  1392.0000   2000.0000   1974.0000     27.2616     93.4254
  1392.2500     35.6426   1974.0000     26.8277     97.7689
  1392.5000     34.6828   1974.0000     26.2998    105.4977
  1392.7500     33.6026   1974.0000     25.6500    110.5653
  1393.0000     32.4421   1974.0000     24.8846    116.3479
  1393.2500     31.2933   1974.0000     24.0487    118.7491
  1393.5000     30.2702   1974.0000     23.2135    121.4122
  1393.7500     29.4776   -156.5399     22.4559    123.3612
  1394.0000     28.9687   -155.9071     21.8369    126.2146
  1394.2500     28.7263   -154.9445     21.3909    127.0254
  1394.5000     28.6815   -153.7360     21.1223    125.3364
  1394.7500     28.7423   -152.3855     21.0084    122.4685
  1395.0000     28.8097   -150.9948     21.0039    116.6370
  1395.2500     28.7874   -149.6443     21.0460    112.2339
  1395.5000     28.6033   -148.3824     21.0620    105.8582
  1395.7500     28.2372   -147.2276     20.9820    102.6670
  1396.0000     27.7306   -146.1780     20.7580    100.5200
  1396.2500     27.1654   -145.2274     20.3792    100.6003
  1396.5000     26.6170   -144.3800     19.8724    101.9573
  1396.7500     26.1093   -143.6554     19.2837    103.5460
  1397.0000     25.6082   -143.0812     18.6581    107.4192
  1397.2500     25.0673   -142.6785     18.0305    111.0070
  1397.5000     24.4920   -142.4449     17.4308    116.9030
  1397.7500     23.9586   -142.3449     16.8896    120.2968
  1398.0000     23.5687   -142.3138     16.4388    123.6059
  1398.2500     23.3737   -142.2744     16.1062    124.7731
  1398.5000     23.3344   -142.1583     15.9107    126.0749
  1398.7500     23.3462   -141.9269     15.8615    127.0384
  1399.0000     23.3043   -141.5809     15.9574    127.8635
  1399.2500     23.1591   -141.1575     16.1870    126.9206
  1399.5000     22.9294   -140.7171     16.5266    121.9671
  1399.7500     22.6769   -140.3247     16.9408    116.7347
  1400.0000     22.4722   -140.0327     17.3867    108.7731
  1400.2500     22.3897   -139.8688     17.8220    105.2542
  1400.5000     22.5155   -139.8318     18.2153    104.4803
  1400.7500     22.9194   -139.8943     18.5497    106.9908
  1401.0000     23.5893   -140.0107     18.8177    113.9817
  1401.2500     24.3907   -140.1287     19.0096    119.5963
  1401.5000     25.1069   -140.2006     19.1095    127.4613
  1401.7500     25.5423   -140.1937     19.1026    131.5480
  1402.0000     25.6159   -140.0957     18.9865    135.4144
  1402.2500     25.3754   -139.9144     18.7738    136.5749
  1402.5000     24.9349   -139.6740     18.4872    136.7650
  1402.7500     24.4025   -139.4063     18.1546    136.2320
  1403.0000     23.8504   -139.1432     17.8075    134.9562
  1403.2500     23.3235   -138.9100     17.4783    134.0460
  1403.5000     22.8541   -138.7223     17.1939    133.1555
  1403.7500     22.4629   -138.5847     16.9692    133.3475
  1404.0000     22.1569   -138.4932     16.8051    135.4941
  1404.2500     21.9304   -138.4368     16.6909    138.0527
  1404.5000     21.7687   -138.3982     16.6081    142.2663
  1404.7500     21.6515   -138.3549     16.5372    144.3174
  1405.0000     21.5561   -138.2801     16.4643    145.0515
  1405.2500     21.4623   -138.1456     16.3875    143.7499
  1405.5000     21.3627   -137.9260     16.3177    139.4859
  1405.7500     21.2715   -137.6053     16.2751    135.6814
  1406.0000     21.2208   -137.1831     16.2835    129.7640
  1406.2500     21.2452   -136.6783     16.3649    126.3258
  1406.5000     21.3679   -136.1265     16.5362    122.7085
  1406.7500     21.5988   -135.5735     16.8066    121.4062
  1407.0000     21.9342   -135.0629     17.1743    120.2697
  1407.2500     22.3504   -134.6266     17.6227    119.1945
  1407.5000     22.7936   -134.2774     18.1163    116.0338
  1407.7500     23.1848   -134.0092     18.6035    112.8359
  1408.0000     23.4504   -133.8029     19.0287    106.9910
  1408.2500     23.5671   -133.6338     19.3514    102.9099
  1408.5000     23.5854   -133.4783     19.5639     97.8295
  1408.7500     23.6089   -133.3165     19.6958     96.2409
  1409.0000     23.7403   -133.1303     19.8017     98.2292
  1409.2500     24.0237   -132.9037     19.9394    102.4774
  1409.5000     24.4087   -132.6199     20.1481    111.0770
  1409.7500     24.7591   -132.2661     20.4337    116.5453
  1410.0000     24.9146   -131.8383     20.7635    122.3666
  1410.2500     24.7747   -131.3460     21.0682    124.3352
  1410.5000     24.3458   -130.8151     21.2573    124.6277
  1410.7500     23.7290   -130.2825     21.2500    123.4201
  1411.0000     23.0722   -129.7861     21.0120    120.6076
  1411.2500     22.5193   -129.3520     20.5741    118.8717
  1411.5000     22.1687   -128.9834     20.0183    117.6768
  1411.7500     22.0488   -128.6580     19.4422    118.1951
  1412.0000     22.1231   -128.3328     18.9263    120.8159
  1412.2500     22.3236   -127.9582     18.5179    123.3181
  1412.5000     22.5834   -127.4961     18.2308    127.1019
  1412.7500     22.8531   -126.9330     18.0545    129.1152
  1413.0000     23.1082   -126.2855     17.9690    130.8082
  1413.2500     23.3632   -125.5959     17.9607    130.7756
  1413.5000     23.6933   -124.9185     18.0355    128.4129
  1413.7500     24.2367   -124.3043     18.2217    125.1337
  1414.0000     25.1418   -123.7886     18.5615    118.2107
  1414.2500     26.4692   -123.3871     19.0963    112.9678
  1414.5000     28.1286   -123.0994     19.8535    105.2696
  1414.7500     29.9144   -122.9196     20.8348    100.6003
  1415.0000     31.5940   -122.8456     22.0042     94.7492
  1415.2500     32.9618   -122.8853     23.2719     92.0054
  1415.5000     33.8622   -123.0552     24.4833     90.1850
  1415.7500     34.2166   -123.3721     25.4342     90.5536
  1416.0000     34.0406   -123.8427     25.9325     93.4010
  1416.2500     33.4224   -124.4547     25.8862     96.8559
  1416.5000     32.4811   -125.1732     25.3520    103.9637
  1416.7500     31.3354   -125.9445     24.4964    109.1016
  1417.0000     30.0902   -126.7065     23.5065    115.4898
  1417.2500     28.8353   -127.3989     22.5241    118.4276
  1417.5000     27.6487   -127.9705     21.6326    121.7503
  1417.7500     26.6008   -128.3876     20.8758    123.9155
  1418.0000     25.7612   -128.6324     20.2801    126.8983
  1418.2500     25.2008   -128.7025     19.8652    128.0079
  1418.5000     24.9751   -128.6089     19.6450    127.8896
  1418.7500     25.0999   -128.3721     19.6274    127.2445
  1419.0000     25.5399   -128.0200     19.8135    126.7897
  1419.2500     26.2196   -127.5842     20.1999    126.8192
  1419.5000     27.0523   -127.0972     20.7789    125.9000
  1419.7500     27.9792   -126.5894     21.5378    123.7765
  1420.0000     28.9982   -126.0882     22.4567    117.8857
  1420.2500     30.1547   -125.6168     23.5060    112.4836
  1420.5000     31.4934   -125.1965     24.6464    103.4444
  1420.7500     32.9955   -124.8465     25.8265     97.7881
  1421.0000     34.5395   -124.5847     26.9766     91.2323
  1421.2500     35.9107   -124.4268     28.0013     88.4404
  1421.5000     36.8550   -124.3834     28.7815     86.6839
  1421.7500     37.1600   -124.4568     29.1967     87.3074
  1422.0000     36.7332   -124.6369     29.1662     91.0560
  1422.2500     35.6402   -124.8997     28.6866     94.7681
  1422.5000     34.0738   -125.2091     27.8425     99.9222
  1422.7500     32.2678   -125.5241     26.7774    102.1844
  1423.0000     30.4065   -125.8085     25.6417    104.3664
  1423.2500     28.5918   -126.0406     24.5482    106.0224
  1423.5000     26.8797   -126.2209     23.5559    109.6667
  1423.7500     25.3367   -126.3709     22.6799    112.4483
  1424.0000     24.0560   -126.5246     21.9110    115.7809
  1424.2500     23.1208   -126.7134     21.2316    116.9101
  1424.5000     22.5526   -126.9530     20.6242    116.8174
  1424.7500     22.2890   -127.2317     20.0746    115.6817
