~Version Information
 VERS.                                  2.0 : CWLS LAS VERSION
 WRAP.                                   NO : WRAPING MODE
 SWARE .                 MController 2.5.0N : SOFTWARE VERSION
~Well Information
 WELL.                            Zed 11-23 : WELL
 COMP.    Pioneer Natural Resources USA Inc : COMPANY
 FLD.                      Purgatoire River : FIELD
 LOC.                  NWNW Sec23 T33S R65W : LOCATION
 DATE.                             02/26/06 : DATE(S) LOGGED
 SRVC.       Blanco Geological Services LLC : SERVICE COMPANY
 STAT.                             Colorado : STATE
 CNTY.                           Las Animas : COUNTY
 CTRY.                                  USA : COUNTRY
 API.                       05-071-08702-00 : API NUMBER
 STRT.FT                             441.00 : START DEPTH
 STOP.FT                             770.00 : STOP DEPTH
 STEP.FT                               1.00 : DEPTH INCREMENT
 NULL.                                -9999 : NULL VALUE
~Curve information
 DEPTH.FT                                   :
 ROP.MIN/FT                                 :
 GAS.UNITS                                  :
~ASCII Log data
       441.0     -9999.00          0.6 
       442.0         6.10          1.0 
       443.0         0.13          0.4 
       444.0         0.10          0.4 
       445.0         0.13          0.2 
       446.0         0.10          0.4 
       447.0         0.10          0.2 
       448.0         0.10          0.2 
       449.0         0.13          0.3 
       450.0         0.10          0.0 
       451.0         0.10          0.2 
       452.0         0.10          0.2 
       453.0         0.13          0.3 
       454.0         0.10          0.1 
       455.0         0.10          0.2 
       456.0         0.13          0.1 
       457.0         0.10          0.0 
       458.0         0.13          0.1 
       459.0         0.13          0.0 
       460.0         0.10          0.0 
       461.0         0.17          0.5 
       462.0         0.10          0.1 
       463.0         0.13          0.0 
       464.0         0.10          0.1 
       465.0         0.13          0.0 
       466.0         0.13          0.1 
       467.0         0.10          0.4 
       468.0         0.15          0.0 
       469.0         0.13          0.2 
       470.0         0.13          0.2 
       471.0         2.67        167.2 
       472.0         0.30          5.4 
       473.0         0.35          3.7 
       474.0         0.37          2.9 
       475.0         0.40          3.0 
       476.0         0.40          2.8 
       477.0         0.40          3.1 
       478.0         0.40          3.1 
       479.0         0.33          3.1 
       480.0         0.17          3.1 
       481.0         0.13          3.1 
       482.0         0.17          3.0 
       483.0         0.17          3.1 
       484.0         0.18          3.2 
       485.0         0.17          3.3 
       486.0         0.17          2.9 
       487.0         0.17          3.3 
       488.0         0.17          3.3 
       489.0         0.17          3.1 
       490.0         0.17          3.0 
       491.0         0.17          3.0 
       492.0         0.17          3.2 
       493.0         0.17          3.0 
       494.0         0.17          2.9 
       495.0         0.17          3.1 
       496.0         0.17          3.3 
       497.0         0.17          3.0 
       498.0         0.17          2.6 
       499.0         0.20          3.1 
       500.0         0.17          3.2 
       501.0         2.95          3.4 
       502.0         0.13          2.5 
       503.0         0.17          2.8 
       504.0         0.17          2.5 
       505.0         0.17          2.7 
       506.0         0.17          2.6 
       507.0         0.13          2.9 
       508.0         0.18          2.9 
       509.0         0.13          2.3 
       510.0         0.13          2.9 
       511.0         0.13          2.7 
       512.0         0.17          2.4 
       513.0         0.13          2.7 
       514.0         0.13          2.3 
       515.0         0.17          2.6 
       516.0         0.13          2.3 
       517.0         0.17          2.8 
       518.0         0.13          2.8 
       519.0         0.13          2.4 
       520.0         0.17          2.8 
       521.0         0.13          2.9 
       522.0         0.13          3.3 
       523.0         0.17          3.2 
       524.0         0.13          3.3 
       525.0         0.23          3.1 
       526.0         0.17          2.9 
       527.0         0.13          2.7 
       528.0         0.13          2.7 
       529.0         0.17          2.6 
       530.0         0.15          2.5 
       531.0         2.33          2.7 
       532.0         0.30          2.6 
       533.0         0.33          2.8 
       534.0         0.55          2.7 
       535.0         0.50          2.6 
       536.0         0.50          2.6 
       537.0         0.43          2.7 
       538.0         0.43          2.5 
       539.0         0.47          2.5 
       540.0         0.47          2.2 
       541.0         0.35          2.4 
       542.0         0.33          2.9 
       543.0         0.33         10.2 
       544.0         0.27         15.3 
       545.0         0.20         15.5 
       546.0         0.17         14.3 
       547.0         0.17         13.1 
       548.0         0.20         13.1 
       549.0         0.17         13.8 
       550.0         0.17         14.2 
       551.0         0.17         13.5 
       552.0         0.17         12.1 
       553.0         0.17         10.3 
       554.0         0.20          8.5 
       555.0         0.17          7.3 
       556.0         0.20          9.4 
       557.0         0.20         16.8 
       558.0         0.18         21.0 
       559.0         0.20         23.1 
       560.0         0.17         20.4 
       561.0         3.35         26.6 
       562.0         0.23         17.1 
       563.0         0.27         16.1 
       564.0         0.30         14.5 
       565.0         0.30         11.2 
       566.0         0.30         10.1 
       567.0         0.33          9.7 
       568.0         0.33          9.1 
       569.0         0.33          8.2 
       570.0         0.33          8.6 
       571.0         0.38          7.9 
       572.0         0.30          7.8 
       573.0         0.27          7.3 
       574.0         0.30          7.7 
       575.0         0.23          7.4 
       576.0         0.27          7.3 
       577.0         0.27          6.9 
       578.0         0.27          7.0 
       579.0         0.33          6.7 
       580.0         0.33          6.7 
       581.0         0.33          6.5 
       582.0         0.35          6.3 
       583.0         0.33          6.1 
       584.0         0.30          6.1 
       585.0         0.30          5.5 
       586.0         0.37          5.4 
       587.0         0.33          5.6 
       588.0         0.43          5.5 
       589.0         0.40          5.5 
       590.0         0.40          4.4 
       591.0         2.82         15.2 
       592.0         0.50          6.7 
       593.0         0.30          6.3 
       594.0         0.35          6.3 
       595.0         0.20          5.9 
       596.0         0.27          5.9 
       597.0         0.37          6.9 
       598.0         0.27         56.1 
       599.0         0.23        113.0 
       600.0         0.23        236.4 
       601.0         0.23        320.2 
       602.0         0.23        350.7 
       603.0         0.23        351.2 
       604.0         0.30        341.0 
       605.0         0.33        314.3 
       606.0         0.25        295.4 
       607.0         0.27        295.0 
       608.0         0.27        285.3 
       609.0         0.33        269.3 
       610.0         0.37        260.6 
       611.0         0.30        252.6 
       612.0         0.33        243.3 
       613.0         0.37        231.0 
       614.0         0.23        226.0 
       615.0         0.33        223.1 
       616.0         0.40        216.2 
       617.0         0.28        210.7 
       618.0         0.27        204.2 
       619.0         0.33        203.7 
       620.0         0.37        213.4 
       621.0         3.42       2811.7 
       622.0         0.33       1052.0 
       623.0         0.27        896.0 
       624.0         0.23        846.8 
       625.0         0.23        764.6 
       626.0         0.23        734.0 
       627.0         0.23        699.6 
       628.0         0.27        681.4 
       629.0         0.23        653.4 
       630.0         0.28        641.3 
       631.0         0.23        636.6 
       632.0         0.27        631.2 
       633.0         0.23        628.8 
       634.0         0.27        632.9 
       635.0         0.27        631.5 
       636.0         0.30        625.1 
       637.0         0.30        612.7 
       638.0         0.27        606.3 
       639.0         0.27        607.6 
       640.0         0.27        609.3 
