~Version Information
VERS.                      2.0: CWLS Log ASCII Standard - VERSION 2.0
WRAP.                       NO: One line per depth step
~Well Information Block
STRT.FT               330.0000: 
STOP.FT              2874.7000: 
STEP.FT                 0.1000: 
NULL.                -999.2500: 
COMP.          Pioneer Natural Resources: COMPANY
WELL.                AMX 13-13: WELL
FLD.           Purgatoire River: FIELD
LOC.           2316' FSL & 865' FWL--: LOCATION
PROV.                 Colorado: PROVINCE
CNTY.               Las Animas: COUNTRY
SRVC.                Patterson: SERVICE COMPANY
DATE.          Tue Dec 20 09:57:28 2005: LOG DATE
UWI.           05 071 08630 00: UNIQUE WELL ID
~Curve Information Block
DEPT.FT            0 000 00 00: Depth
DCAL.in                       : CDL Caliper
RHOB.g/cc                     : CDL Bulk Density
RHOC.g/cc                     : CDL Density Correction
DPOR.pu                       : CDL Density Porosity
NPOR.pu                       : Neutron Porosity
GR.GAPI                       : Gamma Ray
~Parameter Information Block
~A  Depth       DCAL        RHOB        RHOC        DPOR        NPOR         GR     
# ...
  1338.0000      7.9980      2.6355      0.1110      0.8765     22.3373    102.2437
  1338.1000      7.9980      2.6195      0.0760      1.8473     22.0220     95.5325
  1338.2000      7.9980      2.5947      0.0484      3.3511     21.8469     89.2429
  1338.3000      7.9982      2.5868     -0.0009      3.8329     21.5527     85.4212
  1338.4000      7.9982      2.5989      0.0123      3.0958     21.3051     85.0572
  1338.5000      7.9977      2.6054      0.0768      2.7003     21.0901     87.1540
  1338.6000      7.9977      2.5959     -0.0105      3.2812     20.5854     89.2614
  1338.7000      7.9977      2.5942      0.0143      3.3825     19.9948     89.7244
  1338.8000      7.9979      2.6066      0.0618      2.6318     19.8989     90.5649
  1338.9000      7.9979      2.6127      0.0497      2.2612     20.3348     93.1414
  1339.0000      7.9983      2.6018      0.0394      2.9238     20.9357     93.5986
  1339.1000      7.9983      2.5805      0.0119      4.2115     21.4769     91.2859
  1339.2000      7.9983      2.5648     -0.0074      5.1606     21.7134     90.0323
  1339.3000      7.9988      2.5679     -0.0091      4.9740     21.4602     88.6387
  1339.4000      7.9988      2.5848      0.0147      3.9515     20.9333     85.1609
  1339.5000      7.9993      2.5940      0.0430      3.3917     20.4956     82.1401
  1339.6000      7.9993      2.5830      0.0372      4.0600     20.2565     81.3661
  1339.7000      7.9993      2.5648      0.0391      5.1617     20.2235     82.4458
  1339.8000      7.9995      2.5635      0.0069      5.2400     20.4509     83.6366
  1339.9000      7.9995      2.5751      0.0919      4.5395     20.8193     83.8562
  1340.0000      7.9997      2.5764     -0.0044      4.4605     20.9778     83.2607
  1340.1000      7.9997      2.5712     -0.0179      4.7733     20.7308     80.4021
  1340.2000      7.9997      2.5706      0.0269      4.8101     20.4220     76.4612
  1340.3000      7.9984      2.5762     -0.0121      4.4722     20.1592     77.7524
  1340.4000      7.9984      2.5855      0.0218      3.9097     19.6311     83.8061
  1340.5000      7.9965      2.5848      0.0302      3.9520     18.8910     86.2793
  1340.6000      7.9965      2.5705     -0.0044      4.8179     18.2613     81.0471
  1340.7000      7.9965      2.5547      0.0097      5.7759     17.8662     72.1978
  1340.8000      7.9966      2.5410      0.0093      6.6089     17.5127     67.7536
  1340.9000      7.9966      2.5318     -0.0077      7.1617     17.2525     69.6011
  1341.0000      7.9962      2.5358      0.0113      6.9220     17.1816     71.6630
  1341.1000      7.9962      2.5474      0.0431      6.2188     17.0848     69.5420
  1341.2000      7.9962      2.5521      0.0464      5.9339     16.8986     64.8570
  1341.3000      7.9950      2.5460      0.0391      6.3026     16.6897     61.0826
  1341.4000      7.9950      2.5401      0.0193      6.6611     16.5452     59.8678
  1341.5000      7.9946      2.5436      0.0282      6.4497     16.2945     59.8296
  1341.6000      7.9946      2.5478      0.0606      6.1968     15.7562     58.7783
  1341.7000      7.9946      2.5453      0.0382      6.3435     15.3097     57.4155
  1341.8000      7.9940      2.5429      0.0324      6.4932     15.1243     57.4509
  1341.9000      7.9940      2.5383      0.0835      6.7685     14.9018     57.5315
  1342.0000      7.9932      2.5263      0.0316      7.4977     14.4882     55.7679
  1342.1000      7.9932      2.5168      0.0392      8.0721     14.0213     53.3265
  1342.2000      7.9932      2.5154      0.0330      8.1560     13.7548     50.8579
  1342.3000      7.9942      2.5183      0.0284      7.9797     13.8298     49.4337
  1342.4000      7.9942      2.5213      0.0442      7.8004     14.2143     51.3437
  1342.5000      7.9963      2.5173      0.0374      8.0428     14.7070     53.8524
  1342.6000      7.9963      2.5118     -0.0191      8.3760     15.0878     52.3460
  1342.7000      7.9963      2.5184     -0.0106      7.9779     15.3984     47.8329
  1342.8000      7.9973      2.5334      0.0374      7.0687     15.7855     43.9200
  1342.9000      7.9973      2.5506      0.0077      6.0271     16.2164     42.0784
  1343.0000      7.9971      2.5778      0.0478      4.3785     16.4362     42.9195
  1343.1000      7.9971      2.6090      0.1226      2.4877     16.3370     45.9254
  1343.2000      7.9971      2.6258      0.0913      1.4672     16.2630     48.3724
  1343.3000      7.9965      2.6224      0.1224      1.6755     16.3832     49.1517
  1343.4000      7.9965      2.6010      0.0937      2.9718     16.4365     49.6389
  1343.5000      7.9953      2.5726      0.0208      4.6902     16.3722     51.5333
  1343.6000      7.9953      2.5481      0.0454      6.1764     16.4130     54.3762
  1343.7000      7.9953      2.5284      0.0021      7.3670     16.7836     55.2597
  1343.8000      7.9948      2.5123      0.0282      8.3442     17.2362     52.5118
  1343.9000      7.9948      2.4950      0.0399      9.3943     17.2147     47.8649
  1344.0000      7.9981      2.4806     -0.0008     10.2666     16.6943     45.9619
  1344.1000      7.9981      2.4808      0.0541     10.2550     16.1308     48.2522
  1344.2000      7.9981      2.4928      0.0440      9.5245     15.8457     51.9009
  1344.3000      8.0029      2.5073      0.0370      8.6457     15.6706     53.8342
  1344.4000      8.0029      2.5239      0.0475      7.6396     15.3411     54.2211
  1344.5000      8.0055      2.5510      0.0449      6.0010     14.9384     57.9644
  1344.6000      8.0055      2.5872      0.1042      3.8032     14.8043     64.9965
  1344.7000      8.0055      2.6092      0.1254      2.4730     15.0630     67.6315
  1344.8000      8.0089      2.6003      0.1376      3.0139     15.3878     65.3542
  1344.9000      8.0089      2.5757      0.0817      4.5021     15.6691     64.3596
  1345.0000      8.0148      2.5622      0.0862      5.3228     15.9963     65.5501
  1345.1000      8.0148      2.5611      0.0671      5.3891     16.2225     65.3034
  1345.2000      8.0148      2.5537      0.0637      5.8387     16.1518     62.0257
  1345.3000      8.0191      2.5374      0.0139      6.8225     15.8973     58.8133
  1345.4000      8.0191      2.5348      0.0399      6.9809     15.8793     58.8290
  1345.5000      8.0190      2.5553      0.0602      5.7365     16.3240     60.6296
  1345.6000      8.0190      2.5761      0.0607      4.4795     16.9783     61.5231
  1345.7000      8.0190      2.5736      0.0616      4.6331     17.2974     62.0438
  1345.8000      8.0139      2.5554      0.0009      5.7362     17.0751     63.4956
  1345.9000      8.0139      2.5443      0.0415      6.4083     16.6835     64.9034
  1346.0000      8.0027      2.5506      0.0196      6.0250     16.4872     64.1692
  1346.1000      8.0027      2.5646      0.0703      5.1744     16.5173     60.2149
  1346.2000      8.0027      2.5612      0.0378      5.3818     16.6381     55.5006
  1346.3000      7.9891      2.5339     -0.0250      7.0334     16.6454     54.6516
  1346.4000      7.9891      2.4978      0.0133      9.2232     16.3295     57.9983
  1346.5000      7.9789      2.4607     -0.0471     11.4720     15.7592     59.0882
  1346.6000      7.9789      2.4213      0.0100     13.8609     15.2534     54.3827
  1346.7000      7.9789      2.3806     -0.0232     16.3246     15.0578     49.5693
  1346.8000      7.9750      2.3600     -0.0181     17.5750     15.0932     48.8447
  1346.9000      7.9750      2.3808     -0.0096     16.3132     15.1356     50.1776
  1347.0000      7.9737      2.4377      0.0255     12.8671     15.2614     52.1072
  1347.1000      7.9737      2.5133      0.0486      8.2832     15.5411     53.5563
  1347.2000      7.9737      2.5867      0.1618      3.8374     15.7303     53.3857
  1347.3000      7.9730      2.6304      0.1994      1.1878     15.9914     54.4407
  1347.4000      7.9730      2.6335      0.1506      1.0022     16.6369     58.6677
  1347.5000      7.9763      2.6125      0.1046      2.2733     17.3336     61.2631
