~Version Information
VERS.                      2.0: CWLS Log ASCII Standard - VERSION 2.0
WRAP.                       NO: One line per depth step
~Well Information Block
STRT.FT                -6.0000: 
STOP.FT               783.7500: 
STEP.FT                 0.2500: 
NULL.                -999.2500: 
COMP.          Pioneer Natural Resources: COMPANY
WELL.           Weissach 32-32: WELL
FLD.           Purgatorie River: FIELD
LOC.           --2193' FNL & 2256' FEL--: LOCATION
STAT.                       CO: State
CNTY.               Las Animas: COUNTY
CTRY. USA : Country
SECT. 32 : Section
TOWN. 33S : Township
RANG. 65W : Range
SRVC.          Patterson Wireline: SERVICE COMPANY
DATE.          Thu Sep 29 12:52:09 2005: LOG DATE
API.           05 071 08523 00: UNIQUE WELL ID
~Curve Information Block
DEPT.FT            0 000 00 00: Depth
CCL.                          : Casing Collar Locator
TT3.usec                      : CBL 3' Travel Time
AMP3.mV                       : CBL 3' Amplitude
GR.GAPI                       : Gamma Ray
~Parameter Information Block
~A  Depth       CCL         TT3         AMP3         GR     
    -6.0000   -999.2500   -999.2500   -999.2500    129.3585
    -5.7500   -999.2500   -999.2500   -999.2500    130.6880
    -5.5000   -999.2500   -999.2500   -999.2500    132.9879
    -5.2500   -999.2500   -999.2500   -999.2500    135.1249
    -5.0000   -999.2500   -999.2500   -999.2500    135.7419
    -4.7500   -999.2500   -999.2500   -999.2500    133.9378
    -4.5000   -999.2500   -999.2500   -999.2500    129.9796
    -4.2500   -999.2500   -999.2500   -999.2500    125.5320
    -4.0000   -999.2500   -999.2500   -999.2500    122.6612
    -3.7500   -999.2500   -999.2500   -999.2500    122.2030
    -3.5000   -999.2500   -999.2500   -999.2500    123.2014
    -3.2500   -999.2500   -999.2500   -999.2500    123.9800
    -3.0000   -999.2500   -999.2500   -999.2500    123.4960
    -2.7500   -999.2500   -999.2500   -999.2500    121.8885
    -2.5000   -999.2500   -999.2500   -999.2500    120.3126
    -2.2500   -999.2500   -999.2500   -999.2500    120.1331
    -2.0000   -999.2500   -999.2500   -999.2500    121.7866
    -1.7500   -999.2500   -999.2500   -999.2500    124.4494
    -1.5000   -999.2500   -999.2500   -999.2500    126.8372
    -1.2500   -999.2500   -999.2500   -999.2500    127.9773
    -1.0000   -999.2500   1158.0000      0.2100    127.2322
    -0.7500   -999.2500   1158.0000      0.2254    124.2308
    -0.5000   -999.2500   1158.0000      0.2427    119.1428
    -0.2500   -999.2500   1158.0000      0.2556    112.7460
     0.0000   -999.2500   1158.0000      0.2594    105.8795
     0.2500   -999.2500   1158.0000      0.2546     99.0003
     0.5000   -999.2500   1158.0000      0.2456     92.2940
     0.7500   -999.2500   1158.0000      0.2335     78.8767
     1.0000   -999.2500   1158.0000      0.2340     70.9737
     1.2500   -999.2500   1158.0000      0.2368     61.9161
     1.5000   -999.2500   1158.0000      0.2390     52.6464
     1.7500   -999.2500   1158.0000      0.2392     44.5306
     2.0000   -999.2500   1158.0000      0.2383     38.4032
     2.2500   -999.2500   1158.0000      0.2382     34.3510
     2.5000   -999.2500   1158.0000      0.2401     32.1912
     2.7500   -999.2500   1158.0000      0.2439     31.8858
     3.0000   -999.2500   1158.0000      0.2479     33.5658
     3.2500   -999.2500   1158.0000      0.2496     37.3270
     3.5000   -999.2500   1157.9872      0.2480     42.9752
     3.7500   -999.2500   1157.9006      0.2448     49.7394
     4.0000   -999.2500   1157.4407      0.2437     56.2675
     4.2500      0.0000   1155.5315      0.2564     61.1984
     4.5000      0.0000   1149.2614      0.3194     63.9521
     4.7500      0.0000   1132.6503      0.5674     64.9431
     5.0000      0.0000   1096.5496      1.4047     65.1405
     5.2500      0.0000   1030.9437      3.7465     65.5723
     5.5000      0.0000    929.6433      9.0163     66.9701
     5.7500      0.0000    795.9612     18.3703     69.3648
     6.0000      0.0000    646.2442     31.2447     72.0659
     6.2500      0.0000    506.2091     44.6558     74.3796
     6.5000      0.0000    398.8479     54.6270     76.3368
     6.7500      0.0000    332.6964     58.7401     78.6236
     7.0000      0.0000    301.1617     57.2749     81.9540
     7.2500      0.0000    291.8732     52.1943     86.4100
     7.5000      0.0000    295.8679     45.5675     91.0586
     7.7500      0.0000    310.7343     38.8092     94.2251
     8.0000      0.0000    339.1104     32.6655     94.4917
     8.2500      0.0000    384.6938     27.4126     91.6944
     8.5000      0.0000    446.6433     23.0593     86.9978
     8.7500      0.0000    516.1451     19.5227     82.1041
     9.0000      0.0000    580.0217     16.7228     78.4900
     9.2500      0.0000    629.3384     14.6032     76.9562
     9.5000      0.0000    664.4427     13.1077     77.2601
     9.7500      0.0000    691.7610     12.1523     78.1343
    10.0000      0.0000    716.3817     11.6118     78.1070
    10.2500      0.0000    737.4908     11.3395     76.6782
    10.5000      0.0000    750.1304     11.2080     74.8887
    10.7500      0.0000    750.8150     11.1384     74.5867
    11.0000      0.0000    741.3357     11.0954     76.7648
    11.2500      0.0000    727.6275     11.0647     80.5543
    11.5000      0.0000    715.6679     11.0368     83.9933
    11.7500      0.0000    708.5287     11.0053     85.6108
    12.0000      0.0000    706.2622     10.9672     85.2048
    12.2500      0.0000    707.2551     10.9213     83.5701
    12.5000      0.0000    709.3422     10.8668     81.8055
    12.7500      0.0000    710.6580     10.8059     80.5932
    13.0000      0.0000    710.6179     10.7473     79.9107
    13.2500      0.0000    710.2222     10.7056     79.6011
    13.5000      0.0000    710.8667     10.6940     80.0745
    13.7500      0.0000    712.8159     10.7142     81.9258
    14.0000      0.0000    715.1411     10.7505     84.9772
    14.2500      0.0000    717.0003     10.7783     88.3387
    14.5000      0.0000    718.6085     10.7811     91.4599
    14.7500      0.0000    721.2528     10.7613     94.5631
    15.0000      0.0000    726.8985     10.7361     97.8719
    15.2500      0.0000    737.2682     10.7221    100.9576
    15.5000      0.0000    752.2784     10.7248    103.1705
    15.7500      0.0000    769.3391     10.7384    104.1748
    16.0000      0.0000    784.4598     10.7565    103.6063
    16.2500      0.0000    793.8206     10.7801    100.8775
    16.5000      0.0000    794.6799     10.8156     96.0441
    16.7500      0.0000    786.4854     10.8631     90.4467
    17.0000      0.0000    772.2061     10.9097     85.8850
    17.2500      0.0000    757.9711     10.9366     83.3828
    17.5000      0.0000    750.3109     10.9331     83.1450
    17.7500      0.0000    752.8048     10.9042     85.2710
    18.0000      0.0000    764.0294     10.8657     89.6738
    18.2500      0.0000    777.8780     10.8345     95.1217
    18.5000      0.0000    786.8900     10.8237     99.0436
    18.7500      0.0000    787.0226     10.8434     99.1674
    19.0000      0.0000    779.6627     10.8972     95.5512
    19.2500      0.0000    768.9506     10.9765     90.5075
    19.5000      0.0000    757.9617     11.0596     86.4027
    19.7500      0.0000    747.9366     11.1229     84.0245
    20.0000      0.0000    739.7789     11.1546     83.0789
    20.2500      0.0000    734.4943     11.1566     83.3843
    20.5000      0.0000    732.1204     11.1352     85.1070
    20.7500      0.0000    731.2728     11.0926     88.3706
    21.0000      0.0000    730.1951     11.0260     92.9124
    21.2500      0.0000    728.2085     10.9361     97.7036
    21.5000      0.0000    726.1613     10.8334    100.9265
    21.7500      0.0000    725.5973     10.7346    100.8862
    22.0000      0.0000    727.1860     10.6461     97.1773
    22.2500      0.0000    729.5649     10.5586     90.9157
    22.5000      0.0000    729.9995     10.4667     83.9013
    22.7500      0.0000    726.7217     10.3862     77.4925
    23.0000      0.0000    720.5588     10.3399     72.1466
    23.2500      0.0000    714.0958     10.3280     68.0197
    23.5000      0.0000    709.5404     10.3267     65.7808
    23.7500      0.0000    707.6369     10.3146     66.3167
    24.0000      0.0000    708.0692     10.2919     69.6089
    24.2500      0.0000    710.0060     10.2775     74.4882
    24.5000      0.0000    712.1320     10.2921     79.7722
    24.7500      0.0000    712.9422     10.3430     85.2128
    25.0000      0.0000    711.7292     10.4186     91.0048
    25.2500      0.0000    709.1716     10.4971     96.7257
    25.5000      0.0000    706.6144     10.5652    101.2356
    25.7500      0.0000    704.8876     10.6260    103.6407
    26.0000      0.0000    703.8976     10.6921    104.2195
    26.2500      0.0000    702.9940     10.7726    104.3056
    26.5000      0.0000    701.4670     10.8673    105.1385
    26.7500      0.0000    699.0031     10.9667    106.8058
    27.0000      0.0000    696.1166     11.0590    108.1943
    27.2500      0.0000    694.1151     11.1402    107.9616
