~Version Information
VERS.                      2.0: CWLS Log ASCII Standard - VERSION 2.0
WRAP.                       NO: One line per depth step
~Well Information Block
STRT.FT               440.0000: 
STOP.FT              1300.5000: 
STEP.FT                 0.1000: 
NULL.                -999.2500: 
COMP.          Pioneer Natural Resources: COMPANY
WELL.              Yoshi 14-30: WELL
FLD.           Purgatoire River: FIELD
LOC.           993' FSL & 823' FWL: LOCATION
CNTY.               Las Animas: COUNTY
SRVC.                Patterson: SERVICE COMPANY
DATE.          Fri Feb 17 14:59:28 2006: LOG DATE
UWI.           05 071 08699 00: UNIQUE WELL ID
STAT.                 Colorado: STATE
~Curve Information Block
DEPT.FT            0 000 00 00: Depth
DCAL.in                       : CDL Caliper
RHOB.g/cc                     : CDL Bulk Density
RHOC.g/cc                     : CDL Density Correction
DPOR.pu                       : CDL Density Porosity
GR.GAPI                       : Gamma Ray
NPOR.pu                       : Neutron Porosity
~Parameter Information Block
~A  Depth       DCAL        RHOB        RHOC        DPOR         GR         NPOR    
# ...
   776.0000      8.0212      2.5158     -0.0167      8.1328     75.6744     17.1723
   776.1000      8.0212      2.4700     -0.0115     10.9114     78.8082     17.1545
   776.2000      8.0212      2.4042     -0.0385     14.8968     81.4545     17.3501
   776.3000      8.0222      2.3429     -0.0670     18.6112     84.1782     17.6559
   776.4000      8.0222      2.3013     -0.0525     21.1355     88.2982     18.1443
   776.5000      8.0222      2.2779     -0.0663     22.5495     92.4433     19.0642
   776.6000      8.0222      2.2751     -0.0885     22.7225     95.0543     20.3043
   776.7000      8.0222      2.2947     -0.0469     21.5326     97.7175     21.4926
   776.8000      8.0215      2.3247      0.0459     19.7137     99.1678     22.4126
   776.9000      8.0215      2.3535      0.0588     17.9688     98.5924     23.2298
   777.0000      8.0218      2.3849      0.1119     16.0672    101.4761     24.2785
   777.1000      8.0218      2.4183      0.1567     14.0453    110.7398     25.5018
   777.2000      8.0218      2.4457      0.0608     12.3799    122.9162     26.4960
   777.3000      8.0223      2.4720      0.0050     10.7900    131.5923     27.2190
   777.4000      8.0223      2.5088      0.0577      8.5575    131.6785     27.7105
   777.5000      8.0220      2.5535      0.1028      5.8513    126.0466     27.6229
   777.6000      8.0220      2.5800      0.1506      4.2402    123.8837     26.8836
   777.7000      8.0220      2.5674      0.0571      5.0073    126.7705     26.1445
   777.8000      8.0214      2.5317      0.0413      7.1714    127.1284     26.1705
   777.9000      8.0214      2.5051      0.0086      8.7825    124.3479     26.8131
   778.0000      8.0207      2.5023      0.0408      8.9543    127.0966     27.2551
   778.1000      8.0207      2.5144      0.0482      8.2202    136.4187     27.2067
   778.2000      8.0207      2.5262      0.0178      7.5060    141.2630     26.8362
   778.3000      8.0192      2.5321      0.0327      7.1469    133.5018     26.4787
   778.4000      8.0192      2.5313      0.0052      7.1936    117.5473     26.2965
   778.5000      8.0182      2.5293      0.0004      7.3121    104.8551     25.9570
   778.6000      8.0182      2.5348     -0.0040      6.9815    101.8108     25.2155
   778.7000      8.0182      2.5406      0.0150      6.6329    104.3961     24.2818
   778.8000      8.0189      2.5325      0.0001      7.1241    105.2389     23.6581
   778.9000      8.0189      2.5220     -0.0131      7.7600    100.6953     23.6604
   779.0000      8.0187      2.5339     -0.0113      7.0337     93.7099     23.9723
   779.1000      8.0187      2.5622      0.0033      5.3184     87.6584     24.1395
   779.2000      8.0187      2.5783      0.0328      4.3454     82.3126     24.2061
   779.3000      8.0173      2.5790      0.0298      4.3040     79.7774     24.3309
   779.4000      8.0173      2.5836      0.0422      4.0254     82.1110     24.3586
   779.5000      8.0162      2.5931      0.0815      3.4497     84.1314     24.3955
   779.6000      8.0162      2.5954      0.0866      3.3095     80.4192     24.5254
   779.7000      8.0162      2.5943      0.0265      3.3771     74.6565     24.2234
   779.8000      8.0157      2.5942      0.0796      3.3816     71.3087     23.7907
   779.9000      8.0157      2.5849      0.0701      3.9442     71.7465     23.9645
   780.0000      8.0159      2.5657      0.0139      5.1069     76.9661     24.2316
   780.1000      8.0159      2.5506     -0.0090      6.0265     83.4578     24.2132
   780.2000      8.0159      2.5464      0.0503      6.2809     86.2964     24.5703
   780.3000      8.0174      2.5499      0.0123      6.0679     86.9824     25.2963
   780.4000      8.0174      2.5562      0.0379      5.6833     87.2084     25.6120
   780.5000      8.0191      2.5547      0.0452      5.7786     85.9388     25.2438
   780.6000      8.0191      2.5382      0.0370      6.7744     83.3173     24.3546
   780.7000      8.0191      2.5217     -0.0024      7.7757     80.1906     23.7850
   780.8000      8.0197      2.5240     -0.0136      7.6339     77.4872     23.9733
   780.9000      8.0197      2.5333      0.0570      7.0714     76.3343     24.0418
   781.0000      8.0190      2.5354     -0.0222      6.9452     75.0958     23.6656
   781.1000      8.0190      2.5455      0.0234      6.3310     72.6614     23.4967
   781.2000      8.0190      2.5741      0.0122      4.5997     70.5912     23.7008
   781.3000      8.0179      2.6071      0.0468      2.6005     68.3127     23.9424
   781.4000      8.0179      2.6184      0.1268      1.9143     64.2261     24.2005
   781.5000      8.0172      2.5979      0.0967      3.1602     61.4144     24.6494
   781.6000      8.0172      2.5680      0.0160      4.9709     63.9609     25.1129
   781.7000      8.0172      2.5559      0.0226      5.7059     70.2486     25.2341
   781.8000      8.0173      2.5588      0.0214      5.5264     76.7293     25.0232
   781.9000      8.0173      2.5590      0.0706      5.5128     80.8089     24.7201
   782.0000      8.0184      2.5581      0.0060      5.5680     81.3424     24.2974
   782.1000      8.0184      2.5724      0.0380      4.7043     79.6738     23.3829
   782.2000      8.0184      2.6006      0.0270      2.9937     77.5609     22.3091
   782.3000      8.0199      2.6252      0.0575      1.5043     75.9306     21.9250
   782.4000      8.0199      2.6287      0.0457      1.2898     76.5316     22.1059
   782.5000      8.0210      2.6079      0.0021      2.5497     81.3882     21.8884
   782.6000      8.0210      2.5755     -0.0031      4.5129     86.9953     21.1703
   782.7000      8.0210      2.5411     -0.0005      6.5985     87.6509     20.7163
   782.8000      8.0217      2.5060     -0.0368      8.7295     84.9343     20.9107
   782.9000      8.0217      2.4776     -0.0546     10.4464     85.1981     21.2759
   783.0000      8.0220      2.4624     -0.0556     11.3681     91.0907     21.3147
   783.1000      8.0220      2.4507     -0.0254     12.0802     98.6596     21.1795
   783.2000      8.0220      2.4321     -0.0180     13.2051    106.4730     21.3325
   783.3000      8.0222      2.4146     -0.0449     14.2646    118.8506     22.1230
   783.4000      8.0222      2.4104      0.0077     14.5194    134.1537     23.2192
   783.5000      8.0228      2.4179      0.0745     14.0696    144.1678     23.8648
   783.6000      8.0228      2.4260      0.0860     13.5737    146.4850     23.8534
   783.7000      8.0228      2.4322      0.0802     13.1994    146.4891     23.8714
   783.8000      8.0231      2.4410      0.1090     12.6685    147.5984     24.4570
   783.9000      8.0231      2.4517      0.1349     12.0171    149.7348     25.0548
   784.0000      8.0230      2.4667      0.1017     11.1085    152.0487     25.1451
   784.1000      8.0230      2.4869      0.1581      9.8823    152.2004     25.1119
   784.2000      8.0230      2.4991      0.1637      9.1440    148.8341     25.5027
   784.3000      8.0229      2.5020      0.0926      8.9712    145.9705     26.0722
   784.4000      8.0229      2.5102      0.1394      8.4747    146.4868     25.9823
   784.5000      8.0234      2.5215      0.1195      7.7902    145.8132     25.5223
   784.6000      8.0234      2.5234      0.0916      7.6754    140.9540     25.7079
   784.7000      8.0234      2.5141      0.0912      8.2389    138.2810     26.5408
   784.8000      8.0238      2.5025      0.0327      8.9393    144.8456     26.9725
   784.9000      8.0238      2.4983      0.0424      9.1927    157.1161     26.4519
   785.0000      8.0234      2.4978      0.0726      9.2220    164.0679     25.5495
   785.1000      8.0234      2.4896      0.0566      9.7223    159.6685     24.9653
   785.2000      8.0234      2.4707      0.0456     10.8638    150.0231     25.0286
   785.3000      8.0228      2.4506     -0.0127     12.0866    143.9749     25.5350
   785.4000      8.0228      2.4392      0.0129     12.7756    142.7119     25.7527
   785.5000      8.0227      2.4327      0.0040     13.1688    143.3573     25.1986
