~Version Information
VERS.                      2.0: CWLS Log ASCII Standard - VERSION 2.0
WRAP.                       NO: One line per depth step
~Well Information Block
STRT.FT                -8.0000: 
STOP.FT               918.7500: 
STEP.FT                 0.2500: 
NULL.                -999.2500: 
COMP.          Pioneer Natural Resources: COMPANY
WELL.          Sculpin 32-30 Tr: WELL
FLD.           Purgatorie River: FIELD
LOC.           1600' FNL & 1857' FEL--: LOCATION
CNTY.               Las Animas: COUNTY
SRVC.          Patterson Wireline: SERVICE COMPANY
DATE.          Thu Aug 03 08:40:45 2006: LOG DATE
UWI.           05 071 08706 00: UNIQUE WELL ID
STAT.                       CO: STATE
~Curve Information Block
DEPT.FT            0 000 00 00: Depth
CCL.                          : Casing Collar Locator
TT3.usec                      : CBL 3' Travel Time
AMP3.mV                       : CBL 3' Amplitude
GR.GAPI                       : Gamma Ray
~Parameter Information Block
~A  Depth       CCL         TT3         AMP3         GR     
# ...
   762.5000      2.0000    639.6548      3.8397    133.6171
   762.7500      0.0000    646.7641      3.8276    144.0005
   763.0000      0.0000    654.8424      3.7825    156.0250
   763.2500      0.0000    665.2451      3.7388    167.1487
   763.5000      0.0000    677.2342      3.6988    175.8450
   763.7500      0.0000    687.8716      3.6270    182.2160
   764.0000      0.0000    691.3224      3.5062    187.1334
   764.2500      0.0000    680.3616      3.3775    190.9019
   764.5000      0.0000    651.3612      3.2992    192.4384
   764.7500      0.0000    608.9975      3.2868    189.7690
   765.0000      0.0000    565.4524      3.3108    181.9969
   765.2500      0.0000    532.7867      3.3367    171.0642
   765.5000      0.0000    514.8394      3.3514    161.0736
   765.7500      0.0000    507.8945      3.3620    155.4839
   766.0000      0.0000    509.5610      3.3826    154.9405
   766.2500      0.0000    523.4672      3.4204    157.6625
   766.5000      0.0000    552.7042      3.4677    161.3546
   766.7500      0.0000    591.6290      3.5089    164.4742
   767.0000      0.0000    628.0930      3.5306    166.3543
   767.2500      0.0000    652.9938      3.5299    167.0036
   767.5000      0.0000    665.1790      3.5185    166.7812
   767.7500      0.0000    667.9958      3.5182    165.7312
   768.0000      0.0000    663.4661      3.5452    163.1903
   768.2500      0.0000    649.8900      3.5973    158.3489
   768.5000      0.0000    623.9933      3.6584    151.1350
   768.7500      0.0000    585.7057      3.7161    142.2920
   769.0000      0.0000    541.1255      3.7665    132.8242
   769.2500      0.0000    499.9301      3.8042    123.6978
   769.5000      0.0000    469.2120      3.8157    115.9417
   769.7500      0.0000    449.9899      3.7876    110.7505
   770.0000      0.0000    438.7670      3.7199    109.2470
   770.2500      0.0000    431.0977      3.6304    111.6840
   770.5000      0.0000    424.0043      3.5434    116.7291
   770.7500      0.0000    416.5806      3.4742    121.9353
   771.0000      0.0000    409.4458      3.4237    125.2278
   771.2500      0.0000    403.9723      3.3859    125.8578
   771.5000      0.0000    401.6421      3.3580    124.0147
   771.7500      0.0000    403.2503      3.3405    120.0852
   772.0000      0.0000    408.2026      3.3322    114.7695
   772.2500      0.0000    414.6331      3.3280    109.4691
   772.5000      0.0000    420.3520      3.3246    105.7236
   772.7500      0.0000    423.9236      3.3247    104.1379
   773.0000      0.0000    425.3419      3.3345    104.2140
   773.2500      0.0000    426.0558      3.3575    105.1037
   773.5000      0.0000    428.1356      3.3911    106.1192
   773.7500      0.0000    432.7908      3.4300    106.6486
   774.0000      0.0000    439.3589      3.4681    106.1479
   774.2500      0.0000    445.8878      3.4978    104.4441
   774.5000      0.0000    450.7907      3.5118    101.8939
   774.7500      0.0000    454.0771      3.5069     99.1255
   775.0000      0.0000    457.6153      3.4873     96.6471
   775.2500      0.0000    465.1485      3.4617     94.6348
   775.5000      0.0000    482.0055      3.4394     93.0979
   775.7500      0.0000    512.8740      3.4271     92.3234
   776.0000      0.0000    557.4113      3.4273     92.9219
   776.2500      0.0000    607.7357      3.4380     95.0766
   776.5000      0.0000    652.2266      3.4539     97.9452
   776.7500      0.0000    682.9932      3.4689    100.2068
   777.0000      0.0000    699.4598      3.4755    101.0952
   777.2500      0.0000    705.4216      3.4653    100.7008
   777.5000      0.0000    704.0968      3.4339     99.5496
   777.7500      0.0000    695.5847      3.3861     98.1002
   778.0000      0.0000    677.4886      3.3356     96.4204
   778.2500      0.0000    648.0893      3.2977     94.1997
   778.5000      0.0000    610.9939      3.2825     91.1962
   778.7500      0.0000    577.4058      3.2917     87.6884
   779.0000      0.0000    561.2540      3.3174     84.3238
   779.2500      0.0000    569.1793      3.3464     81.4780
   779.5000      0.0000    595.1270      3.3666     78.9489
   779.7500      0.0000    625.4324      3.3724     76.3384
   780.0000      0.0000    648.2277      3.3630     73.5452
   780.2500      0.0000    657.3909      3.3382     70.8075
   780.5000      0.0000    650.2556      3.2989     68.4027
   780.7500      0.0000    625.8118      3.2503     66.4026
   781.0000      0.0000    586.6328      3.2015     64.6424
   781.2500      0.0000    540.4432      3.1607     62.8921
   781.5000      0.0000    497.1794      3.1306     61.1951
   781.7500      0.0000    463.9955      3.1106     60.0632
   782.0000      0.0000    443.7863      3.1013     60.1652
   782.2500      0.0000    438.0778      3.1054     61.7258
   782.5000      0.0000    449.8526      3.1224     64.3657
   782.7500      0.0000    482.1621      3.1434     67.5477
   783.0000      0.0000    533.1429      3.1551     70.9906
   783.2500      0.0000    593.1907      3.1501     74.6113
   783.5000      0.0000    649.4095      3.1367     78.3032
   783.7500      0.0000    693.7518      3.1383     81.8425
   784.0000      0.0000    725.8530      3.1793     84.8075
   784.2500      0.0000    748.5392      3.2690     86.5784
   784.5000      0.0000    763.0288      3.3979     86.7295
   784.7500      0.0000    768.8620      3.5499     85.6228
   785.0000      0.0000    766.1332      3.7119     84.5168
   785.2500      0.0000    756.1218      3.8710     84.8944
   785.5000      0.0000    740.4104      4.0063     87.4737
   785.7500      0.0000    720.5621      4.0941     91.8738
   786.0000      0.0000    698.5619      4.1214     97.4239
   786.2500      0.0000    676.7728      4.0956    104.1537
   786.5000      0.0000    657.1037      4.0391    112.3885
   786.7500      0.0000    640.6755      3.9771    121.3403
   787.0000      0.0000    628.7335      3.9256    128.8847
   787.2500      0.0000    623.1429      3.8873    133.2242
   787.5000      0.0000    624.7640      3.8558    134.4037
   787.7500      0.0000    631.1200      3.8223    133.9961
   788.0000      0.0000    636.0724      3.7807    133.6139
   788.2500      0.0000    632.2706      3.7299    133.8055
   788.5000      0.0000    615.3992      3.6721    134.1859
   788.7500      0.0000    587.5794      3.6113    134.4946
   789.0000      0.0000    556.3926      3.5528    135.2572
   789.2500      0.0000    529.6682      3.5035    137.1646
   789.5000      0.0000    510.9030      3.4689    140.1360
   789.7500      0.0000    498.9492      3.4496    143.3412
   790.0000      0.0000    490.9559      3.4399    145.8565
   790.2500      0.0000    485.6260      3.4283    147.0081
   790.5000      0.0000    484.9152      3.4033    146.5287
   790.7500      0.0000    493.4883      3.3626    144.9324
   791.0000      0.0000    516.0308      3.3170    143.3786
   791.2500      0.0000    553.3213      3.2835    142.3463
   791.5000      0.0000    599.6702      3.2722    140.6007
   791.7500      0.0000    644.9771      3.2824    136.5292
   792.0000      0.0000    680.9884      3.3074    130.7572
   792.2500      0.0000    706.0052      3.3417    126.4545
   792.5000      0.0000    723.5485      3.3821    126.4029
   792.7500      0.0000    737.3318      3.4230    130.2820
   793.0000      0.0000    748.2552      3.4544    135.2182
   793.2500      0.0000    755.5970      3.4651    138.4178
   793.5000      0.0000    759.5384      3.4493    138.9184
   793.7500      0.0000    761.5444      3.4087    137.4933
   794.0000      0.0000    762.5829      3.3502    135.6346
   794.2500      0.0000    761.7010      3.2814    134.5896
   794.5000      0.0000    756.8605      3.2072    134.9347
   794.7500      0.0000    747.3826      3.1325    136.6681
   795.0000      0.0000    735.3716      3.0696    139.4824
   795.2500      0.0000    724.3730      3.0369    142.8660
   795.5000      0.0000    716.7928      3.0468    145.9684
   795.7500      0.0000    712.8207      3.0946    147.5826
