~Version Information
VERS.                      2.0: CWLS Log ASCII Standard - VERSION 2.0
WRAP.                       NO: One line per depth step
~Well Information Block
STRT.FT                -9.5000: 
STOP.FT              2305.7500: 
STEP.FT                 0.2500: 
NULL.                -999.2500: 
COMP.          Pioneer Natural Resources: COMPANY
WELL.          Fittipaldi 21-12: WELL
FLD.           Purgatorie River: FIELD
LOC.           207' FNL & 2110' FWL--: LOCATION
CNTY.               Las Animas: COUNTY
SRVC.          Patterson Wireline: SERVICE COMPANY
DATE.          Wed Apr 12 10:38:25 2006: LOG DATE
UWI.           05 071 08492 00: UNIQUE WELL ID
STAT.                       CO: STATE
~Curve Information Block
DEPT.FT            0 000 00 00: Depth
CCL.                          : Casing Collar Locator
TT3.usec                      : CBL 3' Travel Time
AMP3.mV                       : CBL 3' Amplitude
GR.GAPI                       : Gamma Ray
~Parameter Information Block
~A  Depth       CCL         TT3         AMP3         GR     
# ...
  2101.0000      0.0000    517.0684      4.0842     59.7282
  2101.2500      0.0000    546.7999      4.1468     61.0625
  2101.5000      0.0000    561.5334      4.0964     62.1202
  2101.7500      0.0000    567.3887      3.9477     63.1523
  2102.0000      0.0000    574.4868      3.7890     63.7256
  2102.2500      0.0000    586.7377      3.7083     63.2743
  2102.5000      0.0000    598.7672      3.7245     62.1557
  2102.7500      0.0000    601.7765      3.7921     61.4446
  2103.0000      0.0000    590.8456      3.8522     61.6102
  2103.2500      0.0000    567.6556      3.8710     62.0780
  2103.5000      0.0000    538.6752      3.8434     62.1869
  2103.7500      0.0000    511.2102      3.7815     61.9889
  2104.0000      0.0000    489.7776      3.7020     61.9149
  2104.2500      0.0000    475.0814      3.6230     62.0542
  2104.5000      0.0000    465.9503      3.5620     62.1627
  2104.7500      0.0000    461.8406      3.5318     62.3775
  2105.0000      0.0000    463.4134      3.5339     63.5072
  2105.2500      0.0000    471.3851      3.5582     66.3127
  2105.5000      0.0000    485.3414      3.5905     70.6225
  2105.7500      0.0000    503.6203      3.6228     75.2604
  2106.0000      0.0000    524.1874      3.6564     78.7185
  2106.2500      0.0000    545.8492      3.6985     79.9448
  2106.5000      0.0000    568.4437      3.7550     78.7690
  2106.7500      0.0000    591.2535      3.8258     75.8405
  2107.0000      0.0000    611.7035      3.9060     72.2474
  2107.2500      0.0000    626.8007      3.9875     69.0809
  2107.5000      0.0000    635.6420      4.0576     66.9979
  2107.7500      0.0000    639.7267      4.1011     65.8248
  2108.0000      0.0000    641.2484      4.1090     64.6293
  2108.2500      0.0000    641.6965      4.0857     62.5402
  2108.5000      0.0000    641.5687      4.0461     59.6138
  2108.7500      0.0000    640.4216      4.0072     56.8747
  2109.0000      0.0000    636.6174      3.9824     55.5257
  2109.2500      0.0000    627.2983      3.9784     55.9717
  2109.5000      0.0000    609.7189      3.9916     57.4570
  2109.7500      0.0000    584.0801      4.0114     58.8050
  2110.0000      0.0000    555.3504      4.0272     59.6297
  2110.2500      0.0000    531.3331      4.0335     60.5984
  2110.5000      0.0000    518.3471      4.0301     62.3478
  2110.7500      0.0000    518.4696      4.0235     64.4565
  2111.0000      0.0000    529.7263      4.0254     65.8551
  2111.2500      0.0000    547.8409      4.0443     66.0535
  2111.5000      0.0000    568.5647      4.0759     65.5621
  2111.7500      0.0000    589.3978      4.1065     65.2752
  2112.0000      0.0000    609.0209      4.1241     65.7701
  2112.2500      0.0000    625.5717      4.1266     67.0720
  2112.5000      0.0000    636.8423      4.1187     68.7811
  2112.7500      0.0000    642.1617      4.1044     70.3935
  2113.0000      0.0000    642.7999      4.0813     71.4750
  2113.2500      0.0000    640.0826      4.0408     71.5096
  2113.5000      0.0000    633.4070      3.9747     69.8685
  2113.7500      0.0000    620.2328      3.8836     66.2860
  2114.0000      0.0000    598.2762      3.7789     61.2934
  2114.2500      0.0000    568.3463      3.6783     56.0819
  2114.5000      0.0000    535.3046      3.5997     52.1871
  2114.7500      0.0000    505.9287      3.5584     51.0670
  2115.0000      0.0000    485.5490      3.5644     53.1615
  2115.2500      0.0000    476.1589      3.6171     57.2011
  2115.5000      0.0000    476.6331      3.7024     60.9788
  2115.7500      0.0000    484.1663      3.7960     62.9354
  2116.0000      0.0000    495.7606      3.8741     62.9143
  2116.2500      0.0000    508.4114      3.9205     61.8083
  2116.5000      0.0000    517.9615      3.9255     60.7382
  2116.7500      0.0000    519.0951      3.8842     60.1587
  2117.0000      0.0000    507.9657      3.8038     59.5069
  2117.2500      0.0000    484.8121      3.7080     57.9486
  2117.5000      0.0000    453.7608      3.6283     55.4560
  2117.7500      0.0000    420.8601      3.5851     52.9482
  2118.0000      0.0000    392.0917      3.5798     51.4139
  2118.2500      0.0000    371.4853      3.6015     51.0369
  2118.5000      0.0000    360.0131      3.6396     51.1741
  2118.7500      0.0000    356.3304      3.6887     51.0259
  2119.0000      0.0000    358.4052      3.7467     50.2656
  2119.2500      0.0000    364.3016      3.8111     49.1705
  2119.5000      0.0000    372.2096      3.8795     48.3154
  2119.7500      0.0000    381.0687      3.9506     48.0624
  2120.0000      0.0000    391.5099      4.0230     48.2165
  2120.2500      0.0000    405.2515      4.0923     48.2249
  2120.5000      0.0000    422.4815      4.1492     47.7604
  2120.7500      0.0000    439.6988      4.1847     47.1293
  2121.0000      0.0000    450.7902      4.1980     47.0932
  2121.2500      0.0000    450.8539      4.2007     48.1614
  2121.5000      0.0000    439.4206      4.2087     49.9870
  2121.7500      0.0000    420.4494      4.2289     51.6238
  2122.0000      0.0000    399.4900      4.2545     52.3696
  2122.2500      0.0000    380.7055      4.2735     52.1418
  2122.5000      0.0000    365.9567      4.2799     51.0856
  2122.7500      0.0000    355.5432      4.2757     49.1620
  2123.0000      0.0000    348.9777      4.2654     46.3538
  2123.2500      0.0000    345.3412      4.2510     43.1299
  2123.5000      0.0000    343.6168      4.2316     40.3794
  2123.7500      0.0000    343.0183      4.2061     38.8198
  2124.0000      0.0000    343.0583      4.1760     38.6200
  2124.2500      0.0000    343.4197      4.1438     39.5275
  2124.5000      0.0000    343.8768      4.1083     41.1800
  2124.7500      0.0000    344.3231      4.0590     43.3274
  2125.0000      0.0000    344.7996      3.9815     45.7690
  2125.2500      0.0000    345.4200      3.8728     48.1128
  2125.5000      0.0000    346.2272      3.7507     49.8318
  2125.7500      0.0000    347.1084      3.6458     50.7310
  2126.0000      0.0000    347.8182      3.5862     51.0568
  2126.2500      0.0000    348.0765      3.5926     50.9720
  2126.5000      0.0000    347.6935      3.6836     50.2634
  2126.7500      0.0000    346.6765      3.8755     48.8127
  2127.0000      0.0000    345.2399      4.1745     47.1261
  2127.2500      0.0000    343.6860      4.5704     46.1042
  2127.5000      0.0000    342.2449      5.0432     46.2214
  2127.7500      0.0000    340.9996      5.5814     47.0108
  2128.0000      0.0000    339.9676      6.1910     47.3968
  2128.2500      0.0000    339.3405      6.8783     46.5054
  2128.5000      0.0000    339.7543      7.6125     44.2354
  2128.7500      0.0000    342.5144      8.3063     41.3118
  2129.0000      0.0000    349.7212      8.8364     38.8739
  2129.2500      0.0000    364.5435      9.0868     37.7012
  2129.5000      0.0000    391.3921      8.9871     37.5905
  2129.7500      0.0000    434.1855      8.5343     37.6302
  2130.0000      0.0000    491.5898      7.7964     37.1283
  2130.2500      0.0000    553.4493      6.8937     36.1704
  2130.5000      0.0000    604.9384      5.9549     35.5742
  2130.7500      0.0000    636.6065      5.0716     36.5994
  2131.0000      0.0000    650.2076      4.2840     40.1525
  2131.2500      0.0000    655.2539      3.6018     45.7091
  2131.5000      0.0000    661.2680      3.0293     51.3161
  2131.7500      0.0000    672.3469      2.5738     54.9828
  2132.0000      0.0000    686.4514      2.2406     55.8702
  2132.2500      0.0000    698.5676      2.0260     54.3362
  2132.5000      0.0000    705.0310      1.9156     51.5280
  2132.7500      0.0000    705.8029      1.8912     49.0000
  2133.0000      0.0000    703.4449      1.9446     48.0336
  2133.2500      0.0000    700.6093      2.0824     48.8035
  2133.5000      0.0000    698.5086      2.3172     50.3114
  2133.7500      0.0000    696.8089      2.6602     51.4235
  2134.0000      0.0000    693.6703      3.1292     51.9783
  2134.2500      0.0000    685.0407      3.7583     52.8239
