~Version Information
VERS.                      2.0: CWLS Log ASCII Standard - VERSION 2.0
WRAP.                       NO: One line per depth step
~Well Information Block
STRT.FT               264.2500: 
STOP.FT              1134.7500: 
STEP.FT                 0.2500: 
NULL.                -999.2500: 
COMP.          Pioneer Natural Resources: COMPANY
WELL.          Black Cat 13-32 Tr: WELL
FLD.           Purgatoire River: FIELD
LOC.           1679' FSL & 1150' FWL--: LOCATION
CNTY.               Las Animas: COUNTY
SRVC.                Patterson: SERVICE COMPANY
DATE.          Tue Mar 07 10:58:06 2006: LOG DATE
UWI.           05 071 08721 00: UNIQUE WELL ID
STAT.                 Colorado: STATE
~Curve Information Block
DEPT.FT            0 000 00 00: Depth
SN.Ohm-m                      : IEL Short Normal
SP.mV                         : IEL Spontaneous Potential
DIR.Ohm-m                     : IEL Induction Resistivity
GR.GAPI                       : Gamma Ray
~Parameter Information Block
~A  Depth        SN          SP         DIR          GR     
# ...
  1101.7500     27.7633      3.7530     19.4455    117.7607
  1102.0000     27.1243      3.6444     19.0353    118.3557
  1102.2500     26.7681      3.2948     18.7518    118.3597
  1102.5000     26.7273      2.7263     18.6394    117.5238
  1102.7500     26.9784      1.9742     18.7204    116.3561
  1103.0000     27.4465      1.0857     18.9957    113.8216
  1103.2500     28.0225      0.1184     19.4477    111.7101
  1103.5000     28.5932     -0.8610     20.0413    108.0983
  1103.7500     29.0740     -1.7794     20.7223    105.5523
  1104.0000     29.4281     -2.5625     21.4177    101.8188
  1104.2500     29.6578     -3.1417     22.0457     99.5573
  1104.5000     29.7820     -3.4630     22.5326     96.9931
  1104.7500     29.8240     -3.4957     22.8299     96.2477
  1105.0000     29.8161     -3.2379     22.9209     97.2370
  1105.2500     29.8036     -2.7183     22.8207     99.5739
  1105.5000     29.8255     -1.9918     22.5698    105.7879
  1105.7500     29.8805     -1.1316     22.2238    111.4370
  1106.0000     29.9203     -0.2184     21.8362    120.2315
  1106.2500     29.8930      0.6707     21.4428    124.2743
  1106.5000     29.7978      1.4710     21.0572    123.3345
  1106.7500     29.6962      2.1364     20.6824    115.8589
  1107.0000     29.6705      2.6422     20.3288     93.3168
  1107.2500     29.7755      2.9843     20.0278     72.8177
  1107.5000     30.0212      3.1773     19.8334     41.4809
  1107.7500     30.3886      3.2499     19.8106     24.6803
  1108.0000     30.8530      3.2411     20.0171      8.9229
  1108.2500     31.3958      3.1954     20.4858      3.8251
  1108.5000     32.0031      3.1588     21.2136      0.8221
  1108.7500     32.6605      3.1742     22.1589      0.2445
  1109.0000     33.3537      3.2780     23.2490      0.0279
  1109.2500     34.0693      3.4972     24.3975      0.0039
  1109.5000     34.7953      3.8464     25.5226   -999.2500
  1109.7500     35.5202      4.3274     26.5610   -999.2500
  1110.0000     36.2349      4.9297     27.4743   -999.2500
  1110.2500     36.9331      5.6336     28.2514   -999.2500
  1110.5000     37.6087      6.4143     28.9082   -999.2500
  1110.7500     38.2523      7.2494     29.4810   -999.2500
  1111.0000     38.8521      8.1261     30.0123   -999.2500
  1111.2500     39.4000      9.0493     30.5312   -999.2500
  1111.5000     39.8973     10.0481     31.0419   -999.2500
  1111.7500     40.3583     11.1773     31.5272   -999.2500
  1112.0000     40.8078     12.5125     31.9681   -999.2500
  1112.2500     41.2765     14.1370     32.3637   -999.2500
  1112.5000     41.7978     16.1223     32.7360   -999.2500
  1112.7500     42.4088     18.5088     33.1232   -999.2500
  1113.0000     43.1493     21.2920     33.5743   -999.2500
  1113.2500     44.0556     24.4217     34.1504   -999.2500
  1113.5000     45.1549     27.8176     34.9220   -999.2500
  1113.7500     46.4636     31.3956     35.9525   -999.2500
  1114.0000     47.9851     35.0979     37.2707   -999.2500
  1114.2500     49.7066     38.9145     38.8489   -999.2500
  1114.5000     51.6026     42.8885     40.6050   -999.2500
  1114.7500     53.6442     47.1036     42.4340   -999.2500
  1115.0000     55.8018     51.6571     44.2567   -999.2500
  1115.2500     58.0369     56.6283     46.0515   -999.2500
  1115.5000     60.2979     62.0505     47.8382   -999.2500
  1115.7500     62.5268     67.8929     49.6238   -999.2500
  1116.0000     64.6689     74.0550     51.3623   -999.2500
  1116.2500     66.6835     80.3734     52.9700   -999.2500
  1116.5000     68.5592     86.6389     54.3775   -999.2500
  1116.7500     70.3234     92.6226     55.5575   -999.2500
  1117.0000     72.0287     98.1074     56.5019   -999.2500
  1117.2500     73.7166    102.9192     57.1889   -999.2500
  1117.5000     75.3767    106.9530     57.5943   -999.2500
  1117.7500     76.9266    110.1860     57.7295   -999.2500
  1118.0000     78.2222    112.6742     57.6329   -999.2500
  1118.2500     79.0961    114.5346     57.2933   -999.2500
  1118.5000     79.4064    115.9189     56.5817   -999.2500
  1118.7500     79.0630    116.9881     55.3007   -999.2500
  1119.0000     78.0105    117.8928     53.3452   -999.2500
  1119.2500     76.1896    118.7647     50.8158   -999.2500
  1119.5000     73.5321    119.7149     47.9617   -999.2500
  1119.7500     70.0138    120.8348     45.0209   -999.2500
  1120.0000     65.7236    122.1938     42.1191   -999.2500
  1120.2500     60.8787    123.8338     39.2754   -999.2500
  1120.5000     55.7623    125.7606     36.4646   -999.2500
  1120.7500     50.6343    127.9371     33.6783   -999.2500
  1121.0000     45.6763    130.2842     30.9553   -999.2500
  1121.2500     40.9970    132.6890     28.3760   -999.2500
  1121.5000     36.6717    135.0215     26.0308   -999.2500
  1121.7500     32.7824    137.1552     24.2042   -999.2500
  1122.0000     29.4297    138.9868     22.4604   -999.2500
  1122.2500     26.7096    140.4506     21.0360   -999.2500
  1122.5000     24.6709    141.5248     19.8810   -999.2500
  1122.7500     23.2809    142.2291     18.9310   -999.2500
  1123.0000     22.4229    142.6149     18.1289   -999.2500
  1123.2500     21.9295    142.7513     17.4389   -999.2500
  1123.5000     21.6307    142.7110     16.8468   -999.2500
  1123.7500     21.3909    142.5570     16.3546   -999.2500
  1124.0000     21.1262    142.3353     15.9814   -999.2500
  1124.2500     20.8051    142.0726     15.7819   -999.2500
  1124.5000     20.4397    141.7779     15.8771   -999.2500
  1124.7500     20.0716    141.4484     16.4923   -999.2500
  1125.0000     19.7603    141.0754     18.0174   -999.2500
  1125.2500     19.5773    140.6504     20.9578   -999.2500
  1125.5000     19.5961    140.1687     27.0267   -999.2500
  1125.7500     19.8707    139.6308     39.3810   -999.2500
  1126.0000     20.4072    139.0368     67.6077   -999.2500
  1126.2500     21.1540    138.3927    152.0351   -999.2500
  1126.5000     22.0274    137.7017    862.1114   -999.2500
  1126.7500     22.9581    136.9620 100000.0000   -999.2500
  1127.0000     23.9113    136.1596 100000.0000   -999.2500
  1127.2500     24.8571    135.2563 100000.0000   -999.2500
  1127.5000     25.7183    134.1705 100000.0000   -999.2500
  1127.7500     26.3560    132.7547 100000.0000   -999.2500
  1128.0000     26.6260    130.7788 100000.0000   -999.2500
  1128.2500     26.4795    127.9290   1199.9865   -999.2500
  1128.5000     26.0263    123.8379  19360.8379   -999.2500
  1128.7500     25.4967    118.1487 100000.0000   -999.2500
  1129.0000     25.0961    110.6073 100000.0000   -999.2500
  1129.2500     24.8204    101.1598 100000.0000   -999.2500
  1129.5000     24.3169     90.0211 100000.0000   -999.2500
  1129.7500     22.9154     77.6848 100000.0000   -999.2500
  1130.0000     19.9697     64.8608 100000.0000   -999.2500
  1130.2500     15.4318     52.3504 100000.0000   -999.2500
  1130.5000     10.1511     40.8975 100000.0000   -999.2500
  1130.7500      5.4312     31.0568 100000.0000   -999.2500
  1131.0000      2.1664     23.1199 100000.0000   -999.2500
  1131.2500      0.4128     17.1103 100000.0000   -999.2500
  1131.5000     -0.3197     12.8379 100000.0000   -999.2500
  1131.7500     -0.5578      9.9858 100000.0000   -999.2500
  1132.0000     -0.6180      8.1977 100000.0000   -999.2500
  1132.2500     -0.6299      7.1450 100000.0000   -999.2500
  1132.5000   -999.2500      6.5629 100000.0000   -999.2500
  1132.7500   -999.2500      6.2605 100000.0000   -999.2500
  1133.0000   -999.2500      6.1130  16135.7012   -999.2500
  1133.2500   -999.2500      6.0454   4551.6006   -999.2500
  1133.5000   -999.2500      6.0163   3371.9944   -999.2500
  1133.7500   -999.2500      6.0045   3044.5820   -999.2500
  1134.0000   -999.2500   -999.2500   2943.5342   -999.2500
  1134.2500   -999.2500   -999.2500   2914.4009   -999.2500
  1134.5000   -999.2500   -999.2500   2907.0193   -999.2500
  1134.7500   -999.2500   -999.2500 100000.0000   -999.2500
