~Version Information
VERS.                      2.0: CWLS Log ASCII Standard - VERSION 2.0
WRAP.                       NO: One line per depth step
~Well Information Block
STRT.FT               550.0000: 
STOP.FT              1979.0000: 
STEP.FT                 0.1000: 
NULL.                -999.2500: 
COMP.          Pioneer Natural Resources: COMPANY
WELL.          Flying Horse 12-11 Tr: WELL
FLD.           Purgatoire River: FIELD
LOC.           2459' FNL & 410' FWL: LOCATION
STAT.                 Colorado: PROVINCE
CNTY.               Las Animas: COUNTY
CTRY. USA : Country
SECT. 11 : Section
TOWN. 32S : Township
RANG. 66W : Range
SRVC.                Patterson: SERVICE COMPANY
DATE.          Tue Sep 06 07:09:24 2005: LOG DATE
API.           05 071 08485 00: UNIQUE WELL ID
~Curve Information Block
DEPT.FT            0 000 00 00: Depth
DCAL.in                       : CDL Caliper
RHOB.g/cc                     : CDL Bulk Density
RHOC.g/cc                     : CDL Density Correction
DPOR.pu                       : CDL Density Porosity
GR.GAPI                       : Gamma Ray
NPOR.pu                       : Neutron Porosity
~Parameter Information Block
~A  Depth       DCAL        RHOB        RHOC        DPOR         GR         NPOR    
# ...
  1490.8000      8.0512      2.6806      0.0866     -1.8548     93.5440     23.1074
  1490.9000      8.0512      2.6502      0.0648     -0.0150     87.9061     22.8659
  1491.0000      7.9104      2.6162      0.0539      2.0490     80.8912     22.3341
  1491.1000      7.9104      2.5967      0.0095      3.2279     77.9847     22.3557
  1491.2000      7.9104      2.5995      0.0847      3.0577     80.0436     22.7838
  1491.3000      7.9281      2.6069      0.0375      2.6095     83.2245     22.9016
  1491.4000      7.9281      2.6058      0.0430      2.6812     85.8694     22.9013
  1491.5000      8.0233      2.5930      0.0547      3.4545     86.8605     22.8714
  1491.6000      8.0233      2.5622      0.0423      5.3238     87.6660     22.0868
  1491.7000      8.0233      2.5199     -0.0158      7.8851     90.0156     20.8742
  1491.8000      8.0452      2.4917     -0.0314      9.5910     90.7579     20.3912
  1491.9000      8.0452      2.4930     -0.0333      9.5166     88.6623     20.7370
  1492.0000      8.0550      2.5142     -0.0044      8.2324     87.3267     21.1271
  1492.1000      8.0550      2.5362      0.0327      6.8944     90.9752     21.5358
  1492.2000      8.0550      2.5565      0.0396      5.6647     98.8015     22.4517
  1492.3000      8.1086      2.5864      0.0528      3.8569    103.3731     23.5145
  1492.4000      8.1086      2.6257      0.0256      1.4710    100.4903     23.9120
  1492.5000      8.1244      2.6517      0.0957     -0.1027     95.3827     23.7143
  1492.6000      8.1244      2.6381      0.0413      0.7186     93.1328     23.9506
  1492.7000      8.1244      2.5953      0.0524      3.3157     95.3027     25.0006
  1492.8000      8.1399      2.5605     -0.0401      5.4253    100.6297     25.5028
  1492.9000      8.1399      2.5632      0.0211      5.2607    104.3046     24.1373
  1493.0000      8.1337      2.6009      0.0355      2.9743     99.9839     22.0128
  1493.1000      8.1337      2.6339      0.0988      0.9779     89.9930     21.0135
  1493.2000      8.1337      2.6259      0.0487      1.4583     83.3763     21.1491
  1493.3000      8.1199      2.5947      0.0065      3.3498     81.4004     21.4647
  1493.4000      8.1199      2.5805     -0.0267      4.2100     81.6434     21.9178
  1493.5000      8.1184      2.5941     -0.0143      3.3905     80.3443     22.1458
  1493.6000      8.1184      2.6164      0.0377      2.0372     73.4797     21.3954
  1493.7000      8.1184      2.6290      0.0592      1.2730     66.1995     20.0396
  1493.8000      8.1343      2.6293      0.0357      1.2574     67.7723     18.9869
  1493.9000      8.1343      2.6289     -0.0171      1.2758     77.4898     18.6595
  1494.0000      8.1167      2.6392     -0.0241      0.6552     83.4734     18.7749
  1494.1000      8.1167      2.6447      0.0596      0.3222     76.9605     18.6617
  1494.2000      8.1167      2.6286      0.0360      1.2959     65.0789     18.3144
  1494.3000      8.1263      2.6161      0.0102      2.0530     60.7650     18.1245
  1494.4000      8.1263      2.6302      0.0729      1.1988     66.7155     18.5311
  1494.5000      8.0914      2.6482      0.1020      0.1102     74.3510     19.9586
  1494.6000      8.0914      2.6468      0.0672      0.1928     74.2036     21.8819
  1494.7000      8.0914      2.6364      0.0176      0.8231     67.8254     23.0126
  1494.8000      8.0947      2.6297      0.0434      1.2301     62.1149     23.1294
  1494.9000      8.0947      2.6260      0.0366      1.4574     57.6850     23.2460
  1495.0000      8.0692      2.6310     -0.0101      1.1526     53.0898     23.5630
  1495.1000      8.0692      2.6468      0.0445      0.1919     52.8196     23.0010
  1495.2000      8.0692      2.6584      0.0856     -0.5094     55.0651     21.6320
  1495.3000      8.0630      2.6563      0.0602     -0.3789     54.8356     20.5432
  1495.4000      8.0630      2.6500      0.0639      0.0022     56.2136     20.1235
  1495.5000      8.0601      2.6472      0.0918      0.1710     61.3441     20.2529
  1495.6000      8.0601      2.6422      0.0819      0.4703     64.1333     20.7594
  1495.7000      8.0601      2.6310      0.0642      1.1534     60.0007     21.6748
  1495.8000      8.0286      2.6178      0.0731      1.9492     53.9179     22.8122
  1495.9000      8.0286      2.6161      0.0312      2.0561     52.1775     23.6439
  1496.0000      7.9996      2.6371      0.0888      0.7836     54.4608     23.9273
  1496.1000      7.9996      2.6645      0.1312     -0.8764     58.3019     23.6420
  1496.2000      7.9996      2.6756      0.1081     -1.5537     60.2593     22.7135
  1496.3000      8.0064      2.6703      0.1445     -1.2279     58.2333     21.4830
  1496.4000      8.0064      2.6631      0.0528     -0.7910     57.1261     20.6399
  1496.5000      7.9928      2.6659      0.1098     -0.9667     61.6043     20.4688
  1496.6000      7.9928      2.6646      0.0827     -0.8826     65.8477     20.5458
  1496.7000      7.9928      2.6438      0.1099      0.3729     64.2623     20.2342
  1496.8000      7.9594      2.6205     -0.0153      1.7882     62.5874     20.1093
  1496.9000      7.9594      2.6113      0.0616      2.3428     68.0224     20.9120
  1497.0000      8.0087      2.6012      0.0384      2.9562     76.8655     21.7740
  1497.1000      8.0087      2.5836      0.0056      4.0224     81.0985     21.6317
  1497.2000      8.0087      2.5740      0.0138      4.6060     78.7087     20.6568
  1497.3000      8.0180      2.5773      0.0340      4.4056     71.1328     19.8594
  1497.4000      8.0180      2.5832      0.0322      4.0505     63.3271     19.7349
  1497.5000      8.0205      2.5837      0.0264      4.0211     61.2955     19.6482
  1497.6000      8.0205      2.5874     -0.0122      3.7921     66.3190     19.1615
  1497.7000      8.0205      2.5983      0.0381      3.1338     74.0701     18.7823
  1497.8000      8.0308      2.5929      0.0300      3.4622     78.5237     19.0921
  1497.9000      8.0308      2.5619     -0.0038      5.3405     75.0741     19.8061
  1498.0000      8.0135      2.5379     -0.0553      6.7930     66.0795     20.2775
  1498.1000      8.0135      2.5545     -0.0083      5.7849     58.1153     20.3867
  1498.2000      8.0135      2.5996      0.0496      3.0542     54.3107     20.3838
  1498.3000      8.0296      2.6267      0.0869      1.4112     53.6935     20.4956
  1498.4000      8.0296      2.6171      0.0223      1.9914     53.6738     20.3018
  1498.5000      8.0375      2.5964      0.0482      3.2483     53.2941     19.1731
  1498.6000      8.0375      2.5903      0.0267      3.6163     52.6602     17.6851
  1498.7000      8.0375      2.6098      0.0311      2.4366     52.5244     17.0425
  1498.8000      8.0367      2.6451      0.0965      0.2985     53.8372     17.7196
  1498.9000      8.0367      2.6638      0.1109     -0.8366     55.6571     19.0359
  1499.0000      8.0364      2.6524      0.0546     -0.1457     56.7409     19.6448
  1499.1000      8.0364      2.6382      0.0332      0.7153     58.6108     19.1152
  1499.2000      8.0364      2.6399      0.1150      0.6117     62.6995     18.0025
  1499.3000      8.0200      2.6392      0.1055      0.6573     66.2887     17.2522
  1499.4000      8.0200      2.6238      0.0826      1.5864     64.9626     17.4155
  1499.5000      8.0187      2.6078      0.0528      2.5605     61.4746     17.5430
  1499.6000      8.0187      2.6021      0.0506      2.9026     60.5252     16.9034
  1499.7000      8.0187      2.6003      0.0593      3.0112     58.8115     16.3317
  1499.8000      7.9920      2.6003      0.0434      3.0142     55.6874     16.7270
  1499.9000      7.9920      2.6128      0.0445      2.2560     55.9897     17.5543
  1500.0000      7.9904      2.6320      0.1513      1.0908     59.1823     17.5611
  1500.1000      7.9904      2.6362      0.1033      0.8365     60.1684     16.7960
  1500.2000      7.9904      2.6266      0.0803      1.4154     57.2211     16.1339
  1500.3000      8.0093      2.6200      0.0463      1.8210     54.5654     15.8524
