~Version Information
VERS.                      2.0: CWLS Log ASCII Standard - VERSION 2.0
WRAP.                       NO: One line per depth step
~Well Information Block
STRT.FT               538.0000: 
STOP.FT              1769.0000: 
STEP.FT                 0.1000: 
NULL.                -999.2500: 
COMP.          Pioneer Natural Resources: COMPANY
WELL.            Dude 43-34 Tr: WELL
FLD.           Purgatoire River: FIELD
LOC.           2083' FSL & 1042' FEL: LOCATION
PROV.                 Colorado: PROVINCE
CNTY.               Las Animas: COUNTRY
SRVC.                Patterson: SERVICE COMPANY
DATE.          Thu Jan 26 07:02:09 2006: LOG DATE
UWI.           05 071 08676 00: UNIQUE WELL ID
~Curve Information Block
DEPT.FT            0 000 00 00: Depth
DCAL.in                       : CDL Caliper
RHOB.g/cc                     : CDL Bulk Density
RHOC.g/cc                     : CDL Density Correction
DPOR.pu                       : CDL Density Porosity
GR.GAPI                       : Gamma Ray
~Parameter Information Block
~A  Depth       DCAL        RHOB        RHOC        DPOR         GR     
# ...
   549.2000      8.2810      1.9959     -0.4911     39.6427     60.2665
   549.3000      8.2821      2.0166     -0.4406     38.3896     53.1341
   549.4000      8.2821      2.0370     -0.3869     37.1504     48.5036
   549.5000      8.2837      2.0311     -0.4479     37.5109     46.7889
   549.6000      8.2837      2.0033     -0.4638     39.1924     42.9073
   549.7000      8.2837      1.9821     -0.4696     40.4760     37.3375
   549.8000      8.2843      1.9880     -0.5068     40.1224     33.5839
   549.9000      8.2843      2.0123     -0.4431     38.6484     34.0544
   550.0000      8.2782      2.0236     -0.4053     37.9620     38.4006
   550.1000      8.2782      2.0097     -0.4531     38.8036     43.2754
   550.2000      8.2782      1.9895     -0.4894     40.0324     45.9727
   550.3000      8.2800      1.9783     -0.4777     40.7070     46.2185
   550.4000      8.2800      1.9712     -0.4615     41.1409     45.3098
   550.5000      8.2802      1.9558     -0.4442     42.0721     44.3012
   550.6000      8.2802      1.9309     -0.5121     43.5849     42.0293
   550.7000      8.2802      1.9163     -0.5415     44.4648     38.4062
   550.8000      8.2796      1.9322     -0.4950     43.5051     37.3003
   550.9000      8.2796      1.9643     -0.4603     41.5605     39.8914
   551.0000      8.2812      1.9824     -0.4388     40.4599     43.3255
   551.1000      8.2812      1.9783     -0.4509     40.7107     46.2173
   551.2000      8.2812      1.9644     -0.4557     41.5528     48.5094
   551.3000      8.2775      1.9521     -0.4957     42.2959     50.8561
   551.4000      8.2775      1.9503     -0.4948     42.4067     51.8209
   551.5000      8.2775      1.9677     -0.5090     41.3527     48.2257
   551.6000      8.2775      1.9930     -0.3895     39.8167     42.0785
   551.7000      8.2775      2.0010     -0.4427     39.3319     38.7279
   551.8000      8.2816      1.9964     -0.4872     39.6119     39.9907
   551.9000      8.2816      1.9990     -0.4689     39.4568     43.0076
   552.0000      8.2826      2.0007     -0.4669     39.3490     45.3835
   552.1000      8.2826      1.9875     -0.4580     40.1545     46.5972
   552.2000      8.2826      1.9679     -0.4875     41.3381     45.8696
   552.3000      8.2796      1.9579     -0.4809     41.9426     43.1508
   552.4000      8.2796      1.9531     -0.4371     42.2389     39.4458
   552.5000      8.2819      1.9371     -0.4544     43.2052     37.1588
   552.6000      8.2819      1.9131     -0.5580     44.6602     38.5330
   552.7000      8.2819      1.9043     -0.5392     45.1933     41.9797
   552.8000      8.2808      1.9164     -0.4787     44.4626     44.2205
   552.9000      8.2808      1.9314     -0.4875     43.5537     43.9732
   553.0000      8.2813      1.9360     -0.4542     43.2730     41.3263
   553.1000      8.2813      1.9338     -0.4819     43.4083     38.0405
   553.2000      8.2813      1.9412     -0.5215     42.9577     37.4193
   553.3000      8.2783      1.9612     -0.4623     41.7436     40.0257
   553.4000      8.2783      1.9782     -0.4629     40.7177     44.1343
   553.5000      8.2841      1.9821     -0.4397     40.4759     46.5334
   553.6000      8.2841      1.9687     -0.4113     41.2886     44.6620
   553.7000      8.2841      1.9426     -0.4921     42.8698     41.7125
   553.8000      8.2854      1.9228     -0.4700     44.0723     40.7823
   553.9000      8.2854      1.9222     -0.4960     44.1098     40.7010
   554.0000      8.2832      1.9354     -0.4874     43.3109     40.5857
   554.1000      8.2832      1.9473     -0.5053     42.5860     40.2381
   554.2000      8.2832      1.9554     -0.4529     42.0969     38.5198
   554.3000      8.2886      1.9707     -0.4779     41.1718     36.6294
   554.4000      8.2886      1.9978     -0.4470     39.5265     38.5185
   554.5000      8.2896      2.0282     -0.4571     37.6825     43.0904
   554.6000      8.2896      2.0449     -0.3944     36.6750     44.9501
   554.7000      8.2896      2.0309     -0.3742     37.5202     43.6714
   554.8000      8.2878      1.9959     -0.4933     39.6438     42.4238
   554.9000      8.2878      1.9725     -0.5117     41.0592     42.2895
   555.0000      8.2870      1.9727     -0.4875     41.0496     43.1354
   555.1000      8.2870      1.9760     -0.4251     40.8481     44.1780
   555.2000      8.2870      1.9703     -0.5296     41.1923     44.6517
   555.3000      8.2862      1.9691     -0.4585     41.2683     44.1157
   555.4000      8.2862      1.9732     -0.4619     41.0161     40.8472
   555.5000      8.2905      1.9763     -0.5085     40.8303     37.1462
   555.6000      8.2905      1.9789     -0.4497     40.6711     37.0989
   555.7000      8.2905      1.9724     -0.4579     41.0691     39.5629
   555.8000      8.2910      1.9500     -0.4716     42.4224     41.9654
   555.9000      8.2910      1.9235     -0.5247     44.0317     42.6109
   556.0000      8.2866      1.9088     -0.5026     44.9215     39.9410
   556.1000      8.2866      1.9106     -0.5185     44.8104     34.9603
   556.2000      8.2866      1.9239     -0.5353     44.0043     31.6872
   556.3000      8.2824      1.9367     -0.4893     43.2292     32.8492
   556.4000      8.2824      1.9425     -0.5025     42.8782     35.7143
   556.5000      8.2772      1.9534     -0.5493     42.2209     37.4568
   556.6000      8.2772      1.9735     -0.4414     41.0000     39.1610
   556.7000      8.2772      1.9854     -0.5066     40.2763     40.8951
   556.8000      8.2779      1.9832     -0.4610     40.4093     42.1825
   556.9000      8.2779      1.9775     -0.5010     40.7555     43.7402
   557.0000      8.2773      1.9765     -0.4893     40.8208     44.7918
   557.1000      8.2773      1.9732     -0.4497     41.0168     45.8569
   557.2000      8.2773      1.9565     -0.4525     42.0320     48.6610
   557.3000      8.2757      1.9424     -0.5347     42.8829     51.0648
   557.4000      8.2757      1.9553     -0.4634     42.1025     50.7136
   557.5000      8.2804      1.9848     -0.4406     40.3153     49.1655
   557.6000      8.2804      1.9989     -0.4046     39.4579     45.6732
   557.7000      8.2804      1.9850     -0.4815     40.3059     38.8144
   557.8000      8.2783      1.9574     -0.4434     41.9755     33.2375
   557.9000      8.2783      1.9350     -0.5309     43.3329     32.4532
   558.0000      8.2769      1.9268     -0.5045     43.8319     34.4941
   558.1000      8.2769      1.9243     -0.4968     43.9842     36.4503
   558.2000      8.2769      1.9155     -0.5023     44.5151     38.2514
   558.3000      8.2794      1.9025     -0.5234     45.3044     40.0106
   558.4000      8.2794      1.8942     -0.5142     45.8045     40.6190
   558.5000      8.2799      1.8932     -0.5419     45.8681     40.8698
   558.6000      8.2799      1.8990     -0.5163     45.5164     42.0985
   558.7000      8.2799      1.9136     -0.5639     44.6298     43.1641
   558.8000      8.2841      1.9314     -0.4732     43.5509     42.4850
   558.9000      8.2841      1.9371     -0.5290     43.2085     40.9165
   559.0000      8.2832      1.9305     -0.4846     43.6060     39.9787
   559.1000      8.2832      1.9235     -0.5381     44.0274     40.1515
   559.2000      8.2832      1.9200     -0.4933     44.2438     42.4949
   559.3000      8.2817      1.9193     -0.5380     44.2864     46.3868
   559.4000      8.2817      1.9272     -0.5068     43.8086     49.4312
   559.5000      8.2786      1.9419     -0.4727     42.9152     50.2178
   559.6000      8.2786      1.9514     -0.4973     42.3401     48.1753
   559.7000      8.2786      1.9472     -0.4652     42.5923     44.6488
   559.8000      8.2802      1.9361     -0.5170     43.2697     43.2130
   559.9000      8.2802      1.9352     -0.5375     43.3190     44.9349
   560.0000      8.2877      1.9388     -0.4835     43.1012     48.6025
   560.1000      8.2877      1.9278     -0.5232     43.7702     52.2806
   560.2000      8.2877      1.9132     -0.5566     44.6566     52.0219
   560.3000      8.2811      1.9191     -0.5613     44.2974     49.4412
