~Version Information
 VERS.                                  2.0 : CWLS LAS VERSION
 WRAP.                                   NO : WRAPING MODE
 SWARE .                 MController 2.5.3A : SOFTWARE VERSION
~Well Information
 WELL.                           Ryan 41-17 : WELL
 COMP.  Pioneer Natural Resources USA, Inc. : COMPANY
 FLD.                      Purgatoire River : FIELD
 LOC.             NE/NE Sec. 17, T33S, R65W : LOCATION
 DATE.                           03/16/2006 : DATE(S) LOGGED
 SRVC.                  Entrada GeoSciences : SERVICE COMPANY
 STAT.                             Colorado : STATE
 CNTY.                           Las Animas : COUNTY
 CTRY.                        United States : COUNTRY
 API.                       05-071-08719-00 : API NUMBER
 STRT.FT                             250.00 : START DEPTH
 STOP.FT                            1155.00 : STOP DEPTH
 STEP.FT                               1.00 : DEPTH INCREMENT
 NULL.                                -9999 : NULL VALUE
~Curve information
 DEPTH.FT                                   :
 ROP.MIN/FT                                 :
 GAS.UNITS                                  :
~ASCII Log data
# ...
      650.00         0.30         28.1 
      651.00         0.30         27.9 
      652.00         0.30         27.8 
      653.00         0.33         27.4 
      654.00         0.27         27.5 
      655.00         0.30         26.8 
      656.00         0.30         26.0 
      657.00         0.35         26.6 
      658.00         0.33         26.2 
      659.00         0.37         26.4 
      660.00         0.33         25.6 
      661.00         0.40         25.6 
      662.00         0.23         24.6 
      663.00         0.27         23.3 
      664.00         0.33         26.0 
      665.00         0.33         26.7 
      666.00         0.33         26.8 
      667.00         0.28         25.6 
      668.00         0.23        112.0 
      669.00         0.20        112.0 
      670.00         0.23        145.9 
      671.00         0.43        149.4 
      672.00         0.25         81.9 
      673.00         0.17         84.4 
      674.00         0.30         88.4 
      675.00         0.27         87.5 
      676.00         0.13         72.1 
      677.00         0.33         58.8 
      678.00         0.30         43.7 
      679.00         0.23         42.3 
      680.00         0.20         35.1 
      681.00         0.20         35.1 
      682.00         0.20         34.8 
      683.00         0.23         35.6 
      684.00         0.30         35.8 
      685.00         0.30         35.1 
      686.00         0.32         33.5 
      687.00         0.33         32.2 
      688.00         0.30         31.9 
      689.00         0.23         32.0 
      690.00         0.23         36.0 
      691.00         0.20         46.2 
      692.00         0.17         48.0 
      693.00         0.20         49.0 
      694.00         0.23         45.3 
      695.00         0.27         43.1 
      696.00         0.23         42.9 
      697.00         0.23         40.0 
      698.00         0.20        207.1 
      699.00         0.23        148.8 
      700.00         0.35         86.0 
      701.00         0.47         56.8 
      702.00         0.20         42.4 
      703.00         0.23         41.1 
      704.00         0.30         37.9 
      705.00         0.30         35.2 
      706.00         0.30         34.0 
      707.00         0.27         31.9 
      708.00         0.20         32.5 
      709.00         0.20         31.3 
      710.00         0.13         31.3 
      711.00         0.17         30.9 
      712.00         0.20         31.6 
      713.00         0.32         32.2 
      714.00         0.30         32.4 
      715.00         0.23         30.8 
      716.00         0.23         30.8 
      717.00         0.23         30.3 
      718.00         0.27         30.2 
      719.00         0.23         30.5 
      720.00         0.27         30.3 
      721.00         0.23         30.5 
      722.00         0.27         30.4 
      723.00         0.27         30.7 
      724.00         0.23         30.2 
      725.00         0.23         30.2 
      726.00         0.28         30.5 
      727.00         0.23         30.4 
      728.00         0.23         30.2 
      729.00         0.37        156.0 
      730.00         0.27         80.9 
      731.00         0.53         73.0 
      732.00         0.27         44.3 
      733.00         0.40         43.0 
      734.00         0.30         37.2 
      735.00         0.40         34.6 
      736.00         0.27         31.8 
      737.00         0.33         30.9 
      738.00         0.33         31.1 
      739.00         0.30         32.8 
      740.00         0.27         32.4 
      741.00         0.27         31.6 
      742.00         0.32         30.9 
      743.00         0.27         30.2 
      744.00         0.33         30.5 
      745.00         0.30         30.6 
      746.00         0.20         30.4 
      747.00         0.20         30.4 
      748.00         0.23         30.5 
      749.00         0.27         30.8 
      750.00         0.23         30.9 
      751.00         0.27         32.3 
      752.00         0.27         31.5 
      753.00         0.07         31.5 
      754.00         0.13         31.5 
      755.00         0.23         31.8 
      756.00         0.28         31.0 
      757.00         0.27         31.4 
      758.00         0.30         76.2 
      759.00         0.30        107.7 
      760.00         0.27        141.7 
      761.00         0.40        157.9 
      762.00         0.45        109.3 
      763.00         0.30         54.1 
      764.00         0.20         46.6 
      765.00         0.17         45.9 
      766.00         0.27         41.8 
      767.00         0.33         37.7 
      768.00         0.33         33.0 
      769.00         0.30         32.7 
      770.00         0.30         31.1 
      771.00         0.23         29.3 
      772.00         0.27         29.6 
      773.00         0.20         29.6 
      774.00         0.28         30.1 
      775.00         0.23         30.3 
      776.00         0.23         30.8 
      777.00         0.30         31.8 
      778.00         0.23         31.7 
      779.00         0.23         32.4 
      780.00         0.23         32.2 
      781.00         0.23         32.5 
      782.00         0.27         33.1 
      783.00         0.20         33.7 
      784.00         0.27         33.8 
      785.00         0.17         34.6 
      786.00         0.20         34.3 
      787.00         0.30         33.4 
      788.00         0.25         33.0 
      789.00         0.23        182.6 
      790.00         0.20        182.6 
      791.00         0.80        186.9 
      792.00         0.33         58.7 
      793.00         0.33         49.3 
      794.00         0.30         42.7 
      795.00         0.27         39.0 
      796.00         0.23         34.5 
      797.00         0.27         32.9 
      798.00         0.27         30.7 
      799.00         0.20         30.7 
      800.00         0.23         30.7 
      801.00         0.27         30.2 
      802.00         0.28         30.1 
      803.00         0.30         30.4 
      804.00         0.30         29.8 
      805.00         0.27         30.0 
      806.00         0.27         29.7 
      807.00         0.27         29.6 
      808.00         0.27         29.3 
      809.00         0.23         29.3 
      810.00         0.23         30.0 
      811.00         0.23         31.4 
      812.00         0.20         32.9 
      813.00         0.20         33.2 
      814.00         0.17         31.7 
      815.00         0.20         31.1 
      816.00         0.25         31.4 
      817.00         0.20         31.4 
      818.00         0.27         31.5 
      819.00         0.27        216.0 
      820.00         0.23        110.0 
      821.00         0.73        102.4 
      822.00         0.27         50.0 
      823.00         0.27         49.6 
      824.00         0.13         47.1 
      825.00         0.20         44.6 
      826.00         0.23         41.5 
      827.00         0.13         36.9 
      828.00         0.17         35.2 
      829.00         0.20         33.2 
      830.00         0.27         33.2 
      831.00         0.32         32.1 
      832.00         0.27         31.3 
      833.00         0.30         30.7 
      834.00         0.27         30.3 
      835.00         0.37         29.6 
      836.00         0.27         29.6 
      837.00         0.03         29.6 
      838.00         0.30         30.0 
      839.00         0.33         30.2 
      840.00         0.27         29.8 
      841.00         0.30         30.2 
      842.00         0.30         30.3 
      843.00         0.32         30.1 
      844.00         0.30         29.1 
      845.00         0.27         29.3 
      846.00         0.27         26.5 
      847.00         0.40         32.4 
      848.00         0.27        385.0 
      849.00         0.27        140.8 
