~Version Information
VERS.                      2.0: CWLS Log ASCII Standard - VERSION 2.0
WRAP.                       NO: One line per depth step
~Well Information Block
STRT.FT               240.0000: 
STOP.FT              1342.0000: 
STEP.FT                 0.1000: 
NULL.                -999.2500: 
COMP.          Pioneer Natural Resources: COMPANY
WELL.          Lorencito 9-4-34-66: WELL
FLD.           Purgatoire River: FIELD
LOC.           2540' FSL & 438' FEL: LOCATION
STAT.                 Colorado: State
CNTY.               Las Animas: COUNTY
CTRY. USA : Country
SECT. 4 : Section
TOWN. 34S : Township
RANG. 68W : range
SRVC.                Patterson: SERVICE COMPANY
DATE.          Thu Sep 15 13:16:59 2005: LOG DATE
API.           05 071 08498 00: UNIQUE WELL ID
~Curve Information Block
DEPT.FT            0 000 00 00: Depth
DCAL.in                       : CDL Caliper
RHOB.g/cc                     : CDL Bulk Density
RHOC.g/cc                     : CDL Density Correction
DPOR.pu                       : CDL Density Porosity
GR.GAPI                       : Gamma Ray
NPOR.pu                       : Neutron Porosity
~Parameter Information Block
~A  Depth       DCAL        RHOB        RHOC        DPOR         GR         NPOR    
# ...
   316.8000      8.1966      2.4203     -0.0445     13.9222    147.2310     25.9384
   316.9000      8.1966      2.4387      0.0339     12.8048    152.5795     25.7408
   317.0000      8.2022      2.4566      0.0727     11.7185    156.4054     25.3098
   317.1000      8.2022      2.4609      0.0591     11.4628    152.0877     24.4791
   317.2000      8.2022      2.4576      0.0814     11.6636    142.1652     23.8527
   317.3000      8.2348      2.4535      0.0692     11.9091    133.9560     23.7386
   317.4000      8.2348      2.4621      0.0482     11.3890    131.1042     23.8519
   317.5000      8.2057      2.4829      0.1164     10.1251    135.3521     23.8544
   317.6000      8.2057      2.4933      0.0877      9.4943    144.6372     24.0525
   317.7000      8.2057      2.4863      0.0235      9.9200    152.8107     24.3699
   317.8000      8.1924      2.4774      0.0547     10.4628    154.7278     24.0412
   317.9000      8.1924      2.4739      0.0730     10.6743    149.7848     23.5393
   318.0000      8.1981      2.4699      0.0860     10.9168    139.9931     23.9721
   318.1000      8.1981      2.4665      0.0305     11.1236    130.0418     24.7971
   318.2000      8.1981      2.4723      0.0927     10.7690    128.0540     25.2310
   318.3000      8.1967      2.4863      0.0349      9.9229    136.4951     25.4336
   318.4000      8.1967      2.5000      0.0990      9.0888    151.6804     25.3772
   318.5000      8.2101      2.5084      0.0927      8.5825    163.4975     25.5451
   318.6000      8.2101      2.5216      0.0455      7.7803    162.1439     26.1534
   318.7000      8.2101      2.5387      0.1140      6.7475    153.5465     26.4744
   318.8000      8.2421      2.5312      0.1049      7.1980    147.8719     26.2741
   318.9000      8.2421      2.5026      0.0148      8.9350    146.8385     25.7610
   319.0000      8.2523      2.4890      0.0398      9.7561    146.8796     24.9933
   319.1000      8.2523      2.5005      0.0476      9.0600    144.8182     24.2997
   319.2000      8.2523      2.5187      0.0873      7.9592    141.6296     24.1613
   319.3000      8.2602      2.5261      0.0660      7.5076    139.2691     24.3569
   319.4000      8.2602      2.5215      0.0382      7.7905    138.4327     24.3815
   319.5000      8.2625      2.5117      0.0417      8.3834    141.9668     24.0876
   319.6000      8.2625      2.4981      0.0672      9.2084    146.6196     23.7544
   319.7000      8.2625      2.4840      0.0327     10.0600    145.5602     23.6923
   319.8000      8.2648      2.4747      0.0786     10.6232    140.5579     23.8467
   319.9000      8.2648      2.4540      0.0618     11.8758    134.8262     23.9932
   320.0000      8.2615      2.4031      0.0610     14.9658    130.6106     24.1996
   320.1000      8.2615      2.3438     -0.0497     18.5602    132.3087     24.1802
   320.2000      8.2615      2.3154     -0.0186     20.2797    138.5653     23.3916
   320.3000      8.2638      2.3182      0.0176     20.1115    142.9541     22.2392
   320.4000      8.2638      2.3310      0.0113     19.3329    144.8849     21.4893
   320.5000      8.2582      2.3401      0.0605     18.7847    146.2198     21.5197
   320.6000      8.2582      2.3421      0.0219     18.6587    145.2879     21.9831
   320.7000      8.2582      2.3492      0.0698     18.2325    142.5268     22.2180
   320.8000      8.2609      2.3672      0.0839     17.1407    139.0669     22.4389
   320.9000      8.2609      2.3891      0.1090     15.8116    134.1285     22.7285
   321.0000      8.2634      2.4094      0.1417     14.5800    132.7302     22.7202
   321.1000      8.2634      2.4291      0.1601     13.3887    135.5432     22.7750
   321.2000      8.2634      2.4431      0.1770     12.5385    136.1639     23.5293
   321.3000      8.2646      2.4387      0.1782     12.8043    136.2684     24.6390
   321.4000      8.2646      2.4107      0.1459     14.5018    140.2584     25.4640
   321.5000      8.2832      2.3745      0.0842     16.6946    143.8589     25.9328
   321.6000      8.2832      2.3579      0.0476     17.7025    145.7677     26.0544
   321.7000      8.2832      2.3734      0.0625     16.7642    147.9205     25.8093
   321.8000      8.2753      2.4005      0.1053     15.1228    145.6028     25.9383
   321.9000      8.2753      2.4117      0.1067     14.4400    138.8740     26.7238
   322.0000      8.2688      2.4045      0.1119     14.8790    136.7434     27.2360
   322.1000      8.2688      2.3923      0.0946     15.6178    143.5451     26.8067
   322.2000      8.2688      2.3939      0.0772     15.5224    151.6212     25.8961
   322.3000      8.2706      2.4186      0.0859     14.0252    152.4301     25.5191
   322.4000      8.2706      2.4584      0.1176     11.6147    146.1016     25.7120
   322.5000      8.2627      2.5032      0.1309      8.8998    138.3277     25.5749
   322.6000      8.2627      2.5395      0.1858      6.6989    135.4745     25.1992
   322.7000      8.2627      2.5566      0.1217      5.6596    139.2763     24.8357
   322.8000      8.2411      2.5638      0.1610      5.2269    144.1145     24.0517
   322.9000      8.2411      2.5658      0.1438      5.1044    143.0095     23.5447
   323.0000      8.2625      2.5521      0.1618      5.9311    138.1220     24.0241
   323.1000      8.2625      2.5224      0.1153      7.7308    136.0461     24.7650
   323.2000      8.2625      2.4971      0.0855      9.2691    137.3938     24.5610
   323.3000      8.2780      2.4932      0.1240      9.5057    140.2475     23.3617
   323.4000      8.2780      2.5079      0.1159      8.6149    144.1574     22.3880
   323.5000      8.2814      2.5291      0.0863      7.3258    145.3003     22.6081
   323.6000      8.2814      2.5466      0.1109      6.2645    143.4555     23.7806
   323.7000      8.2814      2.5612      0.1102      5.3847    142.3984     24.8806
   323.8000      8.2923      2.5750      0.1340      4.5429    142.6057     25.5327
   323.9000      8.2923      2.5759      0.1333      4.4880    143.8382     25.9887
   324.0000      8.3278      2.5606      0.0387      5.4189    143.6699     26.0558
   324.1000      8.3278      2.5424      0.0763      6.5184    138.5325     25.6686
   324.2000      8.3278      2.5192      0.1023      7.9295    130.7068     25.5258
   324.3000      8.3321      2.4864      0.0083      9.9166    124.6962     25.9259
   324.4000      8.3321      2.4558      0.0562     11.7673    121.4282     26.2355
   324.5000      8.3325      2.4403      0.0335     12.7121    122.1852     26.5209
   324.6000      8.3325      2.4488      0.0144     12.1935    127.5602     27.2982
   324.7000      8.3325      2.4702      0.0985     10.8987    133.6044     27.6505
   324.8000      8.3345      2.4874      0.0387      9.8541    137.0766     27.1961
   324.9000      8.3345      2.5130      0.0490      8.3003    139.0486     27.1857
   325.0000      8.3209      2.5634      0.0567      5.2504    140.3372     28.0397
   325.1000      8.3209      2.6243      0.1535      1.5587    138.5859     29.2713
   325.2000      8.3209      2.6699      0.1838     -1.2064    131.2889     30.1934
   325.3000      8.3070      2.6967      0.1932     -2.8296    119.3428     30.5640
   325.4000      8.3070      2.7114      0.2070     -3.7185    108.9040     30.8361
   325.5000      8.2956      2.7133      0.1583     -3.8389    104.4503     30.9547
   325.6000      8.2956      2.7138      0.1028     -3.8648    104.7678     30.8193
   325.7000      8.2956      2.7382      0.0792     -5.3477    107.1021     31.0534
   325.8000      8.2901      2.8002      0.0787     -9.1035    109.3441     31.7030
   325.9000      8.2901      2.8868      0.1580    -14.3510    109.7908     31.7082
   326.0000      8.2385      2.9640      0.2277    -19.0277    108.7251     30.7684
   326.1000      8.2385      2.9961      0.2501    -20.9751    109.1272     29.4760
   326.2000      8.2385      2.9615      0.2618    -18.8780    109.3364     28.1023
   326.3000      8.2238      2.8627      0.2284    -12.8883    104.5018     27.0637
