~Version Information
VERS.                      2.0: CWLS Log ASCII Standard - VERSION 2.0
WRAP.                       NO: One line per depth step
~Well Information Block
STRT.FT               197.7500: 
STOP.FT              1631.0000: 
STEP.FT                 0.2500: 
NULL.                -999.2500: 
COMP.          Petrogulf Corporation: COMPANY
WELL.             State 16-44R: WELL
FLD.           Purgatoire River: FIELD
LOC.           632' FSL & 223' FEL--: LOCATION
PROV.                 Colorado: PROVINCE
CNTY.               Las Animas: COUNTRY
SRVC.                Patterson: SERVICE COMPANY
DATE.          Fri Oct 21 11:31:17 2005: LOG DATE
UWI.           05 071 08457 00: UNIQUE WELL ID
~Curve Information Block
DEPT.FT            0 000 00 00: Depth
SP.mV                         : DIL Spontaneous Potential
RILD.Ohm-m                    : DIL Deep Resistivity
RILM.Ohm-m                    : DIL Medium Resistivity
RLL3.Ohm-m                    : DIL Shallow Resistivity
GR.GAPI                       : Gamma Ray
~Parameter Information Block
~A  Depth        SP         RILD        RILM        RLL3         GR     
# ...
  1233.7500    102.2407     16.7368     17.8828     17.4574    107.5720
  1234.0000    102.5304     16.5877     17.4626     17.1139    115.2423
  1234.2500    102.7971     16.4562     17.0761     16.8919    120.6006
  1234.5000    103.0207     16.3536     16.7404     16.6412    127.2761
  1234.7500    103.1740     16.2819     16.4673     16.2610    129.9174
  1235.0000    103.2377     16.2377     16.2623     15.7554    130.8771
  1235.2500    103.2155     16.2188     16.1264     15.2447    129.9086
  1235.5000    103.1308     16.2262     16.0595     14.9187    126.5894
  1235.7500    103.0126     16.2614     16.0644     14.9477    123.0183
  1236.0000    102.8815     16.3214     16.1456     15.4112    114.9997
  1236.2500    102.7436     16.3984     16.3043     16.2731    107.8129
  1236.5000    102.5956     16.4837     16.5327     17.3900     95.4735
  1236.7500    102.4345     16.5742     16.8137     18.5543     87.4610
  1237.0000    102.2601     16.6754     17.1258     19.5757     77.4708
  1237.2500    102.0704     16.8001     17.4508     20.3565     72.3889
  1237.5000    101.8599     16.9615     17.7793     20.8989     66.7005
  1237.7500    101.6266     17.1670     18.1100     21.2573     64.0988
  1238.0000    101.3769     17.4142     18.4444     21.4908     62.3669
  1238.2500    101.1196     17.6931     18.7803     21.6464     62.6773
  1238.5000    100.8566     17.9897     19.1113     21.7597     64.1180
  1238.7500    100.5767     18.2903     19.4334     21.8564     64.6322
  1239.0000    100.2607     18.5839     19.7510     21.9540     63.8821
  1239.2500     99.8916     18.8654     20.0773     22.0641     62.8470
  1239.5000     99.4659     19.1372     20.4262     22.1893     61.8650
  1239.7500     99.0015     19.4097     20.8038     22.3199     61.9235
  1240.0000     98.5382     19.6961     21.2069     22.4451     62.6861
  1240.2500     98.1185     20.0050     21.6297     22.5852     63.3362
  1240.5000     97.7573     20.3357     22.0742     22.8266     64.4971
  1240.7500     97.4298     20.6806     22.5553     23.3375     65.5434
  1241.0000     97.0981     21.0305     23.0943     24.3435     67.3733
  1241.2500     96.7485     21.3767     23.7063     26.0493     68.3052
  1241.5000     96.3985     21.7067     24.3891     28.5166     68.4290
  1241.7500     96.0760     22.0021     25.1215     31.5728     67.6318
  1242.0000     95.7986     22.2449     25.8731     34.8424     65.9055
  1242.2500     95.5707     22.4295     26.6159     37.8991     64.8576
  1242.5000     95.3874     22.5691     27.3326     40.4244     63.5704
  1242.7500     95.2353     22.6875     28.0163     42.2722     62.7921
  1243.0000     95.0961     22.8069     28.6669     43.4468     61.8433
  1243.2500     94.9567     22.9400     29.2872     44.0620     61.5391
  1243.5000     94.8190     23.0906     29.8792     44.3020     61.5610
  1243.7500     94.6973     23.2563     30.4386     44.3671     61.6612
  1244.0000     94.6101     23.4285     30.9485     44.4049     61.7527
  1244.2500     94.5745     23.5893     31.3805     44.4706     61.9857
  1244.5000     94.6011     23.7160     31.7065     44.5391     63.0306
  1244.7500     94.6839     23.7917     31.9148     44.5421     64.1141
  1245.0000     94.8012     23.8158     32.0132     44.3961     65.6998
  1245.2500     94.9355     23.8025     32.0138     44.0257     66.4553
  1245.5000     95.0906     23.7678     31.9184     43.3957     67.1298
  1245.7500     95.2858     23.7148     31.7190     42.5401     67.3273
  1246.0000     95.5338     23.6301     31.4145     41.5563     67.0415
  1246.2500     95.8301     23.4919     31.0226     40.5584     66.2907
  1246.5000     96.1600     23.2842     30.5752     39.6206     64.4905
  1246.7500     96.5107     23.0073     30.1053     38.7500     63.2761
  1247.0000     96.8753     22.6783     29.6352     37.8972     62.2437
  1247.2500     97.2504     22.3236     29.1743     36.9820     62.2658
  1247.5000     97.6323     21.9685     28.7197     35.9157     63.1654
  1247.7500     98.0169     21.6294     28.2591     34.6261     64.1327
  1248.0000     98.4057     21.3139     27.7765     33.0890     65.7346
  1248.2500     98.8074     21.0244     27.2627     31.3542     66.5639
  1248.5000     99.2287     20.7614     26.7263     29.5455     66.9404
  1248.7500     99.6723     20.5219     26.1984     27.8346     66.6784
  1249.0000    100.1456     20.2958     25.7216     26.4103     66.2338
  1249.2500    100.6628     20.0624     25.3317     25.4467     66.2123
  1249.5000    101.2326     19.7931     25.0412     25.0556     66.3167
  1249.7500    101.8542     19.4577     24.8352     25.2412     66.0712
  1250.0000    102.5297     19.0332     24.6737     25.9178     65.0965
  1250.2500    103.2706     18.5114     24.4992     26.9907     64.5515
  1250.5000    104.0881     17.9010     24.2419     28.4114     65.2623
  1250.7500    104.9856     17.2234     23.8251     30.1410     67.2761
  1251.0000    105.9594     16.5041     23.1747     32.0548     72.3090
  1251.2500    107.0029     15.7652     22.2371     33.8306     76.2970
  1251.5000    108.1126     15.0246     21.0042     34.8555     82.2814
  1251.7500    109.2872     14.2976     19.5318     34.3220     86.4628
  1252.0000    110.5179     13.5998     17.9323     31.6675     94.6707
  1252.2500    111.7762     12.9454     16.3404     27.1008    102.5317
  1252.5000    113.0129     12.3443     14.8709     21.6557    118.4006
  1252.7500    114.1659     11.7998     13.5928     16.6221    130.6163
  1253.0000    115.1713     11.3078     12.5262     12.8659    147.6981
  1253.2500    115.9836     10.8601     11.6565     10.5761    156.1566
  1253.5000    116.5986     10.4482     10.9515      9.4619    163.1072
  1253.7500    117.0570     10.0673     10.3764      9.0746    164.6661
  1254.0000    117.4131      9.7179      9.9036      9.0159    164.7987
  1254.2500    117.6995      9.4031      9.5162      9.0129    164.4962
  1254.5000    117.9219      9.1262      9.2074      8.9323    163.9444
  1254.7500    118.0817      8.8880      8.9766      8.7749    163.1434
  1255.0000    118.1937      8.6872      8.8239      8.6505    160.5109
  1255.2500    118.2849      8.5199      8.7452      8.7180    157.8472
  1255.5000    118.3870      8.3800      8.7294      9.0910    153.5996
  1255.7500    118.5268      8.2596      8.7571      9.7467    151.3646
  1256.0000    118.7181      8.1512      8.8032     10.5166    149.5286
  1256.2500    118.9538      8.0507      8.8412     11.1848    149.2252
  1256.5000    119.2077      7.9579      8.8489     11.6023    149.5393
  1256.7500    119.4490      7.8755      8.8128     11.7125    149.8980
  1257.0000    119.6607      7.8054      8.7297     11.5127    150.7493
  1257.2500    119.8437      7.7464      8.6060     11.0379    152.1154
  1257.5000    120.0018      7.6941      8.4541     10.3792    156.2304
  1257.7500    120.1283      7.6432      8.2894      9.6731    160.0692
  1258.0000    120.2072      7.5895      8.1259      9.0460    165.9391
  1258.2500    120.2239      7.5306      7.9742      8.5640    169.2202
  1258.5000    120.1743      7.4654      7.8409      8.2275    172.8866
  1258.7500    120.0697      7.3931      7.7291      8.0061    174.4380
  1259.0000    119.9310      7.3134      7.6397      7.8781    174.9832
  1259.2500    119.7725      7.2277      7.5714      7.8470    173.8679
  1259.5000    119.5920      7.1404      7.5211      7.9251    169.9256
  1259.7500    119.3780      7.0581      7.4837      8.1027    166.1552
  1260.0000    119.1244      6.9889      7.4541      8.3360    160.1536
  1260.2500    118.8370      6.9410      7.4288      8.5722    156.9130
  1260.5000    118.5314      6.9214      7.4076      8.7770    154.2507
  1260.7500    118.2290      6.9344      7.3937      8.9247    153.9184
  1261.0000    117.9496      6.9813      7.3939      8.9718    155.0222
  1261.2500    117.7008      7.0593      7.4181      8.8780    156.5653
  1261.5000    117.4713      7.1626      7.4782      8.6734    159.5009
