~Version Information
 VERS.                                  2.0 : CWLS LAS VERSION
 WRAP.                                   NO : WRAPING MODE
 SWARE .                 MController 2.5.0N : SOFTWARE VERSION
~Well Information
 WELL.               Bear Cub Federal 11-23 : WELL
 COMP.    Pioneer Natural Resources USA Inc : COMPANY
 FLD.                      Purgatoire River : FIELD
 LOC.                 NW/NW Sec23 T33S R67W : LOCATION
 DATE.                          06/18-19/06 : DATE(S) LOGGED
 SRVC.       Blanco Geological Services LLC : SERVICE COMPANY
 STAT.                             Colorado : STATE
 CNTY.                           Las Animas : COUNTY
 CTRY.                                  USA : COUNTRY
 API.                       05-071-08509-00 : API NUMBER
 STRT.FT                             475.00 : START DEPTH
 STOP.FT                            2220.00 : STOP DEPTH
 STEP.FT                               1.00 : DEPTH INCREMENT
 NULL.                                -9999 : NULL VALUE
~Curve information
 DEPTH.FT                                   :
 ROP.MIN/FT                                 :
 GAS.UNITS                                  :
~ASCII Log data
# ...
      1675.0         0.30         46.0 
      1676.0         0.58         81.9 
      1677.0         0.23         80.0 
      1678.0         0.63         47.2 
      1679.0         0.30         39.0 
      1680.0         0.30         39.5 
      1681.0         0.33         45.3 
      1682.0         0.27         39.0 
      1683.0         0.27         40.6 
      1684.0         0.23         45.8 
      1685.0         0.28         49.4 
      1686.0         0.23         49.4 
      1687.0         0.37         49.0 
      1688.0         0.33         43.0 
      1689.0         0.33         55.1 
      1690.0         0.30         57.3 
      1691.0         0.37         57.6 
      1692.0         0.33         54.9 
      1693.0         0.30         54.0 
      1694.0         0.30         52.8 
      1695.0         0.40         54.6 
      1696.0         0.38         52.8 
      1697.0         0.37         54.9 
      1698.0         0.37         53.3 
      1699.0         0.30         29.7 
      1700.0         0.27         26.5 
      1701.0         0.30         24.8 
      1702.0         0.27         21.9 
      1703.0         0.27         21.7 
      1704.0         0.30         23.9 
      1705.0         0.53         30.9 
      1706.0         0.82         73.3 
      1707.0         0.40         72.2 
      1708.0         0.20         74.3 
      1709.0         0.60         74.0 
      1710.0         0.47         57.1 
      1711.0         0.60         49.7 
      1712.0         0.45         50.0 
      1713.0         0.37         43.8 
      1714.0         0.40         40.7 
      1715.0         0.20         39.4 
      1716.0         0.23         39.7 
      1717.0         0.23         38.6 
      1718.0         0.23         39.9 
      1719.0         0.20         41.2 
      1720.0         0.20         43.1 
      1721.0         0.23         40.2 
      1722.0         0.23         39.6 
      1723.0         0.20         42.5 
      1724.0         0.20         44.2 
      1725.0         0.20         41.3 
      1726.0         0.22         41.3 
      1727.0         0.23         40.6 
      1728.0         0.40         45.5 
      1729.0         0.33         45.2 
      1730.0         0.23         28.8 
      1731.0         0.30         26.3 
      1732.0         0.30         25.6 
      1733.0         0.27         22.1 
      1734.0         0.23         20.5 
      1735.0         0.40         23.7 
      1736.0         1.42         79.3 
      1737.0         0.23         81.3 
      1738.0         0.13         83.4 
      1739.0         0.37         79.3 
      1740.0         0.60         63.3 
      1741.0         0.43         49.9 
      1742.0         0.27         47.6 
      1743.0         0.30         56.9 
      1744.0         0.35         51.0 
      1745.0         0.30         50.4 
      1746.0         0.27         49.2 
      1747.0         0.17         48.0 
      1748.0         0.17         47.0 
      1749.0         0.17         47.1 
      1750.0         0.17         48.2 
      1751.0         0.20         47.7 
      1752.0         0.30         47.5 
      1753.0         0.30         45.9 
      1754.0         0.30         47.6 
      1755.0         0.27         45.6 
      1756.0         0.30         43.6 
      1757.0         0.32         44.1 
      1758.0         0.30         42.5 
      1759.0         0.23         29.8 
      1760.0         0.20         27.4 
      1761.0         0.23         27.4 
      1762.0         0.20         25.9 
      1763.0         0.27         23.4 
      1764.0         0.23         23.2 
      1765.0         0.23         23.8 
      1766.0         1.65        102.2 
      1767.0         0.27         83.7 
      1768.0         0.17         75.7 
      1769.0         0.37         60.6 
      1770.0         0.27         60.0 
      1771.0         0.27         54.4 
      1772.0         0.30         51.8 
      1773.0         0.53         51.2 
      1774.0         0.50         45.4 
      1775.0         0.45         51.5 
      1776.0         0.40         61.2 
      1777.0         0.13         55.5 
      1778.0         0.17         55.5 
      1779.0         0.17         54.6 
      1780.0         0.17         49.5 
      1781.0         0.17         55.0 
      1782.0         0.20         54.9 
      1783.0         0.17         55.4 
      1784.0         0.17         56.0 
      1785.0         0.23         54.5 
      1786.0         0.20         54.5 
      1787.0         0.20         46.7 
      1788.0         0.17         42.5 
      1789.0         0.20         31.3 
      1790.0         0.33         27.8 
      1791.0         0.35         28.9 
      1792.0         0.20         28.2 
      1793.0         0.17         29.2 
      1794.0         0.20         25.1 
      1795.0         0.87         26.0 
      1796.0         1.43        119.1 
      1797.0         0.75         97.5 
      1798.0         0.33         53.6 
      1799.0         0.30         55.2 
      1800.0         0.27         51.9 
      1801.0         0.30         52.0 
      1802.0         0.27         48.7 
      1803.0         0.27         48.5 
      1804.0         0.20         48.4 
      1805.0         0.23         46.5 
      1806.0         0.23         46.2 
      1807.0         0.23         45.5 
      1808.0         0.35         44.7 
      1809.0         0.30         45.0 
      1810.0         0.30         43.6 
      1811.0         0.30         44.2 
      1812.0         0.30         43.1 
      1813.0         0.30         41.8 
      1814.0         0.30         39.2 
      1815.0         0.33         40.0 
      1816.0         0.27         40.5 
      1817.0         0.23         35.8 
      1818.0         0.33         24.6 
      1819.0         0.23         24.9 
      1820.0         0.28         26.9 
      1821.0         0.20         27.1 
      1822.0         0.23         23.6 
      1823.0         0.23         23.6 
      1824.0         0.37         25.7 
      1825.0         0.33         34.2 
      1826.0         0.17         48.0 
      1827.0         0.60        119.5 
      1828.0         0.33        146.4 
      1829.0         0.57        140.7 
      1830.0         0.28         78.8 
      1831.0         0.17         64.4 
      1832.0         0.27         56.1 
      1833.0         0.27         55.1 
      1834.0         0.23         53.5 
      1835.0         0.27         51.6 
      1836.0         0.23         49.7 
      1837.0         0.20         50.0 
      1838.0         0.27         48.4 
      1839.0         0.23         49.2 
      1840.0         0.27         50.5 
      1841.0         0.23         52.1 
      1842.0         0.23         51.9 
      1843.0         0.32         51.8 
      1844.0         0.27         48.9 
      1845.0         0.30         44.7 
      1846.0         0.27         41.7 
      1847.0         0.27         29.0 
      1848.0         0.23         27.6 
      1849.0         0.27         28.0 
      1850.0         0.23         27.1 
      1851.0         0.17         27.5 
      1852.0         0.17         25.9 
      1853.0         0.17         24.0 
      1854.0         0.20         23.9 
      1855.0         0.92         35.5 
      1856.0         0.93        106.0 
      1857.0         0.27        105.2 
      1858.0         0.27         94.5 
      1859.0         0.40         89.2 
      1860.0         0.33         60.0 
      1861.0         0.33         53.3 
      1862.0         0.37         51.3 
      1863.0         0.28         49.9 
      1864.0         0.30         49.0 
      1865.0         0.30         47.9 
      1866.0         0.27         47.2 
      1867.0         0.27         48.3 
      1868.0         0.27         48.9 
      1869.0         0.27         48.7 
      1870.0         0.27         49.8 
      1871.0         0.23         48.9 
      1872.0         0.27         48.8 
      1873.0         0.23         47.3 
      1874.0         0.23         47.4 
