~Version Information
VERS.                      2.0: CWLS Log ASCII Standard - VERSION 2.0
WRAP.                       NO: One line per depth step
~Well Information Block
STRT.FT               645.0000: 
STOP.FT              1320.0000: 
STEP.FT                 0.1000: 
NULL.                -999.2500: 
COMP.          Pioneer Natural Resources: COMPANY
WELL.          Rockfish 11-30 Tr: WELL
FLD.           Purgatoire River: FIELD
LOC.           1063' FNL & 1068' FWL: LOCATION
STAT.                 Colorado: State
CNTY.               Las Animas: COUNTY
CTRY. USA : Country
SECT. 30 : Section
TOWN. 32S : Township
RANG. 65W : Range
SRVC.                Patterson: SERVICE COMPANY
DATE.          Wed Nov 16 07:46:07 2005: LOG DATE
API.           05 071 08585 00: UNIQUE WELL ID
~Curve Information Block
DEPT.FT            0 000 00 00: Depth
DCAL.in                       : CDL Caliper
RHOB.g/cc                     : CDL Bulk Density
RHOC.g/cc                     : CDL Density Correction
DPOR.pu                       : CDL Density Porosity
GR.GAPI                       : Gamma Ray
NPOR.pu                       : Neutron Porosity
~Parameter Information Block
~A  Depth       DCAL        RHOB        RHOC        DPOR         GR         NPOR    
# ...
   865.8000      7.9578      2.4258      0.0431     13.5909     61.6803     16.2747
   865.9000      7.9578      2.4107      0.0390     14.5043     69.9596     16.5216
   866.0000      7.9575      2.4000      0.0704     15.1508     72.7948     16.8229
   866.1000      7.9575      2.3971      0.0328     15.3270     70.7438     16.7155
   866.2000      7.9575      2.4038      0.0501     14.9240     69.6082     16.4021
   866.3000      7.9524      2.4117      0.0964     14.4446     70.5373     16.3711
   866.4000      7.9524      2.4202      0.0551     13.9262     72.4183     16.7482
   866.5000      7.9319      2.4490      0.0457     12.1794     74.4050     17.1624
   866.6000      7.9319      2.4956      0.2059      9.3597     73.7466     17.3744
   866.7000      7.9319      2.5251      0.1770      7.5709     68.6983     17.6032
   866.8000      7.9588      2.5283      0.1431      7.3758     61.9273     18.0275
   866.9000      7.9588      2.5246      0.1327      7.6030     59.5412     18.5051
   867.0000      7.9679      2.5205      0.0963      7.8470     62.1939     18.7645
   867.1000      7.9679      2.5076      0.0945      8.6333     64.2745     18.7375
   867.2000      7.9679      2.4844      0.0880     10.0351     62.1123     18.4642
   867.3000      7.9678      2.4667      0.0315     11.1114     57.0237     18.1341
   867.4000      7.9678      2.4648      0.0499     11.2257     52.8484     18.0179
   867.5000      7.9681      2.4711      0.0300     10.8434     49.9784     18.0678
   867.6000      7.9681      2.4776      0.0424     10.4462     45.6746     18.2002
   867.7000      7.9681      2.4831      0.0356     10.1158     40.6192     18.3587
   867.8000      7.9633      2.4885      0.0536      9.7899     38.3290     18.3530
   867.9000      7.9633      2.4932      0.0750      9.5057     39.4794     17.9617
   868.0000      7.9583      2.4912      0.0838      9.6252     42.2896     17.2725
   868.1000      7.9583      2.4820      0.0417     10.1792     45.4524     16.6958
   868.2000      7.9583      2.4746      0.0152     10.6275     48.0263     16.4359
   868.3000      7.9568      2.4705      0.0630     10.8758     49.9164     16.4590
   868.4000      7.9568      2.4692      0.0534     10.9585     51.2827     16.8939
   868.5000      7.9543      2.4821      0.0749     10.1737     51.4364     17.7179
   868.6000      7.9543      2.5146      0.0868      8.2047     49.0507     18.5303
   868.7000      7.9543      2.5465      0.1651      6.2737     45.2668     19.0451
   868.8000      7.9352      2.5511      0.1361      5.9943     43.2413     19.3684
   868.9000      7.9352      2.5333      0.1124      7.0744     44.2878     19.6536
   869.0000      7.9182      2.5230      0.0790      7.6957     47.8604     19.6574
   869.1000      7.9182      2.5372      0.0661      6.8384     51.5662     19.5302
   869.2000      7.9182      2.5583      0.0929      5.5601     53.2978     19.8046
   869.3000      7.9131      2.5571      0.1314      5.6321     54.8842     20.5165
   869.4000      7.9131      2.5379      0.0313      6.7918     59.0101     21.2059
   869.5000      7.9140      2.5348      0.0303      6.9795     66.1797     21.4490
   869.6000      7.9140      2.5586      0.0650      5.5375     77.0310     21.5273
   869.7000      7.9140      2.5830      0.0749      4.0605     89.7181     21.8924
   869.8000      7.9450      2.5904      0.0388      3.6147     97.5688     22.3619
   869.9000      7.9450      2.5934      0.0323      3.4273     98.1137     22.7089
   870.0000      7.9513      2.5991      0.1063      3.0846     96.3922     23.2615
   870.1000      7.9513      2.5996      0.0609      3.0565     95.5941     24.1804
   870.2000      7.9513      2.5995      0.0704      3.0604     95.7858     24.9739
   870.3000      7.9428      2.6067      0.0813      2.6266     97.3307     25.3720
   870.4000      7.9428      2.6156      0.0447      2.0841     98.5835     25.5341
   870.5000      7.9357      2.6155      0.0661      2.0934     98.9427     25.4487
   870.6000      7.9357      2.6068      0.0059      2.6156    101.1559     25.1139
   870.7000      7.9357      2.6044      0.0296      2.7656    102.9400     24.7543
   870.8000      7.8918      2.6162      0.0065      2.0514     99.5575     24.4589
   870.9000      7.8918      2.6332      0.0420      1.0199     94.7677     24.2416
   871.0000      7.9080      2.6342      0.0961      0.9588     94.5175     24.0983
   871.1000      7.9080      2.6149      0.0288      2.1291     98.8383     24.0960
   871.2000      7.9080      2.5954      0.0539      3.3081    103.8402     24.3745
   871.3000      7.8992      2.5877      0.0365      3.7754    106.2978     24.7431
   871.4000      7.8992      2.5919      0.0219      3.5194    106.3831     24.8764
   871.5000      7.9049      2.6069      0.0453      2.6116    104.0158     24.7889
   871.6000      7.9049      2.6209      0.0849      1.7625     99.7722     24.7140
   871.7000      7.9049      2.6193      0.0700      1.8620     97.3772     24.7663
   871.8000      7.8931      2.6046      0.0477      2.7545     97.5386     24.9345
   871.9000      7.8931      2.5880     -0.0034      3.7587     95.9265     25.1505
   872.0000      7.9036      2.5829      0.0174      4.0663     91.2711     25.0922
   872.1000      7.9036      2.5989      0.0685      3.0940     85.7369     24.4713
   872.2000      7.9036      2.6219      0.0918      1.7049     80.6207     23.6124
   872.3000      7.9051      2.6249      0.1070      1.5211     80.2594     23.1327
   872.4000      7.9051      2.6004      0.0299      3.0084     87.2016     23.1048
   872.5000      7.9002      2.5566      0.0517      5.6583     96.4106     23.2530
   872.6000      7.9002      2.5028      0.0391      8.9235    100.8414     23.3236
   872.7000      7.9002      2.4600     -0.0241     11.5138    100.1556     23.1950
   872.8000      7.8999      2.4523     -0.0453     11.9832     98.5083     23.1893
   872.9000      7.8999      2.4726      0.0253     10.7536     98.5592     23.7100
   873.0000      7.9067      2.5034      0.0146      8.8827    100.2070     24.3431
   873.1000      7.9067      2.5468      0.0001      6.2556    102.6055     24.4395
   873.2000      7.9067      2.5876      0.1081      3.7807    106.4106     24.1450
   873.3000      7.8965      2.5967      0.1183      3.2283    111.5396     23.8099
   873.4000      7.8965      2.5826      0.0908      4.0861    116.0105     23.6196
   873.5000      7.9252      2.5676      0.1283      4.9963    116.7229     23.6459
   873.6000      7.9252      2.5515      0.0982      5.9687    114.8523     23.6499
   873.7000      7.9252      2.5344      0.1019      7.0077    112.7941     23.5566
   873.8000      7.9180      2.5275      0.0859      7.4232    107.6217     23.7698
   873.9000      7.9180      2.5367      0.0801      6.8690    101.1122     24.2602
   874.0000      7.9198      2.5478      0.1328      6.1924     98.6764     24.6643
   874.1000      7.9198      2.5407      0.1189      6.6217     98.2723     25.1143
   874.2000      7.9198      2.5123      0.1063      8.3478     94.1695     25.6266
   874.3000      7.9261      2.4881      0.0425      9.8105     84.8515     25.9212
   874.4000      7.9261      2.5059      0.0194      8.7343     73.9789     26.1896
   874.5000      7.9146      2.5704      0.1077      4.8243     67.1837     26.9940
   874.6000      7.9146      2.6536      0.1071     -0.2160     68.0902     28.3644
   874.7000      7.9146      2.7302      0.1693     -4.8632     74.7176     29.4694
   874.8000      7.9077      2.7871      0.1728     -8.3091     79.3995     29.5988
   874.9000      7.9077      2.8171      0.2234    -10.1290     76.7407     29.2970
   875.0000      7.8976      2.8188      0.2084    -10.2292     70.8474     29.5210
   875.1000      7.8976      2.8075      0.1741     -9.5467     69.0285     30.1679
   875.2000      7.8976      2.7989      0.1301     -9.0242     69.9202     30.7627
   875.3000      7.8527      2.7884      0.0434     -8.3867     66.3955     31.2174
