~Version Information
VERS.                      2.0: CWLS Log ASCII Standard - VERSION 2.0
WRAP.                       NO: One line per depth step
~Well Information Block
STRT.FT               570.0000: 
STOP.FT              2094.0000: 
STEP.FT                 0.2500: 
NULL.                -999.2500: 
COMP.          XTO Energy Inc.: COMPANY
WELL.          Golden Eagle 19-10: WELL
FLD.           Purgatoire River: FIELD
LOC.           2684' FSL & 1825' FEL: LOCATION
CNTY.               Las Animas: COUNTY
CTRY.                      USA: COUNTRY
API.               05 071 08697:  
SRVC.                Patterson: SERVICE COMPANY
DATE.          Sun Mar 05 02:13:24 2006: LOG DATE
UWI.           05 071 08697 00: UNIQUE WELL ID
STAT.                 Colorado: STATE
~Curve Information Block
DEPT.FT            0 000 00 00: Depth
SP.mV                         : DIL Spontaneous Potential
RILD.Ohm-m                    : DIL Deep Resistivity
RILM.Ohm-m                    : DIL Medium Resistivity
RLL3.Ohm-m                    : DIL Shallow Resistivity
GR.GAPI                       : Gamma Ray
~Parameter Information Block
~A  Depth        SP         RILD        RILM        RLL3         GR     
# ...
  1270.0000   -999.2500     28.6554     30.3984   -999.2500     45.2887
  1270.2500   -999.2500     28.2705     30.4938   -999.2500     45.2451
  1270.5000   -999.2500     27.5574     30.3368   -999.2500     46.1766
  1270.7500   -999.2500     26.4554     29.8575   -999.2500     47.6989
  1271.0000   -999.2500     25.0226     29.0001   -999.2500     52.3034
  1271.2500   -999.2500     23.4161     27.7514   -999.2500     57.8869
  1271.5000   -999.2500     21.8281     26.1639   -999.2500     71.8579
  1271.7500   -999.2500     20.4178     24.3552   -999.2500     85.3075
  1272.0000   -999.2500     19.2724     22.4790   -999.2500    109.9993
  1272.2500   -999.2500     18.4062     20.6827   -999.2500    127.2601
  1272.5000   -999.2500     17.7826     19.0755   -999.2500    150.2636
  1272.7500   -999.2500     17.3427     17.7181   -999.2500    162.0869
  1273.0000   -999.2500     17.0265     16.6293   -999.2500    173.7976
  1273.2500   -999.2500     16.7847     15.8001   -999.2500    178.0339
  1273.5000   -999.2500     16.5810     15.2064   -999.2500    180.3206
  1273.7500   -999.2500     16.3933     14.8187   -999.2500    179.7288
  1274.0000   -999.2500     16.2162     14.6081   -999.2500    176.4027
  1274.2500   -999.2500     16.0635     14.5498   -999.2500    173.1087
  1274.5000   -999.2500     15.9662     14.6245   -999.2500    167.5924
  1274.7500   -999.2500     15.9638     14.8198   -999.2500    163.7789
  1275.0000   -999.2500     16.0960     15.1301   -999.2500    157.5813
  1275.2500   -999.2500     16.3952     15.5549   -999.2500    153.1261
  1275.5000   -999.2500     16.8814     16.0973   -999.2500    146.7693
  1275.7500   -999.2500     17.5565     16.7598   -999.2500    143.1200
  1276.0000   -999.2500     18.4032     17.5408   -999.2500    137.6424
  1276.2500   -999.2500     19.3902     18.4302   -999.2500    132.8884
  1276.5000   -999.2500     20.4844     19.4078   -999.2500    123.4465
  1276.7500   -999.2500     21.6534     20.4436   -999.2500    116.6237
  1277.0000   -999.2500     22.8547     21.5021   -999.2500    108.4581
  1277.2500   -999.2500     24.0193     22.5494   -999.2500    105.4578
  1277.5000   -999.2500     25.0552     23.5600   -999.2500    104.3527
  1277.7500   -999.2500     25.8827     24.5198   -999.2500    104.8697
  1278.0000   -999.2500     26.4756     25.4240   -999.2500    105.4530
  1278.2500   -999.2500     26.8704     26.2697   -999.2500    104.5590
  1278.5000   -999.2500     27.1339     27.0485   -999.2500     99.5663
  1278.7500   -999.2500     27.3181     27.7404   -999.2500     93.3235
  1279.0000   -999.2500     27.4300     28.3144   -999.2500     80.6143
  1279.2500   -999.2500     27.4272     28.7333   -999.2500     71.5171
  1279.5000   -999.2500     27.2386     28.9591   -999.2500     59.9375
  1279.7500   -999.2500     26.7986     28.9563   -999.2500     54.7062
  1280.0000   -999.2500     26.0781     28.6899   -999.2500     51.0847
  1280.2500   -999.2500     25.0955     28.1247   -999.2500     51.1986
  1280.5000   -999.2500     23.9052     27.2314   -999.2500     54.1755
  1280.7500   -999.2500     22.5832     26.0030   -999.2500     57.5055
  1281.0000   -999.2500     21.2175     24.4741   -999.2500     64.7219
  1281.2500   -999.2500     19.8980     22.7286   -999.2500     72.1521
  1281.5000   -999.2500     18.6995     20.8854   -999.2500     89.8773
  1281.7500   -999.2500     17.6654     19.0694   -999.2500    106.5974
  1282.0000   -999.2500     16.8038     17.3827   -999.2500    136.1934
  1282.2500   -999.2500     16.0977     15.8908   -999.2500    155.6277
  1282.5000   -999.2500     15.5181     14.6233   -999.2500    179.2372
  1282.7500   -999.2500     15.0314     13.5838   -999.2500    190.2265
  1283.0000   -999.2500     14.6045     12.7611   -999.2500    200.9747
  1283.2500   -999.2500     14.2136     12.1375   -999.2500    205.4707
  1283.5000   -999.2500     13.8537     11.6955   -999.2500    208.3026
  1283.7500   -999.2500     13.5378     11.4203   -999.2500    206.7434
  1284.0000   -999.2500     13.2850     11.3012   -999.2500    198.6464
  1284.2500   -999.2500     13.1100     11.3325   -999.2500    190.2654
  1284.5000   -999.2500     13.0239     11.5125   -999.2500    175.6885
  1284.7500   -999.2500     13.0393     11.8433   -999.2500    165.7973
  1285.0000   -999.2500     13.1720     12.3292   -999.2500    151.8486
  1285.2500   -999.2500     13.4365     12.9750   -999.2500    143.4419
  1285.5000   -999.2500     13.8410     13.7833   -999.2500    132.0369
  1285.7500   -999.2500     14.3871     14.7508   -999.2500    124.9690
  1286.0000   -999.2500     15.0721     15.8645   -999.2500    115.3328
  1286.2500   -999.2500     15.8908     17.0974   -999.2500    110.1147
  1286.5000   -999.2500     16.8329     18.4055   -999.2500    104.8511
  1286.7500   -999.2500     17.8789     19.7265   -999.2500    102.9947
  1287.0000   -999.2500     18.9947     20.9828   -999.2500    102.2293
  1287.2500   -999.2500     20.1250     22.0874   -999.2500    102.9468
  1287.5000   -999.2500     21.1885     22.9554   -999.2500    105.9176
  1287.7500   -999.2500     22.0819     23.5195   -999.2500    109.1820
  1288.0000   -999.2500     22.7028     23.7461   -999.2500    115.8511
  1288.2500   -999.2500     22.9897     23.6469   -999.2500    121.2743
  1288.5000   -999.2500     22.9565     23.2791   -999.2500    130.3449
  1288.7500   -999.2500     22.6946     22.7320   -999.2500    136.5263
  1289.0000   -999.2500     22.3353     22.1062   -999.2500    144.6993
  1289.2500   -999.2500     21.9979     21.4944   -999.2500    148.5658
  1289.5000   -999.2500     21.7565     20.9705   -999.2500    151.2273
  1289.7500   -999.2500     21.6341     20.5861   -999.2500    151.2521
  1290.0000   -999.2500     21.6156     20.3744   -999.2500    150.3368
  1290.2500   -999.2500     21.6665     20.3534   -999.2500    149.9097
  1290.5000   -999.2500     21.7502     20.5296   -999.2500    149.1877
  1290.7500   -999.2500     21.8421     20.8988   -999.2500    147.5846
  1291.0000   -999.2500     21.9354     21.4448   -999.2500    142.2354
  1291.2500   -999.2500     22.0397     22.1373   -999.2500    137.0542
  1291.5000   -999.2500     22.1701     22.9296   -999.2500    128.6378
  1291.7500   -999.2500     22.3302     23.7599   -999.2500    123.5958
  1292.0000   -999.2500     22.4978     24.5553   -999.2500    117.9619
  1292.2500   -999.2500     22.6191     25.2379   -999.2500    115.6245
  1292.5000   -999.2500     22.6195     25.7305   -999.2500    113.4347
  1292.7500   -999.2500     22.4317     25.9601   -999.2500    112.0337
  1293.0000   -999.2500     22.0272     25.8619   -999.2500    109.2299
  1293.2500   -999.2500     21.4312     25.3897   -999.2500    107.3102
  1293.5000   -999.2500     20.7093     24.5362   -999.2500    106.5081
  1293.7500   -999.2500     19.9380     23.3500   -999.2500    108.7635
  1294.0000   -999.2500     19.1803     21.9347   -999.2500    117.2161
  1294.2500   -999.2500     18.4768     20.4243   -999.2500    125.4154
  1294.5000   -999.2500     17.8470     18.9472   -999.2500    138.8163
  1294.7500   -999.2500     17.2939     17.6000   -999.2500    147.0366
  1295.0000   -999.2500     16.8100     16.4398   -999.2500    157.1588
  1295.2500   -999.2500     16.3881     15.4904   -999.2500    162.5063
  1295.5000   -999.2500     16.0278     14.7536   -999.2500    168.9567
  1295.7500   -999.2500     15.7383     14.2200   -999.2500    172.2538
  1296.0000   -999.2500     15.5360     13.8769   -999.2500    174.9216
  1296.2500   -999.2500     15.4409     13.7121   -999.2500    174.3831
  1296.5000   -999.2500     15.4706     13.7164   -999.2500    168.7842
  1296.7500   -999.2500     15.6309     13.8841   -999.2500    161.4789
  1297.0000   -999.2500     15.9076     14.2124   -999.2500    145.6585
  1297.2500   -999.2500     16.2673     14.6997   -999.2500    132.9129
  1297.5000   -999.2500     16.6739     15.3434   -999.2500    113.2246
  1297.7500   -999.2500     17.1120     16.1367   -999.2500    101.4194
