~Version Information
VERS.                      2.0: CWLS Log ASCII Standard - VERSION 2.0
WRAP.                       NO: One line per depth step
~Well Information Block
STRT.FT               490.0000: 
STOP.FT              2303.5000: 
STEP.FT                 0.1000: 
NULL.                -999.2500: 
COMP.          Pioneer Natural Resources: COMPANY
WELL.             Baa Baa 34-1: WELL
FLD.           Purgatoire River: FIELD
LOC.           617' FSL & 2289' FEL: LOCATION
STAT.                 Colorado: State
CNTY.               Las Animas: COUNTY
CTRY. USA : Country
SECT. 1 : Section
TOWN. 33S : Township
RANG. 67W : Range
SRVC.                Patterson: SERVICE COMPANY
DATE.          Thu Sep 08 09:44:32 2005: LOG DATE
API.           05 071 08502 00: UNIQUE WELL ID
~Curve Information Block
DEPT.FT            0 000 00 00: Depth
DCAL.in                       : CDL Caliper
RHOB.g/cc                     : CDL Bulk Density
RHOC.g/cc                     : CDL Density Correction
DPOR.pu                       : CDL Density Porosity
GR.GAPI                       : Gamma Ray
NPOR.pu                       : Neutron Porosity
~Parameter Information Block
~A  Depth       DCAL        RHOB        RHOC        DPOR         GR         NPOR    
# ...
  2285.2000      7.8493      2.5369      0.0307      6.8557     32.2140     18.4914
  2285.3000      7.8560      2.5313      0.0371      7.1923      9.8432     18.4211
  2285.4000      7.8560      2.5233     -0.0211      7.6784      1.7495     18.4109
  2285.5000      7.8491      2.5295      0.0539      7.3054      0.1734     18.1136
  2285.6000      7.8491      2.5354      0.0634      6.9441      0.0090     17.9142
  2285.7000      7.8491      2.5343      0.0697      7.0114      0.0000     17.6411
  2285.8000      7.8370      2.5401      0.0438      6.6585   -999.2500     16.8839
  2285.9000      7.8370      2.5502      0.1080      6.0486   -999.2500     16.2461
  2286.0000      7.7988      2.5481      0.0507      6.1746   -999.2500     16.1686
  2286.1000      7.7988      2.5386      0.0290      6.7541   -999.2500     16.1993
  2286.2000      7.7988      2.5392      0.0653      6.7165   -999.2500     15.9558
  2286.3000      7.8133      2.5515      0.0753      5.9721   -999.2500     15.4857
  2286.4000      7.8133      2.5605      0.1277      5.4263   -999.2500     15.0727
  2286.5000      7.8317      2.5568      0.0699      5.6487   -999.2500     15.0147
  2286.6000      7.8317      2.5467      0.0837      6.2624   -999.2500     15.3309
  2286.7000      7.8317      2.5373      0.0708      6.8325   -999.2500     15.7352
  2286.8000      7.8382      2.5322      0.0649      7.1375   -999.2500     16.1048
  2286.9000      7.8382      2.5381      0.0328      6.7831   -999.2500     16.6014
  2287.0000      7.8444      2.5539      0.0813      5.8248   -999.2500     17.3525
  2287.1000      7.8444      2.5671      0.0554      5.0266   -999.2500     18.1865
  2287.2000      7.8444      2.5752      0.0575      4.5315   -999.2500     18.8209
  2287.3000      7.8527      2.5868      0.0521      3.8295   -999.2500     19.4961
  2287.4000      7.8527      2.6040      0.1090      2.7858   -999.2500     20.4193
  2287.5000      7.8540      2.6170      0.1026      1.9981   -999.2500     20.8285
  2287.6000      7.8540      2.6196      0.1062      1.8417   -999.2500     20.4362
  2287.7000      7.8540      2.6242      0.0392      1.5661   -999.2500     20.4928
  2287.8000      7.8175      2.6372      0.1290      0.7742   -999.2500     21.4257
  2287.9000      7.8175      2.6447      0.0724      0.3224   -999.2500     22.1927
  2288.0000      7.8028      2.6431      0.1209      0.4206   -999.2500     22.1774
  2288.1000      7.8028      2.6405      0.0843      0.5729   -999.2500     21.8386
  2288.2000      7.8028      2.6331      0.0922      1.0235   -999.2500     22.0299
  2288.3000      7.8135      2.6154      0.0605      2.0974   -999.2500     23.1529
  2288.4000      7.8135      2.6019      0.0294      2.9148   -999.2500     24.8188
  2288.5000      7.8023      2.6037      0.0654      2.8073   -999.2500     26.4990
  2288.6000      7.8023      2.6070      0.1037      2.6038   -999.2500     29.1184
  2288.7000      7.8023      2.5959      0.0785      3.2770   -999.2500     35.2245
  2288.8000      7.8003      2.5737      0.0665      4.6235   -999.2500     44.0561
  2288.9000      7.8003      2.5566      0.0534      5.6615   -999.2500     50.3090
  2289.0000      7.8027      2.5521      0.0760      5.9350   -999.2500     52.5722
  2289.1000      7.8027      2.5545      0.0321      5.7888   -999.2500     53.0185
  2289.2000      7.8027      2.5597      0.0183      5.4718   -999.2500     53.0659
  2289.3000      7.8347      2.5638      0.0258      5.2225   -999.2500     53.0686
  2289.4000      7.8347      2.5639      0.0255      5.2181   -999.2500   -999.2500
  2289.5000      7.8414      2.5614      0.0690      5.3684   -999.2500   -999.2500
  2289.6000      7.8414      2.5598      0.0888      5.4655   -999.2500   -999.2500
  2289.7000      7.8414      2.5695      0.0436      4.8794   -999.2500   -999.2500
  2289.8000      7.8370      2.5915      0.1007      3.5426   -999.2500   -999.2500
  2289.9000      7.8370      2.6133      0.0516      2.2231   -999.2500   -999.2500
  2290.0000      7.8286      2.6290      0.1144      1.2731   -999.2500   -999.2500
  2290.1000      7.8286      2.6346      0.0998      0.9346   -999.2500   -999.2500
  2290.2000      7.8286      2.6279      0.0895      1.3413   -999.2500   -999.2500
  2290.3000      7.8193      2.6076      0.1046      2.5720   -999.2500   -999.2500
  2290.4000      7.8193      2.5758      0.0464      4.4986   -999.2500   -999.2500
  2290.5000      7.8050      2.5473      0.0340      6.2254   -999.2500   -999.2500
  2290.6000      7.8050      2.5329      0.0239      7.0954   -999.2500   -999.2500
  2290.7000      7.8050      2.5341      0.0043      7.0246   -999.2500   -999.2500
  2290.8000      7.8032      2.5485      0.0311      6.1491   -999.2500   -999.2500
  2290.9000      7.8032      2.5699      0.0367      4.8534   -999.2500   -999.2500
  2291.0000      7.8177      2.5954      0.0909      3.3073   -999.2500   -999.2500
  2291.1000      7.8177      2.6197      0.1126      1.8388   -999.2500   -999.2500
  2291.2000      7.8177      2.6310      0.1121      1.1532   -999.2500   -999.2500
  2291.3000      7.8236      2.6216      0.1259      1.7211   -999.2500   -999.2500
  2291.4000      7.8236      2.5959      0.0764      3.2758   -999.2500   -999.2500
  2291.5000      7.7985      2.5683      0.0681      4.9508   -999.2500   -999.2500
  2291.6000      7.7985      2.5526      0.0532      5.9013   -999.2500   -999.2500
  2291.7000      7.7985      2.5594      0.0240      5.4907   -999.2500   -999.2500
  2291.8000      7.8396      2.5843      0.0610      3.9795   -999.2500   -999.2500
  2291.9000      7.8396      2.6044      0.0831      2.7665   -999.2500   -999.2500
  2292.0000      7.8410      2.6078      0.0708      2.5560   -999.2500   -999.2500
  2292.1000      7.8410      2.6045      0.0858      2.7590   -999.2500   -999.2500
  2292.2000      7.8410      2.6087      0.0778      2.5007   -999.2500   -999.2500
  2292.3000      7.8115      2.6164      0.1264      2.0384   -999.2500   -999.2500
  2292.4000      7.8115      2.6060      0.0428      2.6655   -999.2500   -999.2500
  2292.5000      7.8244      2.5817      0.0276      4.1415   -999.2500   -999.2500
  2292.6000      7.8244      2.5602      0.0864      5.4398   -999.2500   -999.2500
  2292.7000      7.8244      2.5429      0.0330      6.4896   -999.2500   -999.2500
  2292.8000      7.8514      2.5316      0.0444      7.1737   -999.2500   -999.2500
  2292.9000      7.8514      2.5276      0.0448      7.4153   -999.2500   -999.2500
  2293.0000      7.8691      2.5299      0.0230      7.2806   -999.2500   -999.2500
  2293.1000      7.8691      2.5400      0.0353      6.6664   -999.2500   -999.2500
  2293.2000      7.8691      2.5511      0.0287      5.9957   -999.2500   -999.2500
  2293.3000      7.8584      2.5548      0.0138      5.7723   -999.2500   -999.2500
  2293.4000      7.8584      2.5577      0.0509      5.5921   -999.2500   -999.2500
  2293.5000      7.8369      2.5695      0.1253      4.8816   -999.2500   -999.2500
  2293.6000      7.8369      2.5871      0.0829      3.8117   -999.2500   -999.2500
  2293.7000      7.8369      2.6013      0.1276      2.9493   -999.2500   -999.2500
  2293.8000      7.8259      2.6058      0.0805      2.6763   -999.2500   -999.2500
  2293.9000      7.8259      2.5991      0.0790      3.0831   -999.2500   -999.2500
  2294.0000      7.8365      2.5825      0.0515      4.0899   -999.2500   -999.2500
  2294.1000      7.8365      2.5661      0.0515      5.0826   -999.2500   -999.2500
  2294.2000      7.8365      2.5538      0.0273      5.8281   -999.2500   -999.2500
  2294.3000      7.8511      2.5398      0.0249      6.6759   -999.2500   -999.2500
  2294.4000      7.8511      2.5271     -0.0078      7.4484   -999.2500   -999.2500
  2294.5000      7.8614      2.5278     -0.0053      7.4054   -999.2500   -999.2500
  2294.6000      7.8614      2.5414      0.0437      6.5799   -999.2500   -999.2500
  2294.7000      7.8614      2.5552      0.0371      5.7460   -999.2500   -999.2500
