~Version Information
VERS.                      2.0: CWLS Log ASCII Standard - VERSION 2.0
WRAP.                       NO: One line per depth step
~Well Information Block
STRT.FT                -8.7500: 
STOP.FT              1035.7500: 
STEP.FT                 0.2500: 
NULL.                -999.2500: 
COMP.          Pioneer Natural Resources: COMPANY
WELL.                Mac 22-36: WELL
FLD.           Purgatorie River: FIELD
LOC.           2545' FNL & 1398' FWL--: LOCATION
PROV.                       CO: PROVINCE
CNTY.               Las Animas: COUNTRY
SRVC.          Patterson Wireline: SERVICE COMPANY
DATE.          Thu Dec 08 13:20:05 2005: LOG DATE
UWI.           08 071 08594 00: UNIQUE WELL ID
~Curve Information Block
DEPT.FT            0 000 00 00: Depth
CCL.                          : Casing Collar Locator
TT3.usec                      : CBL 3' Travel Time
AMP3.mV                       : CBL 3' Amplitude
GR.GAPI                       : Gamma Ray
~Parameter Information Block
~A  Depth       CCL         TT3         AMP3         GR     
# ...
   728.2500      0.0000    590.9908     12.1897     59.6834
   728.5000      0.0000    558.5610     12.3400     69.6283
   728.7500      0.0000    545.0649     12.4581     81.1651
   729.0000      0.0000    548.2856     12.5319     91.9811
   729.2500      0.0000    554.1240     12.5572    100.5452
   729.5000      0.0000    548.1066     12.5384    106.7751
   729.7500      0.0000    528.6526     12.4831    111.0298
   730.0000      0.0000    507.5712     12.3920    112.9251
   730.2500      0.0000    498.6243     12.2641    111.6610
   730.5000      0.0000    507.0747     12.1103    107.1152
   730.7500      0.0000    527.5329     11.9505    100.0742
   731.0000      0.0000    548.1623     11.7947     91.7055
   731.2500      0.0000    558.1698     11.6446     83.2441
   731.5000      0.0000    554.8545     11.5242     75.9822
   731.7500      0.0000    544.6849     11.4960     71.1093
   732.0000      0.0000    536.2222     11.6281     69.2086
   732.2500      0.0000    531.8303     11.9424     69.7037
   732.5000      0.0000    527.5082     12.3964     70.9391
   732.7500      0.0000    519.4620     12.9036     71.1948
   733.0000      0.0000    507.9525     13.3690     69.8287
   733.2500      0.0000    495.5081     13.7229     67.5553
   733.5000      0.0000    484.4294     13.9472     65.9343
   733.7500      0.0000    476.1269     14.0733     66.4588
   734.0000      0.0000    471.0521     14.1551     69.4246
   734.2500      0.0000    468.6023     14.2474     73.4233
   734.5000      0.0000    467.6153     14.4025     76.3341
   734.7500      0.0000    467.1384     14.6598     76.9958
   735.0000      0.0000    466.6892     15.0137     75.7171
   735.2500      0.0000    465.9713     15.3972     73.2993
   735.5000      0.0000    464.4433     15.7171     70.1896
   735.7500      0.0000    461.2347     15.9132     66.7635
   736.0000      0.0000    455.5950     15.9776     63.7113
   736.2500      0.0000    447.6771     15.9226     61.4776
   736.5000      0.0000    438.9054     15.7491     59.5865
   736.7500      0.0000    431.2661     15.4510     57.1529
   737.0000      0.0000    426.0216     15.0399     54.1410
   737.2500      0.0000    423.1480     14.5602     51.7890
   737.5000      0.0000    421.8791     14.0793     51.6332
   737.7500      0.0000    421.4777     13.6538     54.1909
   738.0000      0.0000    421.4797     13.2907     58.6000
   738.2500      0.0000    421.5553     12.9445     63.3760
   738.5000      0.0000    421.3995     12.5694     67.3654
   738.7500      0.0000    420.7094     12.1796     70.1165
   739.0000      0.0000    419.0918     11.8464     71.6911
   739.2500      0.0000    415.9943     11.6321     72.3424
   739.5000      0.0000    411.0316     11.5395     72.2071
   739.7500      0.0000    404.6403     11.5277     71.1656
   740.0000      0.0000    398.1323     11.5612     69.1238
   740.2500      0.0000    392.6330     11.6333     66.4885
   740.5000      0.0000    388.1317     11.7457     64.2285
   740.7500      0.0000    384.0073     11.8754     63.3041
   741.0000      0.0000    380.1647     11.9752     63.8170
   741.2500      0.0000    377.1104     12.0160     64.7219
   741.5000      0.0000    375.1844     12.0253     64.6712
   741.7500      0.0000    374.2244     12.0698     63.1868
   742.0000      0.0000    373.8488     12.1981     60.8497
   742.2500      0.0000    373.7311     12.4077     58.7027
   742.5000      0.0000    373.6376     12.6632     57.7662
   742.7500      0.0000    373.4132     12.9336     58.6227
   743.0000      0.0000    372.9881     13.2150     60.9593
   743.2500      0.0000    372.3282     13.5403     63.7216
   743.5000      0.0000    371.3087     13.9776     65.8992
   743.7500      0.0000    369.5245     14.6087     67.1663
   744.0000      0.0000    366.2160     15.4804     67.8614
   744.2500      0.0000    360.6237     16.5596     68.4054
   744.5000      0.0000    352.7885     17.7291     68.6526
   744.7500      0.0000    344.0380     18.8371     67.8992
   745.0000      0.0000    336.3515     19.7700     65.8024
   745.2500      0.0000    331.0553     20.4948     63.3335
   745.5000      0.0000    328.1771     21.0432     62.5082
   745.7500      0.0000    326.9118     21.4624     64.9851
   746.0000      0.0000    326.4188     21.7806     70.9875
   746.2500      0.0000    326.2137     22.0030     79.5541
   746.5000      0.0000    326.1782     22.1169     89.3493
   746.7500      0.0000    326.5758     22.0852     98.6989
   747.0000      0.0000    328.4879     21.8364    105.2304
   747.2500      0.0000    334.8050     21.2832    106.6613
   747.5000      0.0000    351.1683     20.3808    102.5833
   747.7500      0.0000    384.6554     19.1839     95.1624
   748.0000      0.0000    438.1644     17.8526     87.7492
   748.2500      0.0000    503.0968     16.5895     82.8676
   748.5000      0.0000    558.6621     15.5492     81.4296
   748.7500      0.0000    582.9873     14.7850     83.1675
   749.0000      0.0000    568.8349     14.2622     87.0290
   749.2500      0.0000    529.5275     13.9092     91.2389
   749.5000      0.0000    489.1110     13.6499     93.8920
   749.7500      0.0000    466.0325     13.4098     94.0366
   750.0000      0.0000    465.2661     13.1255     92.0160
   750.2500      0.0000    483.3766     12.7678     88.8514
   750.5000      0.0000    516.5451     12.3545     85.7048
   750.7500      0.0000    561.1858     11.9389     83.7095
   751.0000      0.0000    609.9135     11.5846     83.5647
   751.2500      0.0000    652.1160     11.3384     85.0002
   751.5000      0.0000    679.8674     11.2077     87.0580
   751.7500      0.0000    691.3313     11.1597     89.1331
   752.0000      0.0000    688.5403     11.1515     91.3196
   752.2500      0.0000    674.2130     11.1615     93.4050
   752.5000      0.0000    651.2725     11.1926     94.1019
   752.7500      0.0000    623.2287     11.2532     92.0628
   753.0000      0.0000    593.5541     11.3453     87.5543
   753.2500      0.0000    565.3406     11.4660     82.5513
   753.5000      0.0000    541.6091     11.6090     79.1094
   753.7500      0.0000    524.4537     11.7634     77.8316
   754.0000      0.0000    513.4627     11.9176     77.7022
   754.2500      0.0000    505.8152     12.0624     77.2246
   754.5000      0.0000    498.2629     12.1882     75.8894
   754.7500      0.0000    489.0891     12.2872     74.6249
   755.0000      0.0000    478.6295     12.3658     74.9868
   755.2500      0.0000    468.5312     12.4468     78.1032
   755.5000      0.0000    461.0333     12.5491     83.9541
   755.7500      0.0000    458.6129     12.6671     91.0297
   756.0000      0.0000    462.9706     12.7740     96.9646
   756.2500      0.0000    473.4072     12.8291    100.0339
   756.5000      0.0000    487.7307     12.7649     99.9812
   756.7500      0.0000    506.5217     12.4853     97.7624
   757.0000      0.0000    534.8320     11.9287     95.3126
   757.2500      0.0000    575.9225     11.1616     95.1201
   757.5000      0.0000    622.6539     10.3752     98.5945
   757.7500      0.0000    658.8226      9.7485    104.3555
   758.0000      0.0000    672.3807      9.3473    108.6310
   758.2500      0.0000    667.4624      9.1906    107.8503
   758.5000      0.0000    662.3549      9.3451    101.2682
   758.7500      0.0000    674.9471      9.8668     91.3089
   759.0000      0.0000    709.1926     10.6738     81.3488
   759.2500      0.0000    754.8871     11.5469     73.1939
   759.5000      2.0000    798.2156     12.2527     66.5895
   759.7500      0.0000    829.3146     12.6502     60.5881
   760.0000      0.0000    840.2514     12.7444     54.9437
   760.2500      0.0000    821.2890     12.7211     50.3157
   760.5000      0.0000    764.8375     12.9052     47.5609
   760.7500      0.0000    674.4907     13.5883     47.2501
   761.0000      0.0000    568.2712     14.8276     49.7478
   761.2500      0.0000    470.5572     16.4023     55.0075
   761.5000      0.0000    398.8754     17.9578     62.0344
