~Version Information
 VERS.                                  2.0 : CWLS LAS VERSION
 WRAP.                                   NO : WRAPING MODE
 SWARE .                 MController 2.5.0N : SOFTWARE VERSION
~Well Information
 WELL.                       Weissach 32-32 : WELL
 COMP.    Pioneer Natural Resources USA Inc : COMPANY
 FLD.                      Purgatoire River : FIELD
 LOC.                SW/NE Sec 32 T33S R65W : LOCATION
 DATE.                             09/24/05 : DATE(S) LOGGED
 SRVC.       BLANCO Geological Services LLC : SERVICE COMPANY
 STAT.                                   CO : STATE
 CNTY.                           Las Animas : COUNTY
 CTRY.                                  USA : COUNTRY
 API.                       05-071-08523-00 : API NUMBER
 STRT.FT                             178.00 : START DEPTH
 STOP.FT                             811.00 : STOP DEPTH
 STEP.FT                               1.00 : DEPTH INCREMENT
 NULL.                                -9999 : NULL VALUE
~Curve information
 DEPTH.FT                                   :
 ROP.MIN/FT                                 :
 GAS.UNITS                                  :
~ASCII Log data
# ...
       378.0         0.30          7.7 
       379.0         0.33          7.7 
       380.0         0.30          8.0 
       381.0         0.23          7.4 
       382.0         1.95          7.7 
       383.0         0.33          6.8 
       384.0         0.27          5.6 
       385.0         0.30          7.7 
       386.0         0.27         10.0 
       387.0         0.23          9.9 
       388.0         0.23          9.5 
       389.0         0.28          9.4 
       390.0         0.27          9.5 
       391.0         0.30          8.5 
       392.0         0.30          8.6 
       393.0         0.27          8.1 
       394.0         0.23          7.8 
       395.0         0.27          7.3 
       396.0         0.30          7.6 
       397.0         0.33          7.4 
       398.0         0.17          7.4 
       399.0         0.13          7.4 
       400.0         0.13          7.8 
       401.0         0.23          7.6 
       402.0         0.20          7.5 
       403.0         0.25          8.0 
       404.0         0.23         10.0 
       405.0         0.27         16.6 
       406.0         0.33         24.7 
       407.0         0.33         28.1 
       408.0         0.23         26.9 
       409.0         0.23         26.6 
       410.0         0.17         25.7 
       411.0         0.20         24.4 
       412.0         1.88         23.5 
       413.0         0.17         12.2 
       414.0         0.37         10.5 
       415.0         0.33         11.9 
       416.0         0.33         38.6 
       417.0         0.30         41.7 
       418.0         0.23         38.0 
       419.0         0.20         35.0 
       420.0         0.23         31.9 
       421.0         0.20         28.2 
       422.0         0.20         22.4 
       423.0         0.18         22.2 
       424.0         0.20         20.8 
       425.0         0.33         20.1 
       426.0         0.33         18.2 
       427.0         0.33         19.4 
       428.0         0.33         19.6 
       429.0         0.23         18.9 
       430.0         0.27         18.7 
       431.0         0.27         17.2 
       432.0         0.30         18.0 
       433.0         0.30         17.8 
       434.0         0.27         17.5 
       435.0         0.22         17.6 
       436.0         0.17         18.8 
       437.0         0.23         18.3 
       438.0         0.27         18.1 
       439.0         0.23         17.2 
       440.0         0.37         19.4 
       441.0         0.23         19.3 
       442.0         3.32         19.5 
       443.0         0.70         45.1 
       444.0         0.37         43.3 
       445.0         0.53         35.3 
       446.0         0.35         34.7 
       447.0         0.30         38.0 
       448.0         0.27         42.2 
       449.0         0.27         43.4 
       450.0         0.17         43.8 
       451.0         0.20         42.8 
       452.0         0.20         40.9 
       453.0         0.33         39.9 
       454.0         0.33         37.2 
       455.0         0.20         33.9 
       456.0         0.27         34.6 
       457.0         0.23         33.5 
       458.0         0.23         32.7 
       459.0         0.25         32.3 
       460.0         0.23         31.8 
       461.0         0.27         30.8 
       462.0         0.23         30.2 
       463.0         0.30         29.9 
       464.0         0.27         30.0 
       465.0         0.30         29.8 
       466.0         0.30         29.6 
       467.0         0.23         29.1 
       468.0         0.23         29.3 
       469.0         0.27         29.1 
       470.0         0.07         28.4 
       471.0         0.27         28.8 
       472.0         3.42         26.6 
       473.0         0.13         37.9 
       474.0         0.28         61.1 
       475.0         0.47         64.9 
       476.0         0.40         45.8 
       477.0         0.27         36.3 
       478.0         0.27         32.7 
       479.0         0.30         32.6 
       480.0         0.30         31.6 
       481.0         0.27         30.8 
       482.0         0.23         35.3 
       483.0         0.27         42.8 
       484.0         0.27         49.9 
       485.0         0.35         51.2 
       486.0         0.30         51.1 
       487.0         0.30         50.5 
       488.0         0.30         48.8 
       489.0         0.30         45.8 
       490.0         0.33         41.8 
       491.0         0.37         39.3 
       492.0         0.33         38.1 
       493.0         0.30         37.1 
       494.0         0.33         36.6 
       495.0         0.38         35.5 
       496.0         0.43         34.0 
       497.0         0.37         33.7 
       498.0         0.33         32.7 
       499.0         0.37         32.9 
       500.0         0.43         32.6 
       501.0         0.47         31.2 
       502.0         3.22         30.6 
       503.0         0.50         58.2 
       504.0         0.40         62.8 
       505.0         0.38         55.3 
       506.0         0.30         44.7 
       507.0         0.30         38.3 
       508.0         0.27         38.0 
       509.0         0.27         34.4 
       510.0         0.27         30.9 
       511.0         0.27         27.9 
       512.0         0.23         27.6 
       513.0         0.23         26.5 
       514.0         0.13         26.6 
       515.0         0.13         26.4 
       516.0         0.10         25.9 
       517.0         0.13         24.5 
       518.0         0.17         24.7 
       519.0         0.23         23.4 
       520.0         0.25         23.2 
       521.0         0.27         27.9 
       522.0         0.27         44.8 
       523.0         0.30         72.5 
       524.0         0.27         93.2 
       525.0         0.33        103.7 
       526.0         0.20        106.8 
       527.0         0.20        107.4 
       528.0         0.23        107.2 
       529.0         0.20        106.4 
       530.0         0.20        106.0 
       531.0         0.13        106.4 
       532.0         2.12        106.4 
       533.0         0.40         76.3 
       534.0         0.33        177.8 
       535.0         0.20        278.9 
       536.0         0.23        306.7 
       537.0         0.30        311.2 
       538.0         0.35        240.0 
       539.0         0.27        195.7 
       540.0         0.30        165.4 
       541.0         0.30        146.0 
       542.0         0.30        133.6 
       543.0         0.23        125.8 
       544.0         0.17        116.9 
       545.0         0.20        114.3 
       546.0         0.17        113.7 
       547.0         0.23        108.6 
       548.0         0.23        107.8 
       549.0         0.10        106.5 
       550.0         0.23        106.3 
       551.0         0.37        106.4 
       552.0         0.35        106.6 
       553.0         0.23        105.4 
       554.0         0.20        107.7 
       555.0         0.27        108.8 
       556.0         0.20        108.8 
       557.0         0.17        108.3 
       558.0         0.20        107.7 
       559.0         0.23        106.8 
       560.0         0.33        106.7 
       561.0         0.13        107.3 
       562.0         2.28        107.3 
       563.0         0.33         24.8 
       564.0         0.33         92.8 
       565.0         0.33        310.5 
       566.0         0.30        316.4 
       567.0         0.23        278.1 
       568.0         0.27        241.7 
       569.0         0.27        196.6 
       570.0         0.32        171.0 
       571.0         0.30        153.7 
       572.0         0.30        139.2 
       573.0         0.33        126.7 
       574.0         0.30        119.1 
       575.0         0.33        109.5 
       576.0         0.33        109.0 
       577.0         0.27        105.9 
