~Version Information
VERS.                      2.0: CWLS Log ASCII Standard - VERSION 2.0
WRAP.                       NO: One line per depth step
~Well Information Block
STRT.FT                 0.0000: 
STOP.FT              1923.5000: 
STEP.FT                 0.2500: 
NULL.                -999.2500: 
COMP.          Petrogulf Corporation: COMPANY
WELL.            Montoya 7-14R: WELL
FLD.           Purgatorie River: FIELD
LOC.           628' FSL & 454' FWL: LOCATION
STAT.                 Colorado: State
CNTY.               Las Animas: COUNTY
CTRY. USA : Country
SECT. 7 : Section
TOWN. 33S : Township
RANG. 67W : Range
SRVC.                Patterson: SERVICE COMPANY
DATE.          Wed Nov 09 12:02:27 2005: LOG DATE
API. 05-071-08554                         : UNIQUE WELL ID
~Curve Information Block
DEPT.FT            0 000 00 00: Depth
CCL.                          : Casing Collar Locator
TT3.usec                      : CBL 3' Travel Time
AMP3.mV                       : CBL 3' Amplitude
GR.GAPI                       : Gamma Ray
~Parameter Information Block
~A  Depth       CCL         TT3         AMP3         GR     
# ...
  1239.5000      0.0000    673.5142      8.3182    120.3356
  1239.7500      0.0000    661.5485      8.8833    120.3118
  1240.0000      0.0000    628.0756      9.6833    121.0955
  1240.2500      0.0000    560.6016     10.7651    121.5160
  1240.5000      0.0000    471.0616     12.1693    121.2552
  1240.7500      0.0000    394.1203     13.8998    120.4851
  1241.0000      0.0000    350.7551     15.8357    119.2017
  1241.2500      0.0000    334.3654     17.6988    116.9772
  1241.5000      0.0000    330.0151     19.1529    113.2855
  1241.7500      0.0000    329.0796     20.0248    108.0678
  1242.0000      0.0000    328.8365     20.4189    102.0005
  1242.2500      0.0000    328.7293     20.5547     96.2031
  1242.5000      0.0000    328.6882     20.5366     91.5890
  1242.7500      0.0000    328.7385     20.3196     88.4155
  1243.0000      0.0000    328.8662     19.8687     86.4010
  1243.2500      0.0000    328.9729     19.2812     85.0318
  1243.5000      0.0000    328.9744     18.6835     83.5850
  1243.7500      0.0000    328.9328     18.0837     81.2405
  1244.0000      0.0000    328.9508     17.4690     77.6572
  1244.2500      0.0000    328.9734     16.9752     73.2758
  1244.5000      0.0000    328.8701     16.7896     68.8540
  1244.7500      0.0000    328.6209     16.9274     64.9981
  1245.0000      0.0000    328.3350     17.2101     62.1294
  1245.2500      0.0000    328.2396     17.4075     60.3331
  1245.5000      0.0000    328.9036     17.3282     59.1180
  1245.7500      0.0000    332.4901     16.8205     57.6974
  1246.0000      0.0000    345.7595     15.8094     55.6781
  1246.2500      0.0000    380.7826     14.3715     53.6047
  1246.5000      0.0000    443.8973     12.7907     52.9156
  1246.7500      0.0000    518.3083     11.5166     54.9836
  1247.0000      0.0000    570.9343     10.9153     59.9280
  1247.2500      0.0000    589.5027     10.9834     66.6931
  1247.5000      0.0000    593.1736     11.3576     74.3568
  1247.7500      0.0000    587.7000     11.6663     82.9383
  1248.0000      0.0000    550.3811     11.8438     92.8854
  1248.2500      0.0000    482.3416     12.0964    104.1313
  1248.5000      0.0000    419.3447     12.6827    115.6392
  1248.7500      0.0000    381.8249     13.7924    125.5793
  1249.0000      0.0000    359.7751     15.5753    132.0751
  1249.2500      0.0000    339.8189     18.2269    134.2004
  1249.5000      0.0000    320.8938     21.9217    132.6003
  1249.7500      0.0000    307.9297     26.3660    129.2673
  1250.0000      0.0000    303.2278     30.2564    126.5192
  1250.2500      0.0000    306.5343     31.5840    125.6393
  1250.5000      0.0000    317.7843     29.2627    126.1639
  1250.7500      0.0000    337.6558     24.5278    126.6175
  1251.0000      0.0000    368.9297     19.8294    126.0104
  1251.2500      0.0000    417.4489     16.5050    124.3757
  1251.5000      0.0000    488.0795     14.3578    122.0819
  1251.7500      0.0000    571.6435     12.7249    119.4463
  1252.0000      2.0000    640.3862     11.2057    117.2270
  1252.2500      0.0000    676.8291      9.8085    116.6345
  1252.5000     -2.0000    695.4221      8.7028    118.2606
  1252.7500      0.0000    717.1857      7.8766    121.2356
  1253.0000      0.0000    740.8006      7.1943    123.7332
  1253.2500      0.0000    748.7410      6.6782    124.2732
  1253.5000      0.0000    732.4761      6.4141    122.6888
  1253.7500      0.0000    704.1477      6.3663    120.0774
  1254.0000      0.0000    681.4371      6.4949    117.7338
  1254.2500      0.0000    670.2385      6.7563    116.0083
  1254.5000      0.0000    666.6490      7.0114    114.4029
  1254.7500      0.0000    666.1787      7.1273    112.5923
  1255.0000      0.0000    666.6507      7.1026    110.9930
  1255.2500      0.0000    667.2961      7.0411    110.5233
  1255.5000      0.0000    668.6514      7.0153    112.0592
  1255.7500      0.0000    673.1749      6.9692    115.9180
  1256.0000      0.0000    683.5307      6.7962    121.6952
  1256.2500      0.0000    696.8738      6.5050    128.3938
  1256.5000      0.0000    701.6989      6.2187    134.5232
  1256.7500      0.0000    686.5756      6.0270    138.5499
  1257.0000      0.0000    654.1258      5.9344    139.8722
  1257.2500      0.0000    620.0118      5.8998    139.0524
  1257.5000      0.0000    595.8986      5.8726    136.9065
  1257.7500      0.0000    579.7677      5.8427    134.0233
  1258.0000      0.0000    564.0679      5.8546    131.2065
  1258.2500      0.0000    548.4719      5.9486    129.4420
  1258.5000      0.0000    541.5215      6.1020    129.0586
  1258.7500      0.0000    549.5659      6.2403    129.4209
  1259.0000      0.0000    570.0938      6.3246    129.6991
  1259.2500      0.0000    599.5272      6.4317    129.6987
  1259.5000      0.0000    636.4045      6.7436    129.9180
  1259.7500      0.0000    670.1257      7.4614    131.0323
  1260.0000      0.0000    682.5687      8.7094    133.4291
  1260.2500      0.0000    668.7670     10.4805    136.9303
  1260.5000      0.0000    638.2879     12.6407    140.5757
  1260.7500      0.0000    591.7083     15.0197    142.7521
  1261.0000      0.0000    518.7776     17.5502    142.0484
  1261.2500      0.0000    428.9196     20.3185    138.2983
  1261.5000      0.0000    354.8944     23.4955    132.8209
  1261.7500      0.0000    315.2205     27.2180    127.5812
  1262.0000      0.0000    300.0678     31.4589    123.9406
  1262.2500      0.0000    292.4706     35.9422    122.0192
  1262.5000      0.0000    283.6539     40.1088    121.0752
  1262.7500      0.0000    273.6991     43.1711    120.3717
  1263.0000      0.0000    267.0412     44.4528    119.6742
  1263.2500      0.0000    267.1381     43.7624    119.0913
  1263.5000      0.0000    274.0049     41.3553    118.6121
  1263.7500      0.0000    284.7849     37.7722    117.8690
  1264.0000      0.0000    298.1704     33.6718    116.4914
  1264.2500      0.0000    322.4168     29.4371    114.7665
  1264.5000      0.0000    375.8790     25.1055    113.7646
  1264.7500      0.0000    467.7835     20.8695    114.4002
  1265.0000      0.0000    574.1140     17.1999    116.2473
  1265.2500      0.0000    650.5546     14.3617    117.6541
  1265.5000      0.0000    678.3339     12.2258    117.2036
  1265.7500      0.0000    676.7578     10.5369    114.8498
  1266.0000      0.0000    670.2694      9.1296    111.6071
  1266.2500      0.0000    666.9479      7.9459    108.4874
  1266.5000      0.0000    665.6836      6.9901    106.0776
  1266.7500      0.0000    665.8799      6.3084    104.9738
  1267.0000      0.0000    668.5231      5.9459    105.9410
  1267.2500      0.0000    673.0415      5.9047    109.1302
  1267.5000      0.0000    675.7435      6.1504    113.3416
  1267.7500      0.0000    673.9577      6.6162    116.6164
  1268.0000      0.0000    669.8061      7.2106    117.8337
  1268.2500      0.0000    666.5701      7.8523    117.6752
  1268.5000      0.0000    664.8907      8.4863    117.9940
  1268.7500      0.0000    664.0752      9.0875    120.2672
  1269.0000      0.0000    663.7748      9.6658    124.5832
  1269.2500      0.0000    663.3202     10.2169    129.7856
  1269.5000      0.0000    658.0393     10.6959    134.2262
  1269.7500      0.0000    634.0634     11.1011    136.4644
  1270.0000      0.0000    576.7701     11.5136    135.7737
  1270.2500      0.0000    496.1911     12.0089    132.4131
  1270.5000      0.0000    425.7184     12.6017    127.4711
  1270.7500      0.0000    383.9626     13.3236    122.2432
  1271.0000      0.0000    362.1570     14.2912    117.5214
  1271.2500      0.0000    347.7536     15.6164    113.2235
  1271.5000      0.0000    337.0815     17.2573    108.6358
  1271.7500      0.0000    329.0198     19.0520    103.1067
  1272.0000      0.0000    321.5147     20.9674     96.6945
  1272.2500      0.0000    314.7653     23.2077     90.3435
  1272.5000      0.0000    310.4998     25.9917     85.5312
  1272.7500      0.0000    307.5907     29.2569     83.5802
