~Version Information
VERS.                      2.0: CWLS Log ASCII Standard - VERSION 2.0
WRAP.                       NO: One line per depth step
~Well Information Block
STRT.FT               -12.0000: 
STOP.FT              1266.5000: 
STEP.FT                 0.2500: 
NULL.                -999.2500: 
COMP.          Pioneer Natural Resources: COMPANY
WELL.          Hot Tomatoes 22-20: WELL
FLD.           Purgatorie River: FIELD
LOC.           2120' FNL & 2585' FWL: LOCATION
CNTY.               Las Animas: COUNTY
SRVC.                Patterson: SERVICE COMPANY
DATE.          Thu Mar 02 13:59:39 2006: LOG DATE
UWI.           05 071 08701 00: UNIQUE WELL ID
STAT.                       CO: STATE
~Curve Information Block
DEPT.FT            0 000 00 00: Depth
GR.GAPI                       : Gamma Ray
CCL.                          : Casing Collar Locator
TT3.usec                      : CBL 3' Travel Time
AMP3.mV                       : CBL 3' Amplitude
~Parameter Information Block
~A  Depth        GR         CCL         TT3         AMP3    
# ...
  1160.5000     85.7848      0.0000    641.0655      5.2896
  1160.7500     80.7258      0.0000    657.4490      5.2797
  1161.0000     75.4536      0.0000    670.7938      5.3119
  1161.2500     72.1639      0.0000    673.6808      5.3679
  1161.5000     72.8951      0.0000    664.3408      5.4202
  1161.7500     78.2155      0.0000    646.6720      5.4579
  1162.0000     87.0262      0.0000    628.6026      5.4923
  1162.2500     97.4129      0.0000    617.9901      5.5413
  1162.5000    107.4178      0.0000    617.4169      5.6006
  1162.7500    115.3955      0.0000    623.0786      5.6205
  1163.0000    120.3364      0.0000    629.6992      5.5081
  1163.2500    122.2648      0.0000    636.0107      5.1628
  1163.5000    122.1743      0.0000    644.4280      4.5241
  1163.7500    121.0832      0.0000    656.1187      3.6097
  1164.0000    118.8950      0.0000    668.6008      2.5293
  1164.2500    114.4343      0.0000    678.5483      1.4619
  1164.5000    106.7501      0.0000    685.1015      0.5944
  1164.7500     96.2110      0.0000    689.6583      0.0541
  1165.0000     84.4643      0.0000    693.5355     -0.1231
  1165.2500     73.6776      0.0000    696.6765      0.0056
  1165.5000     65.6871      0.0000    698.1837      0.3002
  1165.7500     61.2900      0.0000    697.3947      0.5810
  1166.0000     60.0745      0.0000    694.4141      0.7223
  1166.2500     61.3053      0.0000    690.0247      0.7317
  1166.5000     65.2628      0.0000    685.4460      0.7309
  1166.7500     73.3616      0.0000    682.1274      0.8496
  1167.0000     86.4514      0.0000    681.0893      1.1399
  1167.2500    102.9616      0.0000    681.6062      1.5787
  1167.5000    119.0134      0.0000    680.1670      2.1255
  1167.7500    130.7467      0.0000    671.1483      2.7602
  1168.0000    136.8914      0.0000    649.7661      3.4618
  1168.2500    139.1718      0.0000    616.1085      4.1658
  1168.5000    140.3650      0.0000    576.8371      4.7645
  1168.7500    142.3874      0.0000    541.7162      5.1680
  1169.0000    146.1544      0.0000    517.3622      5.3643
  1169.2500    152.0316      0.0000    504.1603      5.4145
  1169.5000    159.3174      0.0000    498.5024      5.3919
  1169.7500    165.7342      0.0000    497.0383      5.3370
  1170.0000    168.5835      0.0000    499.5152      5.2625
  1170.2500    166.8867      0.0000    508.8893      5.1837
  1170.5000    162.1629      0.0000    528.1373      5.1360
  1170.7500    156.8040      0.0000    555.3678      5.1610
  1171.0000    151.6621      0.0000    582.4712      5.2768
  1171.2500    145.4400      0.0000    600.3523      5.4577
  1171.5000    136.5457      0.0000    605.4438      5.6463
  1171.7500    125.2705      0.0000    600.5871      5.7895
  1172.0000    114.0082      0.0000    590.9016      5.8629
  1172.2500    105.4751      0.0000    579.7173      5.8652
  1172.5000    100.8513      0.0000    567.0376      5.7976
  1172.7500     99.5742      0.0000    550.9150      5.6562
  1173.0000    100.6419      0.0000    531.0516      5.4417
  1173.2500    103.5319      0.0000    511.2219      5.1750
  1173.5000    107.6376      0.0000    497.3291      4.9010
  1173.7500    111.5526      0.0000    492.8558      4.6741
  1174.0000    113.5765      0.0000    496.5541      4.5331
  1174.2500    112.8527      0.0000    504.6386      4.4834
  1174.5000    109.8938      0.0000    514.9886      4.5019
  1174.7500    106.4404      0.0000    528.6640      4.5633
  1175.0000    104.9234      0.0000    547.2376      4.6597
  1175.2500    107.4089      0.0000    569.7785      4.7857
  1175.5000    114.3812      0.0000    593.4622      4.8944
  1175.7500    124.3773      0.0000    616.3218      4.8801
  1176.0000    134.8272      0.0000    637.8495      4.6449
  1176.2500    143.2530      0.0000    657.2349      4.2158
  1176.5000    147.9769      0.0000    672.6690      3.7830
  1176.7500    148.1685      0.0000    682.8281      3.5817
  1177.0000    143.6286      0.0000    688.1369      3.7246
  1177.2500    134.9166      0.0000    690.2599      4.1501
  1177.5000    123.9242      0.0000    690.8448      4.7097
  1177.7500    113.9670      0.0000    690.8687      5.2710
  1178.0000    108.6160      0.0000    690.6130      5.7468
  1178.2500    109.9315      0.0000    689.7595      6.0614
  1178.5000    117.3856      0.0000    687.2628      6.1284
  1178.7500    128.2331      0.0000    681.1537      5.8966
  1179.0000    139.0131      0.0000    668.9667      5.4439
  1179.2500    147.1456      0.0000    649.4537      5.0061
  1179.5000    151.6462      0.0000    624.9865      4.8529
  1179.7500    152.8057      0.0000    602.1600      5.0852
  1180.0000    151.4523      0.0000    588.0197      5.5472
  1180.2500    148.4894      0.0000    583.6578      5.9526
  1180.5000    144.6753      0.0000    582.9872      6.1049
  1180.7500    140.2591      0.0000    581.0221      6.0065
  1181.0000    134.8847      0.0000    581.9816      5.7880
  1181.2500    128.5229      0.0000    594.2958      5.5742
  1181.5000    122.7311      0.0000    617.6620      5.4455
  1181.7500    120.3107      0.0000    639.3027      5.4976
  1182.0000    123.0778      0.0000    643.2532      5.8520
  1182.2500    130.1804      0.0000    621.4144      6.5441
  1182.5000    138.9364      0.0000    578.2938      7.4110
  1182.7500    147.0287      0.0000    529.0336      8.1384
  1183.0000    153.5604      0.0000    491.0916      8.4492
  1183.2500    158.1922      0.0000    473.2571      8.2649
  1183.5000    159.7211      0.0000    470.8803      7.7159
  1183.7500    155.9857      0.0000    471.7740      7.0234
  1184.0000    145.5017      0.0000    466.5302      6.3634
  1184.2500    129.1936      0.0000    453.6381      5.8178
  1184.5000    110.3803      0.0000    437.4411      5.4242
  1184.7500     93.0418      0.0000    424.3371      5.2246
  1185.0000     80.0492      0.0000    421.2719      5.2342
  1185.2500     72.6143      0.0000    435.0039      5.3772
  1185.5000     70.6034      0.0000    469.4307      5.4977
  1185.7500     72.8213      0.0000    521.4934      5.4616
  1186.0000     77.3922      0.0000    580.0062      5.2452
  1186.2500     82.7695      0.0000    630.9005      4.9312
  1186.5000     88.6021      0.0000    665.4254      4.6447
  1186.7500     95.2697      0.0000    683.6548      4.4845
  1187.0000    102.5748      0.0000    691.0364      4.4670
  1187.2500    109.2627      0.0000    693.1354      4.5089
  1187.5000    114.0631      0.0000    693.2271      4.4860
  1187.7500    117.1602      0.0000    692.6187      4.3297
  1188.0000    120.2061      0.0000    691.5323      4.0637
  1188.2500    124.4303      0.0000    689.1813      3.7614
  1188.5000    128.7761      0.0000    683.6631      3.4992
  1188.7500    130.4497      0.0000    673.2472      3.3565
  1189.0000    127.5801      0.0000    658.9290      3.4007
  1189.2500    121.0867      0.0000    644.5285      3.6347
  1189.5000    113.8960      0.0000    632.7454      3.9887
  1189.7500    108.6769      0.0000    622.2564      4.3819
  1190.0000    106.3260     -1.6144    610.2224      4.7716
  1190.2500    106.1442      0.0000    596.9467      5.1569
  1190.5000    106.9910      0.0000    587.0560      5.5575
  1190.7500    108.1893      0.0000    586.4554      5.9553
  1191.0000    109.5829      0.0000    598.0359      6.2395
  1191.2500    111.0703      0.0000    619.6913      6.2835
  1191.5000    112.2194      0.0000    645.8904      6.1287
  1191.7500    112.3059      0.0000    670.2705      5.9984
  1192.0000    110.7922      0.0000    687.5924      6.0707
  1192.2500    108.1187      0.0000    696.4418      6.3213
  1192.5000    106.2428      0.0000    700.7160      6.6198
  1192.7500    108.1019      0.0000    705.7518      6.8811
  1193.0000    115.8017      0.0000    712.3431      7.0802
  1193.2500    128.6300      0.0000    715.6455      7.1972
  1193.5000    142.6813      0.0000    709.4518      7.2041
  1193.7500    153.2085      0.0000    691.0544      7.0923
