~Version Information
VERS.                      2.0: CWLS Log ASCII Standard - VERSION 2.0
WRAP.                       NO: One line per depth step
~Well Information Block
STRT.FT                -7.5000: 
STOP.FT              1336.0000: 
STEP.FT                 0.2500: 
NULL.                -999.2500: 
COMP.          Pioneer Natural Resources: COMPANY
WELL.               LPGC 32-32: WELL
FLD.           Purgatorie River: FIELD
LOC.           1937' FNL & 1661' FEL--: LOCATION
CNTY.               Las Animas: COUNTY
SRVC.          Patterson Wireline: SERVICE COMPANY
DATE.          Fri Feb 03 09:39:42 2006: LOG DATE
UWI.           05 071 08641 00: UNIQUE WELL ID
STAT.                       CO: STATE
~Curve Information Block
DEPT.FT            0 000 00 00: Depth
CCL.                          : Casing Collar Locator
TT3.usec                      : CBL 3' Travel Time
AMP3.mV                       : CBL 3' Amplitude
GR.GAPI                       : Gamma Ray
~Parameter Information Block
~A  Depth       CCL         TT3         AMP3         GR     
# ...
   428.0000      0.0000    785.3428     13.0086     73.4046
   428.2500      0.0000    790.6818     13.1172     71.9493
   428.5000      0.0000    792.3438     13.1887     69.8512
   428.7500      0.0000    786.5555     13.2234     67.9424
   429.0000      0.0000    772.9962     13.2416     67.3994
   429.2500      0.0000    754.7604     13.2750     68.6732
   429.5000      0.0000    731.5519     13.3580     70.9785
   429.7500      0.0000    693.8341     13.5215     72.9241
   430.0000      0.0000    630.7892     13.7838     73.6058
   430.2500      0.0000    546.6167     14.1410     73.2324
   430.5000      0.0000    462.5611     14.5688     72.8983
   430.7500      0.0000    399.7283     15.0405     73.5072
   431.0000      0.0000    364.0939     15.5452     74.6846
   431.2500      0.0000    348.3363     16.0903     74.9766
   431.5000      0.0000    342.1305     16.6877     73.2675
   431.7500      0.0000    338.3878     17.3404     69.7322
   432.0000      0.0000    333.7488     18.0399     65.3754
   432.2500      0.0000    327.4074     18.7706     60.9827
   432.5000      0.0000    320.2170     19.5064     56.8550
   432.7500      0.0000    313.7543     20.2020     53.5417
   433.0000      0.0000    309.1984     20.7987     52.3277
   433.2500      0.0000    306.7018     21.2575     54.4819
   433.5000      0.0000    305.6731     21.5912     59.9851
   433.7500      0.0000    305.3974     21.8639     67.1825
   434.0000      0.0000    305.3922     22.1627     73.7748
   434.2500      0.0000    305.4265     22.5676     78.1392
   434.5000      0.0000    305.4192     23.1319     79.8019
   434.7500      0.0000    305.3550     23.8748     78.9977
   435.0000      0.0000    305.2392     24.7930     76.1510
   435.2500      0.0000    305.0768     25.8815     71.8657
   435.5000      0.0000    304.8588     27.1407     67.2105
   435.7500      0.0000    304.5323     28.5684     63.6493
   436.0000      0.0000    303.9317     30.1530     62.3901
   436.2500      0.0000    302.6714     31.8714     63.6228
   436.5000      0.0000    300.1236     33.6769     66.3542
   436.7500      0.0000    295.7090     35.4810     69.0800
   437.0000      0.0000    289.5005     37.1535     70.8841
   437.2500      0.0000    282.6051     38.5527     72.0527
   437.5000      0.0000    276.7520     39.5647     73.6768
   437.7500      0.0000    273.4106     40.1178     76.6316
   438.0000      0.0000    273.3061     40.1596     80.7134
   438.2500      0.0000    276.4587     39.6269     84.5009
   438.5000      0.0000    282.1808     38.4584     86.3196
   438.7500      0.0000    289.0238     36.6700     85.7951
   439.0000      0.0000    295.2680     34.4365     84.3767
   439.2500      0.0000    299.8759     32.0781     84.0806
   439.5000      0.0000    303.2569     29.9159     85.7568
   439.7500      0.0000    307.8237     28.0879     88.5716
   440.0000      0.0000    319.0231     26.4578     90.7361
   440.2500      0.0000    346.1194     24.6913     90.5481
   440.5000      0.0000    399.7575     22.4763     87.3885
   440.7500      0.0000    484.6320     19.7796     82.2976
   441.0000      0.0000    591.7059     16.9536     77.3429
   441.2500      0.0000    698.0977     14.5465     74.1123
   441.5000      0.0000    775.9266     12.9370     73.0486
   441.7500     -1.6196    803.2839     12.1272     74.1063
   442.0000      2.0000    772.4789     11.8517     77.2018
   442.2500      2.0000    696.0801     11.8170     81.6909
   442.5000      0.0000    605.7289     11.8575     86.1594
   442.7500      0.0000    536.2372     11.9659     89.1856
   443.0000      0.0000    503.1431     12.2178     90.0999
   443.2500      0.0000    495.3345     12.6301     89.1161
   443.5000      0.0000    489.6132     13.0848     87.1546
   443.7500      0.0000    470.5405     13.4334     85.4863
   444.0000      0.0000    438.5976     13.6359     85.1123
   444.2500      0.0000    405.2278     13.7360     86.2376
   444.5000      0.0000    382.9045     13.7503     88.2739
   444.7500      0.0000    379.1870     13.6547     90.4809
   445.0000      0.0000    397.8101     13.4415     92.9334
   445.2500      0.0000    440.8163     13.1358     97.0107
   445.5000      0.0000    505.2481     12.7722    104.5040
   445.7500      0.0000    578.8790     12.3868    115.6151
   446.0000      0.0000    644.2065     12.0244    127.8756
   446.2500      0.0000    689.2352     11.7295    137.4694
   446.5000      0.0000    713.2958     11.5281    141.6046
   446.7500      0.0000    723.2249     11.4229    139.4727
   447.0000      0.0000    726.3508     11.4043    131.5815
   447.2500      0.0000    727.0598     11.4567    119.1304
   447.5000      0.0000    727.1129     11.5531    104.0308
   447.7500      0.0000    726.9907     11.6538     88.6258
   448.0000      0.0000    726.7761     11.7193     74.8242
   448.2500      0.0000    726.5098     11.7304     63.5891
   448.5000      0.0000    726.2581     11.6993     55.1494
   448.7500      0.0000    726.0972     11.6614     49.2549
   449.0000      0.0000    726.0488     11.6468     45.2051
   449.2500      0.0000    726.0691     11.6551     42.1482
   449.5000      0.0000    726.1105     11.6531     39.5779
   449.7500      0.0000    726.1648     11.5969     37.3948
   450.0000      0.0000    726.2266     11.4613     35.5604
   450.2500      0.0000    726.2525     11.2590     33.9796
   450.5000      0.0000    726.2050     11.0378     32.7662
   450.7500      0.0000    726.1291     10.8615     32.3195
   451.0000      0.0000    726.1342     10.7808     32.9206
   451.2500      0.0000    726.2846     10.8125     34.2882
   451.5000      0.0000    726.5391     10.9423     35.6712
   451.7500      0.0000    726.8087     11.1522     36.4725
   452.0000      0.0000    727.0400     11.4457     36.7531
   452.2500      0.0000    727.1953     11.8406     37.0691
   452.5000      0.0000    727.1543     12.3430     37.9950
   452.7500      0.0000    726.3845     12.9423     40.0969
   453.0000      0.0000    723.0969     13.6282     44.2619
   453.2500      0.0000    712.8698     14.3977     51.5744
   453.5000      0.0000    688.2729     15.2427     62.5256
   453.7500      0.0000    642.2944     16.1392     76.2762
   454.0000      0.0000    575.2927     17.0483     90.6091
   454.2500      0.0000    498.6750     17.9272    102.7269
   454.5000      0.0000    428.9298     18.7453    110.6576
   454.7500      0.0000    376.9002     19.4904    114.4674
   455.0000      0.0000    343.5215     20.1480    116.1645
   455.2500      0.0000    324.1168     20.6812    118.0758
   455.5000      0.0000    313.7376     21.0494    121.0156
   455.7500      0.0000    308.8560     21.2499    123.9308
   456.0000      0.0000    307.0107     21.3303    125.4204
   456.2500      0.0000    306.5384     21.3598    125.5531
   456.5000      0.0000    306.5135     21.3893    125.9050
   456.7500      0.0000    306.5465     21.4323    127.6832
   457.0000      0.0000    306.5443     21.4754    130.0594
   457.2500      0.0000    306.5181     21.5008    130.6094
   457.5000      0.0000    306.4941     21.4983    127.4141
   457.7500      0.0000    306.4898     21.4681    120.6250
   458.0000      0.0000    306.5025     21.4210    112.1669
   458.2500      0.0000    306.5109     21.3820    104.5447
   458.5000      0.0000    306.4811     21.3885    100.1085
   458.7500      0.0000    306.3756     21.4745    100.5576
   459.0000      0.0000    306.1764     21.6466    106.0869
   459.2500      0.0000    305.9124     21.8704    114.8411
   459.5000      0.0000    305.6535     22.0838    123.5115
   459.7500      0.0000    305.4630     22.2299    128.7777
   460.0000      0.0000    305.3635     22.2796    128.7634
   460.2500      0.0000    305.3547     22.2233    123.9033
   460.5000      0.0000    305.4805     22.0554    116.8738
   460.7500      0.0000    305.9248     21.7762    111.3572
   461.0000      0.0000    307.1229     21.4051    110.0085
   461.2500      0.0000    309.7676     20.9776    112.8876
