~Version Information
VERS.                      2.0: CWLS Log ASCII Standard - VERSION 2.0
WRAP.                       NO: One line per depth step
~Well Information Block
STRT.FT               588.7000: 
STOP.FT              1820.2000: 
STEP.FT                 0.1000: 
NULL.                -999.2500: 
COMP.          Pioneer Natural Resources: COMPANY
WELL.           Loews 41-32 Tr: WELL
FLD.           Purgatoire River: FIELD
LOC.           706' FNL & 224' FEL--: LOCATION
CNTY.               Las Animas: COUNTY
SRVC.                Patterson: SERVICE COMPANY
DATE.          Tue Feb 21 10:23:46 2006: LOG DATE
UWI.           05 071 08690 00: UNIQUE WELL ID
STAT.                 Colorado: STATE
~Curve Information Block
DEPT.FT            0 000 00 00: Depth
DCAL.in                       : CDL Caliper
RHOB.g/cc                     : CDL Bulk Density
RHOC.g/cc                     : CDL Density Correction
DPOR.pu                       : CDL Density Porosity
GR.GAPI                       : Gamma Ray
~Parameter Information Block
~A  Depth       DCAL        RHOB        RHOC        DPOR         GR     
# ...
  1473.5000      7.9544      2.5926      0.0446      3.4810    112.4005
  1473.6000      7.9544      2.6101      0.0400      2.4165    112.3633
  1473.7000      7.9544      2.6419      0.1000      0.4920    110.0414
  1473.8000      7.9532      2.6465      0.0889      0.2092    106.9558
  1473.9000      7.9532      2.6203      0.0187      1.8014    106.6708
  1474.0000      7.9497      2.5933      0.0323      3.4363    110.4255
  1474.1000      7.9497      2.5801      0.0346      4.2365    116.7216
  1474.2000      7.9497      2.5778      0.0438      4.3762    122.9013
  1474.3000      7.9436      2.5817      0.0836      4.1374    125.5161
  1474.4000      7.9436      2.5811      0.0851      4.1741    124.7802
  1474.5000      7.9385      2.5679      0.0966      4.9734    124.4043
  1474.6000      7.9385      2.5548      0.0461      5.7713    125.2561
  1474.7000      7.9385      2.5595      0.0898      5.4853    120.9927
  1474.8000      7.9352      2.5855      0.0607      3.9096    110.2793
  1474.9000      7.9352      2.6228      0.1097      1.6471    102.3773
  1475.0000      7.9340      2.6453      0.1286      0.2871    103.3673
  1475.1000      7.9340      2.6302      0.0899      1.2009    109.9557
  1475.2000      7.9340      2.5767      0.0851      4.4396    115.2936
  1475.3000      7.9354      2.5034      0.0557      8.8842    116.0928
  1475.4000      7.9354      2.4442      0.0153     12.4721    116.0648
  1475.5000      7.9381      2.4277     -0.0234     13.4699    117.6604
  1475.6000      7.9381      2.4570     -0.0249     11.6982    119.8893
  1475.7000      7.9381      2.5058      0.0967      8.7399    122.2154
  1475.8000      7.9430      2.5417      0.0575      6.5639    124.1063
  1475.9000      7.9430      2.5595      0.0618      5.4870    126.2304
  1476.0000      7.9461      2.5712      0.0901      4.7774    127.9398
  1476.1000      7.9461      2.5851      0.1050      3.9336    129.3864
  1476.2000      7.9461      2.6056      0.1425      2.6909    130.7495
  1476.3000      7.9394      2.6356      0.2033      0.8718    129.8861
  1476.4000      7.9394      2.6667      0.2449     -1.0149    126.5461
  1476.5000      7.9325      2.6790      0.2381     -1.7567    124.5354
  1476.6000      7.9325      2.6674      0.1219     -1.0547    126.4050
  1476.7000      7.9325      2.6429      0.1049      0.4307    130.8599
  1476.8000      7.9299      2.6121      0.0830      2.2953    133.5892
  1476.9000      7.9299      2.5854      0.0313      3.9155    129.3764
  1477.0000      7.9280      2.5772      0.0352      4.4130    121.2159
  1477.1000      7.9280      2.5835      0.0573      4.0314    117.1573
  1477.2000      7.9280      2.5931      0.0060      3.4473    117.2316
  1477.3000      7.9254      2.6019      0.0665      2.9124    116.0613
  1477.4000      7.9254      2.6062      0.0248      2.6573    113.3792
  1477.5000      7.9247      2.6136      0.0379      2.2086    113.8781
  1477.6000      7.9247      2.6224      0.1108      1.6731    118.0742
  1477.7000      7.9247      2.6124      0.1203      2.2775    120.0747
  1477.8000      7.9245      2.5784      0.0781      4.3389    115.6635
  1477.9000      7.9245      2.5364      0.0523      6.8842    107.0273
  1478.0000      7.9172      2.5048     -0.0008      8.8030    101.8014
  1478.1000      7.9172      2.4919      0.0465      9.5811    105.2715
  1478.2000      7.9172      2.5039     -0.0024      8.8574    112.9258
  1478.3000      7.9022      2.5493      0.0392      6.1014    118.0515
  1478.4000      7.9022      2.6156      0.1010      2.0875    119.6468
  1478.5000      7.8916      2.6710      0.1236     -1.2716    117.9008
  1478.6000      7.8916      2.6926      0.1730     -2.5822    112.7256
  1478.7000      7.8916      2.6772      0.1371     -1.6469    105.7896
  1478.8000      7.8905      2.6454      0.1174      0.2796    101.7071
  1478.9000      7.8905      2.6250      0.0968      1.5154    102.5745
  1479.0000      7.8949      2.6199      0.0716      1.8270    105.9843
  1479.1000      7.8949      2.6079      0.0814      2.5500    109.6118
  1479.2000      7.8949      2.5782      0.0321      4.3514    109.8320
  1479.3000      7.9055      2.5512     -0.0268      5.9857    104.7849
  1479.4000      7.9055      2.5445      0.0196      6.3924     99.8177
  1479.5000      7.9191      2.5502      0.0205      6.0461    100.8283
  1479.6000      7.9191      2.5589      0.0606      5.5217    105.4747
  1479.7000      7.9191      2.5719      0.0692      4.7345    107.8686
  1479.8000      7.9264      2.5956      0.0519      3.2959    108.5745
  1479.9000      7.9264      2.6243      0.0856      1.5556    110.1151
  1480.0000      7.9261      2.6386      0.0967      0.6924    110.3643
  1480.1000      7.9261      2.6295      0.0946      1.2402    109.4378
  1480.2000      7.9261      2.6081      0.0389      2.5424    112.5302
  1480.3000      7.9213      2.5905      0.0445      3.6071    119.1552
  1480.4000      7.9213      2.5818      0.0586      4.1328    121.2937
  1480.5000      7.9128      2.5736      0.0612      4.6274    118.6332
  1480.6000      7.9128      2.5636      0.0174      5.2352    114.8545
  1480.7000      7.9128      2.5656      0.0171      5.1141    109.9142
  1480.8000      7.9034      2.5850      0.0329      3.9417    105.3295
  1480.9000      7.9034      2.6045      0.0583      2.7606    104.6452
  1481.0000      7.8989      2.6015      0.0832      2.9393    108.6482
  1481.1000      7.8989      2.5670      0.0331      5.0284    111.4958
  1481.2000      7.8989      2.5174     -0.0011      8.0380    109.1102
  1481.3000      7.9002      2.4881     -0.0412      9.8113    105.3784
  1481.4000      7.9002      2.5039     -0.0054      8.8526    103.9352
  1481.5000      7.9040      2.5530      0.0298      5.8784    105.0989
  1481.6000      7.9040      2.6037      0.0908      2.8066    106.0206
  1481.7000      7.9040      2.6405      0.0750      0.5762    102.1170
  1481.8000      7.9066      2.6642      0.0734     -0.8579     95.5731
  1481.9000      7.9066      2.6678      0.1341     -1.0794     93.7273
  1482.0000      7.9039      2.6443      0.1107      0.3462     98.3493
  1482.1000      7.9039      2.6092      0.0676      2.4716    103.0822
  1482.2000      7.9039      2.5890      0.0147      3.6940    102.5498
  1482.3000      7.8999      2.5875      0.0902      3.7902     97.4033
  1482.4000      7.8999      2.5872      0.0596      3.8036     93.0633
  1482.5000      7.8988      2.5859      0.0656      3.8834     93.3398
  1482.6000      7.8988      2.5918      0.0722      3.5295     93.6349
  1482.7000      7.8988      2.6011      0.0948      2.9621     89.9818
  1482.8000      7.9005      2.6061      0.1045      2.6630     86.2270
  1482.9000      7.9005      2.6073      0.0865      2.5898     86.0534
  1483.0000      7.9009      2.6107      0.0360      2.3843     89.1651
  1483.1000      7.9009      2.6164      0.0629      2.0344     92.5357
  1483.2000      7.9009      2.6142      0.0918      2.1686     92.4696
  1483.3000      7.8993      2.6009      0.0743      2.9730     90.8405
  1483.4000      7.8993      2.5924      0.0379      3.4930     92.8053
  1483.5000      7.8993      2.6021      0.0374      2.9010     98.7993
  1483.6000      7.8993      2.6208      0.0657      1.7712    104.7642
  1483.7000      7.8993      2.6276      0.0794      1.3572    106.1628
  1483.8000      7.9005      2.6185      0.0821      1.9092    103.5687
  1483.9000      7.9005      2.6105      0.0254      2.3916    101.3472
  1484.0000      7.9023      2.6161      0.0665      2.0518     99.3275
  1484.1000      7.9023      2.6224      0.1081      1.6708     96.6703
  1484.2000      7.9023      2.6105      0.0799      2.3943     96.4372
  1484.3000      7.9024      2.5834      0.0449      4.0378     99.3091
  1484.4000      7.9024      2.5608     -0.0135      5.4061     99.8074
  1484.5000      7.9012      2.5502      0.0351      6.0496     94.6171
  1484.6000      7.9012      2.5391      0.0283      6.7224     89.4503
