~Version Information
VERS.                      2.0: CWLS Log ASCII Standard - VERSION 2.0
WRAP.                       NO: One line per depth step
~Well Information Block
STRT.FT                -9.5000: 
STOP.FT              1304.7500: 
STEP.FT                 0.2500: 
NULL.                -999.2500: 
COMP.          Pioneer Natural Resources: COMPANY
WELL.            Hamburg 43-35: WELL
FLD.           Purgatorie River: FIELD
LOC.           2444' FSL & 950' FEL--: LOCATION
PROV.                       CO: PROVINCE
CNTY.               Las Animas: COUNTRY
SRVC.          Patterson Wireline: SERVICE COMPANY
DATE.          Thu Dec 08 14:29:45 2005: LOG DATE
UWI.           08 071 08607 00: UNIQUE WELL ID
~Curve Information Block
DEPT.FT            0 000 00 00: Depth
CCL.                          : Casing Collar Locator
TT3.usec                      : CBL 3' Travel Time
AMP3.mV                       : CBL 3' Amplitude
GR.GAPI                       : Gamma Ray
~Parameter Information Block
~A  Depth       CCL         TT3         AMP3         GR     
# ...
   995.5000      0.0000    757.1402     16.6214     65.2073
   995.7500      0.0000    705.2087     16.5325     73.1194
   996.0000      0.0000    633.7719     16.5222     81.2328
   996.2500      0.0000    556.5023     16.5644     86.7107
   996.5000      0.0000    492.0134     16.5915     88.5911
   996.7500      0.0000    451.9727     16.5319     88.8199
   997.0000      0.0000    433.8428     16.3579     90.1836
   997.2500      0.0000    425.8414     16.1028     93.5310
   997.5000      0.0000    418.7364     15.8343     97.6003
   997.7500      0.0000    413.4698     15.6095    100.8829
   998.0000      0.0000    419.2110     15.4561    102.6948
   998.2500      0.0000    444.8748     15.3863    102.8153
   998.5000      0.0000    491.2642     15.4057    101.1004
   998.7500      0.0000    550.0045     15.5007     97.6992
   999.0000      0.0000    609.3486     15.6306     93.4671
   999.2500      0.0000    660.4461     15.7505     90.0354
   999.5000      0.0000    699.1930     15.8358     89.0515
   999.7500      0.0000    725.1465     15.8724     90.8536
  1000.0000      0.0000    740.2486     15.8332     93.9279
  1000.2500      0.0000    747.7484     15.6832     95.9963
  1000.5000      0.0000    751.3804     15.4145     95.8315
  1000.7500      0.0000    754.6214     15.0681     94.0283
  1001.0000      0.0000    759.4311     14.7194     91.9556
  1001.2500      0.0000    765.2224     14.4436     90.2595
  1001.5000      0.0000    769.5667     14.2879     88.7626
  1001.7500      0.0000    770.5262     14.2583     87.4266
  1002.0000      0.0000    768.4709     14.3178     86.7304
  1002.2500      0.0000    765.7452     14.4007     87.0989
  1002.5000      0.0000    764.4865     14.4393     88.4835
  1002.7500      0.0000    764.8174     14.3887     90.7426
  1003.0000      0.0000    765.2903     14.2387     94.0882
  1003.2500      0.0000    764.6912     14.0178     98.7107
  1003.5000      0.0000    762.8010     13.7885    104.0202
  1003.7500      0.0000    759.7165     13.6258    108.5495
  1004.0000      0.0000    755.1745     13.5800    110.5590
  1004.2500      0.0000    748.3362     13.6550    108.8054
  1004.5000      0.0000    737.2173     13.8248    103.5046
  1004.7500      0.0000    718.2806     14.0719     96.9206
  1005.0000      0.0000    688.8535     14.4125     92.2017
  1005.2500      0.0000    652.3322     14.8846     90.9947
  1005.5000      0.0000    619.0020     15.5110     92.5650
  1005.7500      0.0000    596.2819     16.2756     95.3703
  1006.0000      0.0000    577.4912     17.1338     98.8152
  1006.2500      0.0000    546.3342     18.0367    103.1340
  1006.5000      0.0000    495.2325     18.9273    107.9870
  1006.7500      0.0000    434.6723     19.7189    111.5139
  1007.0000      0.0000    382.6627     20.3037    111.0402
  1007.2500      0.0000    349.4113     20.6066    105.2017
  1007.5000      0.0000    333.9682     20.6369     95.3361
  1007.7500      0.0000    331.5122     20.4843     84.3450
  1008.0000      0.0000    341.0819     20.2570     74.3179
  1008.2500      0.0000    367.7394     20.0149     65.7057
  1008.5000      0.0000    418.0144     19.7493     58.4206
  1008.7500      0.0000    491.1174     19.4175     52.6733
  1009.0000      0.0000    573.9237     18.9965     48.5325
  1009.2500      0.0000    647.0467     18.5070     45.5498
  1009.5000      0.0000    697.3981     17.9926     43.4033
  1009.7500      0.0000    724.4577     17.4827     42.5520
  1010.0000      0.0000    735.8291     16.9823     43.7386
  1010.2500      0.0000    739.5665     16.4942     46.7889
  1010.5000      0.0000    740.4993     16.0437     50.0908
  1010.7500      0.0000    740.6376     15.6762     51.4448
  1011.0000      0.0000    740.6472     15.4314     49.6343
  1011.2500      0.0000    740.7906     15.3213     45.4335
  1011.5000      0.0000    741.3383     15.3273     41.1042
  1011.7500      0.0000    742.7013     15.4136     38.7567
  1012.0000      0.0000    745.3782     15.5409     39.1517
  1012.2500      0.0000    749.4995     15.6736     41.9852
  1012.5000      0.0000    754.1456     15.7823     46.7171
  1012.7500      0.0000    757.3331     15.8483     52.5887
  1013.0000      0.0000    757.3329     15.8607     58.1635
  1013.2500      0.0000    754.2772     15.8084     61.6824
  1013.5000      0.0000    750.2039     15.6813     62.3007
  1013.7500      0.0000    747.5515     15.4837     60.8238
  1014.0000      0.0000    747.8898     15.2450     58.9615
  1014.2500      0.0000    751.6962     15.0143     57.8235
  1014.5000      0.0000    758.4110     14.8373     57.2576
  1014.7500      0.0000    766.4487     14.7284     56.6165
  1015.0000      0.0000    773.7750     14.6637     55.8941
  1015.2500      0.0000    778.9648     14.6075     55.9348
  1015.5000      0.0000    781.6682     14.5483     57.5651
  1015.7500      0.0000    782.0472     14.4973     60.5408
  1016.0000      0.0000    780.0151     14.4550     63.3060
  1016.2500      0.0000    775.2428     14.3956     64.0621
  1016.5000      0.0000    767.9992     14.2865     62.4372
  1016.7500      0.0000    759.8618     14.1142     59.9913
  1017.0000      0.0000    753.3465     13.8871     58.6637
  1017.2500      0.0000    750.6938     13.6252     58.7259
  1017.5000      0.0000    752.8406     13.3495     58.6149
  1017.7500      0.0000    759.0652     13.0787     56.7875
  1018.0000      0.0000    767.3038     12.8278     53.2895
  1018.2500      0.0000    775.2057     12.6118     49.3958
  1018.5000      0.0000    781.4587     12.4512     46.2924
  1018.7500      0.0000    786.1902     12.3693     44.5721
  1019.0000      0.0000    789.9996     12.3795     44.6505
  1019.2500      0.0000    792.7125     12.4695     46.8228
  1019.5000      0.0000    793.2794     12.5963     50.6869
  1019.7500      0.0000    790.7962     12.6966     54.9746
  1020.0000      0.0000    785.2446     12.7109     58.2720
  1020.2500      0.0000    777.2555     12.6160     59.8334
  1020.5000      0.0000    767.7881     12.4451     59.7733
  1020.7500      0.0000    758.2632     12.2689     58.7726
  1021.0000      0.0000    750.3475     12.1403     57.6203
  1021.2500      0.0000    745.0742     12.0552     56.7223
  1021.5000      0.0000    742.3135     11.9720     55.9244
  1021.7500      0.0000    741.2031     11.8635     54.9024
  1022.0000      0.0000    740.9362     11.7399     53.6803
  1022.2500      0.0000    741.1526     11.6296     52.6648
  1022.5000      0.0000    741.9083     11.5547     52.2360
  1022.7500      0.0000    743.4141     11.5286     52.3726
  1023.0000      0.0000    745.7395     11.5663     52.6093
  1023.2500      0.0000    748.7989     11.6843     52.3182
  1023.5000      0.0000    752.7480     11.8823     51.2008
  1023.7500      0.0000    758.0491     12.1230     49.6589
  1024.0000      0.0000    764.6434     12.3397     48.6924
  1024.2500      0.0000    771.3071     12.4730     49.3560
  1024.5000      0.0000    776.5901     12.4943     52.0979
  1024.7500      0.0000    780.4384     12.3829     56.3227
  1025.0000      0.0000    784.4647     12.0932     60.6130
  1025.2500      0.0000    790.4154     11.5842     63.5743
  1025.5000      0.0000    799.0468     10.9016     64.5144
  1025.7500      0.0000    811.4439     10.1971     63.4537
  1026.0000      0.0000    830.9858      9.6168     60.9040
  1026.2500      0.0000    861.1376      9.1980     57.7652
  1026.5000      0.0000    899.6868      8.9210     54.9089
  1026.7500      0.0000    937.2931      8.8170     52.3619
  1027.0000      0.0000    964.0150      8.9425     49.2106
  1027.2500      2.0000    975.8990      9.2777     44.7613
  1027.5000     -2.0000    973.5801      9.7256     39.5922
  1027.7500      0.0000    956.7587     10.2001     35.1598
  1028.0000      0.0000    924.0542     10.6664     32.5469
  1028.2500      0.0000    879.8604     11.1085     31.7000
  1028.5000      0.0000    838.8892     11.5051     31.5598
  1028.7500      0.0000    818.2482     11.8369     30.8672
