~Version Information
VERS.                      2.0: CWLS Log ASCII Standard - VERSION 2.0
WRAP.                       NO: One line per depth step
~Well Information Block
STRT.FT                -5.2500: 
STOP.FT              1184.2500: 
STEP.FT                 0.2500: 
NULL.                -999.2500: 
COMP.          Pioneer Natural Resources: COMPANY
WELL.          Lucky Lady 42-29: WELL
FLD.           Purgatoire River: FIELD
LOC.           2482' FNL & 662' FEL: LOCATION
CNTY.               Las Animas: COUNTY
SRVC.                         : SERVICE COMPANY
DATE.          Tue Mar 14 14:47:22 2006: LOG DATE
UWI.           05 071 08659 00: UNIQUE WELL ID
STAT.                       CO: STATE
~Curve Information Block
DEPT.FT            0 000 00 00: Depth
GR.GAPI                       : Gamma Ray
CCL.                          : Casing Collar Locator
TT3.usec                      : CBL 3' Travel Time
AMP3.mV                       : CBL 3' Amplitude
~Parameter Information Block
~A  Depth        GR         CCL         TT3         AMP3    
# ...
   229.2500     73.6314      0.0000    728.5508      8.9937
   229.5000     69.8594      0.0000    740.9099      9.0430
   229.7500     64.5920      0.0000    752.6520      9.0801
   230.0000     59.7081      0.0000    763.4232      9.1103
   230.2500     56.6162      0.0000    772.0960      9.1538
   230.5000     55.9985      0.0000    778.0651      9.2361
   230.7500     57.9629      0.0000    781.5140      9.3786
   231.0000     62.0742      0.0000    782.7679      9.5847
   231.2500     67.3052      0.0000    782.1859      9.8364
   231.5000     72.3244      0.0000    780.6218     10.1134
   231.7500     75.9664      0.0000    779.1129     10.4096
   232.0000     77.5077      0.0000    777.7537     10.7190
   232.2500     76.8202      0.0000    775.5618     11.0106
   232.5000     74.5566      0.0000    772.2142     11.2410
   232.7500     71.9630      0.0000    769.8931     11.3969
   233.0000     70.0056      0.0000    772.6056     11.5060
   233.2500     68.4883      0.0000    782.6573     11.5956
   233.5000     66.3838      0.0000    797.6508     11.6588
   233.7500     63.3406      0.0000    811.6912     11.6717
   234.0000     60.5073      0.0000    819.9722     11.6324
   234.2500     59.4520      0.0000    821.9438     11.5729
   234.5000     60.6035      0.0000    820.0423     11.5345
   234.7500     63.1741      0.0000    816.2291     11.5324
   235.0000     66.1190      0.0000    810.4123     11.5419
   235.2500     68.6625      0.0000    801.3284     11.5210
   235.5000     70.3424      0.0000    787.6298     11.4453
   235.7500     71.2978      0.0000    768.3559     11.3204
   236.0000     72.5639      0.0000    743.9296     11.1697
   236.2500     75.5360      0.0000    717.4580     11.0192
   236.5000     80.6706      0.0000    693.9909     10.8882
   236.7500     86.7321      0.0000    677.4233     10.7847
   237.0000     91.5424      0.0000    668.0707     10.7070
   237.2500     93.5299      0.0000    663.2754     10.6522
   237.5000     92.6629      0.0000    660.0449     10.6221
   237.7500     90.2313      0.0000    657.0109     10.6191
   238.0000     87.9467      0.0000    654.3209     10.6377
   238.2500     87.0714      0.0000    652.5378     10.6622
   238.5000     87.9366      0.0000    652.1594     10.6737
   238.7500     89.8290      0.0000    654.0205     10.6566
   239.0000     91.2783      0.0000    659.5304     10.5976
   239.2500     91.0361      0.0000    669.6567     10.4784
   239.5000     89.2492      0.0000    683.1216     10.2677
   239.7500     87.4402      0.0000    696.1076      9.9348
   240.0000     86.9910      0.0000    704.9124      9.4849
   240.2500     87.8422      0.0000    709.3610      8.9709
   240.5000     88.8402      0.0000    713.2913      8.4450
   240.7500     88.9923      0.0000    721.2724      7.9162
   241.0000     88.0818      0.0000    734.0362      7.3913
   241.2500     86.3185      0.0000    746.3459      6.9296
   241.5000     83.8976      0.0000    750.1797      6.5988
   241.7500     81.2047      0.0000    741.2797      6.3962
   242.0000     79.2750      0.0000    722.2894      6.2593
   242.2500     79.4010     -2.0000    699.0853      6.1438
   242.5000     81.8870      0.0000    676.1221      6.0667
   242.7500     85.4111      0.0000    657.1462      6.0916
   243.0000     87.8717      0.0000    647.4432      6.2894
   243.2500     87.8632      0.0000    650.7701      6.6901
   243.5000     85.4840      0.0000    663.6979      7.2453
   243.7500     82.0169      0.0000    676.1729      7.8524
   244.0000     78.9297      0.0000    679.6093      8.4158
   244.2500     77.0666      0.0000    673.6942      8.8715
   244.5000     76.5098      0.0000    664.8361      9.1756
   244.7500     76.7698      0.0000    659.7259      9.3120
   245.0000     77.0433      0.0000    661.1408      9.3054
   245.2500     76.7447      0.0000    667.6202      9.2046
   245.5000     76.0550      0.0000    675.1959      9.0523
   245.7500     75.7815      0.0000    680.2120      8.8743
   246.0000     76.7760      0.0000    681.9354      8.6862
   246.2500     79.5665      0.0000    682.5654      8.4999
   246.5000     84.0029      0.0000    685.0870      8.3249
   246.7500     88.8344      0.0000    691.4003      8.1613
   247.0000     92.0545      0.0000    701.0743      7.9967
   247.2500     92.2130      0.0000    710.7565      7.8156
   247.5000     89.4279      0.0000    716.2057      7.6154
   247.7500     85.0678      0.0000    716.3089      7.4126
   248.0000     80.7395      0.0000    714.6498      7.2359
   248.2500     77.7437      0.0000    716.6877      7.1123
   248.5000     77.0592      0.0000    725.2200      7.0575
   248.7500     79.0203      0.0000    737.9977      7.0716
   249.0000     82.6736      0.0000    749.7224      7.1408
   249.2500     85.9415      0.0000    756.7421      7.2398
   249.5000     87.0907      0.0000    759.6653      7.3358
   249.7500     86.0532      0.0000    761.5071      7.3996
   250.0000     83.9074      0.0000    764.1857      7.4245
   250.2500     81.1312      0.0000    767.2193      7.4345
   250.5000     77.0956      0.0000    768.9593      7.4675
   250.7500     71.5516      0.0000    768.0676      7.5476
   251.0000     65.8154      0.0000    764.0634      7.6756
   251.2500     61.7575      0.0000    757.4299      7.8367
   251.5000     59.9927      0.0000    749.6018      8.0155
   251.7500     59.7615      0.0000    742.3635      8.2034
   252.0000     60.4200      0.0000    736.8016      8.3991
   252.2500     62.3432      0.0000    732.9368      8.6058
   252.5000     66.2711      0.0000    730.5956      8.8270
   252.7500     72.2171      0.0000    730.4462      9.0547
   253.0000     79.1809      0.0000    733.6060      9.2601
   253.2500     85.7325      0.0000    739.8307      9.4095
   253.5000     90.8675      0.0000    746.6227      9.4986
   253.7500     94.4839      0.0000    751.1074      9.5596
   254.0000     97.1763      0.0000    752.9000      9.6274
   254.2500     99.6445      0.0000    754.3188      9.7101
   254.5000    102.3337      0.0000    757.5274      9.7965
   254.7500    105.5239      0.0000    762.2150      9.8786
   255.0000    109.5250      0.0000    766.3216      9.9512
   255.2500    114.5152      0.0000    768.0699     10.0008
   255.5000    119.9359      0.0000    766.7342     10.0139
   255.7500    124.1639      0.0000    762.2939      9.9966
   256.0000    125.3063      0.0000    755.3253      9.9706
   256.2500    122.7128      0.0000    747.1404      9.9450
   256.5000    117.7528      0.0000    739.3146      9.9083
   256.7500    113.0483      0.0000    732.8138      9.8567
   257.0000    110.6589      0.0000    727.8383      9.8131
   257.2500    110.7357      0.0000    724.4730      9.8066
   257.5000    111.8938      0.0000    723.0161      9.8426
   257.7500    112.6935      0.0000    723.4414      9.9054
   258.0000    112.5412      0.0000    724.9683      9.9769
   258.2500    111.5180      0.0000    726.5586     10.0463
   258.5000    109.9551      0.0000    727.7220     10.1125
   258.7500    108.2504      0.0000    728.6798     10.1839
   259.0000    106.7950      0.0000    729.9810     10.2670
   259.2500    105.9203      0.0000    732.0720     10.3507
   259.5000    106.0082      0.0000    734.8922     10.4137
   259.7500    107.5487      0.0000    737.5558     10.4592
   260.0000    110.6208      0.0000    738.7096     10.5432
   260.2500    114.2125      0.0000    737.6783     10.7575
   260.5000    116.6789      0.0000    735.1738     11.1600
   260.7500    117.1975      0.0000    732.6218     11.7067
   261.0000    116.2116      0.0000    730.9761     12.2628
   261.2500    114.3683      0.0000    730.3771     12.6865
   261.5000    111.8791      0.0000    730.6429     12.8998
   261.7500    109.3122      0.0000    731.7785     12.9042
   262.0000    108.2234      0.0000    734.0324     12.7656
   262.2500    110.3129      0.0000    737.5707     12.5798
   262.5000    116.0667      0.0000    742.1533     12.4239
