~Version Information
VERS.                      2.0: CWLS Log ASCII Standard - VERSION 2.0
WRAP.                       NO: One line per depth step
~Well Information Block
STRT.FT               330.0000: 
STOP.FT              1972.5000: 
STEP.FT                 0.1000: 
NULL.                -999.2500: 
COMP.          Pioneer Natural Resources: COMPANY
WELL.           Willys 32-8 Tr: WELL
FLD.           Purgatoire River: FIELD
LOC.           1843' FNL & 2355' FEL: LOCATION
CNTY.               Las Animas: COUNTY
SRVC.                Patterson: SERVICE COMPANY
DATE.          Thu Feb 09 10:31:59 2006: LOG DATE
UWI.           05 071 08688 00: UNIQUE WELL ID
STAT.                 Colorado: STATE
~Curve Information Block
DEPT.FT            0 000 00 00: Depth
DCAL.in                       : CDL Caliper
RHOB.g/cc                     : CDL Bulk Density
RHOC.g/cc                     : CDL Density Correction
DPOR.pu                       : CDL Density Porosity
GR.GAPI                       : Gamma Ray
~Parameter Information Block
~A  Depth       DCAL        RHOB        RHOC        DPOR         GR     
# ...
   766.8000      7.9030      2.6119      0.1414      2.3062    121.6438
   766.9000      7.9030      2.6204      0.1131      1.7919    129.0678
   767.0000      7.8971      2.6080      0.0978      2.5477    129.5350
   767.1000      7.8971      2.5852      0.0428      3.9245    124.3397
   767.2000      7.8971      2.5701      0.0661      4.8450    116.7700
   767.3000      7.9069      2.5638      0.0591      5.2257    110.0480
   767.4000      7.9069      2.5702      0.0081      4.8369    107.0744
   767.5000      7.9136      2.5883      0.0512      3.7413    108.0037
   767.6000      7.9136      2.5931      0.0473      3.4503    110.6111
   767.7000      7.9136      2.5775      0.0141      4.3951    115.8988
   767.8000      7.9297      2.5652      0.0192      5.1386    126.3056
   767.9000      7.9297      2.5640      0.0271      5.2094    133.8269
   768.0000      7.9231      2.5629      0.0377      5.2793    131.2546
   768.1000      7.9231      2.5633     -0.0301      5.2559    125.4831
   768.2000      7.9231      2.5695      0.0592      4.8767    120.4223
   768.3000      7.9211      2.5782      0.0462      4.3516    113.9443
   768.4000      7.9211      2.5931      0.0437      3.4480    107.9888
   768.5000      7.9152      2.6114      0.1056      2.3405    106.0900
   768.6000      7.9152      2.6199      0.0195      1.8247    108.7148
   768.7000      7.9152      2.6090      0.0625      2.4851    111.0581
   768.8000      7.9195      2.5708      0.0063      4.7974    109.1666
   768.9000      7.9195      2.5170     -0.0283      8.0624    104.8871
   769.0000      7.9397      2.4806     -0.0593     10.2670    100.4418
   769.1000      7.9397      2.4837     -0.0548     10.0767     98.3175
   769.2000      7.9397      2.5075      0.0287      8.6373     98.4871
   769.3000      7.9535      2.5116      0.0192      8.3856     96.8229
   769.4000      7.9535      2.4963     -0.0052      9.3133     94.4420
   769.5000      7.9494      2.5029     -0.0426      8.9179     96.7583
   769.6000      7.9494      2.5421      0.0236      6.5424    103.6891
   769.7000      7.9494      2.5735      0.1126      4.6358    107.7347
   769.8000      7.9574      2.5727      0.0375      4.6830    105.1012
   769.9000      7.9574      2.5642      0.0614      5.2029    101.7556
   770.0000      7.9235      2.5757      0.1061      4.5055     99.6712
   770.1000      7.9235      2.6090      0.1189      2.4866     94.4652
   770.2000      7.9235      2.6392      0.1585      0.6556     85.6177
   770.3000      7.8659      2.6332      0.1548      1.0174     78.8880
   770.4000      7.8659      2.5974      0.1037      3.1854     81.3530
   770.5000      7.8600      2.5712      0.0672      4.7736     90.2684
   770.6000      7.8600      2.5704      0.0804      4.8227     94.4720
   770.7000      7.8600      2.5790      0.1109      4.3041     90.9358
   770.8000      7.8855      2.5856      0.0563      3.9018     87.4176
   770.9000      7.8855      2.5952      0.0636      3.3231     89.6321
   771.0000      7.9113      2.6022      0.0980      2.8946     94.1651
   771.1000      7.9113      2.5979      0.0660      3.1578     94.3610
   771.2000      7.9113      2.5921      0.0648      3.5077     89.9560
   771.3000      7.9312      2.5874      0.0480      3.7922     85.5404
   771.4000      7.9312      2.5711      0.0602      4.7802     83.2634
   771.5000      7.9346      2.5485      0.0159      6.1532     81.4687
   771.6000      7.9346      2.5353      0.0460      6.9499     78.1316
   771.7000      7.9346      2.5351      0.0238      6.9639     73.8587
   771.8000      7.9284      2.5442      0.0644      6.4144     71.0131
   771.9000      7.9284      2.5522      0.0541      5.9287     70.8403
   772.0000      7.9582      2.5521      0.0726      5.9323     70.9999
   772.1000      7.9582      2.5429      0.0678      6.4905     68.8348
   772.2000      7.9582      2.5251      0.0975      7.5701     65.1121
   772.3000      7.9215      2.5143      0.0270      8.2214     61.7804
   772.4000      7.9215      2.5282      0.0914      7.3810     60.9113
   772.5000      7.9004      2.5543      0.1106      5.8001     63.5405
   772.6000      7.9004      2.5643      0.1539      5.1927     67.9751
   772.7000      7.9004      2.5553      0.0987      5.7401     72.7926
   772.8000      7.8781      2.5488      0.1072      6.1361     76.8185
   772.9000      7.8781      2.5509      0.0791      6.0041     77.9328
   773.0000      7.8583      2.5547      0.0894      5.7763     76.6642
   773.1000      7.8583      2.5548      0.1301      5.7682     77.2615
   773.2000      7.8583      2.5469      0.1038      6.2459     81.0129
   773.3000      7.8601      2.5354      0.1103      6.9433     82.6763
   773.4000      7.8601      2.5245      0.0928      7.6038     78.0252
   773.5000      7.8760      2.5098      0.0994      8.4959     69.7788
   773.6000      7.8760      2.4902      0.1055      9.6870     62.9696
   773.7000      7.8760      2.4802     -0.0101     10.2922     59.0946
   773.8000      7.9087      2.4902      0.0447      9.6867     58.7434
   773.9000      7.9087      2.5015      0.0458      8.9989     62.5492
   774.0000      7.9240      2.4987      0.0600      9.1709     66.3808
   774.1000      7.9240      2.5003      0.0225      9.0746     66.7559
   774.2000      7.9240      2.5224      0.0667      7.7362     64.1457
   774.3000      7.9248      2.5343      0.0790      7.0113     60.5844
   774.4000      7.9248      2.5008      0.0594      9.0443     59.1212
   774.5000      7.9417      2.4425     -0.0509     12.5736     59.5459
   774.6000      7.9417      2.4084     -0.0851     14.6430     58.7118
   774.7000      7.9417      2.4152     -0.0468     14.2291     56.8739
   774.8000      7.9876      2.4472     -0.0391     12.2924     56.9591
   774.9000      7.9876      2.4842     -0.0106     10.0514     60.0031
   775.0000      7.9912      2.5128      0.0637      8.3141     65.8895
   775.1000      7.9912      2.5337      0.0017      7.0506     74.6844
   775.2000      7.9912      2.5487      0.0830      6.1377     81.3044
   775.3000      7.9814      2.5502      0.0286      6.0498     80.5143
   775.4000      7.9814      2.5393      0.0231      6.7067     78.2128
   775.5000      7.9509      2.5291     -0.0023      7.3272     83.0309
   775.6000      7.9509      2.5302      0.0218      7.2578     93.2959
   775.7000      7.9509      2.5406      0.0130      6.6322     98.8918
   775.8000      7.9506      2.5516     -0.0043      5.9651     95.2825
   775.9000      7.9506      2.5629      0.0047      5.2780     90.4167
   776.0000      7.9173      2.5766      0.0452      4.4498     92.5494
   776.1000      7.9173      2.5876      0.0121      3.7836     97.9996
   776.2000      7.9173      2.5894      0.0300      3.6751     98.8713
   776.3000      7.8997      2.5816      0.0470      4.1471     94.5409
   776.4000      7.8997      2.5698      0.0364      4.8633     91.4240
   776.5000      7.8940      2.5554      0.0461      5.7335     93.9613
   776.6000      7.8940      2.5407     -0.0106      6.6273    100.9160
   776.7000      7.8940      2.5345     -0.0047      6.9999    108.1590
   776.8000      7.9038      2.5353      0.0285      6.9534    110.3783
   776.9000      7.9038      2.5389     -0.0037      6.7334    107.3444
   777.0000      7.8894      2.5540      0.0130      5.8199    104.9377
   777.1000      7.8894      2.5820      0.0359      4.1236    107.9569
   777.2000      7.8894      2.6055      0.1302      2.6974    114.2314
   777.3000      7.8633      2.6030      0.0695      2.8482    116.3377
   777.4000      7.8633      2.5759      0.0990      4.4927    109.7996
   777.5000      7.8569      2.5424      0.0485      6.5205    102.2708
   777.6000      7.8569      2.5178      0.0388      8.0094    103.7729
   777.7000      7.8569      2.5072      0.0217      8.6534    110.8664
   777.8000      7.8648      2.5097      0.0177      8.5047    114.0792
   777.9000      7.8648      2.5199      0.0462      7.8845    112.9263
