~Version Information
VERS.                      2.0: CWLS Log ASCII Standard - VERSION 2.0
WRAP.                       NO: One line per depth step
~Well Information Block
STRT.FT               860.0000: 
STOP.FT              2362.5000: 
STEP.FT                 0.2500: 
NULL.                -999.2500: 
COMP.          Pioneer Natural Resources: COMPANY
WELL.            Cayenne 23-23: WELL
FLD.           Purgatoire River: FIELD
LOC.           2555' FSL & 2386' FWL: LOCATION
PROV.                 Colorado: PROVINCE
CNTY.               Las Animas: COUNTRY
SRVC.                Patterson: SERVICE COMPANY
DATE.          Wed Aug 17 06:47:40 2005: LOG DATE
UWI.           05 071 08476 00: UNIQUE WELL ID
~Curve Information Block
DEPT.FT            0 000 00 00: Depth
SN.Ohm-m                      : IEL Short Normal
SP.mV                         : IEL Spontaneous Potential
DIR.Ohm-m                     : IEL Induction Resistivity
GR.GAPI                       : Gamma Ray
~Parameter Information Block
~A  Depth        SN          SP         DIR          GR     
# ...
  1563.5000      9.4825     40.9089      9.1896    142.9414
  1563.7500      9.5388     43.5598      9.2062    142.0363
  1564.0000      9.6753     46.2681      9.2547    140.9101
  1564.2500      9.7850     48.4765      9.3464    139.5486
  1564.5000      9.8279     49.9158      9.4890    136.0341
  1564.7500      9.8440     50.6559      9.6814    132.9725
  1565.0000      9.9189     50.9460      9.9105    127.6945
  1565.2500     10.0777     51.0489     10.1549    123.5267
  1565.5000     10.2566     51.1627     10.3952    115.9224
  1565.7500     10.4131     51.3894     10.6263    110.3325
  1566.0000     10.6223     51.7298     10.8618    103.1336
  1566.2500     11.0740     52.1249     11.1278    100.5422
  1566.5000     11.9426     52.5267     11.4517    101.4480
  1566.7500     13.2820     52.9379     11.8555    104.8909
  1567.0000     14.9813     53.3878     12.3576    111.3339
  1567.2500     16.7202     53.8833     12.9778    114.1967
  1567.5000     18.1482     54.3895     13.7352    114.3487
  1567.7500     19.1726     54.8511     14.6355    112.4815
  1568.0000     19.9229     55.2247     15.6532    109.8429
  1568.2500     20.5407     55.4941     16.7233    109.3752
  1568.5000     21.1362     55.6693     17.7538    110.1835
  1568.7500     21.7986     55.7801     18.6590    110.6504
  1569.0000     22.4948     55.8650     19.3920    109.8436
  1569.2500     23.0549     55.9538     19.9519    108.2555
  1569.5000     23.3796     56.0528     20.3679    105.1900
  1569.7500     23.5456     56.1432     20.6783    103.2879
  1570.0000     23.6751     56.1975     20.9269    101.0528
  1570.2500     23.8208     56.2017     21.1661     99.8377
  1570.5000     23.9375     56.1646     21.4489     98.2239
  1570.7500     23.9420     56.1103     21.7979     97.4451
  1571.0000     23.8656     56.0624     22.1725     96.9946
  1571.2500     23.8838     56.0314     22.4702     96.9989
  1571.5000     24.0979     56.0104     22.5864     96.8494
  1571.7500     24.3892     55.9774     22.5023     96.4249
  1572.0000     24.6051     55.9006     22.3189     95.2490
  1572.2500     24.7593     55.7474     22.1934     94.2233
  1572.5000     24.9292     55.4924     22.2432     92.9146
  1572.7500     25.1176     55.1244     22.4990     92.6744
  1573.0000     25.2782     54.6469     22.9221     93.6307
  1573.2500     25.3516     54.0731     23.4516     94.8351
  1573.5000     25.3350     53.4243     24.0311     96.4319
  1573.7500     25.3589     52.7398     24.5990     96.9051
  1574.0000     25.5529     52.0878     25.0699     96.6506
  1574.2500     25.8784     51.5530     25.3513     95.9903
  1574.5000     26.1944     51.1953     25.3945     94.5078
  1574.7500     26.3646     51.0077     25.2293     93.4500
  1575.0000     26.2998     50.9194     24.9493     92.5419
  1575.2500     26.0618     50.8482     24.6634     92.7440
  1575.5000     25.8713     50.7538     24.4529     94.1245
  1575.7500     25.8873     50.6465     24.3461     95.3090
  1576.0000     26.0459     50.5554     24.3100     96.6112
  1576.2500     26.1767     50.4943     24.2592     96.8884
  1576.5000     26.1501     50.4481     24.0891     96.6079
  1576.7500     25.8638     50.3813     23.7316     96.3465
  1577.0000     25.3126     50.2579     23.1961     96.4106
  1577.2500     24.6923     50.0594     22.5573     96.7877
  1577.5000     24.2082     49.7889     21.9025     97.5404
  1577.7500     23.8597     49.4624     21.2829     98.1077
  1578.0000     23.5292     49.1001     20.6988     99.6179
  1578.2500     23.1187     48.7243     20.1167    101.5712
  1578.5000     22.5739     48.3534     19.4971    106.1273
  1578.7500     21.9101     47.9865     18.8188    109.7905
  1579.0000     21.1657     47.5974     18.0865    115.3889
  1579.2500     20.3103     47.1521     17.3243    119.2923
  1579.5000     19.3418     46.6389     16.5642    126.3905
  1579.7500     18.4029     46.0835     15.8386    132.3000
  1580.0000     17.5843     45.5396     15.1775    142.2012
  1580.2500     16.7800     45.0588     14.6052    148.4196
  1580.5000     15.9245     44.6605     14.1381    155.3889
  1580.7500     15.0949     44.3198     13.7830    158.0929
  1581.0000     14.3386     43.9790     13.5378    159.9647
  1581.2500     13.6743     43.5804     13.3936    160.5205
  1581.5000     13.1750     43.1008     13.3362    161.0850
  1581.7500     12.8991     42.5719     13.3496    161.1211
  1582.0000     12.8513     42.0789     13.4171    159.8992
  1582.2500     13.0401     41.7343     13.5236    158.1707
  1582.5000     13.4970     41.6334     13.6574    155.0966
  1582.7500     14.2157     41.8091     13.8138    153.2344
  1583.0000     15.1119     42.2154     14.0010    150.6751
  1583.2500     16.0795     42.7449     14.2423    148.8214
  1583.5000     17.0503     43.2685     14.5726    145.8067
  1583.7500     18.0080     43.6744     15.0299    144.0876
  1584.0000     19.0202     43.8948     15.6472    142.7643
  1584.2500     20.1810     43.9171     16.4470    142.4495
  1584.5000     21.4409     43.7836     17.4406    140.1176
  1584.7500     22.6706     43.5868     18.6266    135.0654
  1585.0000     23.9545     43.4568     19.9838    120.2408
  1585.2500     25.6090     43.5243     21.4556    106.5285
  1585.5000     27.9754     43.8681     22.9370     84.5337
  1585.7500     31.3471     44.4808     24.2873     71.3724
  1586.0000     35.8014     45.2850     25.3838     56.1476
  1586.2500     40.7500     46.1926     26.1885     49.2980
  1586.5000     44.9791     47.1704     26.7647     43.6144
  1586.7500     47.5913     48.2696     27.2215     42.4061
  1587.0000     48.6014     49.5932     27.6333     43.3912
  1587.2500     48.3901     51.2115     27.9992     45.4557
  1587.5000     47.0985     53.0861     28.2629     50.6752
  1587.7500     44.7774     55.0745     28.3688     55.8573
  1588.0000     41.6720     57.0220     28.3020     66.1357
  1588.2500     38.1955     58.8608     28.0857     73.9667
  1588.5000     34.8265     60.6310     27.7493     85.3424
  1588.7500     31.9940     62.4131     27.3053     91.8754
  1589.0000     29.9191     64.2282     26.7522     99.8016
  1589.2500     28.5368     65.9861     26.0937    104.0144
  1589.5000     27.5686     67.5280     25.3542    108.7435
  1589.7500     26.7405     68.7313     24.5757    110.5904
  1590.0000     25.9986     69.5802     23.8021    111.0977
  1590.2500     25.4423     70.1505     23.0656    110.0778
  1590.5000     25.0767     70.5478     22.3854    107.2776
  1590.7500     24.8144     70.8615     21.7714    105.1474
  1591.0000     24.6193     71.1523     21.2275    102.6830
  1591.2500     24.4618     71.4479     20.7517    102.2448
  1591.5000     24.2599     71.7325     20.3376    104.3168
  1591.7500     23.9531     71.9420     19.9819    107.5470
  1592.0000     23.5226     71.9833     19.6931    114.3682
  1592.2500     22.9392     71.7775     19.4931    119.6201
  1592.5000     22.2051     71.3047     19.4072    127.5126
  1592.7500     21.4464     70.6221     19.4450    131.9576
  1593.0000     20.8694     69.8408     19.5886    135.4395
  1593.2500     20.6068     69.0773     19.7964    134.5663
  1593.5000     20.6128     68.4095     20.0217    127.8213
  1593.7500     20.7433     67.8650     20.2288    120.2646
  1594.0000     20.9512     67.4380     20.3982    106.6633
  1594.2500     21.3304     67.1163     20.5268     97.9845
  1594.5000     21.9922     66.8996     20.6326     88.8314
  1594.7500     22.9799     66.7998     20.7581     86.2941
  1595.0000     24.2338     66.8236     20.9607     86.6926
  1595.2500     25.5748     66.9465     21.2898     88.0253
  1595.5000     26.8051     67.1046     21.7669     89.3624
  1595.7500     27.8210     67.2191     22.3825     89.5813
  1596.0000     28.6318     67.2343     23.1083     89.5671
  1596.2500     29.3643     67.1366     23.9147     89.6979
  1596.5000     30.1421     66.9432     24.7781     90.1720
  1596.7500     30.9509     66.6823     25.6740     90.3373
