~Version Information
VERS.                      2.0: CWLS Log ASCII Standard - VERSION 2.0
WRAP.                       NO: One line per depth step
~Well Information Block
STRT.FT                -7.5000: 
STOP.FT              1517.5000: 
STEP.FT                 0.2500: 
NULL.                -999.2500: 
COMP.          Pioneer Natural Resources: COMPANY
WELL.          McClaren 13-34 Tr: WELL
FLD.           Purgatorie River: FIELD
LOC.           1934' FSL & 826' WL--: LOCATION
PROV.                       CO: PROVINCE
CNTY.               Las Animas: COUNTRY
SRVC.          Patterson Wireline: SERVICE COMPANY
DATE.          Fri Jul 15 13:10:35 2005: LOG DATE
UWI.           05 071 08437 00: UNIQUE WELL ID
~Curve Information Block
DEPT.FT            0 000 00 00: Depth
CCL.                          : Casing Collar Locator
TT3.usec                      : CBL 3' Travel Time
AMP3.mV                       : CBL 3' Amplitude
GR.GAPI                       : Gamma Ray
~Parameter Information Block
~A  Depth       CCL         TT3         AMP3         GR     
# ...
    93.0000      0.0000    305.2987     19.8256     54.5657
    93.2500      0.0000    305.2888     19.8530     55.0465
    93.5000      0.0000    305.4048     19.8694     56.7381
    93.7500      0.0000    306.0707     19.8876     59.0980
    94.0000      0.0000    308.9775     19.8980     60.7695
    94.2500      0.0000    319.0819     19.8423     60.5874
    94.5000      0.0000    346.5568     19.5974     58.4020
    94.7500      0.0000    405.0139     19.0135     55.1360
    95.0000      0.0000    501.9390     18.0275     52.2111
    95.2500      0.0000    626.6600     16.7719     50.6517
    95.5000      0.0000    751.2723     15.5531     50.5350
    95.7500      0.0000    849.5699     14.6792     51.2133
    96.0000      0.0000    913.0945     14.2708     51.8530
    96.2500      0.0000    944.6444     14.2227     51.8128
    96.5000      2.0000    944.9882     14.3269     50.9765
    96.7500      1.5793    916.4386     14.4262     49.9682
    97.0000      0.0000    872.6756     14.4842     49.8134
    97.2500      0.0000    830.3696     14.5893     51.0852
    97.5000      0.0000    790.3436     14.9273     53.3632
    97.7500      0.0000    736.0744     15.6869     55.5768
    98.0000      0.0000    653.6265     16.8869     56.8007
    98.2500      0.0000    549.7797     18.2875     56.6402
    98.5000      0.0000    448.9915     19.5358     55.1421
    98.7500      0.0000    374.0496     20.4078     52.8219
    99.0000      0.0000    331.2459     20.8880     50.8332
    99.2500      0.0000    312.4648     21.0810     50.5834
    99.5000      0.0000    306.1527     21.1135     52.8706
    99.7500      0.0000    304.5458     21.0905     57.4371
   100.0000      0.0000    304.2570     21.0757     63.2266
   100.2500      0.0000    304.2209     21.0924     68.8928
   100.5000      0.0000    304.2279     21.1436     73.3552
   100.7500      0.0000    304.2220     21.2316     76.2074
   101.0000      0.0000    304.2019     21.3573     77.5809
   101.2500      0.0000    304.1677     21.5155     77.7555
   101.5000      0.0000    304.1169     21.6977     77.2123
   101.7500      0.0000    304.0410     21.8987     76.8155
   102.0000      0.0000    303.9344     22.1170     77.2975
   102.2500      0.0000    303.8061     22.3502     78.3594
   102.5000      0.0000    303.6752     22.5959     78.6685
   102.7500      0.0000    303.5564     22.8547     77.1194
   103.0000      0.0000    303.4564     23.1236     74.0370
   103.2500      0.0000    303.3820     23.3889     70.7905
   103.5000      0.0000    303.3376     23.6319     68.2215
   103.7500      0.0000    303.3136     23.8433     65.9080
   104.0000      0.0000    303.2867     24.0269     63.1442
   104.2500      0.0000    303.2387     24.1911     60.0870
   104.5000      0.0000    303.1721     24.3369     57.5438
   104.7500      0.0000    303.1058     24.4581     56.0656
   105.0000      0.0000    303.0549     24.5574     55.7025
   105.2500      0.0000    303.0147     24.6604     56.3117
   105.5000      0.0000    302.9669     24.8019     57.5256
   105.7500      0.0000    302.9032     24.9902     58.5235
   106.0000      0.0000    302.8391     25.1916     58.4312
   106.2500      0.0000    302.8015     25.3550     57.2053
   106.5000      0.0000    302.8050     25.4517     55.8036
   106.7500      0.0000    302.8418     25.4930     55.1403
   107.0000      0.0000    302.8905     25.5112     54.9806
   107.2500      0.0000    302.9336     25.5267     54.2424
   107.5000      0.0000    302.9659     25.5367     52.3978
   107.7500      0.0000    302.9911     25.5310     50.1503
   108.0000      0.0000    303.0127     25.5112     48.5514
   108.2500      0.0000    303.0294     25.4876     47.7206
   108.5000      0.0000    303.0410     25.4613     46.8507
   108.7500      0.0000    303.0573     25.4099     45.5075
   109.0000      0.0000    303.0993     25.2987     44.4384
   109.2500      0.0000    303.1851     25.1138     44.7435
   109.5000      0.0000    303.3121     24.8848     46.5839
   109.7500      0.0000    303.4573     24.6694     49.1885
   110.0000      0.0000    303.5932     24.5117     51.9248
   110.2500      0.0000    303.7045     24.4163     54.6049
   110.5000      0.0000    303.7875     24.3597     56.6035
   110.7500      0.0000    303.8435     24.3131     56.6188
   111.0000      0.0000    303.8809     24.2532     54.0568
   111.2500      0.0000    303.9157     24.1697     50.3396
   111.5000      0.0000    303.9602     24.0736     48.1252
   111.7500      0.0000    304.0113     23.9953     48.9935
   112.0000      0.0000    304.0551     23.9676     52.0362
   112.2500      0.0000    304.0808     24.0054     54.7674
   112.5000      0.0000    304.0871     24.0959     55.2807
   112.7500      0.0000    304.0807     24.2037     53.4874
   113.0000      0.0000    304.0721     24.2897     50.6769
   113.2500      0.0000    304.0722     24.3359     48.3514
   113.5000      0.0000    304.0860     24.3575     47.4564
   113.7500      0.0000    304.1053     24.3860     48.1991
   114.0000      0.0000    304.1111     24.4396     50.0993
   114.2500      0.0000    304.0881     24.5121     52.0914
   114.5000      0.0000    304.0404     24.5874     52.9353
   114.7500      0.0000    303.9902     24.6547     51.9154
   115.0000      0.0000    303.9574     24.7055     49.2336
   115.2500      0.0000    303.9433     24.7265     45.8302
   115.5000      0.0000    303.9359     24.7075     42.9034
   115.7500      0.0000    303.9283     24.6542     41.3707
   116.0000      0.0000    303.9261     24.5883     41.5388
   116.2500      0.0000    303.9388     24.5356     43.3250
   116.5000      0.0000    303.9692     24.5153     46.6421
   116.7500      0.0000    304.0100     24.5368     51.2349
   117.0000      0.0000    304.0476     24.6003     56.3191
   117.2500      0.0000    304.0684     24.6975     60.8964
   117.5000      0.0000    304.0622     24.8134     64.4136
   117.7500      0.0000    304.0230     24.9296     66.7863
   118.0000      0.0000    303.9548     25.0280     68.0623
   118.2500      0.0000    303.8768     25.0972     68.6484
   118.5000      0.0000    303.8164     25.1356     69.6966
   118.7500      0.0000    303.7930     25.1531     72.4481
   119.0000      0.0000    303.8065     25.1654     76.8168
   119.2500      0.0000    303.8386     25.1824     81.0361
   119.5000      0.0000    303.8635     25.2006     83.1565
   119.7500      0.0000    303.8640     25.2123     82.8105
   120.0000      0.0000    303.8453     25.2235     81.2628
   120.2500      0.0000    303.8298     25.2526     79.9124
   120.5000      0.0000    303.8327     25.3078     79.0665
   120.7500      0.0000    303.8456     25.3717     78.2151
   121.0000      0.0000    303.8484     25.4136     77.1421
   121.2500      0.0000    303.8329     25.4131     76.3054
   121.5000      0.0000    303.8065     25.3686     76.1888
   121.7500      0.0000    303.7761     25.2883     76.9312
   122.0000      0.0000    303.7415     25.1825     78.8514
   122.2500      0.0000    303.7060     25.0660     82.6201
   122.5000      0.0000    303.6797     24.9599     88.2931
   122.7500      0.0000    303.6706     24.8839     94.6619
   123.0000      0.0000    303.6763     24.8471    100.1999
   123.2500      0.0000    303.6875     24.8442    104.3613
   123.5000      0.0000    303.6940     24.8602    107.4917
   123.7500      0.0000    303.6876     24.8793    109.7415
   124.0000      0.0000    303.6637     24.8919    110.5902
   124.2500      0.0000    303.6251     24.8990    109.4431
   124.5000      0.0000    303.5819     24.9074    106.3116
   124.7500      0.0000    303.5480     24.9155    101.8843
   125.0000      0.0000    303.5330     24.9062     97.1896
   125.2500      0.0000    303.5372     24.8601     93.1449
   125.5000      0.0000    303.5547     24.7769     90.2315
   125.7500      0.0000    303.5822     24.6757     88.5959
   126.0000      0.0000    303.6229     24.5747     88.2756
   126.2500      0.0000    303.6782     24.4772     89.0728
