~Version Information
VERS.                      2.0: CWLS Log ASCII Standard - VERSION 2.0
WRAP.                       NO: One line per depth step
~Well Information Block
STRT.FT               595.0000: 
STOP.FT              1693.0000: 
STEP.FT                 0.1000: 
NULL.                -999.2500: 
COMP.          Pioneer Natural Resources: COMPANY
WELL.          Rollerball 34-30: WELL
FLD.           Purgatoire River: FIELD
LOC.           893' FSL & 2408' FEL: LOCATION
CNTY.               Las Animas: COUNTY
SRVC.                Patterson: SERVICE COMPANY
DATE.          Tue Feb 14 15:43:01 2006: LOG DATE
UWI.           05 071 08581 00: UNIQUE WELL ID
STAT.                 Colorado: STATE
~Curve Information Block
DEPT.FT            0 000 00 00: Depth
DCAL.in                       : CDL Caliper
RHOB.g/cc                     : CDL Bulk Density
RHOC.g/cc                     : CDL Density Correction
DPOR.pu                       : CDL Density Porosity
GR.GAPI                       : Gamma Ray
NPOR.pu                       : Neutron Porosity
~Parameter Information Block
~A  Depth       DCAL        RHOB        RHOC        DPOR         GR         NPOR    
# ...
   959.8000      8.0463      2.5983      0.0520      3.1360     93.6321     18.3186
   959.9000      8.0463      2.5908      0.0667      3.5863     92.0906     18.3742
   960.0000      8.0494      2.5871      0.0549      3.8093     90.6491     18.8662
   960.1000      8.0494      2.5898      0.0890      3.6490     88.3456     19.2336
   960.2000      8.0494      2.6068      0.0560      2.6176     86.8701     19.2247
   960.3000      8.0589      2.6316      0.1113      1.1146     85.3517     19.1559
   960.4000      8.0589      2.6378      0.1513      0.7391     83.5273     19.3899
   960.5000      8.0647      2.6172      0.0892      1.9856     83.7927     19.6461
   960.6000      8.0647      2.5922      0.0507      3.5025     85.6067     19.5182
   960.7000      8.0647      2.5747      0.0428      4.5606     86.2275     19.1888
   960.8000      8.0696      2.5592     -0.0013      5.5047     85.2046     19.1178
   960.9000      8.0696      2.5438      0.0007      6.4388     84.5787     19.3269
   961.0000      8.0699      2.5292      0.0078      7.3200     86.3943     19.3672
   961.1000      8.0699      2.5174     -0.0070      8.0381     88.0571     19.1651
   961.2000      8.0699      2.5131     -0.0303      8.2961     87.4924     18.9866
   961.3000      8.0658      2.5187      0.0014      7.9596     87.1679     18.9735
   961.4000      8.0658      2.5312      0.0130      7.1993     85.7830     19.3140
   961.5000      8.0535      2.5474      0.0213      6.2153     80.3228     19.8435
   961.6000      8.0535      2.5637      0.0380      5.2276     73.3726     20.3774
   961.7000      8.0535      2.5766      0.0324      4.4515     69.6617     20.9527
   961.8000      8.0510      2.5848      0.0550      3.9538     69.6009     21.3304
   961.9000      8.0510      2.5861      0.0912      3.8758     69.8633     21.2547
   962.0000      8.0499      2.5840      0.0602      4.0018     69.9368     20.8515
   962.1000      8.0499      2.5870      0.0549      3.8182     72.1036     20.5760
   962.2000      8.0499      2.5920      0.0793      3.5170     75.2058     20.7467
   962.3000      8.0460      2.5943      0.0660      3.3756     76.2327     20.8258
   962.4000      8.0460      2.5994      0.0461      3.0641     74.8259     20.4914
   962.5000      8.0514      2.6052      0.1028      2.7167     72.4459     20.0933
   962.6000      8.0514      2.6015      0.0643      2.9420     72.2111     19.6116
   962.7000      8.0514      2.5935      0.0761      3.4234     78.2809     19.4204
   962.8000      8.0511      2.5956      0.0795      3.2996     88.0466     19.8248
   962.9000      8.0511      2.6107      0.0594      2.3842     96.2764     20.2621
   963.0000      8.0514      2.6232      0.1282      1.6230    102.8377     20.4256
   963.1000      8.0514      2.6159      0.0775      2.0648    109.0040     20.8011
   963.2000      8.0514      2.5935      0.0563      3.4231    114.7130     21.6082
   963.3000      8.0504      2.5691      0.0473      4.9022    120.1972     22.3398
   963.4000      8.0504      2.5496      0.0451      6.0853    127.0112     22.7261
   963.5000      8.0552      2.5384     -0.0095      6.7657    136.0317     22.9784
   963.6000      8.0552      2.5329      0.0147      7.0982    142.6622     23.4864
   963.7000      8.0552      2.5337      0.0096      7.0484    142.2957     24.2839
   963.8000      8.0676      2.5566      0.0058      5.6589    139.2025     24.9882
   963.9000      8.0676      2.5990      0.0697      3.0882    134.9831     25.4019
   964.0000      8.0684      2.6252      0.0773      1.5024    129.4019     25.5484
   964.1000      8.0684      2.6267      0.0256      1.4148    125.8578     25.5156
   964.2000      8.0684      2.6262      0.0394      1.4412    121.6939     25.1319
   964.3000      8.0713      2.6231      0.0839      1.6326    114.8014     24.2837
   964.4000      8.0713      2.6088      0.0149      2.4946    106.5036     23.6439
   964.5000      8.0695      2.5966      0.0225      3.2369     97.4578     23.7672
   964.6000      8.0695      2.6019      0.0060      2.9168     88.5355     23.7517
   964.7000      8.0695      2.6222      0.0756      1.6847     80.6753     22.6995
   964.8000      8.0553      2.6346      0.0768      0.9327     75.7242     21.2486
   964.9000      8.0553      2.6208      0.0491      1.7671     73.8458     20.3123
   965.0000      8.0375      2.5791      0.0561      4.2986     71.3195     20.0227
   965.1000      8.0375      2.5221     -0.0232      7.7490     67.1459     20.3140
   965.2000      8.0375      2.4838     -0.0845     10.0743     65.5076     20.8571
   965.3000      8.0389      2.4885     -0.0520      9.7893     67.1252     20.7429
   965.4000      8.0389      2.5210      0.0332      7.8190     66.1762     19.5315
   965.5000      8.0362      2.5532      0.0502      5.8689     62.8393     17.8838
   965.6000      8.0362      2.5763      0.0274      4.4655     64.6111     16.6943
   965.7000      8.0362      2.5949      0.0296      3.3386     70.9121     16.4207
   965.8000      8.0302      2.6098      0.0598      2.4375     77.7569     16.8889
   965.9000      8.0302      2.6163      0.0706      2.0434     85.6502     17.4753
   966.0000      8.0338      2.6080      0.0693      2.5460     93.8816     17.9017
   966.1000      8.0338      2.5852      0.0378      3.9299    100.4616     18.1326
   966.2000      8.0338      2.5621      0.0149      5.3286    105.7688     18.1662
   966.3000      8.0354      2.5501      0.0502      6.0555    110.1266     18.2837
   966.4000      8.0354      2.5473      0.0398      6.2233    115.1908     18.6395
   966.5000      8.0389      2.5520      0.0307      5.9376    123.9282     19.2684
   966.6000      8.0389      2.5626      0.0486      5.2948    133.3859     20.0430
   966.7000      8.0389      2.5656      0.0565      5.1150    138.8066     20.7070
   966.8000      8.0633      2.5465      0.0634      6.2738    141.3949     21.5396
   966.9000      8.0633      2.5159      0.0172      8.1293    145.0616     22.8151
   967.0000      8.0815      2.4991      0.0164      9.1480    149.2770     23.9974
   967.1000      8.0815      2.5081      0.0090      8.6022    149.1794     24.7356
   967.2000      8.0815      2.5397      0.0449      6.6840    143.6571     25.3194
   967.3000      8.0829      2.5774      0.1014      4.4014    137.6429     25.5106
   967.4000      8.0829      2.6028      0.0677      2.8618    134.0900     24.9932
   967.5000      8.0798      2.6123      0.0511      2.2820    128.4327     24.0696
   967.6000      8.0798      2.6081      0.0543      2.5424    119.4607     23.2487
   967.7000      8.0798      2.5967      0.0697      3.2331    112.5812     22.8644
   967.8000      8.0751      2.5938      0.0276      3.4054    111.2916     22.6602
   967.9000      8.0751      2.6033      0.0444      2.8277    114.4662     22.4004
   968.0000      8.0602      2.6105      0.0778      2.3920    117.6218     22.1315
   968.1000      8.0602      2.6013      0.0555      2.9489    117.7287     21.6951
   968.2000      8.0602      2.5752      0.0049      4.5317    117.9055     21.2864
   968.3000      8.0701      2.5468     -0.0442      6.2523    120.3626     21.1978
   968.4000      8.0701      2.5317     -0.0078      7.1715    124.1663     21.2435
   968.5000      8.0918      2.5252      0.0330      7.5642    129.2914     21.5315
   968.6000      8.0918      2.5146      0.0072      8.2077    135.0982     22.2260
   968.7000      8.0918      2.5013     -0.0139      9.0096    137.8109     22.8477
   968.8000      8.0962      2.4954     -0.0049      9.3681    136.4832     22.9910
   968.9000      8.0962      2.5008     -0.0036      9.0424    134.3652     23.0100
   969.0000      8.0952      2.5152      0.0148      8.1697    130.0157     23.5352
   969.1000      8.0952      2.5292      0.0004      7.3220    122.0229     24.8069
   969.2000      8.0952      2.5309      0.0089      7.2187    114.1230     26.3338
   969.3000      8.0943      2.5240     -0.0014      7.6354    107.0380     27.2083
