~Version Information
VERS.                      2.0: CWLS Log ASCII Standard - VERSION 2.0
WRAP.                       NO: One line per depth step
~Well Information Block
STRT.FT               240.0000: 
STOP.FT              1677.0000: 
STEP.FT                 0.1000: 
NULL.                -999.2500: 
COMP.          Pioneer Natural Resources: COMPANY
WELL.          Lorencito 8-1-34-67: WELL
FLD.           Purgatoire River: FIELD
LOC.           1567' FNL & 500' FEL: LOCATION
STAT.                 Colorado: State
CTRY. USA : Country 
CNTY.               Las Animas: COUNTY
SECT. 1 : Section 
TOWN. 34S : Township
RANG. 67W : Range
SRVC.                Patterson: SERVICE COMPANY
DATE.          Fri Aug 26 09:30:14 2005: LOG DATE
API.           05 071 08506 00: UNIQUE WELL ID
~Curve Information Block
DEPT.FT            0 000 00 00: Depth
DCAL.in                       : CDL Caliper
RHOB.g/cc                     : CDL Bulk Density
RHOC.g/cc                     : CDL Density Correction
DPOR.pu                       : CDL Density Porosity
GR.GAPI                       : Gamma Ray
NPOR.pu                       : Neutron Porosity
~Parameter Information Block
~A  Depth       DCAL        RHOB        RHOC        DPOR         GR         NPOR    
# ...
   710.4000      8.0372      2.5696      0.0048      4.8716    114.5001     23.7753
   710.5000      8.0532      2.5517     -0.0390      5.9551    114.3016     24.0183
   710.6000      8.0532      2.5457      0.0064      6.3240    112.2135     24.0316
   710.7000      8.0532      2.5436     -0.0424      6.4510    110.1039     23.5893
   710.8000      8.0676      2.5351      0.0238      6.9666    110.0344     22.8057
   710.9000      8.0676      2.5234     -0.0273      7.6720    111.2633     22.0982
   711.0000      8.0723      2.5240     -0.0272      7.6334    111.3469     21.9377
   711.1000      8.0723      2.5399     -0.0310      6.6702    111.1273     22.3117
   711.2000      8.0723      2.5545      0.0216      5.7864    112.4122     22.7471
   711.3000      8.1107      2.5545     -0.0335      5.7908    110.0287     22.7011
   711.4000      8.1107      2.5472      0.0083      6.2291    100.0674     22.1650
   711.5000      8.1306      2.5424     -0.0151      6.5218     88.7307     21.6845
   711.6000      8.1306      2.5430      0.0205      6.4825     83.5386     21.5986
   711.7000      8.1306      2.5500      0.0030      6.0618     85.0417     21.7428
   711.8000      8.1033      2.5551      0.0724      5.7503     86.8830     21.6452
   711.9000      8.1033      2.5526     -0.0056      5.9021     85.3062     21.2676
   712.0000      8.0819      2.5577     -0.0045      5.5920     83.5824     21.2052
   712.1000      8.0819      2.5701      0.0465      4.8414     82.3080     21.5216
   712.2000      8.0819      2.5722      0.0014      4.7159     80.7010     21.5802
   712.3000      8.0702      2.5667      0.0163      5.0500     80.0328     21.3216
   712.4000      8.0702      2.5613      0.0413      5.3788     79.5331     21.2878
   712.5000      8.0632      2.5604     -0.0005      5.4319     80.2482     21.4628
   712.6000      8.0632      2.5693     -0.0005      4.8901     83.4524     21.3329
   712.7000      8.0632      2.5802      0.0508      4.2294     85.8032     21.0123
   712.8000      8.0520      2.5859      0.0253      3.8862     87.6769     21.0052
   712.9000      8.0520      2.5905      0.0484      3.6078     93.5455     21.2284
   713.0000      8.0551      2.5899      0.0889      3.6410    103.0527     21.3212
   713.1000      8.0551      2.5792      0.0544      4.2906    110.2285     21.4058
   713.2000      8.0551      2.5658     -0.0111      5.1058    111.5780     21.7737
   713.3000      8.0553      2.5538      0.0325      5.8298    109.6378     22.2359
   713.4000      8.0553      2.5456     -0.0201      6.3275    106.4033     22.3620
   713.5000      8.0600      2.5493     -0.0020      6.1054    104.8225     22.0969
   713.6000      8.0600      2.5596      0.0286      5.4818    106.0918     21.7287
   713.7000      8.0600      2.5679      0.0278      4.9749    104.1007     21.5487
   713.8000      8.0666      2.5783      0.0277      4.3460     97.3197     21.6129
   713.9000      8.0666      2.5873      0.0259      3.8019     92.2980     21.8156
   714.0000      8.0567      2.5838      0.0528      4.0122     91.9378     22.0546
   714.1000      8.0567      2.5791     -0.0466      4.2974     94.0359     22.2438
   714.2000      8.0567      2.5865      0.0430      3.8481     97.5414     22.4820
   714.3000      8.0754      2.5775      0.0539      4.3968    102.8688     22.8268
   714.4000      8.0754      2.5347     -0.0384      6.9885    110.0826     22.8968
   714.5000      8.0879      2.4913     -0.0218      9.6190    117.3825     22.4894
   714.6000      8.0879      2.4809     -0.0469     10.2465    121.3236     22.0046
   714.7000      8.0879      2.5076      0.0021      8.6318    119.7933     21.9806
   714.8000      8.0963      2.5516     -0.0023      5.9616    113.7927     22.5094
   714.9000      8.0963      2.5883      0.0284      3.7423    106.1080     22.9285
   715.0000      8.1176      2.5953      0.0549      3.3133     98.9202     22.7118
   715.1000      8.1176      2.5712      0.0375      4.7735     92.9003     22.3284
   715.2000      8.1176      2.5510      0.0063      5.9973     88.3671     22.1668
   715.3000      8.1132      2.5597      0.0120      5.4716     87.3112     22.0139
   715.4000      8.1132      2.5746      0.0376      4.5667     90.6563     22.0073
   715.5000      8.1075      2.5687      0.0825      4.9277     96.9571     22.5270
   715.6000      8.1075      2.5568      0.0567      5.6490    102.8586     23.1898
   715.7000      8.1075      2.5681      0.0413      4.9643    104.9457     23.1980
   715.8000      8.1135      2.5971      0.0426      3.2062    107.5224     22.4875
   715.9000      8.1135      2.6151      0.0502      2.1156    113.8449     21.9020
   716.0000      8.1255      2.6074      0.0263      2.5817    118.6139     21.9488
   716.1000      8.1255      2.5801      0.0455      4.2391    119.5276     22.3511
   716.2000      8.1255      2.5493      0.0326      6.1047    119.5095     22.8998
   716.3000      8.1397      2.5346     -0.0294      6.9948    120.7236     23.5794
   716.4000      8.1397      2.5469     -0.0168      6.2481    121.9956     24.1676
   716.5000      8.1136      2.5754      0.0034      4.5217    122.0393     24.3220
   716.6000      8.1136      2.5958      0.0823      3.2831    122.1056     24.0890
   716.7000      8.1136      2.6010      0.0152      2.9723    121.4173     23.6678
   716.8000      8.1390      2.6088     -0.0170      2.4987    117.4568     23.2850
   716.9000      8.1390      2.6241      0.0546      1.5726    110.2125     23.3872
   717.0000      8.1513      2.6352      0.0425      0.8965    102.6572     23.8107
   717.1000      8.1513      2.6444      0.0643      0.3409     99.3429     23.8867
   717.2000      8.1513      2.6516      0.0449     -0.0996     98.6768     23.5523
   717.3000      8.1497      2.6439      0.0050      0.3683     95.5536     23.2704
   717.4000      8.1497      2.6153     -0.0165      2.1044     90.4066     23.2474
   717.5000      8.1309      2.5737     -0.0038      4.6249     85.4421     23.2945
   717.6000      8.1309      2.5356     -0.0191      6.9345     81.8729     23.2503
   717.7000      8.1309      2.5193     -0.0615      7.9183     82.2426     23.1894
   717.8000      8.1402      2.5306     -0.0307      7.2350     84.8685     23.1351
   717.9000      8.1402      2.5506     -0.0048      6.0219     84.5641     22.9348
   718.0000      8.1566      2.5594     -0.0288      5.4896     81.9571     22.5387
   718.1000      8.1566      2.5519      0.0310      5.9472     83.3133     22.2096
   718.2000      8.1566      2.5314     -0.0602      7.1865     92.6380     22.2117
   718.3000      8.1519      2.5108     -0.0315      8.4362    105.1165     22.3065
   718.4000      8.1519      2.5040     -0.0648      8.8474    110.6361     22.1807
   718.5000      8.1445      2.5162      0.0101      8.1065    108.1134     21.8689
   718.6000      8.1445      2.5371      0.0099      6.8442    106.1022     21.5071
   718.7000      8.1445      2.5560      0.0465      5.6947    109.4398     21.4331
   718.8000      8.1352      2.5684      0.0799      4.9425    111.1448     21.8584
   718.9000      8.1352      2.5680      0.0076      4.9681    105.2811     22.3717
   719.0000      8.1208      2.5592      0.0007      5.5010     97.6399     22.7293
   719.1000      8.1208      2.5596     -0.0028      5.4772     93.2394     22.8431
   719.2000      8.1208      2.5699      0.0398      4.8564     91.6324     22.4702
   719.3000      8.1028      2.5771     -0.0060      4.4179     92.5032     21.8376
   719.4000      8.1028      2.5793      0.0673      4.2825     93.7452     21.3610
   719.5000      8.0936      2.5695      0.0598      4.8791     93.0522     21.1666
   719.6000      8.0936      2.5412      0.0260      6.5923     93.6609     21.0728
   719.7000      8.0936      2.5163     -0.0377      8.1043     96.2472     20.7429
   719.8000      8.0691      2.5171     -0.0040      8.0562     98.7591     20.4422
   719.9000      8.0691      2.5262      0.0305      7.5011    104.1865     20.7376
