~Version Information
VERS.                      2.0: CWLS Log ASCII Standard - VERSION 2.0
WRAP.                       NO: One line per depth step
~Well Information Block
STRT.FT                -9.2500: 
STOP.FT              1854.7500: 
STEP.FT                 0.2500: 
NULL.                -999.2500: 
COMP.          Pioneer Natural Resources: COMPANY
WELL.          State Wildlife 32-16 Tr: WELL
FLD.           Purgatoire River: FIELD
LOC.           1838' FNL & 1850' FEL--: LOCATION
STAT.                       CO: State
CNTY.               Las Animas: COUNTY
CTRY. USA : Country
SECT. 16 : Section
TOWN. 32S : Township
RANG. 66W : Range
SRVC.          Patterson Wireline: SERVICE COMPANY
DATE.          Tue Nov 22 10:17:13 2005: LOG DATE
API.           05 071 08568 00: UNIQUE WELL ID
~Curve Information Block
DEPT.FT            0 000 00 00: Depth
CCL.                          : Casing Collar Locator
TT3.usec                      : CBL 3' Travel Time
AMP3.mV                       : CBL 3' Amplitude
GR.GAPI                       : Gamma Ray
~Parameter Information Block
~A  Depth       CCL         TT3         AMP3         GR     
# ...
  1230.2500      0.0000    459.6500     10.8927    101.8721
  1230.5000      0.0000    450.2215     10.9663    106.4318
  1230.7500      0.0000    434.0042     11.0223    110.8831
  1231.0000      0.0000    425.1091     11.0474    115.9753
  1231.2500      0.0000    431.3699     11.0375    121.4134
  1231.5000      0.0000    450.9540     10.9935    126.7284
  1231.7500      0.0000    479.0441     10.9167    131.8610
  1232.0000      0.0000    514.5941     10.8054    136.9155
  1232.2500      0.0000    559.7362     10.6589    141.5006
  1232.5000      0.0000    613.1049     10.4847    144.1947
  1232.7500      0.0000    665.1252     10.3008    143.1099
  1233.0000      0.0000    702.2029     10.1358    137.7790
  1233.2500      0.0000    717.1857     10.0233    130.5265
  1233.5000      0.0000    715.3087      9.9862    125.3638
  1233.7500      0.0000    708.6585     10.0219    125.1151
  1234.0000      0.0000    704.0372     10.1043    129.6798
  1234.2500      0.0000    697.0033     10.2000    136.8632
  1234.5000      0.0000    678.6492     10.2806    144.0711
  1234.7500      0.0000    647.7883     10.3252    148.9157
  1235.0000      0.0000    615.7420     10.3206    149.4704
  1235.2500      0.0000    598.6688     10.2630    145.4667
  1235.5000      0.0000    604.6082     10.1569    139.0015
  1235.7500      0.0000    627.8582     10.0145    132.9147
  1236.0000      0.0000    655.5896      9.8547    128.3614
  1236.2500      0.0000    678.5337      9.6998    124.5889
  1236.5000      0.0000    695.1281      9.5670    120.8410
  1236.7500      0.0000    707.9562      9.4542    117.5079
  1237.0000      0.0000    719.0959      9.3384    115.2915
  1237.2500      0.0000    728.9125      9.2079    114.3369
  1237.5000      0.0000    737.5249      9.1014    114.5844
  1237.7500      0.0000    745.6313      9.0919    115.9444
  1238.0000      0.0000    753.0958      9.2133    117.6036
  1238.2500      0.0000    757.5308      9.4144    118.0696
  1238.5000      0.0000    755.1959      9.5984    116.5942
  1238.7500      0.0000    742.3658      9.6975    114.2153
  1239.0000      0.0000    715.2234      9.7021    112.8352
  1239.2500      0.0000    671.4255      9.6231    113.1948
  1239.5000      0.0000    616.3318      9.4385    114.0164
  1239.7500      0.0000    567.6127      9.0940    113.0320
  1240.0000      0.0000    547.9254      8.5866    108.6025
  1240.2500      0.0000    568.1041      8.0469    100.7517
  1240.5000      0.0000    617.9539      7.6977     91.2405
  1240.7500      0.0000    675.0834      7.6953     82.5449
  1241.0000      0.0000    721.5712      8.0119     76.3106
  1241.2500      0.0000    751.8306      8.4625     72.8620
  1241.5000      0.0000    768.7820      8.8177     72.3724
  1241.7500      0.0000    776.9755      8.8943     75.8932
  1242.0000      0.0000    779.0596      8.5959     84.5238
  1242.2500      0.0000    775.9140      7.9406     97.7380
  1242.5000      0.0000    768.7591      7.0804    112.8799
  1242.7500      0.0000    760.7730      6.2695    126.2858
  1243.0000      0.0000    755.7180      5.7548    134.8778
  1243.2500      0.0000    754.2100      5.6488    137.1999
  1243.5000      0.0000    752.4199      5.8861    133.8098
  1243.7500      0.0000    745.9436      6.2951    127.1190
  1244.0000      2.0000    735.5187      6.7107    120.3562
  1244.2500     -2.0000    728.4359      7.0383    116.0668
  1244.5000      0.0000    733.4390      7.2573    115.4127
  1244.7500      0.0000    752.9972      7.4064    118.3591
  1245.0000      0.0000    779.8000      7.5769    123.8332
  1245.2500      0.0000    801.5308      7.8791    129.9089
  1245.5000      0.0000    809.5527      8.3651    134.5877
  1245.7500      0.0000    802.5790      8.9842    136.7968
  1246.0000      0.0000    783.8958      9.6373    136.8015
  1246.2500      0.0000    758.1168     10.2416    135.5751
  1246.5000      0.0000    730.4841     10.7189    133.5971
  1246.7500      0.0000    706.6017     10.9847    130.4727
  1247.0000      0.0000    691.4796     11.0098    125.9465
  1247.2500      0.0000    688.2926     10.8759    120.9699
  1247.5000      0.0000    696.6619     10.7338    117.3532
  1247.7500      0.0000    711.8621     10.7056    116.4401
  1248.0000      0.0000    727.3289     10.8217    118.2906
  1248.2500      0.0000    738.4283     11.0267    121.7655
  1248.5000      0.0000    743.8413     11.2221    124.9123
  1248.7500      0.0000    744.6533     11.3172    125.6302
  1249.0000      0.0000    743.0250     11.2653    122.8339
  1249.2500      0.0000    740.9899     11.0686    117.4091
  1249.5000      0.0000    739.5956     10.7565    111.9258
  1249.7500      0.0000    738.9070     10.3735    109.1802
  1250.0000      0.0000    738.6440      9.9929    110.5908
  1250.2500      0.0000    738.5873      9.7163    115.3832
  1250.5000      0.0000    738.5994      9.6290    121.1127
  1250.7500      0.0000    738.5448      9.7361    125.4021
  1251.0000      0.0000    738.3310      9.9400    127.6861
  1251.2500      0.0000    737.9667     10.0923    129.4444
  1251.5000      0.0000    737.5332     10.0907    132.5602
  1251.7500      0.0000    737.1042      9.9384    137.3898
  1252.0000      0.0000    736.7090      9.7145    142.5511
  1252.2500      0.0000    736.3500      9.4925    146.6221
  1252.5000      0.0000    736.0383      9.2909    149.7409
  1252.7500      0.0000    735.8499      9.0906    153.0255
  1253.0000      0.0000    735.9958      8.8790    156.5316
  1253.2500      0.0000    736.8452      8.6713    158.6283
  1253.5000      0.0000    738.7463      8.5041    157.6318
  1253.7500      0.0000    741.5716      8.4178    153.2058
  1254.0000      0.0000    744.3445      8.4323    145.8173
  1254.2500      0.0000    745.6578      8.5330    136.0709
  1254.5000      0.0000    744.8331      8.6829    125.4558
  1254.7500      0.0000    742.5955      8.8543    116.7159
  1255.0000      0.0000    740.4578      9.0362    112.2907
  1255.2500      0.0000    739.6854      9.2011    112.5517
  1255.5000      0.0000    741.0153      9.2780    115.8743
  1255.7500      0.0000    745.0912      9.1887    120.0744
  1256.0000      0.0000    753.1375      8.9168    123.5225
  1256.2500      0.0000    767.3303      8.5280    125.2652
  1256.5000      0.0000    789.3343      8.1245    124.6438
  1256.7500      0.0000    816.3992      7.7957    121.3256
  1257.0000      0.0000    839.3028      7.6066    115.9271
  1257.2500      0.0000    847.5921      7.5941    110.2630
  1257.5000      0.0000    838.6971      7.7476    106.6400
  1257.7500      0.0000    820.6038      7.9999    106.6414
  1258.0000      0.0000    805.3099      8.2561    110.1305
  1258.2500      0.0000    801.2219      8.4438    115.2918
  1258.5000      0.0000    810.5848      8.5534    119.9566
  1258.7500      0.0000    830.5718      8.6425    122.9102
  1259.0000      0.0000    855.7697      8.7961    123.8262
  1259.2500      0.0000    881.8408      9.0618    122.4651
  1259.5000      0.0000    907.7287      9.4131    118.6709
  1259.7500      0.0000    933.5065      9.7771    113.1248
  1260.0000      0.0000    956.5865     10.0965    107.5703
  1260.2500      0.0000    971.7050     10.3580    103.8630
  1260.5000      0.0000    975.3009     10.5610    102.6254
  1260.7500      0.0000    969.8307     10.6796    102.8897
  1261.0000      0.0000    962.6859     10.6813    103.0238
  1261.2500      0.0000    959.6895     10.6002    101.9468
  1261.5000      0.0000    959.9794     10.5712     99.8378
  1261.7500      0.0000    957.6078     10.7489     98.2161
  1262.0000      0.0000    946.7851     11.1749     99.2231
  1262.2500      0.0000    924.7834     11.7455    104.2365
  1262.5000      0.0000    892.0579     12.3139    112.7657
  1262.7500      0.0000    852.6843     12.8084    122.5594
  1263.0000      0.0000    814.0638     13.2634    130.8758
  1263.2500      0.0000    783.1430     13.7675    136.0749
  1263.5000      0.0000    761.2478     14.3776    138.3011
