~Version Information
VERS.                      2.0: CWLS Log ASCII Standard - VERSION 2.0
WRAP.                       NO: One line per depth step
~Well Information Block
STRT.FT                -6.5000: 
STOP.FT              1636.7500: 
STEP.FT                 0.2500: 
NULL.                -999.2500: 
COMP.          Pioneer Natural Resources: COMPANY
WELL.          Stock Canyon 34-33: WELL
FLD.           Purgatorie River: FIELD
LOC.           980' FSL & 2191' FEL--: LOCATION
PROV.                       CO: PROVINCE
CNTY.               Las Animas: COUNTRY
SRVC.          Patterson Wireline: SERVICE COMPANY
DATE.          Mon Dec 12 09:29:49 2005: LOG DATE
UWI.           05 071 08601 00: UNIQUE WELL ID
~Curve Information Block
DEPT.FT            0 000 00 00: Depth
CCL.                          : Casing Collar Locator
TT3.usec                      : CBL 3' Travel Time
AMP3.mV                       : CBL 3' Amplitude
GR.GAPI                       : Gamma Ray
~Parameter Information Block
~A  Depth       CCL         TT3         AMP3         GR     
# ...
  1065.5000      0.0000    278.4454     72.6176    108.0983
  1065.7500      0.0000    278.4885     73.0660    119.5497
  1066.0000      0.0000    278.5071     73.2610    130.7016
  1066.2500      0.0000    278.5153     73.3524    139.1515
  1066.5000      0.0000    278.5223     73.4258    143.6838
  1066.7500      0.0000    278.5279     73.5089    144.1743
  1067.0000      0.0000    278.5324     73.5935    141.2975
  1067.2500      0.0000    278.5348     73.6698    136.8868
  1067.5000      0.0000    278.5331     73.7408    133.8983
  1067.7500      0.0000    278.5258     73.8152    134.6544
  1068.0000      0.0000    278.5133     73.8953    138.7716
  1068.2500      0.0000    278.4985     73.9705    143.4445
  1068.5000      0.0000    278.4851     74.0234    145.8433
  1068.7500      0.0000    278.4756     74.0465    144.8121
  1069.0000      0.0000    278.4708     74.0534    140.7044
  1069.2500      0.0000    278.4699     74.0664    134.6503
  1069.5000      0.0000    278.4726     74.0948    128.0638
  1069.7500      0.0000    278.4786     74.1277    122.0175
  1070.0000      0.0000    278.4869     74.1511    116.5311
  1070.2500      0.0000    278.4949     74.1632    110.5326
  1070.5000      0.0000    278.5006     74.1734    102.8303
  1070.7500      0.0000    278.5035     74.1898     93.3613
  1071.0000      0.0000    278.5039     74.2100     83.5587
  1071.2500      0.0000    278.5014     74.2226     75.5190
  1071.5000      0.0000    278.4952     74.2153     70.6680
  1071.7500      0.0000    278.4854     74.1824     68.8610
  1072.0000      0.0000    278.4740     74.1252     68.6542
  1072.2500      0.0000    278.4637     74.0497     68.6721
  1072.5000      0.0000    278.4560     73.9671     68.9526
  1072.7500      0.0000    278.4509     73.8916     71.0345
  1073.0000      0.0000    278.4476     73.8288     76.7273
  1073.2500      0.0000    278.4469     73.7659     86.6845
  1073.5000      0.0000    278.4519     73.6843     99.7344
  1073.7500      0.0000    278.4652     73.5900    113.2783
  1074.0000      0.0000    278.4861     73.5260    124.5806
  1074.2500      0.0000    278.5085     73.5422    132.2215
  1074.5000      0.0000    278.5234     73.6438    136.6593
  1074.7500      0.0000    278.5255     73.7756    139.6315
  1075.0000      0.0000    278.5161     73.8618    142.9961
  1075.2500      0.0000    278.5000     73.8580    147.8139
  1075.5000      0.0000    278.4819     73.7661    154.0270
  1075.7500      0.0000    278.4662     73.6164    160.4988
  1076.0000      0.0000    278.4597     73.4442    165.2299
  1076.2500      0.0000    278.4675     73.2726    166.3118
  1076.5000      0.0000    278.4898     73.1138    163.4163
  1076.7500      0.0000    278.5207     72.9851    157.9958
  1077.0000      0.0000    278.5521     72.9178    151.4944
  1077.2500      0.0000    278.5761     72.9367    143.9749
  1077.5000      0.0000    278.5873     73.0349    135.2356
  1077.7500      0.0000    278.5840     73.1768    126.5681
  1078.0000      0.0000    278.5693     73.3201    120.1811
  1078.2500      0.0000    278.5498     73.4297    117.1222
  1078.5000      0.0000    278.5323     73.4849    116.7937
  1078.7500      0.0000    278.5215     73.4874    118.3316
  1079.0000      0.0000    278.5190     73.4576    121.5419
  1079.2500      0.0000    278.5226     73.4188    126.5504
  1079.5000      0.0000    278.5282     73.3873    133.2455
  1079.7500      0.0000    278.5323     73.3772    141.0804
  1080.0000      0.0000    278.5325     73.4015    148.9564
  1080.2500      0.0000    278.5272     73.4632    155.3569
  1080.5000      0.0000    278.5151     73.5496    158.9810
  1080.7500      0.0000    278.4969     73.6368    159.3647
  1081.0000      0.0000    278.4764     73.6989    156.9407
  1081.2500      0.0000    278.4585     73.7159    152.8485
  1081.5000      0.0000    278.4464     73.6828    148.6271
  1081.7500      0.0000    278.4409     73.6156    145.3616
  1082.0000      0.0000    278.4404     73.5438    142.7016
  1082.2500      0.0000    278.4431     73.4909    139.2661
  1082.5000      0.0000    278.4485     73.4607    134.6447
  1082.7500      0.0000    278.4571     73.4411    130.4902
  1083.0000      0.0000    278.4671     73.4200    128.8782
  1083.2500      0.0000    278.4736     73.3982    130.1365
  1083.5000      0.0000    278.4718     73.3922    133.1863
  1083.7500      0.0000    278.4616     73.4190    137.2414
  1084.0000      0.0000    278.4480     73.4772    141.8580
  1084.2500      0.0000    278.4366     73.5447    145.8118
  1084.5000      0.0000    278.4292     73.5973    147.4875
  1084.7500      0.0000    278.4248     73.6245    146.6584
  1085.0000      0.0000    278.4232     73.6256    145.2012
  1085.2500      0.0000    278.4259     73.6001    145.6775
  1085.5000      0.0000    278.4341     73.5537    148.9162
  1085.7500      0.0000    278.4470     73.5070    152.8206
  1086.0000      0.0000    278.4610     73.4879    153.7621
  1086.2500      0.0000    278.4726     73.5115    149.3768
  1086.5000      0.0000    278.4795     73.5708    140.1380
  1086.7500      0.0000    278.4818     73.6433    128.6391
  1087.0000      0.0000    278.4805     73.7067    117.7938
  1087.2500      0.0000    278.4775     73.7491    109.6100
  1087.5000      0.0000    278.4736     73.7678    105.0262
  1087.7500      0.0000    278.4690     73.7602    104.1288
  1088.0000      0.0000    278.4637     73.7172    106.0863
  1088.2500      0.0000    278.4590     73.6281    109.0976
  1088.5000      0.0000    278.4582     73.4950    110.9642
  1088.7500      0.0000    278.4637     73.3413    110.1802
  1089.0000      0.0000    278.4749     73.2044    106.9438
  1089.2500      0.0000    278.4881     73.1133    103.3082
  1089.5000      0.0000    278.4987     73.0738    102.0581
  1089.7500      0.0000    278.5037     73.0716    104.9081
  1090.0000      0.0000    278.5023     73.0921    111.2897
  1090.2500      0.0000    278.4957     73.1320    118.6605
  1090.5000      0.0000    278.4860     73.1932    124.2728
  1090.7500      0.0000    278.4756     73.2671    127.2200
  1091.0000      0.0000    278.4662     73.3314    128.8318
  1091.2500      0.0000    278.4575     73.3623    130.7742
  1091.5000      0.0000    278.4485     73.3468    132.9460
  1091.7500      0.0000    278.4396     73.2874    133.6319
  1092.0000      0.0000    278.4335     73.1993    131.6571
  1092.2500      0.0000    278.4336     73.1068    127.9377
  1092.5000      0.0000    278.4408     73.0387    124.6868
  1092.7500      0.0000    278.4525     73.0167    123.3549
  1093.0000      0.0000    278.4638     73.0365    123.4799
  1093.2500      0.0000    278.4697     73.0618    123.2640
  1093.5000      0.0000    278.4670     73.0488    121.3210
  1093.7500      0.0000    278.4553     72.9838    118.3303
  1094.0000      0.0000    278.4361     72.8917    116.8840
  1094.2500      0.0000    278.4124     72.8103    119.3458
  1094.5000      0.0000    278.3885     72.7658    125.9464
  1094.7500      0.0000    278.3705     72.7703    134.8538
  1095.0000      0.0000    278.3638     72.8274    143.5271
  1095.2500      0.0000    278.3697     72.9303    150.1104
  1095.5000      0.0000    278.3840     73.0597    154.1895
  1095.7500      0.0000    278.4004     73.1890    156.2966
  1096.0000      0.0000    278.4163     73.2910    156.6062
  1096.2500      0.0000    278.4333     73.3413    154.4895
  1096.5000      0.0000    278.4538     73.3236    149.6215
  1096.7500      0.0000    278.4757     73.2418    143.1863
  1097.0000      0.0000    278.4904     73.1280    137.8171
  1097.2500      0.0000    278.4884     73.0356    136.3827
  1097.5000      0.0000    278.4677     73.0105    140.2439
  1097.7500      0.0000    278.4371     73.0558    147.9291
  1098.0000      0.0000    278.4111     73.1217    155.5830
  1098.2500      0.0000    278.4009     73.1382    159.3958
  1098.5000      0.0000    278.4095     73.0690    158.1591
  1098.7500      0.0000    278.4327     72.9400    153.8595
