~Version Information
VERS.                      2.0: CWLS Log ASCII Standard - VERSION 2.0
WRAP.                       NO: One line per depth step
~Well Information Block
STRT.FT                -8.5000: 
STOP.FT              2823.2500: 
STEP.FT                 0.2500: 
NULL.                -999.2500: 
COMP.          Pioneer Natural Resources: COMPANY
WELL.                AMX 13-13: WELL
FLD.           Purgatorie River: FIELD
LOC.           2316' FSL & 865' FWL--: LOCATION
PROV.                       CO: PROVINCE
CNTY.               Las Animas: COUNTRY
SRVC.          Patterson Wireline: SERVICE COMPANY
DATE.          Tue Dec 27 10:40:58 2005: LOG DATE
UWI.           05 071 08630 00: UNIQUE WELL ID
~Curve Information Block
DEPT.FT            0 000 00 00: Depth
CCL.                          : Casing Collar Locator
TT3.usec                      : CBL 3' Travel Time
AMP3.mV                       : CBL 3' Amplitude
GR.GAPI                       : Gamma Ray
~Parameter Information Block
~A  Depth       CCL         TT3         AMP3         GR     
# ...
   192.5000      0.0000    920.0589      8.0951     79.1517
   192.7500      0.0000    918.6703      8.0800     80.1055
   193.0000      0.0000    912.9167      8.1227     81.2982
   193.2500      0.0000    903.2026      8.2178     83.4093
   193.5000      0.0000    892.8243      8.3495     86.8259
   193.7500      0.0000    885.7544      8.4944     90.5965
   194.0000      0.0000    883.8307      8.6298     93.0746
   194.2500      0.0000    886.1971      8.7443     93.4800
   194.5000      0.0000    890.8093      8.8410     92.4332
   194.7500      0.0000    895.8764      8.9280     90.9426
   195.0000      0.0000    900.2399      9.0083     89.2675
   195.2500      0.0000    903.3441      9.0764     86.9291
   195.5000      0.0000    905.2349      9.1230     83.7185
   195.7500      0.0000    906.3488      9.1376     80.3610
   196.0000      0.0000    907.1097      9.1122     77.9367
   196.2500      0.0000    907.7098      9.0464     76.9947
   196.5000      0.0000    908.2166      8.9488     77.5757
   196.7500      0.0000    908.7834      8.8344     79.5627
   197.0000      0.0000    909.7182      8.7233     82.3925
   197.2500      0.0000    911.2925      8.6416     84.6833
   197.5000      0.0000    913.3119      8.6220     84.8396
   197.7500      0.0000    914.7712      8.7002     82.2981
   198.0000      0.0000    914.2189      8.8951     77.9820
   198.2500      0.0000    910.9448      9.1682     73.4679
   198.5000      0.0000    905.7802      9.4021     69.7986
   198.7500      0.0000    900.2704      9.4601     66.9713
   199.0000      0.0000    895.0818      9.3045     64.2496
   199.2500      0.0000    889.7660      9.0363     60.9155
   199.5000      0.0000    884.0555      8.7979     57.1100
   199.7500      0.0000    878.6290      8.6528     54.0280
   200.0000      0.0000    874.3818      8.5685     52.7945
   200.2500      0.0000    871.5344      8.4816     53.0316
   200.5000      0.0000    869.6846      8.3556     53.0478
   200.7500      0.0000    868.2948      8.1929     51.5249
   201.0000      0.0000    866.8598      8.0163     48.6282
   201.2500      0.0000    864.8727      7.8464     45.6634
   201.5000      0.0000    862.0470      7.6921     44.2792
   201.7500      0.0000    858.5867      7.5561     45.8845
   202.0000      0.0000    854.9068      7.4418     50.9226
   202.2500      0.0000    851.0391      7.3527     58.2017
   202.5000      0.0000    846.8618      7.2870     65.2564
   202.7500      0.0000    843.1209      7.2351     69.8388
   203.0000      0.0000    841.4363      7.1850     71.2852
   203.2500      0.0000    842.7202      7.1295     70.6880
   203.5000      0.0000    846.1232      7.0726     69.9537
   203.7500      0.0000    850.0774      7.0271     70.5282
   204.0000      0.0000    853.8386      7.0043     72.5888
   204.2500      0.0000    857.3927      7.0041     75.0721
   204.5000      0.0000    860.3408      7.0178     76.3109
   204.7500      0.0000    861.7256      7.0398     74.8560
   205.0000      0.0000    860.9568      7.0734     70.2690
   205.2500      0.0000    858.4081      7.1240     63.6892
   205.5000      0.0000    854.8577      7.1873     57.5894
   205.7500      0.0000    850.5104      7.2469     54.4034
   206.0000      0.0000    845.0333      7.2828     54.8591
   206.2500      0.0000    838.6359      7.2844     57.4134
   206.5000      0.0000    832.5670      7.2562     59.3330
   206.7500      0.0000    828.2657      7.2130     58.6371
   207.0000      0.0000    826.4186      7.1712     55.4771
   207.2500      0.0000    826.9141      7.1431     51.8814
   207.5000      0.0000    829.1257      7.1366     50.0991
   207.7500      0.0000    831.9916      7.1531     51.0366
   208.0000      0.0000    834.4713      7.1845     54.0629
   208.2500      0.0000    836.5673      7.2147     57.9548
   208.5000      0.0000    839.5881      7.2283     61.7122
   208.7500      0.0000    844.7620      7.2187     64.6729
   209.0000      0.0000    851.6680      7.1924     66.4733
   209.2500      0.0000    858.4570      7.1633     67.1572
   209.5000      0.0000    863.4421      7.1443     66.9966
   209.7500      0.0000    866.0736      7.1396     66.0569
   210.0000      0.0000    866.5713      7.1448     64.1474
   210.2500      0.0000    865.2785      7.1526     61.2364
   210.5000      0.0000    862.6898      7.1583     57.7832
   210.7500      0.0000    859.7594      7.1594     54.6656
   211.0000      0.0000    857.4561      7.1542     52.7714
   211.2500      0.0000    855.6430      7.1444     52.5421
   211.5000      0.0000    852.8791      7.1391     53.8820
   211.7500      0.0000    847.9499      7.1528     56.2241
   212.0000      0.0000    841.4715      7.1963     58.4271
   212.2500      0.0000    835.6038      7.2684     59.0769
   212.5000      0.0000    832.2894      7.3558     57.6272
   212.7500      0.0000    831.8939      7.4402     55.1334
   213.0000      0.0000    833.2379      7.5056     53.3338
   213.2500      0.0000    834.8040      7.5421     53.0754
   213.5000      0.0000    836.1458      7.5495     53.8941
   213.7500      0.0000    837.9836      7.5399     54.8959
   214.0000      0.0000    840.6286      7.5321     55.6351
   214.2500      0.0000    842.8182      7.5399     56.0898
   214.5000      0.0000    842.9385      7.5621     56.2716
   214.7500      0.0000    841.2186      7.5860     56.3714
   215.0000      0.0000    839.8664      7.5998     57.1927
   215.2500      0.0000    840.9844      7.6022     59.7928
   215.5000      0.0000    844.9666      7.5973     64.1997
   215.7500      0.0000    850.8012      7.5860     68.5687
   216.0000      0.0000    856.9575      7.5631     70.1609
   216.2500      0.0000    861.6176      7.5230     67.6443
   216.5000      0.0000    862.6218      7.4685     62.3865
   216.7500      0.0000    858.0117      7.4126     57.1085
   217.0000      0.0000    847.7135      7.3707     53.4297
   217.2500      0.0000    835.6161      7.3494     51.2070
   217.5000      0.0000    828.9011      7.3476     49.8399
   217.7500      0.0000    832.6863      7.3633     49.1768
   218.0000      0.0000    844.6239      7.3963     49.0596
   218.2500      0.0000    856.6816      7.4414     48.8679
   218.5000      0.0000    863.0397      7.4851     47.9597
   218.7500      0.0000    864.8232      7.5118     46.2832
   219.0000      0.0000    866.7476      7.5150     44.4704
   219.2500      0.0000    870.9146      7.5036     43.4886
   219.5000      0.0000    875.3109      7.4951     44.1527
   219.7500      0.0000    877.2692      7.5007     46.7130
   220.0000      0.0000    876.1520      7.5205     50.7248
   220.2500      0.0000    872.4652      7.5497     55.2571
   220.5000      0.0000    866.3437      7.5837     59.3942
   220.7500      0.0000    858.1589      7.6201     62.7946
   221.0000      0.0000    850.0437      7.6623     65.6932
   221.2500      0.0000    846.1048      7.7199     68.1119
   221.5000      0.0000    850.8627      7.7974     69.2707
   221.7500      0.0000    867.0739      7.8870     68.2270
   222.0000      0.0000    894.2628      7.9788     65.1688
   222.2500      0.0000    928.0150      8.0724     61.8652
   222.5000      0.0000    959.6201      8.1737     60.8401
   222.7500      0.0000    978.0561      8.2834     64.0660
   223.0000      0.0000    976.0494      8.3950     71.9195
   223.2500      0.0000    955.9584      8.5003     82.6688
   223.5000      0.0000    928.5033      8.5959     92.9243
   223.7500      0.0000    904.5209      8.6818     99.3898
   224.0000      0.0000    887.7971      8.7546    101.0310
   224.2500      0.0000    875.0201      8.8036     99.6183
   224.5000      0.0000    861.1454      8.8137     97.6954
   224.7500      0.0000    844.2086      8.7731     96.0092
   225.0000      0.0000    825.5187      8.6794     93.4090
   225.2500      0.0000    806.4871      8.5426     88.9662
   225.5000      0.0000    786.9211      8.3872     83.3871
   225.7500      0.0000    766.9486      8.2484     78.4308
