~Version Information
 VERS.                                  2.0 : CWLS LAS VERSION
 WRAP.                                   NO : WRAPING MODE
 SWARE .                 MController 2.5.0N : SOFTWARE VERSION
~Well Information
 WELL.                            AMX 13-13 : WELL
 COMP.  Pioneer Natural Resources USA, Inc. : COMPANY
 FLD.                      Purgatoire River : FIELD
 LOC.                      NW/SW 13-32S-68W : LOCATION
 DATE.                          12/18-19/05 : DATE(S) LOGGED
 SRVC.       BLANCO Geological Services LLC : SERVICE COMPANY
 STAT.                                   CO : STATE
 CNTY.                           Las Animas : COUNTY
 CTRY.                                  USA : COUNTRY
 API.                          05-071-08630 : API NUMBER
 STRT.FT                             496.00 : START DEPTH
 STOP.FT                            2875.00 : STOP DEPTH
 STEP.FT                               1.00 : DEPTH INCREMENT
 NULL.                                -9999 : NULL VALUE
~Curve information
 DEPTH.FT                                   :
 ROP.MIN/FT                                 :
 GAS.UNITS                                  :
~ASCII Log data
       496.0     -9999.00          7.4 
       497.0         0.20          7.6 
       498.0         0.20          7.6 
       499.0         0.23          7.7 
       500.0         0.20          7.7 
       501.0         0.25          7.8 
       502.0         0.27          7.8 
       503.0         0.27          7.9 
       504.0         0.20          8.1 
       505.0         0.20          8.1 
       506.0         0.27          8.2 
       507.0         0.23          8.1 
       508.0         0.20          7.9 
       509.0         0.40          7.9 
       510.0         0.27          7.2 
       511.0         0.20          7.4 
       512.0         0.20          7.2 
       513.0         0.20          7.2 
       514.0         0.20          6.9 
       515.0         0.22          7.2 
       516.0         0.23          7.3 
       517.0         0.13          7.3 
       518.0         0.20          7.4 
       519.0         0.20          8.0 
       520.0         0.27          7.6 
       521.0         0.20          7.4 
       522.0         0.20          7.6 
       523.0         0.13          7.5 
       524.0         0.23          7.4 
       525.0         0.17          7.7 
       526.0         1.08          8.3 
       527.0         0.40          8.3 
       528.0         0.40          8.7 
       529.0         0.33          8.8 
       530.0         0.30          8.7 
       531.0         0.23          8.9 
       532.0         0.27          8.8 
       533.0         0.23          8.8 
       534.0         0.23          8.8 
       535.0         0.25          8.6 
       536.0         0.27          8.6 
       537.0         0.20          8.7 
       538.0         0.20          8.5 
       539.0         0.23          8.6 
       540.0         0.20          8.4 
       541.0         0.23          8.4 
       542.0         0.23          8.2 
       543.0         0.23          8.3 
       544.0         0.23          8.3 
       545.0         0.22          8.6 
       546.0         0.23          8.7 
       547.0         0.27          8.5 
       548.0         0.30          8.9 
       549.0         0.33          8.9 
       550.0         0.30          8.8 
       551.0         0.30          8.4 
       552.0         0.27          8.2 
       553.0         0.23          8.4 
       554.0         0.23          8.1 
       555.0         0.88          7.9 
       556.0         0.40          6.9 
       557.0         0.43          6.7 
       558.0         0.40          6.2 
       559.0         0.30          6.0 
       560.0         0.33          6.0 
       561.0         0.40          5.9 
       562.0         0.47          5.8 
       563.0         0.42          5.8 
       564.0         0.40          6.0 
       565.0         0.40          5.7 
       566.0         0.40          5.7 
       567.0         0.37          5.9 
       568.0         0.43          0.0 
       569.0         0.40          0.0 
       570.0         0.42          0.0 
       571.0         0.33          0.0 
       572.0         8.35          5.1 
       573.0         0.27          5.2 
       574.0         0.27          5.2 
       575.0         0.33          5.2 
       576.0         0.30          5.3 
       577.0         0.30          5.4 
       578.0         0.30          5.5 
       579.0         0.27          5.7 
       580.0         0.27          5.7 
       581.0         0.30          5.9 
       582.0         0.25          5.9 
       583.0         0.33          6.0 
       584.0         0.37          6.2 
       585.0         0.40          6.1 
       586.0         0.37          2.0 
       587.0         0.37          2.4 
       588.0         0.37          2.4 
       589.0         0.30          2.1 
       590.0         0.33          1.8 
       591.0         0.27          1.5 
       592.0         0.28          1.5 
       593.0         0.27          1.4 
       594.0         0.17          1.2 
       595.0         0.43          1.3 
       596.0         1.73          1.6 
       597.0         0.30          1.7 
       598.0         0.32          1.4 
       599.0         0.27          1.4 
       600.0         0.37          1.3 
       601.0         0.37          1.2 
       602.0         0.43          1.2 
       603.0         0.33          1.3 
       604.0         0.37          1.3 
       605.0         0.23          1.3 
       606.0         0.23          1.3 
       607.0         0.27          1.4 
       608.0         0.27          1.4 
       609.0         0.35          1.1 
       610.0         0.27          1.2 
       611.0         0.33          1.2 
       612.0         0.30          1.1 
       613.0         0.37          1.2 
       614.0         0.30          1.3 
       615.0         0.27          1.1 
       616.0         0.27          1.1 
       617.0         0.23          1.0 
       618.0         0.23          0.9 
       619.0         0.23          1.1 
       620.0         0.23          1.1 
       621.0         0.25          1.1 
       622.0         0.30          1.1 
       623.0         0.27          1.2 
       624.0         0.30          1.1 
       625.0         0.23          1.1 
       626.0         1.90          1.4 
       627.0         0.45          1.2 
       628.0         0.43          1.4 
       629.0         0.37          1.2 
       630.0         0.33          1.3 
       631.0         0.33          1.2 
       632.0         0.27          1.2 
       633.0         0.27          1.2 
       634.0         0.30          1.2 
       635.0         0.23          1.2 
       636.0         0.30          1.2 
       637.0         0.32          1.3 
       638.0         0.30          1.2 
       639.0         0.30          1.2 
       640.0         0.30          1.2 
       641.0         0.30          1.3 
       642.0         0.30          1.2 
       643.0         0.33          1.2 
       644.0         0.30          1.2 
       645.0         0.33          1.2 
       646.0         0.33          1.3 
       647.0         0.40          1.3 
       648.0         0.28          1.2 
       649.0         0.33          1.2 
       650.0         0.30          1.2 
       651.0         0.33          1.3 
       652.0         0.33          1.1 
       653.0         0.30          0.9 
       654.0         0.33          1.0 
       655.0         0.30          1.0 
       656.0         2.65          1.1 
       657.0         0.43          1.0 
       658.0         0.43        119.5 
       659.0         0.37        183.2 
       660.0         0.38        167.5 
       661.0         0.37         87.6 
       662.0         0.37         40.8 
       663.0         0.33         17.5 
       664.0         0.33          5.9 
       665.0         0.33          0.3 
       666.0         0.37          1.8 
       667.0         0.30          0.7 
       668.0         0.30          1.8 
       669.0         0.33          1.9 
       670.0         0.38          1.9 
       671.0         0.33          2.1 
       672.0         0.33          2.2 
       673.0         0.33          2.4 
       674.0         0.33          2.4 
       675.0         0.37          2.8 
       676.0         0.33          3.0 
       677.0         0.30          3.1 
       678.0         0.27          3.2 
       679.0         0.27          3.3 
       680.0         0.27          3.6 
       681.0         0.28          3.6 
       682.0         0.27          3.6 
       683.0         0.27          3.6 
       684.0         0.27          3.7 
       685.0         0.27          3.8 
       686.0         1.57          4.1 
       687.0         0.23          4.0 
       688.0         0.42          4.2 
       689.0         0.37          4.1 
       690.0         0.33          4.2 
       691.0         0.33          4.3 
       692.0         0.30          4.3 
       693.0         0.30          4.3 
       694.0         0.30          4.4 
       695.0         0.37          4.5 
