~Version Information
VERS.                      2.0: CWLS Log ASCII Standard - VERSION 2.0
WRAP.                       NO: One line per depth step
~Well Information Block
STRT.FT               390.0000: 
STOP.FT               825.0000: 
STEP.FT                 0.1000: 
NULL.                -999.2500: 
COMP.          Pioneer Natural Resources: COMPANY
WELL.             Veedol 34-28: WELL
FLD.           Purgatoire River: FIELD
LOC.           357' FSL & 2520' FEL: LOCATION
PROV.                 Colorado: PROVINCE
CNTY.               Las Animas: COUNTRY
SRVC.                Patterson: SERVICE COMPANY
DATE.          Thu Dec 22 14:38:20 2005: LOG DATE
UWI.           05 071 08628 00: UNIQUE WELL ID
~Curve Information Block
DEPT.FT            0 000 00 00: Depth
DCAL.in                       : CDL Caliper
RHOB.g/cc                     : CDL Bulk Density
RHOC.g/cc                     : CDL Density Correction
DPOR.pu                       : CDL Density Porosity
GR.GAPI                       : Gamma Ray
NPOR.pu                       : Neutron Porosity
~Parameter Information Block
~A  Depth       DCAL        RHOB        RHOC        DPOR         GR         NPOR    
# ...
   418.8000      7.9222      2.2540      0.0610     23.9973    103.4014     22.7580
   418.9000      7.9222      2.2630      0.0028     23.4537    104.4944     23.1136
   419.0000      7.9262      2.2943      0.0696     21.5588    103.7987     23.0273
   419.1000      7.9262      2.3330      0.0771     19.2124    103.0592     22.7761
   419.2000      7.9262      2.3699      0.0468     16.9768    107.6749     22.6074
   419.3000      7.9313      2.4102      0.1102     14.5311    115.7066     22.3260
   419.4000      7.9313      2.4480      0.1120     12.2406    118.1085     22.1574
   419.5000      7.9343      2.4727      0.0876     10.7445    115.5698     22.3148
   419.6000      7.9343      2.4855      0.0531      9.9670    117.5440     22.4035
   419.7000      7.9343      2.4921      0.0452      9.5713    125.5819     22.2109
   419.8000      7.9353      2.4865      0.0509      9.9110    130.9041     21.9255
   419.9000      7.9353      2.4662      0.0085     11.1399    127.9976     21.9201
   420.0000      7.9327      2.4487     -0.0452     12.1980    121.5429     22.3073
   420.1000      7.9327      2.4489     -0.0655     12.1869    116.5220     22.7667
   420.2000      7.9327      2.4605     -0.0469     11.4854    112.5860     23.0826
   420.3000      7.9300      2.4707     -0.0237     10.8682    112.0127     23.3911
   420.4000      7.9300      2.4739     -0.0173     10.6752    117.2993     23.7726
   420.5000      7.9287      2.4704     -0.0363     10.8869    123.5964     23.9531
   420.6000      7.9287      2.4650     -0.0034     11.2105    125.7546     23.7641
   420.7000      7.9287      2.4645     -0.0002     11.2443    124.0351     23.2643
   420.8000      7.9280      2.4746     -0.0044     10.6273    118.9168     22.7479
   420.9000      7.9280      2.4932      0.0070      9.5032    114.5018     22.7458
   421.0000      7.9292      2.5090      0.0133      8.5431    115.8517     23.3340
   421.1000      7.9292      2.5122      0.0227      8.3490    118.4132     24.2094
   421.2000      7.9292      2.5047     -0.0035      8.8072    117.9916     25.0214
   421.3000      7.9313      2.4993     -0.0040      9.1362    118.7156     25.3709
   421.4000      7.9313      2.4980      0.0116      9.2138    121.3649     25.1749
   421.5000      7.9303      2.4895      0.0007      9.7251    122.2540     24.8862
   421.6000      7.9303      2.4714     -0.0143     10.8261    122.7726     24.7192
   421.7000      7.9303      2.4540     -0.0322     11.8758    126.5924     24.0992
   421.8000      7.9284      2.4429     -0.0180     12.5496    132.2933     23.3348
   421.9000      7.9284      2.4347     -0.0445     13.0506    134.7724     23.2588
   422.0000      7.9276      2.4337     -0.0333     13.1081    133.9048     23.4184
   422.1000      7.9276      2.4455     -0.0325     12.3941    136.1827     23.5029
   422.2000      7.9276      2.4617     -0.0084     11.4098    140.8335     23.8927
   422.3000      7.9279      2.4762     -0.0371     10.5354    140.8747     24.4366
   422.4000      7.9279      2.4925      0.0019      9.5461    137.3386     24.6551
   422.5000      7.9279      2.5097     -0.0011      8.5052    133.3101     24.5020
   422.6000      7.9279      2.5189      0.0285      7.9435    129.7232     24.1244
   422.7000      7.9279      2.5083      0.0552      8.5906    127.8232     23.6683
   422.8000      7.9279      2.4822     -0.0084     10.1696    127.4574     23.6689
   422.9000      7.9279      2.4697     -0.0463     10.9259    127.9177     24.4200
   423.0000      7.9278      2.4841      0.0084     10.0570    128.1483     25.4634
   423.1000      7.9278      2.5051     -0.0169      8.7825    125.1098     25.8885
   423.2000      7.9278      2.5124      0.0298      8.3397    120.5413     25.6965
   423.3000      7.9264      2.5070      0.0237      8.6666    120.3406     26.1037
   423.4000      7.9264      2.5059     -0.0000      8.7307    124.8942     27.3482
   423.5000      7.9240      2.5175      0.0116      8.0298    130.0978     28.0005
   423.6000      7.9240      2.5291      0.0047      7.3272    129.9614     27.5568
   423.7000      7.9240      2.5270      0.0189      7.4542    125.0635     27.1667
   423.8000      7.9217      2.5149      0.0065      8.1876    122.5738     27.2658
   423.9000      7.9217      2.5048      0.0243      8.8026    124.2042     27.1253
   424.0000      7.9201      2.5057     -0.0407      8.7440    125.9851     26.5534
   424.1000      7.9201      2.5224      0.0288      7.7331    125.8618     26.1247
   424.2000      7.9201      2.5455      0.0387      6.3351    124.7644     26.4430
   424.3000      7.9200      2.5553      0.0193      5.7405    122.7018     26.9994
   424.4000      7.9200      2.5422      0.0218      6.5333    120.8122     26.8486
   424.5000      7.9206      2.5201     -0.0226      7.8756    122.1581     26.1662
   424.6000      7.9206      2.5101     -0.0311      8.4796    124.1659     25.3146
   424.7000      7.9206      2.5165      0.0009      8.0928    122.0696     24.1065
   424.8000      7.9187      2.5272      0.0150      7.4428    116.4829     22.5866
   424.9000      7.9187      2.5269      0.0227      7.4581    109.5974     21.1824
   425.0000      7.9169      2.5040      0.0177      8.8507    102.4779     20.0551
   425.1000      7.9169      2.4564     -0.0205     11.7326     99.5831     18.9623
   425.2000      7.9169      2.3885     -0.0309     15.8499    102.9955     17.5801
   425.3000      7.9173      2.3060     -0.0313     20.8475    106.7929     15.8813
   425.4000      7.9173      2.2217     -0.0768     25.9581    107.8508     14.7241
   425.5000      7.9196      2.1485     -0.1302     30.3960    107.0778     14.7017
   425.6000      7.9196      2.0816     -0.0701     34.4455    103.8856     15.3463
   425.7000      7.9196      2.0103     -0.1029     38.7722     99.1657     15.9233
   425.8000      7.9277      1.9427     -0.1009     42.8673     96.8733     15.9932
   425.9000      7.9277      1.8978     -0.0894     45.5870     99.7203     15.6742
   426.0000      7.9437      1.8919     -0.0655     45.9466    103.9425     15.7109
   426.1000      7.9437      1.9212      0.0762     44.1677    105.7867     16.5095
   426.2000      7.9437      1.9599      0.0985     41.8240    108.2408     17.5076
   426.3000      7.9594      1.9972      0.0645     39.5639    110.6782     18.3384
   426.4000      7.9594      2.0462      0.0254     36.5960    108.9156     19.1246
   426.5000      7.9717      2.1105      0.1038     32.6987    105.6507     19.9440
   426.6000      7.9717      2.1746      0.1360     28.8114    104.9314     20.6848
   426.7000      7.9717      2.2277      0.1435     25.5935    106.7773     20.8269
   426.8000      7.9813      2.2719      0.1324     22.9140    110.1528     20.4902
   426.9000      7.9813      2.3051      0.1232     20.9030    115.8760     20.6236
   427.0000      7.9857      2.3230      0.0357     19.8184    124.6399     21.4704
   427.1000      7.9857      2.3341      0.0554     19.1457    131.3394     22.6605
   427.2000      7.9857      2.3476      0.0226     18.3256    132.0904     23.9831
   427.3000      7.9867      2.3629      0.0408     17.4018    129.9247     24.7783
   427.4000      7.9867      2.3718      0.0515     16.8595    128.1586     24.8293
   427.5000      7.9873      2.3763      0.0178     16.5885    126.6599     24.9041
   427.6000      7.9873      2.3873      0.0300     15.9218    123.7523     25.0549
   427.7000      7.9873      2.4014      0.0694     15.0662    120.4931     24.9407
   427.8000      7.9913      2.4081      0.0473     14.6593    121.2173     24.8970
   427.9000      7.9913      2.4037      0.0585     14.9250    124.9488     25.0279
   428.0000      7.9991      2.3902      0.0201     15.7472    126.3047     25.2072
   428.1000      7.9991      2.3812     -0.0109     16.2886    122.9304     25.3247
   428.2000      7.9991      2.3865      0.0164     15.9696    119.6259     24.9206
   428.3000      8.0044      2.4034     -0.0062     14.9427    122.7795     24.1851
