~Version Information
 VERS.                                  2.0 : CWLS LAS VERSION
 WRAP.                                   NO : WRAPING MODE
 SWARE .                 MController 2.5.0J : SOFTWARE VERSION
~Well Information
 WELL.                     Montoya 18-11V B : WELL
 COMP.                 Petrogulf Corporation: COMPANY
 FLD.                      Purgatoire River : FIELD
 LOC.                NW/NW Sec 18 T33S R67W : LOCATION
 DATE.                            10/3-4/05 : DATE(S) LOGGED
 SRVC.       BLANCO Geological Services LLC : SERVICE COMPANY
 STAT.                                   CO : STATE
 CNTY.                           Las Animas : COUNTY
 CTRY.                                  USA : COUNTRY
 API.                       05-071-08539-00 : API NUMBER
 STRT.FT                              86.00 : START DEPTH
 STOP.FT                            2495.00 : STOP DEPTH
 STEP.FT                               1.00 : DEPTH INCREMENT
 NULL.                                9999 : NULL VALUE
~Curve information
 DEPTH.FT                                   :
 ROP.MIN/FT                                 :
 GAS.UNITS                                  :
~ASCII Log data 
# ...
      1086.0         0.30          8.4 
      1087.0         0.17          8.3 
      1088.0         0.10          7.8 
      1089.0         0.23          7.8 
      1090.0         0.27          8.0 
      1091.0         0.23          8.1 
      1092.0         0.23          8.4 
      1093.0         0.30          8.2 
      1094.0         0.23          8.0 
      1095.0         0.20          8.3 
      1096.0         0.23          8.3 
      1097.0         0.25          8.6 
      1098.0         0.23          8.0 
      1099.0         0.30          8.1 
      1100.0         0.27          8.3 
      1101.0         0.23          8.5 
      1102.0         0.23          8.0 
      1103.0         0.23          8.5 
      1104.0         0.23          8.3 
      1105.0         0.30          8.6 
      1106.0         0.23          8.0 
      1107.0         0.27          8.3 
      1108.0         3.33          8.8 
      1109.0         0.30          8.8 
      1110.0         0.37          8.3 
      1111.0         0.33          8.8 
      1112.0         0.33          8.3 
      1113.0         0.37          8.8 
      1114.0         0.30          8.3 
      1115.0         0.30          8.7 
      1116.0         0.35          8.8 
      1117.0         0.27          8.7 
      1118.0         0.27          8.1 
      1119.0         0.27          8.6 
      1120.0         0.23          8.6 
      1121.0         0.27          8.9 
      1122.0         0.27          8.6 
      1123.0         0.23          8.8 
      1124.0         0.23          8.4 
      1125.0         0.23          8.5 
      1126.0         0.23          8.9 
      1127.0         0.25          8.7 
      1128.0         0.20          8.7 
      1129.0         0.23          8.7 
      1130.0         0.23          8.8 
      1131.0         0.20          8.5 
      1132.0         0.20          8.8 
      1133.0         0.27          8.7 
      1134.0         0.23          8.8 
      1135.0         0.33          8.9 
      1136.0         0.23          8.5 
      1137.0         0.27          8.6 
      1138.0         0.33          8.5 
      1139.0         0.32          8.7 
      1140.0         2.97          8.9 
      1141.0         0.38          8.9 
      1142.0         0.30          9.0 
      1143.0         0.27          9.0 
      1144.0         0.37          9.0 
      1145.0         0.53          8.9 
      1146.0         0.27          8.6 
      1147.0         0.13          8.3 
      1148.0         0.10          8.6 
      1149.0         0.10          8.9 
      1150.0         0.07          8.4 
      1151.0         0.10          8.4 
      1152.0         0.10          9.1 
      1153.0         0.10          8.9 
      1154.0         0.23          8.6 
      1155.0         0.28          9.0 
      1156.0         0.27          8.8 
      1157.0         0.33          8.9 
      1158.0         0.27          9.1 
      1159.0         0.23          9.0 
      1160.0         0.23          8.9 
      1161.0         0.23          8.7 
      1162.0         0.30          8.7 
      1163.0         0.23          8.8 
      1164.0         0.23          8.9 
      1165.0         0.27          8.4 
      1166.0         0.23          8.9 
      1167.0         0.27          9.0 
      1168.0         0.25          9.1 
      1169.0         0.50          8.9 
      1170.0         3.22          9.2 
      1171.0         0.40          9.1 
      1172.0         0.53          9.0 
      1173.0         0.50          8.8 
      1174.0         0.43          9.1 
      1175.0         0.43          8.7 
      1176.0         0.20          9.2 
      1177.0         0.10          8.6 
      1178.0         0.15          8.7 
      1179.0         0.13          9.1 
      1180.0         0.20          9.3 
      1181.0         0.17          9.1 
      1182.0         0.20          9.2 
      1183.0         0.23          8.9 
      1184.0         0.23          8.8 
      1185.0         0.20          8.9 
      1186.0         0.20          9.1 
      1187.0         0.20          8.6 
      1188.0         0.17          8.9 
      1189.0         0.27          9.0 
      1190.0         0.27          9.0 
      1191.0         0.40          9.1 
      1192.0         0.27          9.3 
      1193.0         0.35          9.4 
      1194.0         0.27          8.7 
      1195.0         0.17          9.2 
      1196.0         0.20          9.5 
      1197.0         0.20          9.5 
      1198.0         0.20          9.2 
      1199.0         0.30          9.7 
      1200.0         2.32         70.1 
      1201.0         0.33        132.3 
      1202.0         0.27         92.6 
      1203.0         0.27         32.8 
      1204.0         0.53         13.3 
      1205.0         0.63          5.9 
      1206.0         0.48          4.3 
      1207.0         0.40          4.6 
      1208.0         0.33          4.5 
      1209.0         0.33          4.9 
      1210.0         0.30          5.3 
      1211.0         0.37          5.9 
      1212.0         0.43          6.3 
      1213.0         0.40          6.9 
      1214.0         0.40          7.4 
      1215.0         0.38         10.2 
      1216.0         0.30         11.2 
      1217.0         0.30         11.5 
      1218.0         0.30         10.5 
      1219.0         0.27          9.5 
      1220.0         0.20          9.3 
      1221.0         0.10          9.0 
      1222.0         0.10          8.4 
      1223.0         0.07          7.9 
      1224.0         0.13          8.0 
      1225.0         0.27          7.2 
      1226.0         0.33          7.2 
      1227.0         0.23          7.2 
      1228.0         0.20          7.5 
      1229.0         0.27          8.1 
      1230.0         1.62         10.3 
      1231.0         0.20          9.2 
      1232.0         0.17          8.7 
      1233.0         0.27          8.8 
      1234.0         0.13          8.0 
      1235.0         0.13          8.7 
      1236.0         0.33          8.6 
      1237.0         0.37          8.5 
      1238.0         0.45          8.3 
      1239.0         0.40          8.4 
      1240.0         0.33          8.1 
      1241.0         0.23          8.1 
      1242.0         0.17          8.0 
      1243.0         0.20          8.2 
      1244.0         0.17          8.0 
      1245.0         0.27          8.1 
      1246.0         0.27          9.0 
      1247.0         0.23          9.8 
      1248.0         0.20         10.4 
      1249.0         0.23         10.3 
      1250.0         0.20          9.3 
      1251.0         0.22          9.6 
      1252.0         0.23          9.2 
      1253.0         0.17          9.1 
      1254.0         0.13          8.8 
      1255.0         0.13          8.6 
      1256.0         0.17          8.5 
      1257.0         0.23          9.1 
      1258.0         0.27          8.5 
      1259.0         0.40          9.3 
      1260.0         3.35         10.4 
      1261.0         0.43         10.2 
      1262.0         0.20          8.8 
      1263.0         0.10          8.6 
      1264.0         0.65          8.9 
      1265.0         0.33          8.1 
      1266.0         0.67          8.2 
      1267.0         0.30          8.2 
      1268.0         0.27          8.0 
      1269.0         0.23          7.9 
      1270.0         0.27          8.2 
      1271.0         0.33          8.2 
      1272.0         0.25          8.7 
      1273.0         0.23          8.9 
      1274.0         0.20          8.9 
      1275.0         0.20          9.3 
      1276.0         0.20          8.5 
      1277.0         0.13          8.5 
      1278.0         0.17          8.5 
      1279.0         0.20          8.7 
      1280.0         0.17          8.9 
      1281.0         0.13          8.8 
      1282.0         0.17          8.9 
      1283.0         0.20          8.6 
      1284.0         0.27          8.7 
      1285.0         0.27          8.8 
