~Version Information
VERS.                      2.0: CWLS Log ASCII Standard - VERSION 2.0
WRAP.                       NO: One line per depth step
~Well Information Block
STRT.FT               262.2500: 
STOP.FT              1942.0000: 
STEP.FT                 0.2500: 
NULL.                -999.2500: 
COMP.          XTO Energy Inc.: COMPANY
WELL.          Golden Eagle 19-11: WELL
FLD.           Purgatoire River: FIELD
LOC.           2351' FSL & 1926' FWL--: LOCATION
CNTY.               Las Animas: COUNTY
SRVC.                Patterson: SERVICE COMPANY
DATE.          Wed Mar 08 23:33:01 2006: LOG DATE
UWI.           05 071 08696 00: UNIQUE WELL ID
STAT.                 Colorado: STATE
~Curve Information Block
DEPT.FT            0 000 00 00: Depth
SP.mV                         : DIL Spontaneous Potential
RILD.Ohm-m                    : DIL Deep Resistivity
RILM.Ohm-m                    : DIL Medium Resistivity
RLL3.Ohm-m                    : DIL Shallow Resistivity
GR.GAPI                       : Gamma Ray
~Parameter Information Block
~A  Depth        SP         RILD        RILM        RLL3         GR     
# ...
   626.2500   -999.2500      8.0187      8.0112   2000.0000    114.8663
   626.5000   -999.2500      8.1200      8.1774   2000.0000    115.3010
   626.7500   -999.2500      8.2300      8.3547   2000.0000    115.5561
   627.0000   -999.2500      8.3397      8.5432   2000.0000    116.1312
   627.2500   -999.2500      8.4431      8.7475   2000.0000    116.3591
   627.5000   -999.2500      8.5387      8.9775   2000.0000    115.7173
   627.7500   -999.2500      8.6283      9.2458   2000.0000    114.5336
   628.0000   -999.2500      8.7143      9.5608   2000.0000    112.3219
   628.2500   -999.2500      8.7984      9.9139   2000.0000    111.1779
   628.5000   -999.2500      8.8827     10.2685   2000.0000    110.7018
   628.7500   -999.2500      8.9700     10.5631   2000.0000    111.2556
   629.0000   -999.2500      9.0639     10.7403   2000.0000    112.8412
   629.2500   -999.2500      9.1671     10.7893   2000.0000    113.9769
   629.5000   -999.2500      9.2798     10.7571   2000.0000    115.4871
   629.7500   -999.2500      9.4004     10.7153   2000.0000    116.4415
   630.0000   -999.2500      9.5281     10.7131   2000.0000    117.7520
   630.2500   -999.2500      9.6655     10.7560   2000.0000    118.2212
   630.5000   -999.2500      9.8170     10.8169   2000.0000    117.7507
   630.7500   -999.2500      9.9831     10.8655   2000.0000    116.7026
   631.0000   -999.2500     10.1518     10.8916   2000.0000    114.6612
   631.2500   -999.2500     10.2953     10.9050   2000.0000    113.2342
   631.5000   -999.2500     10.3773     10.9189   2000.0000    110.8727
   631.7500   -999.2500     10.3717     10.9359   2000.0000    109.1200
   632.0000   -999.2500     10.2815     10.9463   2000.0000    106.8255
   632.2500   -999.2500     10.1391     10.9369   2000.0000    106.0525
   632.5000   -999.2500      9.9878     10.8997   2000.0000    106.5027
   632.7500   -999.2500      9.8604     10.8354   2000.0000    107.6936
   633.0000   -999.2500      9.7690     10.7530   2000.0000    109.7983
   633.2500   -999.2500      9.7085     10.6665   2000.0000    110.6818
   633.5000   -999.2500      9.6657     10.5924   2000.0000    110.5795
   633.7500   -999.2500      9.6266     10.5487   2000.0000    109.8344
   634.0000   -999.2500      9.5806     10.5530   2000.0000    108.8873
   634.2500   -999.2500      9.5211     10.6179   2000.0000    108.8970
   634.5000   -999.2500      9.4457     10.7419   2000.0000    109.6889
   634.7500   -999.2500      9.3567     10.8971   2000.0000    110.0965
   635.0000   -999.2500      9.2600     11.0259   2000.0000    109.6019
   635.2500   -999.2500      9.1641     11.0565   2000.0000    108.6349
   635.5000   -999.2500      9.0771     10.9398   2000.0000    107.4685
   635.7500   -999.2500      9.0036     10.6834   2000.0000    107.6504
   636.0000   -999.2500      8.9449     10.3486   2000.0000    109.6928
   636.2500   -999.2500      8.9008     10.0131   2000.0000    111.8278
   636.5000   -999.2500      8.8743      9.7334   2000.0000    115.2784
   636.7500   -999.2500      8.8731      9.5322   2000.0000    117.3912
   637.0000   -999.2500      8.9056      9.4058   2000.0000    119.7637
   637.2500   -999.2500      8.9738      9.3379   2000.0000    120.4042
   637.5000   -999.2500      9.0651      9.3102   2000.0000    119.4775
   637.7500   -999.2500      9.1522      9.3066   2000.0000    117.8797
   638.0000   -999.2500      9.2026      9.3154   2000.0000    115.4916
   638.2500   -999.2500      9.1969      9.3291   2000.0000    114.7926
   638.5000   -999.2500      9.1409      9.3454   2000.0000    115.4573
   638.7500   -999.2500      9.0619      9.3659   2000.0000    116.4798
   639.0000   -999.2500      8.9920      9.3939   2000.0000    117.4500
   639.2500   -999.2500      8.9532      9.4324   2000.0000    117.2218
   639.5000   -999.2500      8.9524      9.4830   2000.0000    115.7270
   639.7500   -999.2500      8.9853      9.5471   2000.0000    114.4291
   640.0000   -999.2500      9.0420      9.6284   2000.0000    112.8612
   640.2500   -999.2500      9.1126      9.7366   2000.0000    112.4535
   640.5000   -999.2500      9.1881      9.8869   2000.0000    113.3239
   640.7500   -999.2500      9.2612     10.0945   2000.0000    114.9596
   641.0000   -999.2500      9.3262     10.3612   2000.0000    118.1625
   641.2500   -999.2500      9.3802     10.6605   2000.0000    119.8184
   641.5000   -999.2500      9.4237     10.9317   2000.0000    120.3296
   641.7500   -999.2500      9.4608     11.0997   2000.0000    119.5895
   642.0000   -999.2500      9.4975     11.1180   2000.0000    118.5864
   642.2500   -999.2500      9.5377     11.0009   2000.0000    118.7604
   642.5000   -999.2500      9.5816     10.8117   2000.0000    119.9719
   642.7500   -999.2500      9.6253     10.6198   2000.0000    120.6550
   643.0000   -999.2500      9.6635     10.4691   2000.0000    120.6189
   643.2500   -999.2500      9.6935     10.3730   2000.0000    119.8701
   643.5000   -999.2500      9.7169     10.3262   2000.0000    117.9281
   643.7500   -999.2500      9.7396     10.3170   2000.0000    116.1615
   644.0000   -999.2500      9.7694     10.3338   2000.0000    113.0451
   644.2500   -999.2500      9.8134     10.3670   2000.0000    111.1079
   644.5000   -999.2500      9.8755     10.4085   2000.0000    109.4402
   644.7500   -999.2500      9.9546     10.4515   2000.0000    109.4065
   645.0000   -999.2500     10.0429     10.4919   2000.0000    110.4227
   645.2500   -999.2500     10.1267     10.5291   2000.0000    111.2589
   645.5000   -999.2500     10.1908     10.5652   2000.0000    112.1559
   645.7500   -999.2500     10.2253     10.6039   2000.0000    112.4567
   646.0000   -999.2500     10.2302     10.6467   2000.0000    112.5882
   646.2500   -999.2500     10.2152     10.6917   2000.0000    112.4904
   646.5000   -999.2500     10.1948     10.7340   2000.0000    111.8270
   646.7500   -999.2500     10.1812     10.7676   2000.0000    110.8557
   647.0000   -999.2500     10.1790     10.7887   2000.0000    108.8049
   647.2500   -999.2500     10.1856     10.7985   2000.0000    107.5727
   647.5000   -999.2500     10.1954     10.8056   2000.0000    106.9389
   647.7500   -999.2500     10.2057     10.8252   2000.0000    107.5390
   648.0000   -999.2500     10.2195     10.8761   2000.0000    109.4340
   648.2500   -999.2500     10.2436     10.9732   2000.0000    110.7503
   648.5000   -999.2500     10.2850     11.1190   2000.0000    111.9769
   648.7500   -999.2500     10.3488     11.2967   2000.0000    112.1909
   649.0000   -999.2500     10.4403     11.4709   2000.0000    111.9171
   649.2500   -999.2500     10.5672     11.6001   2000.0000    111.5838
   649.5000   -999.2500     10.7381     11.6594   2000.0000    111.3857
   649.7500   -999.2500     10.9579     11.6584   2000.0000    111.8996
   650.0000   -999.2500     11.2220     11.6436   2000.0000    114.1380
   650.2500   -999.2500     11.5149     11.6802   2000.0000    116.2251
   650.5000   -999.2500     11.8122     11.8290   2000.0000    118.3157
   650.7500   -999.2500     12.0869     12.1281   2000.0000    117.8221
   651.0000   -999.2500     12.3158     12.5821   2000.0000    113.6122
   651.2500   -999.2500     12.4858     13.1573   2000.0000    109.2420
   651.5000   -999.2500     12.5938     13.7827   2000.0000    102.9620
   651.7500   -999.2500     12.6440     14.3612   2000.0000    100.5899
   652.0000   -999.2500     12.6429     14.7930   2000.0000    101.3526
   652.2500   -999.2500     12.5961     15.0032   2000.0000    104.5883
   652.5000   -999.2500     12.5066     14.9643   2000.0000    111.9663
   652.7500   -999.2500     12.3750     14.7011   2000.0000    117.5137
   653.0000   -999.2500     12.2012     14.2772   2000.0000    125.2556
   653.2500   -999.2500     11.9858     13.7670   2000.0000    129.2998
   653.5000   -999.2500     11.7302     13.2313   2000.0000    133.0373
   653.7500   -999.2500     11.4342     12.7049   2000.0000    134.2210
   654.0000   -999.2500     11.0970     12.2000   2000.0000    135.1192
