~Version Information
VERS.                      2.0: CWLS Log ASCII Standard - VERSION 2.0
WRAP.                       NO: One line per depth step
~Well Information Block
STRT.FT                 0.5000: 
STOP.FT              2166.0000: 
STEP.FT                 0.2500: 
NULL.                -999.2500: 
COMP.          Pioneer Natural Resources: COMPANY
WELL.          Bear Cub Federal 11-23: WELL
FLD.           Purgatoire River: FIELD
LOC.           1225' FNL & 1268 ' FWL--: LOCATION
CNTY.               Las Animas: COUNTY
SRVC.                Patterson: SERVICE COMPANY
DATE.          Mon Jul 17 10:21:31 2006: LOG DATE
UWI.           05 071 08509 00: UNIQUE WELL ID
STAT.                 Colorado: STATE
~Curve Information Block
DEPT.FT            0 000 00 00: Depth
CCL.                          : Casing Collar Locator
TT3.usec                      : CBL 3' Travel Time
AMP3.mV                       : CBL 3' Amplitude
GR.GAPI                       : Gamma Ray
~Parameter Information Block
~A  Depth       CCL         TT3         AMP3         GR     
# ...
  1709.0000      0.0000    697.7983      2.3249     57.2198
  1709.2500      0.0000    696.8241      2.3626     57.1929
  1709.5000      0.0000    692.4319      2.4097     56.8372
  1709.7500      0.0000    688.9417      2.4268     56.1042
  1710.0000      0.0000    685.4174      2.4294     53.8888
  1710.2500      0.0000    684.8110      2.4184     51.6422
  1710.5000      0.0000    685.3825      2.3886     47.9928
  1710.7500      0.0000    685.7081      2.3638     46.6855
  1711.0000      0.0000    685.8821      2.3266     49.0435
  1711.2500      0.0000    686.6044      2.3063     53.9539
  1711.5000      0.0000    689.4401      2.2884     63.9216
  1711.7500      0.0000    691.6639      2.2864     69.9012
  1712.0000      0.0000    692.4758      2.2989     75.0862
  1712.2500      0.0000    689.9135      2.3191     75.8308
  1712.5000      0.0000    681.4626      2.3683     73.7900
  1712.7500      0.0000    674.4116      2.4103     70.9166
  1713.0000      0.0000    666.0620      2.4743     65.8558
  1713.2500      0.0000    663.9568      2.5108     63.6128
  1713.5000      0.0000    665.8771      2.5532     65.4902
  1713.7500      0.0000    668.5136      2.5753     71.6899
  1714.0000      0.0000    670.9468      2.6024     88.0196
  1714.2500      0.0000    671.2444      2.6152    101.5141
  1714.5000      0.0000    672.2200      2.6231    120.4851
  1714.7500      0.0000    674.6742      2.6211    129.6664
  1715.0000      0.0000    680.0583      2.6155    136.4458
  1715.2500      0.0000    682.3234      2.6179    136.9972
  1715.5000      0.0000    680.7146      2.6409    134.7374
  1715.7500      0.0000    677.2107      2.6695    132.9946
  1716.0000      0.0000    672.6450      2.7221    132.5634
  1716.2500      0.0000    671.5324      2.7551    134.5904
  1716.5000      0.0000    671.7896      2.7919    140.9091
  1716.7500      0.0000    672.2599      2.8062    146.1918
  1717.0000      0.0000    673.6302      2.8146    153.3908
  1717.2500      0.0000    675.6474      2.8140    157.0882
  1717.5000      0.0000    680.0356      2.8097    161.2550
  1717.7500      0.0000    682.7444      2.8074    163.1015
  1718.0000      0.0000    684.6485      2.8068    163.3414
  1718.2500      0.0000    684.0938      2.8065    161.2464
  1718.5000      0.0000    680.7979      2.8025    155.3415
  1718.7500      0.0000    677.4177      2.7967    150.7137
  1719.0000      0.0000    671.7368      2.7852    144.7680
  1719.2500      0.0000    667.9266      2.7772    142.1610
  1719.5000      0.0000    660.8893      2.7660    140.6907
  1719.7500      0.0000    653.5892      2.7586    141.4441
  1720.0000      0.0000    637.7348      2.7474    145.0032
  1720.2500      0.0000    626.7667      2.7401    148.3608
  1720.5000      0.0000    618.5301      2.7293    153.0134
  1720.7500      0.0000    620.6747      2.7230    154.9391
  1721.0000      0.0000    626.9055      2.7206    155.8005
  1721.2500      0.0000    624.4338      2.7292    155.8089
  1721.5000      0.0000    604.3496      2.7624    157.2198
  1721.7500      0.0000    585.2751      2.7956    160.0194
  1722.0000      0.0000    565.0865      2.8471    166.1270
  1722.2500      0.0000    564.2383      2.8718    169.3062
  1722.5000      0.0000    582.1547      2.8844    168.4369
  1722.7500      0.0000    602.0020      2.8785    163.1640
  1723.0000      0.0000    633.2706      2.8614    150.6176
  1723.2500      0.0000    650.5543      2.8527    141.6561
  1723.5000      0.0000    667.8251      2.8471    130.6424
  1723.7500      0.0000    673.9099      2.8431    125.9865
  1724.0000      0.0000    677.3109      2.8261    123.9398
  1724.2500      0.0000    677.2552      2.8064    125.8017
  1724.5000      0.0000    675.5784      2.7715    132.1603
  1724.7500      0.0000    674.0754      2.7505    137.6275
  1725.0000      0.0000    671.9724      2.7311    145.3893
  1725.2500      0.0000    670.9390      2.7304    148.7712
  1725.5000      0.0000    670.1021      2.7492    149.3438
  1725.7500      0.0000    669.9529      2.7717    146.9597
  1726.0000      0.0000    670.1080      2.8086    141.7685
  1726.2500      0.0000    670.3356      2.8275    139.0416
  1726.5000      0.0000    670.7079      2.8383    138.3290
  1726.7500      0.0000    670.9077      2.8347    140.5059
  1727.0000      0.0000    671.0094      2.8267    146.3827
  1727.2500      0.0000    670.7598      2.8312    150.6215
  1727.5000      0.0000    669.0990      2.8675    156.1189
  1727.7500      0.0000    666.2455      2.9116    159.3028
  1728.0000      0.0000    657.4193      2.9918    163.2299
  1728.2500      0.0000    647.6645      3.0402    164.5031
  1728.5000      0.0000    626.5843      3.0855    163.1432
  1728.7500      0.0000    607.7860      3.0955    160.1365
  1729.0000      0.0000    571.8561      3.0935    153.7594
  1729.2500      0.0000    544.2960      3.0919    149.1103
  1729.5000      0.0000    505.8421      3.0984    142.4514
  1729.7500      0.0000    488.4515      3.1040    138.3305
  1730.0000      0.0000    482.3855      3.0952    132.3535
  1730.2500      0.0000    492.8775      3.0695    128.4036
  1730.5000      0.0000    526.7131      3.0099    122.7412
  1730.7500      0.0000    555.6087      2.9757    119.3755
  1731.0000      0.0000    594.6974      2.9636    115.3083
  1731.2500      0.0000    611.6780      2.9810    113.4385
  1731.5000      0.0000    622.9015      3.0119    112.0229
  1731.7500      0.0000    625.5342      3.0155    111.7769
  1732.0000      0.0000    630.6405      2.9894    111.5916
  1732.2500      0.0000    636.9118      2.9632    111.2047
  1732.5000      0.0000    649.4345      2.9346    110.5050
  1732.7500      0.0000    657.6537      2.9256    110.5463
  1733.0000      0.0000    665.6182      2.9076    112.1577
  1733.2500      0.0000    666.3889      2.8762    114.3508
  1733.5000      0.0000    659.9475      2.7903    119.3286
  1733.7500      0.0000    651.4006      2.7189    123.8173
  1734.0000      0.0000    636.9704      2.6254    131.5174
  1734.2500      0.0000    630.9542      2.5885    135.7172
  1734.5000      0.0000    633.7239      2.5806    136.7465
  1734.7500      0.0000    643.1906      2.6033    132.4701
  1735.0000      0.0000    662.6904      2.6632    119.7008
  1735.2500      0.0000    675.8454      2.7078    109.3897
  1735.5000      0.0000    693.9493      2.7630     95.7938
  1735.7500      0.0000    705.0203      2.7876     89.4488
  1736.0000      0.0000    719.5875      2.8082     83.5463
  1736.2500      0.0000    727.3101      2.8141     80.6065
  1736.5000      0.0000    735.4184      2.8123     75.6309
  1736.7500      0.0000    738.3701      2.8031     71.8467
  1737.0000      0.0000    738.3730      2.7772     66.9281
  1737.2500      0.0000    734.9751      2.7540     65.2120
  1737.5000      0.0000    725.2789      2.7170     66.0950
  1737.7500      0.0000    716.9330      2.6959     69.0296
  1738.0000      0.0000    704.3156      2.6804     75.9140
  1738.2500      0.0000    697.1933      2.6856     81.0417
  1738.5000      0.0000    689.2185      2.7151     87.2368
  1738.7500      0.0000    684.8314      2.7435     89.1271
  1739.0000      0.0000    677.2279      2.7936     87.3080
  1739.2500      0.0000    671.4338      2.8343     83.0432
  1739.5000      0.0000    665.7066      2.9109     73.6879
  1739.7500      0.0000    666.8259      2.9674     66.9899
  1740.0000      0.0000    676.7359      3.0355     58.5684
  1740.2500      0.0000    686.3693      3.0525     54.6213
  1740.5000      0.0000    700.0208      3.0279     50.8027
  1740.7500      0.0000    706.5344      2.9951     49.1278
  1741.0000      0.0000    710.2021      2.9668     47.4117
  1741.2500      0.0000    707.4523      2.9780     46.7971
  1741.5000      0.0000    694.5843      3.0315     46.8978
  1741.7500      0.0000    680.4953      3.0712     47.8187
  1742.0000      0.0000    651.7997      3.1007     50.9343
  1742.2500      0.0000    627.8649      3.0913     54.6241
