~Version Information
 VERS.                                  2.0 : CWLS LAS VERSION
 WRAP.                                   NO : WRAPING MODE
 SWARE .                 MController 2.5.0J : SOFTWARE VERSION
~Well Information
 WELL.                       Montoya 12-44R : WELL
 COMP.                Petrogulf Corporation : COMPANY
 FLD.                      Purgatoire River : FIELD
 LOC.               SE/SE Sec 12 T33S R68W  : LOCATION
 DATE.                             10/01/05 : DATE(S) LOGGED
 SRVC.       BLANCO Geological Services LLC : SERVICE COMPANY
 STAT.                                  CO  : STATE
 CNTY.                           Las Animas : COUNTY
 CTRY.                                  USA : COUNTRY
 API.                       05 071 08538 00 : API NUMBER
 STRT.FT                              22.00 : START DEPTH
 STOP.FT                            2100.00 : STOP DEPTH
 STEP.FT                               1.00 : DEPTH INCREMENT
 NULL.                                -9999 : NULL VALUE
~Curve information
 DEPTH.FT                                   :
 ROP.MIN/FT                                 :
 GAS.UNITS                                  :
~ASCII Log data
# ...
      1022.0         0.23          4.6 
      1023.0         0.20          5.0 
      1024.0         0.20          5.1 
      1025.0         0.23          5.1 
      1026.0         0.23          5.5 
      1027.0         0.27          5.4 
      1028.0         0.20          5.6 
      1029.0         0.25          5.7 
      1030.0         0.20          5.7 
      1031.0         0.27          5.5 
      1032.0         0.17          5.8 
      1033.0         0.17          6.0 
      1034.0         0.17          6.0 
      1035.0         0.20          6.2 
      1036.0         0.20          5.8 
      1037.0         0.17          6.5 
      1038.0         0.17          6.8 
      1039.0         0.13          7.6 
      1040.0         0.07          7.3 
      1041.0         0.10          7.6 
      1042.0         0.10          7.0 
      1043.0         0.07          7.2 
      1044.0         0.17          7.0 
      1045.0         0.23          6.6 
      1046.0         1.88          6.9 
      1047.0         0.30          6.7 
      1048.0         0.30          6.7 
      1049.0         0.30          6.6 
      1050.0         0.30          6.4 
      1051.0         0.17          6.6 
      1052.0         0.23          6.3 
      1053.0         0.20          6.8 
      1054.0         0.22          6.5 
      1055.0         0.20          6.8 
      1056.0         0.17          6.9 
      1057.0         0.10          6.8 
      1058.0         0.10          7.1 
      1059.0         0.17          7.2 
      1060.0         0.17          6.8 
      1061.0         0.20          6.8 
      1062.0         0.20          7.1 
      1063.0         0.17          7.3 
      1064.0         0.17          6.7 
      1065.0         0.17          7.0 
      1066.0         0.17          6.9 
      1067.0         0.17          7.0 
      1068.0         0.17          7.1 
      1069.0         0.13          6.6 
      1070.0         0.20          6.7 
      1071.0         0.17          6.9 
      1072.0         0.27          7.3 
      1073.0         0.28          7.3 
      1074.0         0.23          7.4 
      1075.0         0.17          6.6 
      1076.0         0.10          6.6 
      1077.0         0.17          7.0 
      1078.0         1.50          7.2 
      1079.0         0.17          7.0 
      1080.0         0.17          7.2 
      1081.0         0.30          7.2 
      1082.0         0.20          7.0 
      1083.0         0.22          7.0 
      1084.0         0.13          7.0 
      1085.0         0.13          7.2 
      1086.0         0.20          7.4 
      1087.0         0.20          7.2 
      1088.0         0.23          7.2 
      1089.0         0.23          7.3 
      1090.0         0.20          7.1 
      1091.0         0.20          7.2 
      1092.0         0.23          7.2 
      1093.0         0.20          7.2 
      1094.0         0.20          7.1 
      1095.0         0.20          7.4 
      1096.0         0.20          7.4 
      1097.0         0.23          7.2 
      1098.0         0.23          7.4 
      1099.0         0.22          7.4 
      1100.0         0.30          7.6 
      1101.0         0.17          7.0 
      1102.0         0.17          7.4 
      1103.0         0.17          7.4 
      1104.0         0.23          7.4 
      1105.0         0.23          7.6 
      1106.0         0.23          7.7 
      1107.0         0.17          7.8 
      1108.0         1.50          7.8 
      1109.0         0.15          7.5 
      1110.0         0.23          7.5 
      1111.0         0.33          7.7 
      1112.0         0.40          7.4 
      1113.0         0.47          7.2 
      1114.0         0.23          7.0 
      1115.0         0.20          7.6 
      1116.0         0.17          7.2 
      1117.0         0.17          7.8 
      1118.0         0.20          7.2 
      1119.0         0.27          7.6 
      1120.0         0.30          7.4 
      1121.0         0.35          7.5 
      1122.0         0.27          7.2 
      1123.0         0.27          7.7 
      1124.0         0.23          7.5 
      1125.0         0.30          7.5 
      1126.0         0.27          7.3 
      1127.0         0.27          7.4 
      1128.0         0.30          7.7 
      1129.0         0.27          7.1 
      1130.0         0.30          7.7 
      1131.0         0.17          7.5 
      1132.0         0.25          7.4 
      1133.0         0.17          7.7 
      1134.0         0.20          7.7 
      1135.0         0.20          7.4 
      1136.0         0.23          7.7 
      1137.0         0.20          7.4 
      1138.0         1.98          8.4 
      1139.0         0.20          9.3 
      1140.0         0.10          9.6 
      1141.0         0.13         11.3 
      1142.0         0.07         11.3 
      1143.0         0.10         12.5 
      1144.0         0.07         12.5 
      1145.0         0.13         13.6 
      1146.0         0.07         12.8 
      1147.0         0.13         12.3 
      1148.0         0.23         11.0 
      1149.0         0.23          9.3 
      1150.0         0.17          8.7 
      1151.0         0.23          8.3 
      1152.0         0.17          7.7 
      1153.0         0.20          8.0 
      1154.0         0.20          7.7 
      1155.0         0.23          7.7 
      1156.0         0.20          7.7 
      1157.0         0.28          7.7 
      1158.0         0.27          7.6 
      1159.0         0.23          7.7 
      1160.0         0.30          8.0 
      1161.0         0.27          7.6 
      1162.0         0.23          7.5 
      1163.0         0.30          7.6 
      1164.0         0.20          7.7 
      1165.0         0.23          8.0 
      1166.0         0.17          7.7 
      1167.0         0.20          7.9 
      1168.0         0.13          7.8 
      1169.0         0.22          7.8 
      1170.0         1.50          8.1 
      1171.0         0.33          8.1 
      1172.0         0.23          8.2 
      1173.0         0.27          7.9 
      1174.0         0.33          8.3 
      1175.0         0.17          8.4 
      1176.0         0.10          8.6 
      1177.0         0.15          8.6 
      1178.0         0.10          8.9 
      1179.0         0.10          8.9 
      1180.0         0.13          8.7 
      1181.0         0.20          8.7 
      1182.0         0.23          8.5 
      1183.0         0.23          8.4 
      1184.0         0.27          8.2 
      1185.0         0.23          7.9 
      1186.0         0.23          8.2 
      1187.0         0.23          8.1 
      1188.0         0.20          8.2 
      1189.0         0.30          8.1 
      1190.0         0.30          8.2 
      1191.0         0.27          8.4 
      1192.0         0.18          8.5 
      1193.0         0.20          8.9 
      1194.0         0.20          8.8 
      1195.0         0.13          8.4 
      1196.0         0.13          8.8 
      1197.0         0.17          8.6 
      1198.0         0.17          7.9 
      1199.0         0.17          7.8 
      1200.0         1.33          8.4 
      1201.0         0.35          8.7 
      1202.0         0.13          8.5 
      1203.0         0.10          8.3 
      1204.0         0.20          8.1 
      1205.0         0.23          8.3 
      1206.0         0.23          7.7 
      1207.0         0.20          7.7 
      1208.0         0.20          7.6 
      1209.0         0.17          7.4 
      1210.0         0.23          7.8 
      1211.0         0.17          7.7 
      1212.0         0.20          8.0 
      1213.0         0.20          8.1 
      1214.0         0.13          8.1 
      1215.0         0.27          7.8 
      1216.0         5.83          8.8 
      1217.0         0.20          8.6 
      1218.0         0.20          8.2 
      1219.0         0.13          8.3 
      1220.0         0.10          9.0 
      1221.0         0.12          8.8 
