~Version Information
 VERS.                                  2.0 : CWLS LAS VERSION
 WRAP.                                   NO : WRAPING MODE
 SWARE .                 MController 2.5.0J : SOFTWARE VERSION
~Well Information
 WELL.                     Surtees 23-34 Tr : WELL
 COMP.    Pioneer Natural Resources USA Inc : COMPANY
 FLD.                      Purgatoire River : FIELD
 LOC.                NE/SW Sec 34 T32S R66W : LOCATION
 DATE.                             07/26/05 : DATE(S) LOGGED
 SRVC.       BLANCO Geological Services LLC : SERVICE COMPANY
 STAT.                                   CO : STATE
 CNTY.                           Las Animas : COUNTY
 CTRY.                                  USA : COUNTRY
 API.                       05-071-08449-00 : API NUMBER
 STRT.FT                             479.00 : START DEPTH
 STOP.FT                            1500.00 : STOP DEPTH
 STEP.FT                               1.00 : DEPTH INCREMENT
 NULL.                                -9999 : NULL VALUE
~Curve information
 DEPTH.FT                                   :
 ROP.MIN/FT                                 :
 GAS.UNITS                                  :
~ASCII Log data
# ...
      1079.0         0.10        923.1 
      1080.0         0.17        905.3 
      1081.0         0.20        867.9 
      1082.0         0.30        848.5 
      1083.0         0.23        845.0 
      1084.0         0.27        835.5 
      1085.0         0.23        819.3 
      1086.0         0.20        802.8 
      1087.0         0.17        793.0 
      1088.0         0.17        784.1 
      1089.0         0.13        771.1 
      1090.0         0.17        757.1 
      1091.0         0.20        741.9 
      1092.0         0.20        710.1 
      1093.0         0.15        695.5 
      1094.0         0.13        691.7 
      1095.0         0.13        681.9 
      1096.0         0.13        675.9 
      1097.0         0.10        674.0 
      1098.0         0.10        667.6 
      1099.0         0.13        666.7 
      1100.0         0.17        660.9 
      1101.0         0.20        663.8 
      1102.0         0.23        680.6 
      1103.0         0.23        696.5 
      1104.0         0.20        715.5 
      1105.0         0.13        719.3 
      1106.0         1.88        984.4 
      1107.0         0.33       1078.3 
      1108.0         0.27       1126.9 
      1109.0         0.27       1138.3 
      1110.0         0.30       1130.7 
      1111.0         0.20       1021.8 
      1112.0         0.20        917.7 
      1113.0         0.23        874.9 
      1114.0         0.27        819.0 
      1115.0         0.28        805.4 
      1116.0         0.23        812.3 
      1117.0         0.27        814.9 
      1118.0         0.20        806.0 
      1119.0         0.23        794.2 
      1120.0         0.40        782.2 
      1121.0         0.20        750.1 
      1122.0         0.20        728.2 
      1123.0         0.23        722.5 
      1124.0         0.17        722.5 
      1125.0         0.17        725.1 
      1126.0         0.20        722.5 
      1127.0         0.20        713.3 
      1128.0         0.20        708.2 
      1129.0         0.17        700.9 
      1130.0         0.22        693.3 
      1131.0         0.20        685.4 
      1132.0         0.20        679.7 
      1133.0         0.20        681.3 
      1134.0         0.20        686.7 
      1135.0         0.10        683.8 
      1136.0         3.55       1611.5 
      1137.0         0.10       1023.1 
      1138.0         0.10       1010.1 
      1139.0         0.07        977.1 
      1140.0         0.27        970.4 
      1141.0         0.27        949.1 
      1142.0         0.23        916.4 
      1143.0         0.23        904.1 
      1144.0         0.23        899.9 
      1145.0         0.27        898.0 
      1146.0         0.18        872.6 
      1147.0         0.20        855.5 
      1148.0         0.17        841.9 
      1149.0         0.13        826.0 
      1150.0         0.17        814.2 
      1151.0         0.20        788.5 
      1152.0         0.23        766.9 
      1153.0         0.27        756.2 
      1154.0         0.17        750.4 
      1155.0         0.20        748.9 
      1156.0         0.23        741.2 
      1157.0         0.27        730.8 
      1158.0         0.20        724.7 
      1159.0         0.20        721.6 
      1160.0         0.23        723.5 
      1161.0         0.17        722.8 
      1162.0         0.25        720.0 
      1163.0         0.23        721.6 
      1164.0         0.20        725.4 
      1165.0         0.20        721.9 
      1166.0         2.23        851.7 
      1167.0         0.23        876.8 
      1168.0         0.22        891.0 
      1169.0         0.17        905.0 
      1170.0         0.50        952.6 
      1171.0         0.73        937.4 
      1172.0         1.37        815.5 
      1173.0         0.17        671.7 
      1174.0         0.17        718.4 
      1175.0         0.25        760.0 
      1176.0         0.27        774.2 
      1177.0         0.23        771.4 
      1178.0         0.23        759.3 
      1179.0         0.20        747.3 
      1180.0         0.23        741.6 
      1181.0         0.20        735.8 
      1182.0         0.17        732.4 
      1183.0         0.20        725.1 
      1184.0         0.17        721.6 
      1185.0         0.13        719.7 
      1186.0         0.13        711.7 
      1187.0         0.13        706.0 
      1188.0         0.13        690.8 
      1189.0         0.13        684.4 
      1190.0         0.13        674.3 
      1191.0         0.10        673.3 
      1192.0         0.17        671.1 
      1193.0         0.17        666.3 
      1194.0         0.12        660.6 
      1195.0         0.10        661.6 
      1196.0         1.70        716.2 
      1197.0         0.40        899.9 
      1198.0         0.17        939.0 
      1199.0         0.23        953.3 
      1200.0         0.30        967.2 
      1201.0         0.17        985.0 
      1202.0         0.17        989.4 
      1203.0         0.18        984.7 
      1204.0         0.10        964.7 
      1205.0         0.13        942.5 
      1206.0         0.17        902.2 
      1207.0         0.27        850.1 
      1208.0         0.23        806.6 
      1209.0         0.27        784.1 
      1210.0         0.20        773.3 
      1211.0         0.17        770.4 
      1212.0         0.13        765.0 
      1213.0         0.13        757.7 
      1214.0         0.20        746.6 
      1215.0         0.13        733.3 
      1216.0         0.10        717.4 
      1217.0         0.13        709.8 
      1218.0         0.20        705.4 
      1219.0         0.20        686.7 
      1220.0         0.23        666.7 
      1221.0         0.28        664.8 
      1222.0         0.20        669.8 
      1223.0         0.10        675.5 
      1224.0         0.10        680.0 
      1225.0         0.20        678.4 
      1226.0         1.67        674.6 
      1227.0         0.27        684.4 
      1228.0         0.37        774.2 
      1229.0         0.42        887.6 
      1230.0         0.27        932.0 
      1231.0         0.27        937.7 
      1232.0         0.23        926.3 
      1233.0         0.30        873.3 
      1234.0         0.27        809.5 
      1235.0         0.27        780.6 
      1236.0         0.23        784.4 
      1237.0         0.27        790.1 
      1238.0         0.23        790.4 
      1239.0         0.17        776.5 
      1240.0         0.27        761.9 
      1241.0         0.13        730.5 
      1242.0         0.17        723.5 
      1243.0         0.25        693.3 
      1244.0         0.53        671.4 
      1245.0         0.50        656.2 
      1246.0         0.30        660.0 
      1247.0         0.13        660.6 
      1248.0         0.17        657.8 
      1249.0         0.13        648.9 
      1250.0         0.17        644.1 
      1251.0         0.13        635.9 
      1252.0         0.17        632.7 
      1253.0         0.17        632.1 
      1254.0         0.27        632.4 
      1255.0         0.27        645.4 
      1256.0         2.15        708.9 
      1257.0         0.20        753.6 
      1258.0         0.33        839.0 
      1259.0         0.27        875.8 
      1260.0         0.20        895.2 
      1261.0         0.17        919.6 
      1262.0         0.17        929.4 
      1263.0         0.18        930.4 
      1264.0         0.13        899.6 
      1265.0         0.27        843.4 
      1266.0         0.23        764.4 
      1267.0         0.17        754.9 
      1268.0         0.20        784.4 
      1269.0         0.27        814.6 
      1270.0         0.23        811.4 
      1271.0         0.20        803.8 
      1272.0         0.23        795.2 
      1273.0         0.20        773.3 
      1274.0         0.23        747.0 
      1275.0         0.20        712.0 
      1276.0         0.17        696.8 
      1277.0         0.23        691.4 
      1278.0         0.17        689.8 
