~Version Information
VERS.                      2.0: CWLS Log ASCII Standard - VERSION 2.0
WRAP.                       NO: One line per depth step
~Well Information Block
STRT.FT               240.0000: 
STOP.FT              1159.2500: 
STEP.FT                 0.2500: 
NULL.                -999.2500: 
COMP.          Pioneer Natural Resources: COMPANY
WELL.               Ryan 41-17: WELL
FLD.           Purgatoire River: FIELD
LOC.           822' FNL & 532' FEL--: LOCATION
CNTY.               Las Animas: COUNTY
SRVC.                Patterson: SERVICE COMPANY
DATE.          Thu Mar 16 16:50:09 2006: LOG DATE
UWI.           05 071 08719 00: UNIQUE WELL ID
STAT.                 Colorado: STATE
~Curve Information Block
DEPT.FT            0 000 00 00: Depth
SN.Ohm-m                      : IEL Short Normal
SP.mV                         : IEL Spontaneous Potential
DIR.Ohm-m                     : IEL Induction Resistivity
GR.GAPI                       : Gamma Ray
~Parameter Information Block
~A  Depth        SN          SP         DIR          GR     
# ...
  1111.0000     19.7314     56.1025     19.7465    102.1595
  1111.2500     19.9405     56.4181     19.8784    105.8819
  1111.5000     20.1990     56.7483     20.0715    110.3905
  1111.7500     20.5106     57.0904     20.3514    112.9604
  1112.0000     20.8710     57.4386     20.7465    117.4144
  1112.2500     21.2701     57.7853     21.2804    120.9516
  1112.5000     21.6919     58.1223     21.9669    125.3886
  1112.7500     22.1146     58.4428     22.8052    126.0856
  1113.0000     22.5147     58.7428     23.7722    122.1024
  1113.2500     22.8754     59.0217     24.8157    116.9075
  1113.5000     23.1946     59.2824     25.8581    109.1480
  1113.7500     23.4850     59.5299     26.8197    106.0923
  1114.0000     23.7627     59.7701     27.6464    105.3890
  1114.2500     24.0309     60.0085     28.3199    106.1965
  1114.5000     24.2717     60.2496     28.8379    106.3874
  1114.7500     24.4514     60.4960     29.1837    104.9705
  1115.0000     24.5329     60.7491     29.3175    101.0115
  1115.2500     24.4886     61.0092     29.1979     98.0061
  1115.5000     24.3087     61.2762     28.8172     94.2087
  1115.7500     24.0052     61.5496     28.2175     92.4780
  1116.0000     23.6098     61.8288     27.4770     91.0313
  1116.2500     23.1647     62.1127     26.6807     90.6334
  1116.5000     22.7118     62.4000     25.8986     90.5843
  1116.7500     22.2826     62.6888     25.1789     90.8643
  1117.0000     21.8955     62.9770     24.5490     91.8427
  1117.2500     21.5570     63.2626     24.0201     92.8833
  1117.5000     21.2674     63.5440     23.5905     94.7366
  1117.7500     21.0250     63.8206     23.2497     95.8641
  1118.0000     20.8275     64.0924     22.9795     97.0007
  1118.2500     20.6685     64.3604     22.7527     97.3123
  1118.5000     20.5352     64.6261     22.5356     97.2632
  1118.7500     20.4109     64.8909     22.2997     97.2044
  1119.0000     20.2830     65.1565     22.0359     97.8323
  1119.2500     20.1485     65.4245     21.7560     98.9392
  1119.5000     20.0128     65.6960     21.4783    101.2214
  1119.7500     19.8836     65.9720     21.2127    102.6908
  1120.0000     19.7673     66.2530     20.9586    104.2079
  1120.2500     19.6671     66.5394     20.7150    104.5963
  1120.5000     19.5815     66.8313     20.4891    104.1783
  1120.7500     19.5046     67.1286     20.2949    103.3588
  1121.0000     19.4308     67.4315     20.1454    101.9735
  1121.2500     19.3606     67.7400     20.0461    101.4952
  1121.5000     19.2998     68.0542     19.9934    101.9943
  1121.7500     19.2518     68.3743     19.9757    102.8931
  1122.0000     19.2141     68.7006     19.9748    103.8874
  1122.2500     19.1820     69.0335     19.9694    103.7294
  1122.5000     19.1537     69.3738     19.9403    102.4439
  1122.7500     19.1308     69.7228     19.8773    101.6581
  1123.0000     19.1176     70.0828     19.7842    101.8309
  1123.2500     19.1199     70.4567     19.6763    102.8039
  1123.5000     19.1418     70.8478     19.5732    104.1372
  1123.7500     19.1807     71.2597     19.4904    104.1743
  1124.0000     19.2265     71.6950     19.4364    103.1918
  1124.2500     19.2688     72.1553     19.4146    102.6879
  1124.5000     19.3059     72.6400     19.4258    103.0940
  1124.7500     19.3451     73.1466     19.4696    103.8772
  1125.0000     19.3931     73.6704     19.5431    104.8474
  1125.2500     19.4485     74.2058     19.6390    105.1912
  1125.5000     19.5046     74.7461     19.7466    105.6209
  1125.7500     19.5580     75.2838     19.8546    105.8141
  1126.0000     19.6114     75.8111     19.9556    104.8288
  1126.2500     19.6691     76.3196     20.0456    102.1658
  1126.5000     19.7349     76.8003     20.1208     92.7532
  1126.7500     19.8137     77.2446     20.1795     81.7484
  1127.0000     19.9136     77.6447     20.2281     58.8744
  1127.2500     20.0421     77.9954     20.2835     42.0371
  1127.5000     20.2020     78.2943     20.3666     20.5115
  1127.7500     20.3916     78.5427     20.4922     10.8693
  1128.0000     20.6060     78.7443     20.6658      3.2536
  1128.2500     20.8391     78.9051     20.8893      1.2198
  1128.5000     21.0846     79.0312     21.1670      0.2120
  1128.7500     21.3372     79.1290     21.5031      0.0533
  1129.0000     21.5928     79.2036     21.8936      0.0034
  1129.2500     21.8465     79.2598     22.3181   -999.2500
  1129.5000     22.0917     79.3013     22.7419   -999.2500
  1129.7500     22.3201     79.3306     23.1316   -999.2500
  1130.0000     22.5254     79.3482     23.4726   -999.2500
  1130.2500     22.7071     79.3521     23.7732   -999.2500
  1130.5000     22.8726     79.3372     24.0514   -999.2500
  1130.7500     23.0343     79.2960     24.3206   -999.2500
  1131.0000     23.2059     79.2205     24.5880   -999.2500
  1131.2500     23.3952     79.1048     24.8626   -999.2500
  1131.5000     23.5963     78.9475     25.1545   -999.2500
  1131.7500     23.7833     78.7540     25.4611   -999.2500
  1132.0000     23.9196     78.5357     25.7528   -999.2500
  1132.2500     23.9774     78.3097     25.9764   -999.2500
  1132.5000     23.9571     78.0948     26.0787   -999.2500
  1132.7500     23.8895     77.9089     26.0335   -999.2500
  1133.0000     23.8188     77.7653     25.8535   -999.2500
  1133.2500     23.7762     77.6710     25.5786   -999.2500
  1133.5000     23.7617     77.6253     25.2547   -999.2500
  1133.7500     23.7468     77.6207     24.9162   -999.2500
  1134.0000     23.6980     77.6443     24.5797   -999.2500
  1134.2500     23.6015     77.6796     24.2480   -999.2500
  1134.5000     23.4702     77.7093     23.9179   -999.2500
  1134.7500     23.3308     77.7175     23.5875   -999.2500
  1135.0000     23.2057     77.6914     23.2609   -999.2500
  1135.2500     23.1059     77.6234     22.9478   -999.2500
  1135.5000     23.0318     77.5115     22.6614   -999.2500
  1135.7500     22.9763     77.3597     22.4138   -999.2500
  1136.0000     22.9281     77.1779     22.2119   -999.2500
  1136.2500     22.8758     76.9802     22.0575   -999.2500
  1136.5000     22.8117     76.7836     21.9495   -999.2500
  1136.7500     22.7337     76.6058     21.8854   -999.2500
  1137.0000     22.6449     76.4624     21.8599   -999.2500
  1137.2500     22.5525     76.3655     21.8613   -999.2500
  1137.5000     22.4657     76.3216     21.8722   -999.2500
  1137.7500     22.3916     76.3309     21.8747   -999.2500
  1138.0000     22.3314     76.3874     21.8576   -999.2500
  1138.2500     22.2811     76.4792     21.8196   -999.2500
  1138.5000     22.2359     76.5903     21.7679   -999.2500
  1138.7500     22.1964     76.7018     21.7119   -999.2500
  1139.0000     22.1701     76.7936     21.6589   -999.2500
  1139.2500     22.1683     76.8463     21.6133   -999.2500
  1139.5000     22.2029     76.8430     21.5793   -999.2500
  1139.7500     22.2857     76.7705     21.5627   -999.2500
  1140.0000     22.4286     76.6209     21.5696   -999.2500
  1140.2500     22.6389     76.3921     21.6056   -999.2500
  1140.5000     22.9159     76.0884     21.6791   -999.2500
  1140.7500     23.2543     75.7196     21.8039   -999.2500
  1141.0000     23.6490     75.2998     21.9934   -999.2500
  1141.2500     24.0929     74.8464     22.2488   -999.2500
  1141.5000     24.5697     74.3775     22.5525   -999.2500
  1141.7500     25.0483     73.9115     22.8746   -999.2500
  1142.0000     25.4883     73.4655     23.1873   -999.2500
  1142.2500     25.8524     73.0548     23.4709   -999.2500
  1142.5000     26.1188     72.6927     23.7073   -999.2500
  1142.7500     26.2836     72.3906     23.8749   -999.2500
  1143.0000     26.3556     72.1576     23.9549   -999.2500
  1143.2500     26.3470     72.0000     23.9473   -999.2500
  1143.5000     26.2677     71.9210     23.8767   -999.2500
  1143.7500     26.1264     71.9201     23.7795   -999.2500
  1144.0000     25.9371     71.9916     23.6835   -999.2500
  1144.2500     25.7182     72.1244     23.5995   -999.2500
