~Version Information
VERS.                      2.0: CWLS Log ASCII Standard - VERSION 2.0
WRAP.                       NO: One line per depth step
~Well Information Block
STRT.FT                -7.7500: 
STOP.FT              1485.2500: 
STEP.FT                 0.2500: 
NULL.                -999.2500: 
COMP.          Pioneer Natural Resources: COMPANY
WELL.          Hammerhead 24-24 Tr: WELL
FLD.           Purgatorie River: FIELD
LOC.           953' FSL & 1922' FWL--: LOCATION
CNTY.               Las Animas: COUNTY
SRVC.          Patterson Wireline: SERVICE COMPANY
DATE.          Thu Feb 02 15:03:23 2006: LOG DATE
UWI.           05 071 08669 00: UNIQUE WELL ID
STAT.                       CO: STATE
~Curve Information Block
DEPT.FT            0 000 00 00: Depth
CCL.                          : Casing Collar Locator
TT3.usec                      : CBL 3' Travel Time
AMP3.mV                       : CBL 3' Amplitude
GR.GAPI                       : Gamma Ray
~Parameter Information Block
~A  Depth       CCL         TT3         AMP3         GR     
# ...
   863.2500      0.0000    371.9453      8.1803    123.7217
   863.5000      0.0000    369.4796      8.1550    117.6374
   863.7500      0.0000    367.7974      8.1011    114.9209
   864.0000      0.0000    365.2914      8.0143    114.9997
   864.2500      0.0000    361.3544      7.9028    116.4285
   864.5000      0.0000    357.1602      7.7872    117.6388
   864.7500      0.0000    354.5956      7.6880    117.8393
   865.0000      0.0000    354.9939      7.6148    117.6525
   865.2500      0.0000    358.7310      7.5664    118.4477
   865.5000      0.0000    365.1819      7.5413    120.5811
   865.7500      0.0000    372.7648      7.5414    122.6213
   866.0000      0.0000    379.5500      7.5685    122.5658
   866.2500      0.0000    384.2883      7.6204    119.4025
   866.5000      0.0000    386.9043      7.6946    113.4677
   866.7500      0.0000    388.1677      7.7883    106.1471
   867.0000      0.0000    389.1820      7.8928     99.6013
   867.2500      0.0000    391.2877      7.9880     96.0809
   867.5000      0.0000    396.1776      8.0427     96.6595
   867.7500      0.0000    405.6071      8.0185    100.4201
   868.0000      0.0000    420.7786      7.8855    105.0945
   868.2500      0.0000    442.0019      7.6550    108.7898
   868.5000      0.0000    469.0334      7.3982    111.2513
   868.7500      0.0000    501.9496      7.2023    113.4817
   869.0000      0.0000    541.8292      7.0829    116.1449
   869.2500      0.0000    589.3375      6.9646    118.4306
   869.5000      0.0000    641.1666      6.7763    118.5154
   869.7500      0.0000    689.3527      6.5373    115.0879
   870.0000      0.0000    726.4015      6.3241    108.4560
   870.2500      0.0000    750.1785      6.1839    100.4017
   870.5000      0.0000    762.7653      6.1150     93.1597
   870.7500      2.0000    766.2288      6.1053     88.3793
   871.0000      0.0000    760.7339      6.1710     86.5077
   871.2500      0.0000    745.6998      6.3577     86.7312
   871.5000      0.0000    722.5132      6.6858     87.7720
   871.7500      0.0000    696.8232      7.0757     89.1945
   872.0000      0.0000    677.5190      7.3686     91.7696
   872.2500      0.0000    671.7164      7.4683     96.3159
   872.5000      0.0000    679.7408      7.4303    102.5513
   872.7500      0.0000    695.0719      7.3802    109.4168
   873.0000      0.0000    709.7000      7.3850    116.0749
   873.2500      0.0000    719.5158      7.4348    122.0945
   873.5000      0.0000    725.0334      7.4981    126.9300
   873.7500      0.0000    728.6508      7.5543    129.6504
   874.0000      0.0000    732.2200      7.5900    129.2004
   874.2500      0.0000    736.3738      7.5923    125.0145
   874.5000      0.0000    740.9440      7.5526    117.6146
   874.7500      0.0000    745.5130      7.4721    108.4636
   875.0000      0.0000    749.6704      7.3643     99.0784
   875.2500      0.0000    752.8552      7.2520     90.4874
   875.5000      0.0000    754.2623      7.1590     83.3981
   875.7500      0.0000    752.9391      7.0984     78.3086
   876.0000      0.0000    748.1041      7.0650     75.2727
   876.2500      0.0000    739.7581      7.0368     73.7288
   876.5000      0.0000    729.1691      6.9862     72.7294
   876.7500      0.0000    718.4595      6.8927     71.6084
   877.0000      0.0000    709.5587      6.7540     70.5316
   877.2500      0.0000    703.6620      6.5866     70.0847
   877.5000      0.0000    701.2041      6.4173     70.1905
   877.7500      0.0000    701.4487      6.2713     69.8472
   878.0000      0.0000    702.2465      6.1621     68.1348
   878.2500      0.0000    701.2418      6.0850     65.1722
   878.5000      0.0000    697.7219      6.0189     62.0081
   878.7500      0.0000    692.9271      5.9387     59.8656
   879.0000      0.0000    688.5915      5.8287     59.4531
   879.2500      0.0000    685.6700      5.6888     60.6268
   879.5000      0.0000    684.4504      5.5298     62.6285
   879.7500      0.0000    685.4003      5.3659     64.7367
   880.0000      0.0000    689.5951      5.2108     66.5551
   880.2500      0.0000    698.0945      5.0794     67.7858
   880.5000      0.0000    710.5770      4.9903     68.2512
   880.7500      0.0000    724.6306      4.9605     68.2209
   881.0000      0.0000    736.9263      4.9926     68.2379
   881.2500      0.0000    745.3815      5.0681     68.5039
   881.5000      0.0000    750.0831      5.1560     68.7633
   881.7500      0.0000    752.3456      5.2321     68.8238
   882.0000      0.0000    753.3020      5.2919     68.9404
   882.2500      0.0000    753.2433      5.3526     69.6523
   882.5000      0.0000    751.6048      5.4450     71.1413
   882.7500      0.0000    747.2042      5.5967     72.6059
   883.0000      0.0000    738.9133      5.8153     72.6609
   883.2500      0.0000    726.9104      6.0840     70.9802
   883.5000      0.0000    713.5121      6.3723     69.5154
   883.7500      0.0000    702.3183      6.6486     71.4646
   884.0000      0.0000    696.0947      6.8880     78.6185
   884.2500      0.0000    695.3513      7.0755     89.6306
   884.5000      0.0000    698.6601      7.2057    100.8223
   884.7500      0.0000    703.9580      7.2821    108.6442
   885.0000      0.0000    709.5338      7.3183    111.6359
   885.2500      0.0000    714.0849      7.3345    110.6864
   885.5000      0.0000    716.4315      7.3484    108.0983
   885.7500      0.0000    715.9688      7.3674    106.4608
   886.0000      0.0000    713.6991      7.3906    107.6944
   886.2500      0.0000    712.2917      7.4100    112.3613
   886.5000      0.0000    714.2688      7.4078    119.4477
   886.7500      0.0000    719.7712      7.3601    126.9456
   887.0000      0.0000    726.2781      7.2536    133.1792
   887.2500      0.0000    730.6278      7.1006    137.6629
   887.5000      0.0000    731.2015      6.9373    140.2765
   887.7500      0.0000    728.2382      6.8045    139.8919
   888.0000      0.0000    722.6339      6.7303    134.7419
   888.2500      0.0000    714.8882      6.7224    124.2819
   888.5000      0.0000    705.3768      6.7686    110.2880
   888.7500      0.0000    695.9116      6.8401     96.2534
   889.0000      0.0000    690.6429      6.8984     85.8727
   889.2500      0.0000    693.2560      6.9031     81.6017
   889.5000      0.0000    701.9042      6.8249     83.9363
   889.7500      0.0000    709.1970      6.6609     91.4734
   890.0000      0.0000    709.2488      6.4456    101.3051
   890.2500      0.0000    703.0601      6.2410    109.8917
   890.5000      0.0000    695.9940      6.1116    114.5044
   890.7500      0.0000    692.4133      6.0980    114.0878
   891.0000      0.0000    693.9556      6.2052    108.8856
   891.2500      0.0000    700.7117      6.4047    100.1454
   891.5000      0.0000    711.6682      6.6478     90.4601
   891.7500      0.0000    724.0256      6.8850     83.1644
   892.0000      0.0000    733.8019      7.0793     80.4596
   892.2500      0.0000    738.5599      7.2095     82.2874
   892.5000      0.0000    739.4506      7.2729     87.0753
   892.7500      0.0000    739.4276      7.2892     93.2039
   893.0000      0.0000    739.5050      7.2940     99.8597
   893.2500      0.0000    738.1017      7.3178    106.8690
   893.5000      0.0000    733.9575      7.3692    113.8804
   893.7500      0.0000    727.9257      7.4371    119.9390
   894.0000      0.0000    721.7683      7.5072    124.1781
   894.2500      0.0000    716.9761      7.5774    126.7835
   894.5000      0.0000    715.0797      7.6580    128.8267
   894.7500      0.0000    717.4390      7.7572    131.1091
   895.0000      0.0000    723.9208      7.8660    133.4116
   895.2500      0.0000    732.5229      7.9608    134.9716
   895.5000      0.0000    740.8170      8.0221    135.4960
   895.7500      0.0000    747.4089      8.0480    135.4393
   896.0000      0.0000    751.8126      8.0506    135.3980
   896.2500      0.0000    753.3569      8.0417    135.5918
   896.5000      0.0000    750.7158      8.0210    136.0482
