~Version Information
VERS.                      2.0: CWLS Log ASCII Standard - VERSION 2.0
WRAP.                       NO: One line per depth step
~Well Information Block
STRT.FT               890.0000: 
STOP.FT              2097.0000: 
STEP.FT                 0.2500: 
NULL.                -999.2500: 
COMP.          Pioneer Natural Resources: COMPANY
WELL.          Greenwood 43-29 Tr: WELL
FLD.           Purgatoire River: FIELD
LOC.           1478' FSL & 744' FEL: LOCATION
STAT.                 Colorado: State
CNTY.               Las Animas: COUNTY
CTRY. USA : Country
SECT. 29 : Section
TOWN. 32S : Township
RANG. 67W : Range
SRVC.                Patterson: SERVICE COMPANY
DATE.          Wed Aug 31 08:07:28 2005: LOG DATE
API.           05 071 08478 00: UNIQUE WELL ID
~Curve Information Block
DEPT.FT            0 000 00 00: Depth
SN.Ohm-m                      : IEL Short Normal
SP.mV                         : IEL Spontaneous Potential
DIR.Ohm-m                     : IEL Induction Resistivity
GR.GAPI                       : Gamma Ray
~Parameter Information Block
~A  Depth        SN          SP         DIR          GR     
# ...
  2062.5000     10.5614     52.5790     10.7310    165.6470
  2062.7500      9.7978     53.0392     10.3457    162.0161
  2063.0000      9.1798     53.4151      9.9986    156.7309
  2063.2500      8.7750     53.6730      9.6821    154.5646
  2063.5000      8.6420     53.8138      9.3864    153.0741
  2063.7500      8.7327     53.8582      9.1037    152.2672
  2064.0000      8.8651     53.8345      8.8323    150.2755
  2064.2500      8.9074     53.7708      8.5754    148.7244
  2064.5000      8.8613     53.6880      8.3369    147.4149
  2064.7500      8.7328     53.5968      8.1172    147.8422
  2065.0000      8.4938     53.5015      7.9136    150.6550
  2065.2500      8.1987     53.4043      7.7244    153.6603
  2065.5000      7.9719     53.3056      7.5522    158.9396
  2065.7500      7.8709     53.2035      7.4015    162.4875
  2066.0000      7.8417     53.0978      7.2752    167.3205
  2066.2500      7.7797     52.9960      7.1712    169.9879
  2066.5000      7.6104     52.9153      7.0828    172.8438
  2066.7500      7.3368     52.8801      7.0023    173.9728
  2067.0000      7.0641     52.9198      6.9243    174.8155
  2067.2500      6.9386     53.0589      6.8485    174.9800
  2067.5000      7.0065     53.2909      6.7798    174.5710
  2067.7500      7.1435     53.5572      6.7250    173.6905
  2068.0000      7.1716     53.7658      6.6899    171.3388
  2068.2500      7.0738     53.8459      6.6767    169.1732
  2068.5000      6.9769     53.7893      6.6834    165.2120
  2068.7500      6.9499     53.6503      6.7047    162.2366
  2069.0000      6.9637     53.5181      6.7343    157.9255
  2069.2500      6.9777     53.4810      6.7656    155.6807
  2069.5000      6.9996     53.5862      6.7950    153.5196
  2069.7500      7.0776     53.8044      6.8224    152.4653
  2070.0000      7.2291     54.0341      6.8514    150.7192
  2070.2500      7.3955     54.1529      6.8881    149.6517
  2070.5000      7.4885     54.0829      6.9391    149.5875
  2070.7500      7.4715     53.8128      7.0115    151.3300
  2071.0000      7.3799     53.3742      7.1120    156.9003
  2071.2500      7.3043     52.8044      7.2460    162.1063
  2071.5000      7.3439     52.1293      7.4167    170.3403
  2071.7500      7.4895     51.3649      7.6229    174.5972
  2072.0000      7.6325     50.5300      7.8573    176.8737
  2072.2500      7.7599     49.6566      8.1067    175.4455
  2072.5000      7.9838     48.7923      8.3549    170.5955
  2072.7500      8.3317     47.9934      8.5872    166.6447
  2073.0000      8.6884     47.3218      8.7952    159.7633
  2073.2500      8.9940     46.8498      8.9804    153.9088
  2073.5000      9.3465     46.6512      9.1545    143.0350
  2073.7500      9.8184     46.7521      9.3364    135.3915
  2074.0000     10.2903     47.0686      9.5439    126.1360
  2074.2500     10.5905     47.4206      9.7844    122.7395
  2074.5000     10.6950     47.6583     10.0493    122.2315
  2074.7500     10.7210     47.7999     10.3155    124.2622
  2075.0000     10.8034     48.0351     10.5528    129.1561
  2075.2500     10.9629     48.5836     10.7364    132.7136
  2075.5000     11.0839     49.5217     10.8564    137.1596
  2075.7500     11.0632     50.7013     10.9187    139.2197
  2076.0000     10.9053     51.8192     10.9360    141.7457
  2076.2500     10.6680     52.6020     10.9179    143.8650
  2076.5000     10.4308     52.9669     10.8672    147.6832
  2076.7500     10.2916     53.0289     10.7835    148.9533
  2077.0000     10.2878     52.9725     10.6706    143.3774
  2077.2500     10.3431     52.9243     10.5398    131.4558
  2077.5000     10.3375     52.9184     10.4079    100.4869
  2077.7500     10.2129     52.9343     10.2930     74.8308
  2078.0000     10.0295     52.9419     10.2103     39.1544
  2078.2500      9.9398     52.9165     10.1706     21.8556
  2078.5000     10.0475     52.8386     10.1819      7.1308
  2078.7500     10.3004     52.6943     10.2507      2.8459
  2079.0000     10.5849     52.4809     10.3814      0.5469
  2079.2500     10.8683     52.2093     10.5718      0.1494
  2079.5000     11.1901     51.9025     10.8107      0.0138
  2079.7500     11.5654     51.5920     11.0784      0.0000
  2080.0000     11.9163     51.3031     11.3537   -999.2500
  2080.2500     12.1091     51.0409     11.6225   -999.2500
  2080.5000     12.1198     50.7921     11.8831   -999.2500
  2080.7500     12.1008     50.5528     12.1434   -999.2500
  2081.0000     12.2181     50.3563     12.4134   -999.2500
  2081.2500     12.5608     50.2698     12.7007   -999.2500
  2081.5000     13.1598     50.3477     13.0126   -999.2500
  2081.7500     13.9186     50.5779     13.3608   -999.2500
  2082.0000     14.6477     50.8748     13.7604   -999.2500
  2082.2500     15.2232     51.1378     14.2222   -999.2500
  2082.5000     15.6431     51.3169     14.7462   -999.2500
  2082.7500     16.0201     51.4229     15.3220   -999.2500
  2083.0000     16.5519     51.4893     15.9375   -999.2500
  2083.2500     17.4001     51.5411     16.5871   -999.2500
  2083.5000     18.5843     51.5959     17.2730   -999.2500
  2083.7500     20.0203     51.6783     17.9994   -999.2500
  2084.0000     21.6041     51.8210     18.5318   -999.2500
  2084.2500     23.2350     52.0480     19.3122   -999.2500
  2084.5000     24.8178     52.3582     20.1031   -999.2500
  2084.7500     26.3122     52.7273     20.8655   -999.2500
  2085.0000     27.7664     53.1266     21.5450   -999.2500
  2085.2500     29.2229     53.5378     22.0900   -999.2500
  2085.5000     30.6021     53.9569     22.4751   -999.2500
  2085.7500     31.7541     54.3914     22.7056   -999.2500
  2086.0000     32.5723     54.8561     22.8053   -999.2500
  2086.2500     33.0027     55.3668     22.8068   -999.2500
  2086.5000     32.9917     55.9292     22.7707   -999.2500
  2086.7500     32.4349     56.5312     22.8272   -999.2500
  2087.0000     31.2590     57.1411     23.2087   -999.2500
  2087.2500     29.5548     57.7140     24.2552   -999.2500
  2087.5000     27.4695     58.2052     26.9707   -999.2500
  2087.7500     25.0759     58.5867     30.9262   -999.2500
  2088.0000     22.5181     58.8573     37.2163   -999.2500
  2088.2500     20.1670     59.0430     46.2080   -999.2500
  2088.5000     18.4076     59.1887     57.3008   -999.2500
  2088.7500     17.2939     59.3486     68.3303   -999.2500
  2089.0000     16.5735     59.5730     76.5855   -999.2500
  2089.2500     15.9626     59.8967     81.0050   -999.2500
  2089.5000     15.3188     60.3429     82.5345   -999.2500
  2089.7500     14.6680     60.9392     82.6626   -999.2500
  2090.0000     14.0854     61.7195     82.4679   -999.2500
  2090.2500     13.5755     62.6897     82.5651   -999.2500
  2090.5000     13.1312     63.7823 100000.0000   -999.2500
  2090.7500     12.7695     64.8655 100000.0000   -999.2500
  2091.0000     12.4406     65.8254 100000.0000   -999.2500
  2091.2500     12.0942     66.6478 100000.0000   -999.2500
  2091.5000     11.7807     67.4037 100000.0000   -999.2500
  2091.7500     11.4975     68.1508 100000.0000   -999.2500
  2092.0000     11.1029     68.8516 100000.0000   -999.2500
  2092.2500     10.5231     69.3301 100000.0000   -999.2500
  2092.5000      9.8987     69.1775 100000.0000   -999.2500
  2092.7500      9.4849     67.5467 100000.0000   -999.2500
  2093.0000      9.4504     63.0926 100000.0000   -999.2500
  2093.2500      9.6482     54.5809 100000.0000   -999.2500
  2093.5000      9.5136     42.1651 100000.0000   -999.2500
  2093.7500      8.3011     28.1142 100000.0000   -999.2500
  2094.0000      5.7385     15.7352 100000.0000   -999.2500
  2094.2500      2.6118      7.2392 100000.0000   -999.2500
  2094.5000      0.1915      2.6965 100000.0000   -999.2500
  2094.7500     -1.0170      0.8043 100000.0000   -999.2500
  2095.0000     -1.4070      0.1904 100000.0000   -999.2500
  2095.2500     -1.4882      0.0352 100000.0000   -999.2500
  2095.5000     -1.4991      0.0047 100000.0000   -999.2500
  2095.7500   -999.2500   -999.2500 100000.0000   -999.2500
