~Version Information
VERS.                      2.0: CWLS Log ASCII Standard - VERSION 2.0
WRAP.                       NO: One line per depth step
~Well Information Block
STRT.FT               491.0000: 
STOP.FT              1909.5000: 
STEP.FT                 0.1000: 
NULL.                -999.2500: 
COMP.          Pioneer Natural Resources: COMPANY
WELL.            Corazon 13-10: WELL
FLD.           Purgatoire River: FIELD
LOC.           2510' FSL & 439' FWL: LOCATION
PROV.                 Colorado: PROVINCE
CNTY.               Las Animas: COUNTRY
SRVC.                Patterson: SERVICE COMPANY
DATE.          Thu Dec 01 07:28:46 2005: LOG DATE
UWI.           05 071 08613 00: UNIQUE WELL ID
~Curve Information Block
DEPT.FT            0 000 00 00: Depth
DCAL.in                       : CDL Caliper
RHOB.g/cc                     : CDL Bulk Density
RHOC.g/cc                     : CDL Density Correction
DPOR.pu                       : CDL Density Porosity
GR.GAPI                       : Gamma Ray
NPOR.pu                       : Neutron Porosity
~Parameter Information Block
~A  Depth       DCAL        RHOB        RHOC        DPOR         GR         NPOR    
   491.0000      5.0658      1.9931      0.5424     39.8146     89.7083     17.2528
   491.1000      5.0658      2.0147      0.5549     38.5049     87.2841     17.8928
   491.2000      5.0658      2.0319      0.5805     37.4577     72.3084     17.4638
   491.3000      5.0684      2.0478      0.5351     36.4989     68.5378     17.1740
   491.4000      5.0684      2.0661      0.5753     35.3861     72.8255     17.6246
   491.5000      5.0705      2.0774      0.6071     34.7005     78.9308     17.8144
   491.6000      5.0705      2.0674      0.6078     35.3116     77.3750     16.9949
   491.7000      5.0705      2.0436      0.5298     36.7526     70.0345     15.6320
   491.8000      5.0684      2.0332      0.5437     37.3837     66.3934     14.4402
   491.9000      5.0684      2.0473      0.5665     36.5293     68.9228     13.9245
   492.0000      5.0607      2.0745      0.5831     34.8817     72.8761     13.7986
   492.1000      5.0607      2.1001      0.5831     33.3289     75.5490     13.5156
   492.2000      5.0607      2.1174      0.5779     32.2779     67.2382     13.5679
   492.3000      5.0776      2.1288      0.5871     31.5853     63.8210     14.2549
   492.4000      5.0776      2.1367      0.5944     31.1097     58.4471     14.9017
   492.5000      5.0748      2.1411      0.5618     30.8423     54.7851     14.7859
   492.6000      5.0748      2.1442      0.5812     30.6528     52.8593     13.9884
   492.7000      5.0748      2.1497      0.5770     30.3201     52.9642     13.1375
   492.8000      5.0709      2.1608      0.5811     29.6476     55.1386     12.4778
   492.9000      5.0709      2.1714      0.5893     29.0076     57.6831     12.0196
   493.0000      5.0605      2.1694      0.6057     29.1298     58.4745     11.8876
   493.1000      5.0605      2.1544      0.5889     30.0379     56.2021     12.1036
   493.2000      5.0605      2.1405      0.5731     30.8759     46.7752     12.4999
   493.3000      5.0603      2.1399      0.5616     30.9175     48.2909     12.6602
   493.4000      5.0603      2.1469      0.5625     30.4902     51.3326     12.5851
   493.5000      5.0694      2.1476      0.5878     30.4476     51.0557     13.0087
   493.6000      5.0694      2.1402      0.5391     30.8984     48.4825     14.0355
   493.7000      5.0694      2.1336      0.5617     31.2976     48.8895     15.0933
   493.8000      5.0747      2.1298      0.5355     31.5263     53.5186     15.6322
   493.9000      5.0747      2.1275      0.5551     31.6683     59.0600     15.2318
   494.0000      5.0861      2.1287      0.5471     31.5916     62.5022     14.5830
   494.1000      5.0861      2.1370      0.5254     31.0891     62.8297     14.7634
   494.2000      5.0861      2.1554      0.5234     29.9771     61.2467     15.4993
   494.3000      5.0957      2.1771      0.5635     28.6598     60.1663     15.7270
   494.4000      5.0957      2.1885      0.5693     27.9713     59.2828     15.3663
   494.5000      5.0908      2.1881      0.5657     27.9923     57.4350     15.2237
   494.6000      5.0908      2.1842      0.5778     28.2309     56.8903     15.6260
   494.7000      5.0908      2.1836      0.5274     28.2693     57.9652     15.9469
   494.8000      5.0914      2.1874      0.5732     28.0343     57.7545     15.5952
   494.9000      5.0914      2.1883      0.5440     27.9838     56.9110     15.0728
   495.0000      5.0882      2.1835      0.5372     28.2756     56.7738     14.9992
   495.1000      5.0882      2.1780      0.5151     28.6050     56.4758     15.4381
   495.2000      5.0882      2.1725      0.5486     28.9391     56.5353     16.0664
   495.3000      5.0826      2.1607      0.5342     29.6566     58.3802     16.4084
   495.4000      5.0826      2.1403      0.5323     30.8901     62.6648     16.4828
   495.5000      5.0820      2.1189      0.4774     32.1903     67.6961     16.6143
   495.6000      5.0820      2.1068      0.5113     32.9189     73.2160     16.5287
   495.7000      5.0820      2.1082      0.4883     32.8360     79.3286     15.9891
   495.8000      5.0852      2.1221      0.5123     31.9946     82.0406     15.5824
   495.9000      5.0852      2.1462      0.5194     30.5353     79.2124     15.9441
   496.0000      5.0800      2.1743      0.5469     28.8282     73.4763     17.0360
   496.1000      5.0800      2.2030      0.5484     27.0882     70.1604     18.2428
   496.2000      5.0800      2.2387      0.5576     24.9291     71.3663     18.7794
   496.3000      5.0865      2.2809      0.5838     22.3715     74.1522     18.4288
   496.4000      5.0865      2.3138      0.6026     20.3733     76.6764     17.6583
   496.5000      5.0824      2.3307      0.5936     19.3509     79.1709     16.9136
   496.6000      5.0824      2.3454      0.5738     18.4579     83.0741     16.2292
   496.7000      5.0824      2.3690      0.5923     17.0286     88.2341     15.6871
   496.8000      5.0907      2.3865      0.5997     15.9693     89.9741     15.9070
   496.9000      5.0907      2.3758      0.5734     16.6200     86.2003     16.8343
   497.0000      5.0867      2.3398      0.5126     18.7981     80.3277     17.3333
   497.1000      5.0867      2.2973      0.4801     21.3762     76.4004     17.0431
   497.2000      5.0867      2.2564      0.4783     23.8542     76.2264     17.0066
   497.3000      5.0783      2.2190      0.4407     26.1183     78.4437     17.5350
   497.4000      5.0783      2.1875      0.4481     28.0301     80.8858     17.8561
   497.5000      5.0820      2.1620      0.4643     29.5741     81.6212     17.8594
   497.6000      5.0820      2.1464      0.4337     30.5192     79.1162     18.0525
   497.7000      5.0820      2.1415      0.4442     30.8210     75.3914     18.4802
   497.8000      5.0930      2.1402      0.4544     30.8940     75.9128     18.7371
   497.9000      5.0930      2.1423      0.4315     30.7712     83.3661     18.6041
   498.0000      5.0871      2.1472      0.4712     30.4715     92.6040     18.3036
   498.1000      5.0871      2.1457      0.4766     30.5618     96.4456     18.3555
   498.2000      5.0871      2.1413      0.4647     30.8276     93.4657     18.7540
   498.3000      5.0828      2.1534      0.4731     30.0994     88.3097     18.9817
   498.4000      5.0828      2.1836      0.5123     28.2652     86.4198     18.9860
   498.5000      5.0837      2.2108      0.5339     26.6211     89.7299     18.8275
   498.6000      5.0837      2.2233      0.4988     25.8609     94.4827     18.5426
   498.7000      5.0837      2.2300      0.5177     25.4568     94.5815     18.4617
   498.8000      5.0788      2.2383      0.5090     24.9503     91.8436     18.6916
   498.9000      5.0788      2.2479      0.5259     24.3712     90.3539     19.1639
   499.0000      5.0912      2.2580      0.5107     23.7580     89.1952     19.9554
   499.1000      5.0912      2.2691      0.5272     23.0825     87.5889     20.9682
   499.2000      5.0912      2.2737      0.5336     22.8071     86.3270     21.4624
   499.3000      5.0945      2.2621      0.5322     23.5083     87.7638     21.2040
   499.4000      5.0945      2.2390      0.4733     24.9075     92.3709     20.8136
   499.5000      5.0861      2.2171      0.4790     26.2369     97.2572     20.4886
   499.6000      5.0861      2.1975      0.4768     27.4259     99.4327     20.4152
   499.7000      5.0861      2.1747      0.4938     28.8066     97.7439     20.9211
   499.8000      5.0839      2.1554      0.4330     29.9774     93.6490     21.7905
   499.9000      5.0839      2.1509      0.4412     30.2470     90.3734     22.1803
   500.0000      5.0804      2.1547      0.4671     30.0180     90.4824     21.7033
   500.1000      5.0804      2.1562      0.4490     29.9285     94.5226     21.5831
   500.2000      5.0804      2.1633      0.4668     29.4978    101.4537     22.2858
   500.3000      5.0861      2.1879      0.4867     28.0047    107.3174     22.6367
   500.4000      5.0861      2.2284      0.5036     25.5498    108.1786     22.8382
   500.5000      5.0877      2.2753      0.5430     22.7090    104.2593     23.1856
