~Version Information
VERS.                      2.0: CWLS Log ASCII Standard - VERSION 2.0
WRAP.                       NO: One line per depth step
~Well Information Block
STRT.FT                10.0000: 
STOP.FT              1380.7500: 
STEP.FT                 0.2500: 
NULL.                -999.2500: 
COMP.          Pioneer Natural Resources: COMPANY
WELL.          Baa Baa 34-1 Tr: WELL
FLD.           Purgatoire River: FIELD
LOC.           785' FSL & 2304' FEL: LOCATION
CNTY.               Las Animas: COUNTY
SRVC.                Patterson: SERVICE COMPANY
DATE.          Tue Mar 07 13:08:19 2006: LOG DATE
UWI.           05 071 08710 00: UNIQUE WELL ID
STAT.                 Colorado: STATE
~Curve Information Block
DEPT.FT            0 000 00 00: Depth
GR.GAPI                       : Gamma Ray
CCL.                          : Casing Collar Locator
TT3.usec                      : CBL 3' Travel Time
AMP3.mV                       : CBL 3' Amplitude
~Parameter Information Block
~A  Depth        GR         CCL         TT3         AMP3    
# ...
   914.5000    130.6543      0.0000    764.1298     12.7419
   914.7500    125.5773      0.0000    763.3044     12.9442
   915.0000    122.9938      0.0000    761.5359     13.1099
   915.2500    122.2428      0.0000    759.4305     13.1887
   915.5000    122.3607      0.0000    758.0384     13.1525
   915.7500    122.7761      0.0000    757.7886     13.0087
   916.0000    123.1005      0.0000    757.9310     12.7847
   916.2500    122.7961      0.0000    757.4360     12.5095
   916.5000    121.5378      0.0000    756.3439     12.2099
   916.7500    119.7729      0.0000    755.7969     11.9141
   917.0000    118.5079      0.0000    756.6946     11.6489
   917.2500    118.4812      0.0000    758.7078     11.4316
   917.5000    119.6345      0.0000    760.7481     11.2615
   917.7500    121.4134      0.0000    762.0432     11.1195
   918.0000    123.6065      0.0000    762.5445     10.9779
   918.2500    126.8027      0.0000    762.6027     10.8184
   918.5000    131.6190      0.0000    762.5579     10.6470
   918.7500    137.4037      0.0000    762.5920     10.4911
   919.0000    142.1128      0.0000    762.7563     10.3793
   919.2500    143.6890      0.0000    763.0695     10.3181
   919.5000    141.4343      0.0000    763.6361     10.2871
   919.7500    136.2739      0.0000    764.7162     10.2587
   920.0000    130.2265      0.0000    766.6017     10.2205
   920.2500    125.4890      0.0000    769.1940     10.1771
   920.5000    123.2203      0.0000    771.6110     10.1355
   920.7500    122.7981      0.0000    772.5386     10.1041
   921.0000    122.5037      0.0000    771.3455     10.1148
   921.2500    121.0347      0.0000    768.7372     10.2332
   921.5000    117.9958      0.0000    766.0902     10.5292
   921.7500    113.0277      0.0000    764.3474     11.0232
   922.0000    105.4823      0.0000    763.7530     11.6405
   922.2500     95.5911      0.0000    764.4486     12.2073
   922.5000     85.2460      0.0000    767.0479     12.5042
   922.7500     76.9502      0.0000    772.5070     12.3764
   923.0000     72.4083      0.0000    781.3424     11.8219
   923.2500     72.4434      0.0000    792.9500     10.9548
   923.5000     77.4861      0.0000    805.6338      9.8711
   923.7500     87.1429      0.0000    817.1437      8.6069
   924.0000     99.2312      0.0000    825.4370      7.2587
   924.2500    110.0553      0.0000    829.7011      6.0454
   924.5000    116.4125      0.0000    830.7649      5.1713
   924.7500    117.6239      0.0000    829.7595      4.6723
   925.0000    115.6850      0.0000    826.5534      4.4385
   925.2500    113.5832      0.0000    820.8331      4.3402
   925.5000    113.4742      3.0000    814.7175      4.3221
   925.7500    115.8786      0.0000    812.2498      4.4453
   926.0000    119.7173      0.0000    815.0635      4.8773
   926.2500    122.9579      0.0000    819.7847      5.7813
   926.5000    123.9076      0.0000    820.9656      7.1393
   926.7500    122.2035      0.0000    815.8905      8.6853
   927.0000    118.3900      0.0000    805.8569     10.0539
   927.2500    112.7901      0.0000    793.9993     11.0077
   927.5000    105.4542      0.0000    783.1733     11.5320
   927.7500     97.2693      0.0000    775.2892     11.7590
   928.0000     90.4383      0.0000    771.2200     11.8360
   928.2500     87.2884      0.0000    770.7304     11.8442
   928.5000     88.5781      0.0000    772.5374     11.7894
   928.7500     93.1061      0.0000    774.6361     11.6411
   929.0000     98.9127      0.0000    775.1775     11.3830
   929.2500    104.7103      0.0000    773.6576     11.0412
   929.5000    110.2122      0.0000    771.2982     10.6742
   929.7500    115.3215      0.0000    769.9539     10.3372
   930.0000    119.3877      0.0000    770.5135     10.0617
   930.2500    121.4366      0.0000    772.2765      9.8615
   930.5000    120.9721      0.0000    773.8589      9.7455
   930.7500    118.3444      0.0000    774.7488      9.7194
   931.0000    114.4660      0.0000    775.8017      9.7775
   931.2500    110.3712      0.0000    778.1039      9.8958
   931.5000    106.9922      0.0000    781.6596     10.0345
   931.7500    105.1934      0.0000    785.3660     10.1512
   932.0000    105.7881      0.0000    787.9531     10.2206
   932.2500    109.1299      0.0000    788.8767     10.2461
   932.5000    114.4740      0.0000    788.6649     10.2512
   932.7500    120.0115      0.0000    788.4504     10.2601
   933.0000    123.9425      0.0000    788.9734     10.2949
   933.2500    125.7449      0.0000    790.0566     10.3851
   933.5000    126.3497      0.0000    791.0610     10.5600
   933.7500    126.9001      0.0000    791.5396     10.8145
   934.0000    127.3950      0.0000    791.2387     11.0931
   934.2500    126.8485      0.0000    789.8845     11.3238
   934.5000    124.8434      0.0000    787.5579     11.4677
   934.7500    122.4168      0.0000    785.2475     11.5394
   935.0000    120.9781      0.0000    784.6299     11.5923
   935.2500    120.6761      0.0000    786.8906     11.6854
   935.5000    120.2976      0.0000    791.5314     11.8476
   935.7500    118.6215      0.0000    796.4940     12.0562
   936.0000    115.6121      0.0000    799.6714     12.2545
   936.2500    112.5042      0.0000    800.3875     12.3951
   936.5000    110.9287      0.0000    799.6188     12.4670
   936.7500    111.6094      0.0000    798.9241     12.4884
   937.0000    113.4050      0.0000    798.9467     12.4883
   937.2500    113.8440      0.0000    798.8275     12.4981
   937.5000    111.2866      0.0000    797.2889     12.5475
   937.7500    106.7255      0.0000    794.4010     12.6559
   938.0000    102.9746      0.0000    792.0181     12.8247
   938.2500    102.0590      0.0000    792.1885     13.0329
   938.5000    103.8031      0.0000    795.1964     13.2405
   938.7500    106.6798      0.0000    799.4086     13.4072
   939.0000    109.3413      0.0000    802.8749     13.5159
   939.2500    111.4652      0.0000    804.6635     13.5753
   939.5000    113.8052      0.0000    804.7855     13.5983
   939.7500    117.5043      0.0000    803.5206     13.5841
   940.0000    122.7854      0.0000    801.2969     13.5259
   940.2500    128.1076      0.0000    799.0315     13.4305
   940.5000    130.9732      0.0000    797.9539     13.3188
   940.7500    129.8640      0.0000    798.6802     13.2087
   941.0000    125.4357      0.0000    800.6430     13.0996
   941.2500    119.8858      0.0000    802.6964     12.9802
   941.5000    115.2029      0.0000    804.1186     12.8497
   941.7500    111.9959      0.0000    804.8929     12.7270
   942.0000    109.8525      0.0000    805.3159     12.6367
   942.2500    108.4084      0.0000    805.6115     12.5942
   942.5000    107.7246      0.0000    805.8400     12.6068
   942.7500    107.8052      0.0000    805.9828     12.6815
   943.0000    108.2075      0.0000    806.0389     12.8206
   943.2500    108.3465      0.0000    806.0614     13.0057
   943.5000    108.1217      0.0000    806.1112     13.1933
   943.7500    108.1114      0.0000    806.1968     13.3350
   944.0000    108.9285      0.0000    806.2687     13.4062
   944.2500    110.3124      0.0000    806.2763     13.4165
   944.5000    111.1051      0.0000    806.2221     13.3923
   944.7500    110.3731      0.0000    806.1611     13.3544
   945.0000    108.4311      0.0000    806.1572     13.3099
   945.2500    106.5861      0.0000    806.2484     13.2557
   945.5000    105.8654      0.0000    806.4353     13.1853
   945.7500    106.0807      0.0000    806.6822     13.0964
   946.0000    106.0824      0.0000    806.9267     12.9952
   946.2500    104.7135      0.0000    807.1089     12.8936
   946.5000    101.3930      0.0000    807.2046     12.8049
   946.7500     96.0169      0.0000    807.2288     12.7412
   947.0000     88.7691      0.0000    807.2050     12.7132
   947.2500     80.2570      0.0000    807.1349     12.7261
   947.5000     71.7423      0.0000    807.0054     12.7786
   947.7500     64.9424      0.0000    806.8182     12.8662
