~Version Information
VERS.                      2.0: CWLS Log ASCII Standard - VERSION 2.0
WRAP.                       NO: One line per depth step
~Well Information Block
STRT.FT               -10.2500: 
STOP.FT              2871.7500: 
STEP.FT                 0.2500: 
NULL.                -999.2500: 
COMP.          Pioneer Natural Resources: COMPANY
WELL.          Grey Goose 33-30: WELL
FLD.           Purgatorie River: FIELD
LOC.           2136' FSL & 2065' FEL--: LOCATION
STAT.                       CO: State
CNTY.               Las Animas: COUNTY
CTRY. USA : Country
SECT. 30  : Section
TOWN. 32S : Township
RANG. 67W : Range
SRVC.          Patterson Wireline: SERVICE COMPANY
DATE.          Tue Dec 06 12:24:57 2005: LOG DATE
API.            05 071 0854600: UNIQUE WELL ID
~Curve Information Block
DEPT.FT            0 000 00 00: Depth
CCL.                          : Casing Collar Locator
TT3.usec                      : CBL 3' Travel Time
AMP3.mV                       : CBL 3' Amplitude
GR.GAPI                       : Gamma Ray
~Parameter Information Block
~A  Depth       CCL         TT3         AMP3         GR     
# ...
  1698.2500      0.0000    667.9347      6.9901    150.0520
  1698.5000      0.0000    650.1530      7.0360    152.1826
  1698.7500      0.0000    631.9350      7.1106    149.6210
  1699.0000      0.0000    620.3308      7.2021    142.9664
  1699.2500      0.0000    619.1577      7.2966    135.0723
  1699.5000      0.0000    626.6799      7.3829    128.7400
  1699.7500      0.0000    638.1520      7.4538    125.1546
  1700.0000      0.0000    649.8242      7.5061    124.2001
  1700.2500      0.0000    660.7886      7.5394    125.5820
  1700.5000      0.0000    671.9303      7.5559    129.3563
  1700.7500      0.0000    683.5048      7.5614    135.1999
  1701.0000      0.0000    693.8808      7.5646    141.3065
  1701.2500      0.0000    700.8182      7.5730    144.8313
  1701.5000      0.0000    703.6110      7.5863    144.1345
  1701.7500      0.0000    703.3162      7.5941    140.1799
  1702.0000      0.0000    701.2869      7.5853    135.3328
  1702.2500      0.0000    698.3894      7.5620    131.2844
  1702.5000      0.0000    695.3922      7.5404    128.5047
  1702.7500      0.0000    693.1140      7.5352    126.9864
  1703.0000      0.0000    691.9665      7.5443    126.6512
  1703.2500      0.0000    691.7828      7.5520    127.1215
  1703.5000      0.0000    692.2075      7.5454    127.7087
  1703.7500      0.0000    693.1299      7.5269    127.8680
  1704.0000      0.0000    694.7049      7.5148    127.6232
  1704.2500      0.0000    696.8956      7.5345    127.4432
  1704.5000      0.0000    698.9952      7.6049    127.6634
  1704.7500      0.0000    699.8740      7.7251    128.1636
  1705.0000      0.0000    698.9857      7.8727    128.7041
  1705.2500      0.0000    696.9617      8.0098    129.3481
  1705.5000      0.0000    695.0264      8.0894    130.4090
  1705.7500      0.0000    694.0710      8.0629    132.0941
  1706.0000      0.0000    694.5452      7.8960    134.1988
  1706.2500      0.0000    696.9968      7.5832    136.0268
  1706.5000      0.0000    702.3148      7.1510    136.7327
  1706.7500      0.0000    711.3243      6.6570    135.8794
  1707.0000      0.0000    724.2933      6.1872    133.4806
  1707.2500      0.0000    740.8929      5.8314    129.4281
  1707.5000      0.0000    760.2729      5.6420    123.1712
  1707.7500      0.0000    780.7209      5.6197    114.2337
  1708.0000      0.0000    799.4883      5.7449    103.1735
  1708.2500      0.0000    813.8392      6.0136     92.0119
  1708.5000      0.0000    822.5887      6.4394     83.3779
  1708.7500      0.0000    826.1523      7.0320     78.8482
  1709.0000      0.0000    824.9667      7.7898     78.1962
  1709.2500      0.0000    818.6514      8.7215     80.3363
  1709.5000      0.0000    807.2452      9.8462     84.4843
  1709.7500      0.0000    792.8463     11.1154     89.9807
  1710.0000      0.0000    778.9442     12.3105     95.5832
  1710.2500      0.0000    767.5743     13.0645     99.7397
  1710.5000      0.0000    758.1074     13.0530    101.6184
  1710.7500      0.0000    749.7734     12.2047    101.5532
  1711.0000      0.0000    744.1509     10.7543    100.3680
  1711.2500      0.0000    743.5468      9.1115     98.3902
  1711.5000      0.0000    747.6832      7.6533     95.2814
  1711.7500      0.0000    753.4657      6.5672     90.7254
  1712.0000      0.0000    757.9277      5.8256     85.0952
  1712.2500      0.0000    760.6823      5.2903     79.5909
  1712.5000      0.0000    763.5512      4.8517     75.9769
  1712.7500      0.0000    768.1019      4.4986     75.9983
  1713.0000      0.0000    773.7524      4.2892     80.4460
  1713.2500      0.0000    778.4612      4.2849     88.3075
  1713.5000      0.0000    780.9573      4.5189     97.0267
  1713.7500      0.0000    781.5259      5.0156    104.0502
  1714.0000      0.0000    780.2617      5.8044    108.2116
  1714.2500      0.0000    775.6899      6.8804    109.8714
  1714.5000      0.0000    766.3570      8.1361    110.4317
  1714.7500      0.0000    753.2343      9.3479    111.6526
  1715.0000      0.0000    739.3959     10.2611    114.5696
  1715.2500      0.0000    727.6401     10.7201    118.8656
  1715.5000      0.0000    719.1913     10.7334    123.5618
  1715.7500      0.0000    714.2607     10.4294    127.9567
  1716.0000      0.0000    712.9136      9.9674    131.5869
  1716.2500      0.0000    714.9736      9.4759    133.9181
  1716.5000      0.0000    719.3863      9.0442    134.8961
  1716.7500      0.0000    724.3049      8.7398    135.7598
  1717.0000      0.0000    728.2196      8.6125    138.6572
  1717.2500      0.0000    730.9235      8.6764    145.1146
  1717.5000      0.0000    733.2585      8.9026    154.8775
  1717.7500      0.0000    735.9370      9.2495    165.8085
  1718.0000      0.0000    738.6208      9.7087    174.3584
  1718.2500      0.0000    740.0015     10.3264    176.5940
  1718.5000      0.0000    738.1809     11.1789    170.1645
  1718.7500      0.0000    729.4810     12.3096    156.2607
  1719.0000      0.0000    706.8134     13.6742    139.5605
  1719.2500      0.0000    662.7833     15.1350    125.6288
  1719.5000      0.0000    599.5122     16.5003    117.9536
  1719.7500      0.0000    535.2134     17.5745    116.9348
  1720.0000      0.0000    495.2250     18.2099    120.5528
  1720.2500      0.0000    493.0407     18.3616    125.3628
  1720.5000      0.0000    521.2341     18.1124    127.8609
  1720.7500      0.0000    560.2748     17.6268    126.2093
  1721.0000      0.0000    593.5241     17.0551    120.7316
  1721.2500      0.0000    616.0967     16.4410    112.8068
  1721.5000      0.0000    633.8223     15.7022    104.0218
  1721.7500      0.0000    653.7396     14.7286     96.1598
  1722.0000      0.0000    675.3028     13.5268     90.7123
  1722.2500      0.0000    692.2607     12.2558     88.0093
  1722.5000      0.0000    700.8801     11.1179     87.4202
  1722.7500      0.0000    702.8170     10.2329     88.4929
  1723.0000      0.0000    701.6111      9.6042     91.4340
  1723.2500      0.0000    699.4682      9.1680     96.4818
  1723.5000      0.0000    696.9536      8.8615    103.1656
  1723.7500      0.0000    693.4379      8.6641    110.3600
  1724.0000      0.0000    687.9702      8.5892    117.1025
  1724.2500      0.0000    680.5984      8.6437    123.2718
  1724.5000      0.0000    672.7244      8.8020    129.0702
  1724.7500      0.0000    667.2022      9.0031    133.7070
  1725.0000      0.0000    670.1880      9.1480    135.0658
  1725.2500      0.0000    690.8414      9.1174    131.1381
  1725.5000      0.0000    733.3250      8.8572    121.7573
  1725.7500      0.0000    787.9568      8.4638    108.8661
  1726.0000      0.0000    834.3490      8.1263     95.3939
  1726.2500      0.0000    854.9648      7.9485     84.2651
  1726.5000      0.0000    846.0027      7.8595     78.1022
  1726.7500     -2.0000    818.3914      7.7038     78.6972
  1727.0000      0.0000    789.6031      7.3822     85.9463
  1727.2500      0.0000    771.4388      6.9150     97.6034
  1727.5000      0.0000    763.6786      6.4240    110.8142
  1727.7500      0.0000    759.2820      6.0715    124.0710
  1728.0000      0.0000    753.7218      5.9701    137.1868
  1728.2500      0.0000    747.6370      6.1110    149.3377
  1728.5000      0.0000    743.0530      6.3815    158.0790
  1728.7500      0.0000    740.2170      6.6656    161.2658
  1729.0000      0.0000    737.7891      6.9157    159.4495
  1729.2500      0.0000    734.0931      7.1333    155.0433
  1729.5000      0.0000    727.8615      7.3163    149.2757
  1729.7500      0.0000    718.8926      7.4456    141.5027
  1730.0000      0.0000    708.6072      7.5061    131.7936
  1730.2500      0.0000    699.4036      7.5006    122.8560
  1730.5000      0.0000    692.9791      7.4430    118.5181
  1730.7500      0.0000    689.4146      7.3493    120.6526
  1731.0000      0.0000    687.7462      7.2425    127.8313
  1731.2500      0.0000    687.0215      7.1591    136.5711
  1731.5000      0.0000    686.7999      7.1349    143.6118
