~Version Information
VERS.                      2.0: CWLS Log ASCII Standard - VERSION 2.0
WRAP.                       NO: One line per depth step
~Well Information Block
STRT.FT               -12.0000: 
STOP.FT              1728.0000: 
STEP.FT                 0.2500: 
NULL.                -999.2500: 
COMP.          XTO Energy Inc.: COMPANY
WELL.          Apache Canyon 35-06: WELL
FLD.              Vermejo Coal: FIELD
LOC.           2422' FNL & 1889' FWL--: LOCATION
STAT.                       CO: State
CNTY.               Las Animas: COUNTY
CTRY. USA : Country
SECT.  : Section
TOWN.  : Township
RANG.  : Range
SRVC.          Patterson Wireline: SERVICE COMPANY
DATE.          Fri Jan 06 08:11:44 2006: LOG DATE
API.              05 071 08540: UNIQUE WELL ID
~Curve Information Block
DEPT.FT            0 000 00 00: Depth
CCL.                          : Casing Collar Locator
TT3.usec                      : CBL 3' Travel Time
AMP3.mV                       : CBL 3' Amplitude
GR.GAPI                       : Gamma Ray
~Parameter Information Block
~A  Depth       CCL         TT3         AMP3         GR     
# ...
  1596.0000      0.0000    785.1495      3.2204     72.9934
  1596.2500      0.0000    787.4113      3.1765     68.0889
  1596.5000      0.0000    782.8568      3.1745     65.5300
  1596.7500      0.0000    774.8413      3.1995     65.4698
  1597.0000      0.0000    766.1331      3.2275     67.2251
  1597.2500      0.0000    757.4431      3.2486     69.8925
  1597.5000      0.0000    749.0328      3.2721     72.6630
  1597.7500      0.0000    741.4973      3.3161     74.8320
  1598.0000      0.0000    734.7192      3.3928     75.8919
  1598.2500      0.0000    726.5833      3.5031     75.7488
  1598.5000      0.0000    712.7911      3.6390     74.7837
  1598.7500      0.0000    689.0436      3.7875     73.8051
  1599.0000      0.0000    655.2586      3.9341     73.8898
  1599.2500      0.0000    617.6601      4.0678     75.6865
  1599.5000      0.0000    585.0332      4.1835     78.4751
  1599.7500      0.0000    562.4361      4.2815     80.3015
  1600.0000      0.0000    549.2240      4.3639     79.5240
  1600.2500      0.0000    542.5005      4.4325     76.0558
  1600.5000      0.0000    541.0091      4.4868     70.9875
  1600.7500      0.0000    546.4276      4.5261     65.6094
  1601.0000      0.0000    562.7762      4.5534     61.1771
  1601.2500      0.0000    593.8065      4.5755     58.9775
  1601.5000      0.0000    638.2677      4.5964     59.7011
  1601.7500      0.0000    687.3126      4.6098     62.6560
  1602.0000      0.0000    728.3990      4.6012     66.0628
  1602.2500      0.0000    752.5073      4.5567     68.3198
  1602.5000      0.0000    757.2250      4.4720     68.9288
  1602.7500      0.0000    744.1922      4.3568     68.2805
  1603.0000      0.0000    716.2970      4.2302     66.8501
  1603.2500      0.0000    678.6310      4.1105     64.9278
  1603.5000      0.0000    640.8806      4.0072     63.0359
  1603.7500      0.0000    615.8378      3.9207     62.0354
  1604.0000      0.0000    612.8284      3.8468     62.4462
  1604.2500      0.0000    631.3290      3.7808     63.9246
  1604.5000      0.0000    661.2999      3.7203     65.7781
  1604.7500      0.0000    691.0784      3.6653     67.6815
  1605.0000      0.0000    715.5196      3.6166     69.4058
  1605.2500      0.0000    735.7455      3.5730     70.1762
  1605.5000      0.0000    751.4120      3.5309     69.0228
  1605.7500      0.0000    755.8863      3.4900     65.8226
  1606.0000      0.0000    740.7141      3.4584     61.6915
  1606.2500      0.0000    704.2886      3.4478     58.3578
  1606.5000      0.0000    655.1833      3.4629     57.1464
  1606.7500      0.0000    606.7814      3.4980     58.1766
  1607.0000      0.0000    568.8494      3.5434     60.2818
  1607.2500      0.0000    543.8702      3.5941     61.8726
  1607.5000      0.0000    529.3471      3.6511     62.0831
  1607.7500      0.0000    521.4384      3.7175     61.1064
  1608.0000      0.0000    516.8765      3.7945     59.5850
  1608.2500      0.0000    513.6785      3.8809     58.0229
  1608.5000      0.0000    511.4066      3.9731     56.7716
  1608.7500      0.0000    510.5618      4.0659     56.1750
  1609.0000      0.0000    511.1668      4.1536     56.4997
  1609.2500      0.0000    511.9795      4.2303     57.8896
  1609.5000      0.0000    511.2858      4.2896     60.4207
  1609.7500      0.0000    508.2896      4.3262     63.9601
  1610.0000      0.0000    503.4664      4.3393     67.9629
  1610.2500      0.0000    497.8702      4.3348     71.5965
  1610.5000      0.0000    492.5819      4.3242     74.0483
  1610.7500      0.0000    488.6771      4.3199     74.7857
  1611.0000      0.0000    487.0507      4.3300     73.9530
  1611.2500      0.0000    487.8752      4.3534     72.6091
  1611.5000      0.0000    490.3824      4.3808     72.0847
  1611.7500      0.0000    493.4726      4.4021     72.8265
  1612.0000      0.0000    496.5103      4.4135     74.0731
  1612.2500      0.0000    499.1363      4.4189     74.7301
  1612.5000      0.0000    500.4329      4.4251     74.3210
  1612.7500      0.0000    499.2252      4.4366     73.1332
  1613.0000      0.0000    495.6169      4.4542     71.8250
  1613.2500      0.0000    491.6577      4.4746     71.0220
  1613.5000      0.0000    490.1089      4.4933     70.9533
  1613.7500      0.0000    492.6518      4.5083     71.2848
  1614.0000      0.0000    498.9311      4.5212     71.4153
  1614.2500      0.0000    506.7261      4.5352     71.0232
  1614.5000      0.0000    513.0321      4.5506     70.3522
  1614.7500      0.0000    515.4471      4.5625     70.0915
  1615.0000      0.0000    513.0726      4.5636     71.0377
  1615.2500      0.0000    506.7238      4.5504     73.5671
  1615.5000      0.0000    498.5799      4.5274     77.1357
  1615.7500      0.0000    491.1972      4.5045     80.4958
  1616.0000      0.0000    486.2755      4.4914     82.6148
  1616.2500      0.0000    484.1908      4.4929     83.2896
  1616.5000      0.0000    484.6549      4.5087     82.8585
  1616.7500      0.0000    487.7502      4.5351     81.5269
  1617.0000      0.0000    494.3460      4.5653     79.0898
  1617.2500      0.0000    505.6958      4.5906     75.3275
  1617.5000      0.0000    522.4718      4.6043     70.6595
  1617.7500      0.0000    543.4090      4.6059     66.2535
  1618.0000      0.0000    564.2228      4.6011     63.2718
  1618.2500      0.0000    578.6677      4.5968     62.0843
  1618.5000      0.0000    582.3087      4.5955     62.3309
  1618.7500      0.0000    575.6548      4.5942     63.4702
  1619.0000      0.0000    563.3055      4.5881     65.0162
  1619.2500      0.0000    550.6901      4.5765     66.5148
  1619.5000      0.0000    542.0323      4.5654     67.6153
  1619.7500      0.0000    540.2712      4.5651     68.1438
  1620.0000      0.0000    547.4624      4.5833     67.9998
  1620.2500      0.0000    564.3138      4.6177     67.1776
  1620.5000      0.0000    588.8794      4.6564     66.0863
  1620.7500      0.0000    616.1025      4.6844     65.6886
  1621.0000      0.0000    639.7679      4.6930     66.9398
  1621.2500      0.0000    655.7900      4.6832     69.9914
  1621.5000      0.0000    664.0710      4.6637     74.1000
  1621.7500      0.0000    667.8171      4.6462     78.3011
  1622.0000      0.0000    671.0014      4.6390     81.9832
  1622.2500      0.0000    675.1069      4.6424     84.7581
  1622.5000      0.0000    677.6031      4.6501     86.0413
  1622.7500      0.0000    674.5790      4.6567     85.2191
  1623.0000      0.0000    665.6920      4.6612     82.4437
  1623.2500      0.0000    655.7940      4.6624     79.0008
  1623.5000      0.0000    650.4409      4.6540     76.5567
  1623.7500      0.0000    649.8517      4.6290     75.9905
  1624.0000      0.0000    648.6304      4.5886     76.9484
  1624.2500      0.0000    642.3713      4.5456     78.3612
  1624.5000      0.0000    633.8618      4.5158     79.2986
  1624.7500      0.0000    631.2485      4.5060     79.4951
  1625.0000      0.0000    639.6968      4.5115     79.3046
  1625.2500      0.0000    655.7606      4.5235     79.1571
  1625.5000      0.0000    670.2012      4.5374     78.9165
  1625.7500      0.0000    675.1331      4.5534     77.8080
  1626.0000      0.0000    667.8741      4.5712     75.1686
  1626.2500      0.0000    649.7045      4.5853     71.2965
  1626.5000      0.0000    623.7399      4.5869     67.4965
  1626.7500      0.0000    594.5887      4.5720     65.2985
  1627.0000      0.0000    567.9257      4.5472     65.4726
  1627.2500      0.0000    548.2634      4.5255     67.5289
  1627.5000      0.0000    536.7903      4.5157     70.1235
  1627.7500      0.0000    531.6543      4.5170     72.0368
  1628.0000      0.0000    530.0461      4.5210     72.7801
  1628.2500      0.0000    529.9904      4.5203     72.3857
  1628.5000      0.0000    530.9417      4.5130     70.9268
  1628.7500      0.0000    533.6485      4.5031     68.4377
  1629.0000      0.0000    539.6210      4.4943     65.2647
  1629.2500      0.0000    549.8636      4.4866     62.2618
