~Version Information
 VERS.                                  2.0 : CWLS LAS VERSION
 WRAP.                                   NO : WRAPING MODE
 SWARE .                 MController 2.5.0J : SOFTWARE VERSION
~Well Information
 WELL.                     Surtees 23-34 Tr : WELL
 COMP.    Pioneer Natural Resources USA Inc : COMPANY
 FLD.                      Purgatoire River : FIELD
 LOC.                NE/SW Sec 34 T32S R66W : LOCATION
 DATE.                             07/26/05 : DATE(S) LOGGED
 SRVC.       BLANCO Geological Services LLC : SERVICE COMPANY
 STAT.                                   CO : STATE
 CNTY.                           Las Animas : COUNTY
 CTRY.                                  USA : COUNTRY
 API.                       05-071-08449-00 : API NUMBER
 STRT.FT                             479.00 : START DEPTH
 STOP.FT                            1500.00 : STOP DEPTH
 STEP.FT                               1.00 : DEPTH INCREMENT
 NULL.                                -9999 : NULL VALUE
~Curve information
 DEPTH.FT                                   :
 ROP.MIN/FT                                 :
 GAS.UNITS                                  :
~ASCII Log data
# ...
       679.0         0.13         57.4 
       680.0         0.13         57.1 
       681.0         0.13         57.2 
       682.0         0.17         57.1 
       683.0         0.13         55.6 
       684.0         0.17         54.6 
       685.0         0.10         54.0 
       686.0         1.10         53.9 
       687.0         0.13         62.7 
       688.0         0.17         81.6 
       689.0         0.10        107.3 
       690.0         0.13        165.9 
       691.0         0.23        210.1 
       692.0         0.22        218.7 
       693.0         0.27        197.6 
       694.0         0.17        157.1 
       695.0         0.20        126.4 
       696.0         0.20        112.8 
       697.0         0.23        119.2 
       698.0         0.20        125.6 
       699.0         0.23        126.2 
       700.0         0.23        126.3 
       701.0         0.23        123.5 
       702.0         0.17        121.7 
       703.0         0.17        119.5 
       704.0         0.17        118.2 
       705.0         0.20        116.9 
       706.0         0.13        115.8 
       707.0         0.13        114.8 
       708.0         0.10        116.5 
       709.0         0.10        134.2 
       710.0         0.18        164.6 
       711.0         0.17        188.2 
       712.0         0.17        210.1 
       713.0         0.20        222.3 
       714.0         0.17        228.2 
       715.0         0.17        228.8 
       716.0         1.83        290.0 
       717.0         0.30       1546.1 
       718.0         0.17       1632.8 
       719.0         0.25       1616.6 
       720.0         0.23       1462.3 
       721.0         0.23       1252.9 
       722.0         0.23       1065.0 
       723.0         0.20        904.4 
       724.0         0.20        816.1 
       725.0         0.13        757.7 
       726.0         0.10        711.1 
       727.0         0.13        689.2 
       728.0         0.10        681.3 
       729.0         0.17        636.8 
       730.0         0.10        624.8 
       731.0         0.13        620.0 
       732.0         0.10        614.9 
       733.0         0.20        613.0 
       734.0         0.17        597.5 
       735.0         0.20        589.2 
       736.0         0.13        590.2 
       737.0         0.10        588.9 
       738.0         0.20        590.2 
       739.0         0.18        581.3 
       740.0         0.20        558.7 
       741.0         0.17        534.3 
       742.0         0.20        538.8 
       743.0         0.23        550.2 
       744.0         0.23        568.3 
       745.0         0.27        571.8 
       746.0         2.05       1597.2 
       747.0         0.23       1605.5 
       748.0         0.23       1419.2 
       749.0         0.23       1273.5 
       750.0         0.17       1019.0 
       751.0         0.13        956.1 
       752.0         0.20        858.7 
       753.0         0.20        786.0 
       754.0         0.17        734.9 
       755.0         0.17        689.5 
       756.0         0.10        660.9 
       757.0         0.20        653.0 
       758.0         0.20        634.3 
       759.0         0.17        611.4 
       760.0         0.20        600.0 
       761.0         0.23        592.1 
       762.0         0.17        581.0 
       763.0         0.22        575.6 
       764.0         0.23        573.0 
       765.0         0.17        569.2 
       766.0         0.17        566.4 
       767.0         0.20        564.5 
       768.0         0.20        563.8 
       769.0         0.13        558.1 
       770.0         0.17        555.9 
       771.0         0.13        550.5 
       772.0         0.13        546.1 
       773.0         0.13        541.6 
       774.0         0.13        542.9 
       775.0         0.33        539.1 
       776.0         1.45        948.8 
       777.0         0.10       1128.8 
       778.0         0.30       1445.5 
       779.0         0.27       1429.0 
       780.0         0.20       1224.6 
       781.0         0.20       1083.7 
       782.0         0.17        986.3 
       783.0         0.20        843.4 
       784.0         0.17        736.8 
       785.0         0.13        715.9 
       786.0         0.13        677.4 
       787.0         0.13        640.6 
       788.0         0.13        613.7 
       789.0         0.10        580.0 
       790.0         0.13        574.9 
       791.0         0.13        550.8 
       792.0         0.17        542.2 
       793.0         0.17        538.4 
       794.0         0.17        547.3 
       795.0         0.22        553.0 
       796.0         0.20        554.6 
       797.0         0.23        554.6 
       798.0         0.20        552.4 
       799.0         0.17        547.6 
       800.0         0.20        547.6 
       801.0         0.17        541.6 
       802.0         0.17        541.6 
       803.0         0.17        537.8 
       804.0         0.20        539.1 
       805.0         0.17        535.6 
       806.0         2.05       1383.3 
       807.0         0.33       1586.7 
       808.0         0.27       1470.0 
       809.0         0.23       1194.1 
       810.0         0.23       1048.5 
       811.0         0.20        870.1 
       812.0         0.20        804.4 
       813.0         0.17        710.5 
       814.0         0.17        676.5 
       815.0         0.17        635.2 
       816.0         0.23        607.6 
       817.0         0.17        593.0 
       818.0         0.17        578.7 
       819.0         0.18        572.7 
       820.0         0.10        561.0 
       821.0         0.10        556.2 
       822.0         0.20        552.7 
       823.0         0.20        541.6 
       824.0         0.17        540.7 
       825.0         0.20        543.5 
       826.0         0.17        544.5 
       827.0         0.13        543.5 
       828.0         0.17        542.6 
       829.0         0.17        542.6 
       830.0         0.17        544.5 
       831.0         0.17        541.0 
       832.0         0.17        538.1 
       833.0         0.10        534.6 
       834.0         0.10        534.6 
       835.0         0.13        530.5 
       836.0         1.72        767.6 
       837.0         0.30        892.0 
       838.0         0.27        905.3 
       839.0         0.17        899.0 
       840.0         0.13        868.8 
       841.0         0.17        819.6 
       842.0         0.13        768.9 
       843.0         0.17        757.4 
       844.0         0.13        707.0 
       845.0         0.17        659.4 
       846.0         0.17        629.8 
       847.0         0.17        601.0 
       848.0         0.13        579.1 
       849.0         0.17        577.2 
       850.0         0.22        552.4 
       851.0         0.17        547.0 
       852.0         0.27        547.3 
       853.0         0.23        546.7 
       854.0         0.20        546.7 
       855.0         0.23        543.8 
       856.0         0.17        541.3 
       857.0         0.17        540.0 
       858.0         0.17        532.1 
       859.0         0.17        528.0 
       860.0         0.13        522.6 
       861.0         0.17        519.7 
       862.0         0.13        514.3 
       863.0         0.20        507.3 
       864.0         0.23        520.0 
       865.0         0.20        541.6 
       866.0         1.68        935.5 
       867.0         0.17        986.9 
       868.0         0.20       1032.9 
       869.0         0.27       1012.3 
       870.0         0.10        926.6 
       871.0         0.13        915.2 
       872.0         0.10        851.4 
       873.0         0.13        830.1 
       874.0         0.20        761.6 
       875.0         0.20        715.2 
       876.0         0.20        666.7 
       877.0         0.17        639.4 
       878.0         0.18        616.2 
