~Version Information
VERS.                      2.0: CWLS Log ASCII Standard - VERSION 2.0
WRAP.                       NO: One line per depth step
~Well Information Block
STRT.FT               673.2000: 
STOP.FT              1510.5000: 
STEP.FT                 0.1000: 
NULL.                -999.2500: 
COMP.          Pioneer Natural Resources: COMPANY
WELL.          Hammerhead 24-24 Tr: WELL
FLD.           Purgatoire River: FIELD
LOC.           953' FSL & 1922' FWL: LOCATION
PROV.                 Colorado: PROVINCE
CNTY.               Las Animas: COUNTRY
SRVC.                Patterson: SERVICE COMPANY
DATE.          Mon Jan 30 07:27:57 2006: LOG DATE
UWI.           05 071 08669 00: UNIQUE WELL ID
~Curve Information Block
DEPT.FT            0 000 00 00: Depth
DCAL.in                       : CDL Caliper
RHOB.g/cc                     : CDL Bulk Density
RHOC.g/cc                     : CDL Density Correction
DPOR.pu                       : CDL Density Porosity
GR.GAPI                       : Gamma Ray
~Parameter Information Block
~A  Depth       DCAL        RHOB        RHOC        DPOR         GR     
# ...
  1446.0000      7.8532      2.6197      0.0822      1.8341     53.4497
  1446.1000      7.8532      2.6262      0.0485      1.4447     57.1820
  1446.2000      7.8532      2.6188      0.0387      1.8903     58.1571
  1446.3000      7.8532      2.6073      0.0415      2.5864     55.4733
  1446.4000      7.8532      2.5936      0.0335      3.4193     52.4011
  1446.5000      7.8529      2.5819     -0.0001      4.1274     52.4217
  1446.6000      7.8529      2.5754      0.0021      4.5229     52.0223
  1446.7000      7.8529      2.5687      0.0655      4.9251     48.9639
  1446.8000      7.8531      2.5611      0.0063      5.3887     49.0016
  1446.9000      7.8531      2.5613      0.0117      5.3736     52.6948
  1447.0000      7.8532      2.5675      0.0321      4.9997     54.2733
  1447.1000      7.8532      2.5722      0.0000      4.7159     52.3096
  1447.2000      7.8532      2.5789      0.0112      4.3093     49.4618
  1447.3000      7.8526      2.5824      0.0324      4.0941     47.4094
  1447.4000      7.8526      2.5701      0.0087      4.8403     46.3125
  1447.5000      7.8526      2.5499     -0.0277      6.0654     46.5715
  1447.6000      7.8526      2.5353      0.0009      6.9517     47.1572
  1447.7000      7.8526      2.5263      0.0144      7.4984     46.9538
  1447.8000      7.8529      2.5231     -0.0064      7.6885     46.8310
  1447.9000      7.8529      2.5228      0.0388      7.7110     46.7476
  1448.0000      7.8524      2.5169      0.0146      8.0680     46.2735
  1448.1000      7.8524      2.5039      0.0309      8.8560     45.2123
  1448.2000      7.8524      2.4862      0.0316      9.9257     42.3930
  1448.3000      7.8520      2.4698     -0.0032     10.9234     39.2402
  1448.4000      7.8520      2.4557      0.0256     11.7780     37.0873
  1448.5000      7.8524      2.4393      0.0240     12.7680     35.2399
  1448.6000      7.8524      2.4264      0.0297     13.5491     37.1361
  1448.7000      7.8524      2.4238      0.0340     13.7098     45.3445
  1448.8000      7.8532      2.4221      0.0640     13.8134     55.6903
  1448.9000      7.8532      2.4122      0.0309     14.4143     61.3769
  1449.0000      7.8543      2.4057      0.0251     14.8035     59.9379
  1449.1000      7.8543      2.4154      0.0061     14.2165     56.6697
  1449.2000      7.8543      2.4314      0.0570     13.2471     55.4893
  1449.3000      7.8552      2.4379      0.0654     12.8537     56.0574
  1449.4000      7.8552      2.4359      0.0699     12.9770     58.4308
  1449.5000      7.8553      2.4337      0.0537     13.1088     60.0101
  1449.6000      7.8553      2.4399      0.0256     12.7337     57.5657
  1449.7000      7.8553      2.4601      0.0104     11.5118     53.9126
  1449.8000      7.8545      2.4774      0.0980     10.4604     54.4347
  1449.9000      7.8545      2.4686      0.0640     10.9918     59.2894
  1450.0000      7.8532      2.4449      0.0522     12.4310     62.6250
  1450.1000      7.8532      2.4353      0.0117     13.0150     60.7447
  1450.2000      7.8532      2.4489      0.0346     12.1895     57.6199
  1450.3000      7.8526      2.4731      0.0566     10.7216     57.9459
  1450.4000      7.8526      2.4897      0.0927      9.7153     61.7183
  1450.5000      7.8532      2.4869      0.0695      9.8879     65.4956
  1450.6000      7.8532      2.4700      0.0505     10.9069     67.6177
  1450.7000      7.8532      2.4556      0.0463     11.7833     68.4906
  1450.8000      7.8541      2.4494      0.0287     12.1595     66.5243
  1450.9000      7.8541      2.4442      0.0646     12.4729     61.3319
  1451.0000      7.8529      2.4317      0.0361     13.2312     56.7525
  1451.1000      7.8529      2.4162     -0.0007     14.1705     55.8621
  1451.2000      7.8529      2.4115      0.0020     14.4518     54.8156
  1451.3000      7.8482      2.4194     -0.0058     13.9776     50.9257
  1451.4000      7.8482      2.4269      0.0319     13.5238     47.7551
  1451.5000      7.8447      2.4260      0.0262     13.5735     46.3179
  1451.6000      7.8447      2.4214      0.0366     13.8574     44.3506
  1451.7000      7.8447      2.4207      0.0328     13.8954     43.3067
  1451.8000      7.8483      2.4237      0.0299     13.7146     46.6516
  1451.9000      7.8483      2.4259      0.0191     13.5828     50.9754
  1452.0000      7.8521      2.4344     -0.0010     13.0665     51.8624
  1452.1000      7.8521      2.4578      0.0121     11.6478     52.6519
  1452.2000      7.8521      2.4852      0.0571      9.9870     56.1391
  1452.3000      7.8532      2.4973      0.0786      9.2566     57.7621
  1452.4000      7.8532      2.4952      0.0566      9.3810     53.8766
  1452.5000      7.8538      2.4930      0.0559      9.5158     47.8761
  1452.6000      7.8538      2.4870      0.0940      9.8818     44.1708
  1452.7000      7.8538      2.4723      0.0221     10.7697     44.8192
  1452.8000      7.8538      2.4583      0.0576     11.6170     48.3756
  1452.9000      7.8538      2.4477     -0.0042     12.2616     50.6068
  1453.0000      7.8538      2.4381      0.0681     12.8436     51.4555
  1453.1000      7.8538      2.4297      0.0422     13.3493     54.8506
  1453.2000      7.8538      2.4241      0.0750     13.6933     60.0339
  1453.3000      7.8540      2.4179      0.0827     14.0662     61.2900
  1453.4000      7.8540      2.4128      0.0611     14.3758     57.8067
  1453.5000      7.8542      2.4133      0.0672     14.3447     55.0772
  1453.6000      7.8542      2.4158      0.0676     14.1955     54.6143
  1453.7000      7.8542      2.4173      0.0620     14.1045     53.4071
  1453.8000      7.8535      2.4253      0.0225     13.6159     52.0798
  1453.9000      7.8535      2.4453      0.0688     12.4076     50.7647
  1454.0000      7.8525      2.4600      0.0840     11.5133     46.1261
  1454.1000      7.8525      2.4542      0.0580     11.8689     41.3106
  1454.2000      7.8525      2.4397      0.0492     12.7463     41.6855
  1454.3000      7.8520      2.4288      0.0831     13.4053     43.2563
  1454.4000      7.8520      2.4167      0.0423     14.1412     41.8579
  1454.5000      7.8525      2.4028      0.0393     14.9844     40.5547
  1454.6000      7.8525      2.3940      0.0483     15.5149     42.3802
  1454.7000      7.8525      2.3946      0.0183     15.4813     44.8060
  1454.8000      7.8535      2.4043      0.0448     14.8888     44.3834
  1454.9000      7.8535      2.4188      0.0341     14.0105     41.1428
  1455.0000      7.8536      2.4284      0.0592     13.4297     37.4223
  1455.1000      7.8536      2.4250      0.0442     13.6389     35.4339
  1455.2000      7.8536      2.4163      0.0419     14.1615     35.9930
  1455.3000      7.8533      2.4195      0.0526     13.9703     38.8741
  1455.4000      7.8533      2.4356      0.0698     12.9918     42.0846
  1455.5000      7.8536      2.4468      0.0745     12.3177     43.5551
  1455.6000      7.8536      2.4420      0.0611     12.6090     44.1821
  1455.7000      7.8536      2.4282      0.0677     13.4413     43.6261
  1455.8000      7.8537      2.4180      0.0118     14.0617     41.7643
  1455.9000      7.8537      2.4224      0.0141     13.7940     42.3470
  1456.0000      7.8536      2.4428      0.0198     12.5574     46.1620
  1456.1000      7.8536      2.4655      0.0839     11.1843     48.1476
  1456.2000      7.8536      2.4754      0.0330     10.5790     47.1718
  1456.3000      7.8535      2.4718      0.0539     10.7979     47.6278
  1456.4000      7.8535      2.4620      0.0337     11.3960     50.3159
  1456.5000      7.8532      2.4581      0.0211     11.6306     51.2709
  1456.6000      7.8532      2.4652      0.0627     11.1972     48.4140
  1456.7000      7.8532      2.4754      0.0547     10.5821     43.1946
  1456.8000      7.8527      2.4869      0.0485      9.8850     38.6126
  1456.9000      7.8527      2.5027      0.0993      8.9281     37.2594
  1457.0000      7.8526      2.5162      0.0647      8.1100     38.1607
  1457.1000      7.8526      2.5217      0.0731      7.7733     40.7023
