~Version Information
VERS.                      2.0: CWLS Log ASCII Standard - VERSION 2.0
WRAP.                       NO: One line per depth step
~Well Information Block
STRT.FT                -8.2500: 
STOP.FT              1653.2500: 
STEP.FT                 0.2500: 
NULL.                -999.2500: 
COMP.          Pioneer Natural Resources: COMPANY
WELL.            Relay 12-7 Tr: WELL
FLD.           Purgatorie River: FIELD
LOC.           2025' FNL & 790' FWL--: LOCATION
PROV.                       CO: PROVINCE
CNTY.               Las Animas: COUNTRY
SRVC.          Patterson Wireline: SERVICE COMPANY
DATE.          Tue Jan 24 10:25:08 2006: LOG DATE
UWI.           05 071 08603 00: UNIQUE WELL ID
~Curve Information Block
DEPT.FT            0 000 00 00: Depth
CCL.                          : Casing Collar Locator
TT3.usec                      : CBL 3' Travel Time
AMP3.mV                       : CBL 3' Amplitude
GR.GAPI                       : Gamma Ray
~Parameter Information Block
~A  Depth       CCL         TT3         AMP3         GR     
# ...
   762.2500      0.0000    410.8929      5.5939     81.2294
   762.5000      0.0000    404.2848      5.6057     77.6447
   762.7500      0.0000    402.0501      5.6519     75.1644
   763.0000      0.0000    401.2790      5.6967     73.2320
   763.2500      0.0000    400.7404      5.7157     71.1999
   763.5000      0.0000    400.4991      5.6984     68.6996
   763.7500      0.0000    400.8490      5.6452     66.1464
   764.0000      0.0000    401.6519      5.5659     64.5680
   764.2500      0.0000    402.2404      5.4783     64.7397
   764.5000      0.0000    401.6218      5.4039     66.4043
   764.7500      0.0000    398.9855      5.3610     68.3072
   765.0000      0.0000    394.3940      5.3592     69.1148
   765.2500      0.0000    389.0748      5.3949     68.4510
   765.5000      0.0000    384.8148      5.4533     67.0299
   765.7500      0.0000    382.9316      5.5131     65.8091
   766.0000      0.0000    383.8849      5.5554     65.1406
   766.2500      0.0000    387.6932      5.5722     64.7033
   766.5000      0.0000    394.2451      5.5696     64.0306
   766.7500      0.0000    402.9320      5.5607     62.9869
   767.0000      0.0000    412.2575      5.5549     61.8873
   767.2500      0.0000    420.3267      5.5530     61.3225
   767.5000      0.0000    425.9297      5.5486     61.8155
   767.7500      0.0000    429.0684      5.5344     63.4442
   768.0000      0.0000    430.5215      5.5090     65.7260
   768.2500      0.0000    431.1222      5.4810     67.9680
   768.5000      0.0000    431.4025      5.4651     69.7607
   768.7500      0.0000    431.6050      5.4714     71.0216
   769.0000      0.0000    431.8056      5.4977     71.5819
   769.2500      0.0000    432.0131      5.5315     71.0243
   769.5000      0.0000    432.2356      5.5595     69.1254
   769.7500      0.0000    432.5120      5.5736     66.3253
   770.0000      0.0000    432.9161      5.5709     63.6083
   770.2500      0.0000    433.6331      5.5519     61.9475
   770.5000      0.0000    435.2327      5.5213     61.8510
   770.7500      0.0000    439.1550      5.4861     63.1744
   771.0000      0.0000    447.7910      5.4516     65.0905
   771.2500      0.0000    463.0194      5.4212     66.3892
   771.5000      0.0000    483.1610      5.3997     66.2454
   771.7500      0.0000    501.2676      5.3931     64.9501
   772.0000      0.0000    508.3129      5.4047     63.7043
   772.2500      0.0000    499.9187      5.4309     63.4602
   772.5000      0.0000    480.0003      5.4627     63.9916
   772.7500      0.0000    457.2648      5.4922     64.2451
   773.0000      0.0000    438.5074      5.5179     63.6601
   773.2500      0.0000    425.6092      5.5440     63.0420
   773.5000      0.0000    417.7368      5.5723     63.9847
   773.7500      0.0000    414.4206      5.5970     67.5640
   774.0000      0.0000    415.8189      5.6098     73.9097
   774.2500      0.0000    421.1121      5.6107     82.7577
   774.5000      0.0000    428.0541      5.6108     93.6250
   774.7500      0.0000    434.4014      5.6245    105.3221
   775.0000      0.0000    439.4065      5.6574    116.1040
   775.2500      0.0000    444.2056      5.6999    124.7791
   775.5000      0.0000    451.6623      5.7324    131.2344
   775.7500      0.0000    465.9369      5.7400    135.6601
   776.0000      0.0000    490.5962      5.7274    138.0501
   776.2500      0.0000    524.9545      5.7167    138.9759
   776.5000      0.0000    561.7064      5.7285    139.8095
   776.7500      0.0000    589.5294      5.7637    141.1484
   777.0000      0.0000    599.6239      5.8091    141.6660
   777.2500      0.0000    591.2390      5.8533    139.5750
   777.5000      0.0000    572.4932      5.8936    135.0537
   777.7500      0.0000    555.2589      5.9264    130.4421
   778.0000      0.0000    546.0900      5.9413    127.9199
   778.2500      0.0000    540.8746      5.9282    127.4994
   778.5000      0.0000    530.2185      5.8886    127.5135
   778.7500      0.0000    510.2453      5.8387    126.5694
   779.0000      0.0000    486.0945      5.8017    124.5019
   779.2500      0.0000    465.5648      5.7952    121.6548
   779.5000      0.0000    452.3657      5.8221    118.0261
   779.7500      0.0000    445.4979      5.8718    113.7210
   780.0000      0.0000    442.2155      5.9290    110.0641
   780.2500      0.0000    440.1834      5.9823    109.3580
   780.5000      0.0000    437.8785      6.0279    112.6856
   780.7500      0.0000    434.3341      6.0646    118.0563
   781.0000      0.0000    429.0500      6.0892    121.5052
   781.2500      0.0000    422.0999      6.0970    120.4277
   781.5000      0.0000    414.0529      6.0869    115.6888
   781.7500      0.0000    405.6640      6.0647    110.6362
   782.0000      0.0000    397.7431      6.0400    108.4741
   782.2500      0.0000    391.1522      6.0211    110.2278
   782.5000      0.0000    386.5159      6.0123    114.4321
   782.7500      0.0000    383.8456      6.0132    118.4705
   783.0000      0.0000    382.6290      6.0230    120.4595
   783.2500      0.0000    382.4305      6.0416    120.2430
   783.5000      0.0000    383.6898      6.0649    118.8855
   783.7500      0.0000    388.3714      6.0790    117.1807
   784.0000      0.0000    399.8684      6.0651    114.6942
   784.2500      0.0000    420.9309      6.0148    110.6474
   784.5000      0.0000    450.0489      5.9403    105.5670
   784.7500      0.0000    479.7849      5.8675    101.1570
   785.0000      0.0000    499.9791      5.8185     98.3433
   785.2500      0.0000    503.3645      5.7969     96.2659
   785.5000      0.0000    488.9942      5.7875     93.3672
   785.7500      0.0000    462.4654      5.7674     88.8410
   786.0000      0.0000    433.4029      5.7221     82.9306
   786.2500      0.0000    410.6556      5.6538     76.3922
   786.5000      0.0000    398.5128      5.5782     70.0576
   786.7500      0.0000    397.3676      5.5142     64.8142
   787.0000      0.0000    406.4931      5.4757     61.7609
   787.2500      0.0000    424.2846      5.4732     62.1121
   787.5000      0.0000    446.9675      5.5189     66.5308
   787.7500      0.0000    470.9995      5.6230     74.1447
   788.0000      0.0000    498.0215      5.7766     82.3325
   788.2500      0.0000    533.3516      5.9426     88.2694
   788.5000      0.0000    577.1611      6.0722     91.3887
   788.7500      0.0000    620.6673      6.1313     93.9973
   789.0000      0.0000    653.4833      6.1133     98.8934
   789.2500      0.0000    671.9136      6.0343    106.6862
   789.5000      0.0000    678.8601      5.9222    115.7226
   789.7500      0.0000    678.8013      5.8067    123.9172
   790.0000      0.0000    674.9654      5.7077    129.9940
   790.2500      0.0000    669.9209      5.6284    133.4770
   790.5000      0.0000    666.4252      5.5600    134.4816
   790.7500      0.0000    666.5290      5.4928    133.8296
   791.0000      0.0000    669.9905      5.4243    132.8699
   791.2500      0.0000    674.1605      5.3586    132.5612
   791.5000      0.0000    675.3250      5.3017    132.5767
   791.7500      0.0000    669.8580      5.2596    131.6400
   792.0000      0.0000    655.1375      5.2394    128.9827
   792.2500      0.0000    631.3958      5.2441    125.3563
   792.5000      0.0000    603.5255      5.2671    122.5311
   792.7500      0.0000    580.2003      5.2955    121.8215
   793.0000      0.0000    570.0318      5.3229    122.8696
   793.2500      0.0000    577.5276      5.3553    123.6892
   793.5000      0.0000    600.9611      5.4058    122.2338
   793.7500      0.0000    632.6669      5.4811    118.2111
   794.0000      0.0000    662.2274      5.5726    113.1795
   794.2500      0.0000    681.6945      5.6592    108.8705
   794.5000      0.0000    689.3065      5.7216    106.0237
   794.7500      0.0000    688.6804      5.7527    105.0361
   795.0000      0.0000    684.6672      5.7543    106.6580
   795.2500      0.0000    679.9370      5.7249    111.0726
   795.5000      0.0000    674.6027      5.6600    116.8297
