~Version Information
VERS.                      2.0: CWLS Log ASCII Standard - VERSION 2.0
WRAP.                       NO: One line per depth step
~Well Information Block
STRT.FT                -6.5000: 
STOP.FT              1317.5000: 
STEP.FT                 0.2500: 
NULL.                -999.2500: 
COMP.          Pioneer Natural Resources: COMPANY
WELL.              Dicks 32-5R: WELL
FLD.           Purgatorie River: FIELD
LOC.           1485' FNL & 1684' FEL--: LOCATION
PROV.                       CO: PROVINCE
CNTY.               Las Animas: COUNTRY
SRVC.          Patterson Wireline: SERVICE COMPANY
DATE.          Tue Dec 13 09:33:22 2005: LOG DATE
UWI.           05 071 08596 00: UNIQUE WELL ID
~Curve Information Block
DEPT.FT            0 000 00 00: Depth
CCL.                          : Casing Collar Locator
TT3.usec                      : CBL 3' Travel Time
AMP3.mV                       : CBL 3' Amplitude
GR.GAPI                       : Gamma Ray
~Parameter Information Block
~A  Depth       CCL         TT3         AMP3         GR     
# ...
   529.5000      0.0000    731.1852      9.7535    134.8896
   529.7500      0.0000    728.5412      9.5488    129.6267
   530.0000      0.0000    727.3357      9.4068    124.8020
   530.2500      0.0000    728.5172      9.3111    121.3067
   530.5000      0.0000    731.6163      9.2085    119.2691
   530.7500      0.0000    735.2318      9.0654    118.4514
   531.0000      0.0000    738.0694      8.8905    118.4806
   531.2500      0.0000    739.6859      8.7161    118.7346
   531.5000      0.0000    740.4506      8.5677    118.9133
   531.7500      0.0000    741.1002      8.4461    120.0602
   532.0000      0.0000    742.4608      8.3278    124.2908
   532.2500      0.0000    745.3089      8.1845    132.8531
   532.5000      0.0000    749.9022      8.0100    144.3983
   532.7500      0.0000    755.2207      7.8334    155.1066
   533.0000      0.0000    758.9840      7.7129    160.7841
   533.2500      0.0000    759.1541      7.7143    159.7082
   533.5000      0.0000    755.6841      7.8840    153.9814
   533.7500      0.0000    750.1916      8.2307    148.0000
   534.0000      0.0000    743.6089      8.7236    145.3378
   534.2500      0.0000    734.2479      9.3026    146.6802
   534.5000      0.0000    718.8887      9.8884    150.0834
   534.7500      0.0000    697.2693     10.3957    152.8157
   535.0000      0.0000    676.1492     10.7515    152.9767
   535.2500      0.0000    666.3930     10.9158    150.1901
   535.5000      0.0000    673.2867     10.9001    145.8701
   535.7500      0.0000    691.1466     10.7707    142.5793
   536.0000      0.0000    709.4263     10.6286    141.8024
   536.2500      0.0000    721.9948     10.5694    142.1266
   536.5000      0.0000    728.6131     10.6506    140.3582
   536.7500      0.0000    729.8655     10.8876    134.3584
   537.0000      0.0000    723.0653     11.2659    124.2763
   537.2500      0.0000    702.7569     11.7363    111.4226
   537.5000      0.0000    666.1658     12.2019     97.0566
   537.7500      0.0000    620.9478     12.5430     82.5787
   538.0000      0.0000    586.4127     12.6699     70.1348
   538.2500      0.0000    581.0030     12.5526     62.2068
   538.5000      0.0000    606.0170     12.2121     60.3701
   538.7500      0.0000    644.3752     11.7121     64.4095
   539.0000      0.0000    675.6113     11.1569     72.4292
   539.2500      0.0000    688.5095     10.6661     81.7946
   539.5000      0.0000    681.1063     10.3316     90.3378
   539.7500      0.0000    656.0328     10.1970     97.0304
   540.0000      0.0000    619.3661     10.2664    101.7749
   540.2500      0.0000    581.0435     10.4957    104.8584
   540.5000      0.0000    553.6406     10.7647    106.6455
   540.7500      0.0000    549.6431     10.9021    107.4641
   541.0000      0.0000    575.8234     10.7925    107.6699
   541.2500      0.0000    626.2268     10.4541    107.9056
   541.5000      0.0000    682.9921      9.9979    108.9586
   541.7500      0.0000    728.1933      9.5397    110.9159
   542.0000      0.0000    755.0071      9.1587    112.8848
   542.2500      0.0000    767.4457      8.8871    114.1376
   542.5000      0.0000    772.5403      8.7070    115.1418
   542.7500      2.0000    774.8263      8.5708    116.9587
   543.0000      0.0000    776.1921      8.4330    119.9594
   543.2500      0.0000    777.0193      8.2761    123.4780
   543.5000      0.0000    775.9689      8.1396    126.5393
   543.7500      0.0000    770.4183      8.1209    128.7820
   544.0000      0.0000    759.4279      8.2945    130.7362
   544.2500      0.0000    746.0356      8.6080    133.0223
   544.5000      0.0000    735.1571      8.9012    135.3035
   544.7500      0.0000    729.4169      9.0433    136.4464
   545.0000      0.0000    727.9659      9.0320    135.9066
   545.2500      0.0000    728.5032      8.9644    134.4640
   545.5000      0.0000    728.9702      8.9461    133.1827
   545.7500      0.0000    727.9162      9.0285    131.8379
   546.0000      0.0000    725.0404      9.1972    128.8425
   546.2500      0.0000    721.6692      9.3929    122.7933
   546.5000      0.0000    719.7394      9.5486    113.9575
   546.7500      0.0000    719.9427      9.6277    104.3194
   547.0000      0.0000    721.1039      9.6410     96.3242
   547.2500      0.0000    721.3195      9.6245     91.8018
   547.5000      0.0000    719.8394      9.6013     91.8365
   547.7500      0.0000    718.2552      9.5738     96.6329
   548.0000      0.0000    719.7699      9.5456    104.7833
   548.2500      0.0000    726.4706      9.5338    113.1893
   548.5000      0.0000    736.6076      9.5545    118.6209
   548.7500      0.0000    744.6111      9.6106    119.7599
   549.0000      0.0000    744.8184      9.6947    117.7770
   549.2500      0.0000    736.1641      9.7950    114.9829
   549.5000      0.0000    723.0408      9.8981    113.1344
   549.7500      0.0000    711.3027      9.9929    113.0468
   550.0000      0.0000    703.9777     10.0707    115.1379
   550.2500      0.0000    700.6930     10.1132    119.4944
   550.5000      0.0000    699.7075     10.0877    125.3614
   550.7500      0.0000    699.5864      9.9645    130.9694
   551.0000      0.0000    699.5984      9.7422    134.1521
   551.2500      0.0000    699.5042      9.4601    133.6613
   551.5000      0.0000    699.3128      9.1892    130.3559
   551.7500      0.0000    699.0980      9.0002    126.7167
   552.0000      0.0000    698.9229      8.9253    124.5916
   552.2500      0.0000    698.8320      8.9458    123.7367
   552.5000      0.0000    698.8719      9.0199    122.7556
   552.7500      0.0000    699.0672      9.1151    120.7493
   553.0000      0.0000    699.3682      9.2119    117.8056
   553.2500      0.0000    699.6558      9.2831    114.6149
   553.5000      0.0000    699.8304      9.2828    111.8403
   553.7500      0.0000    699.9227      9.1648    109.3003
   554.0000      0.0000    700.1367      8.9200    105.6251
   554.2500      0.0000    700.8315      8.5981     99.4077
   554.5000      0.0000    702.3894      8.2905     91.0927
   554.7500      0.0000    704.8363      8.0856     83.4541
   555.0000      0.0000    707.4690      8.0258     79.9622
   555.2500      0.0000    709.2224      8.0997     82.6345
   555.5000      0.0000    709.8295      8.2658     91.0560
   555.7500      0.0000    710.4552      8.4831    102.8540
   556.0000      0.0000    712.6843      8.7246    115.0942
   556.2500      0.0000    716.8159      8.9654    125.8385
   556.5000      0.0000    721.4372      9.1553    134.6316
   556.7500      0.0000    724.8035      9.2145    141.4112
   557.0000      0.0000    726.4389      9.0710    145.3415
   557.2500      0.0000    727.1619      8.7145    145.1812
   557.5000      0.0000    727.7401      8.2227    140.5936
   557.7500      0.0000    727.9344      7.7465    132.7597
   558.0000      0.0000    727.0063      7.4475    123.7565
   558.2500      0.0000    725.0139      7.4022    115.3439
   558.5000      0.0000    723.4290      7.5481    108.0804
   558.7500      0.0000    724.4037      7.7416    101.4274
   559.0000      0.0000    729.0618      7.8829     94.7165
   559.2500      0.0000    736.2945      7.9852     88.0682
   559.5000      0.0000    743.6144      8.1345     82.4285
   559.7500      0.0000    749.2413      8.4007     78.9251
   560.0000      0.0000    752.2984      8.7828     78.3506
   560.2500      0.0000    750.6702      9.2252     81.0013
   560.5000      0.0000    739.4420      9.6737     86.3764
   560.7500      0.0000    711.8496     10.1034     92.8329
   561.0000      0.0000    662.7859     10.4941     98.1253
   561.2500      0.0000    594.2488     10.8004    100.8985
   561.5000      0.0000    518.3726     10.9670    101.7178
   561.7500      0.0000    452.1535     10.9783    102.5681
   562.0000      0.0000    406.8155     10.8833    105.3416
   562.2500      0.0000    382.4982     10.7687    110.3152
   562.5000      0.0000    372.2661     10.6990    115.4991
   562.7500      0.0000    368.9095     10.6743    117.7031
