~Version Information
VERS.                      2.0: CWLS Log ASCII Standard - VERSION 2.0
WRAP.                       NO: One line per depth step
~Well Information Block
STRT.FT                 6.0000: 
STOP.FT              1577.7500: 
STEP.FT                 0.2500: 
NULL.                -999.2500: 
COMP.          Pioneer Natural Resources: COMPANY
WELL.           Kermit 32-7 Tr: WELL
FLD.           Purgatoire River: FIELD
LOC.           2009' FNL & 2196' FEL: LOCATION
PROV.                 Colorado: PROVINCE
CNTY.               Las Animas: COUNTRY
SRVC.                Patterson: SERVICE COMPANY
DATE.          Wed Jan 18 14:19:39 2006: LOG DATE
UWI.           05 071 08664 00: UNIQUE WELL ID
~Curve Information Block
DEPT.FT            0 000 00 00: Depth
GR.GAPI                       : Gamma Ray
CCL.                          : Casing Collar Locator
TT3.usec                      : CBL 3' Travel Time
AMP3.mV                       : CBL 3' Amplitude
~Parameter Information Block
~A  Depth        GR         CCL         TT3         AMP3    
# ...
   207.0000     51.8860      0.0000    728.4108     13.5971
   207.2500     51.2632      0.0000    728.4200     13.4224
   207.5000     51.5544      0.0000    728.3817     13.2732
   207.7500     52.1221      0.0000    728.2856     13.1779
   208.0000     52.4181      0.0000    728.1372     13.1488
   208.2500     52.1759      0.0000    727.9658     13.1766
   208.5000     51.2454      0.0000    727.8147     13.2388
   208.7500     49.5548      0.0000    727.7097     13.3128
   209.0000     47.3549      0.0000    727.5934     13.3806
   209.2500     45.3808      0.0000    727.2264     13.4308
   209.5000     44.5046      0.0000    726.0567     13.4611
   209.7500     45.0791      0.0000    723.2060     13.4776
   210.0000     46.6979      0.0000    717.8651     13.4922
   210.2500     48.6558      0.0000    710.0943     13.5203
   210.5000     50.4470      0.0000    701.2822     13.5761
   210.7500     51.7607      0.0000    693.4824     13.6641
   211.0000     52.3596      0.0000    688.0898     13.7713
   211.2500     52.3106      0.0000    685.2207     13.8712
   211.5000     52.1523      0.0000    684.2504     13.9365
   211.7500     52.4615      0.0000    684.7117     13.9549
   212.0000     53.3063      0.0000    686.6599     13.9345
   212.2500     54.3629      0.0000    690.3487     13.8963
   212.5000     55.3655      0.0000    695.6861     13.8593
   212.7500     56.1649      0.0000    702.0529     13.8308
   213.0000     56.5389      0.0000    708.4921     13.8063
   213.2500     56.2620      0.0000    713.7456     13.7776
   213.5000     55.3531      0.0000    716.1997     13.7419
   213.7500     54.1730      0.0000    714.4902     13.7030
   214.0000     53.2721      0.0000    708.6670     13.6668
   214.2500     52.9781      0.0000    700.6378     13.6359
   214.5000     52.9731      0.0000    693.1384     13.6103
   214.7500     52.5296      0.0000    688.1466     13.5901
   215.0000     51.4595      0.0000    686.2369     13.5767
   215.2500     50.5978      0.0000    687.0536     13.5725
   215.5000     50.8943      0.0000    689.8526     13.5753
   215.7500     52.1247      0.0000    693.6387     13.5752
   216.0000     52.9633      0.0000    697.4456     13.5593
   216.2500     52.3511      0.0000    700.8022     13.5234
   216.5000     50.4430      0.0000    703.5001     13.4752
   216.7500     48.2680      0.0000    704.8976     13.4260
   217.0000     46.7730      0.0000    704.3882     13.3820
   217.2500     46.2180      0.0000    702.8853     13.3449
   217.5000     46.2712      0.0000    702.8627     13.3167
   217.7500     46.4738      0.0000    706.1847     13.2990
   218.0000     46.6039      0.0000    712.2657     13.2860
   218.2500     46.8501      0.0000    718.7374     13.2627
   218.5000     47.7846      0.0000    723.5731     13.2144
   218.7500     49.8843      0.0000    726.2722     13.1422
   219.0000     52.8195      0.0000    727.4427     13.0676
   219.2500     55.3383      0.0000    727.8671     13.0194
   219.5000     56.0357      0.0000    728.0193     13.0131
   219.7500     54.3589      0.0000    728.0754     13.0427
   220.0000     51.0700      0.0000    728.0716     13.0886
   220.2500     47.8652      0.0000    728.0100     13.1337
   220.5000     46.2966      0.0000    727.8710     13.1719
   220.7500     46.7497      0.0000    727.5497     13.2069
   221.0000     48.3820      0.0000    726.7814     13.2505
   221.2500     50.1108      0.0000    725.2354     13.3211
   221.5000     51.6177      0.0000    722.8943     13.4378
   221.7500     53.3189      0.0000    720.4019     13.6046
   222.0000     55.3508      0.0000    718.6900     13.7953
   222.2500     56.7415      0.0000    717.9895     13.9604
   222.5000     55.9781      0.0000    717.5475     14.0560
   222.7500     52.5727      0.0000    716.6171     14.0737
   223.0000     47.9001      0.0000    715.3008     14.0393
   223.2500     44.2985      0.0000    714.1479     13.9861
   223.5000     43.3052      0.0000    713.4426     13.9310
   223.7500     44.6815      0.0000    713.1804     13.8748
   224.0000     46.9603      0.0000    713.3397     13.8180
   224.2500     48.7583      0.0000    714.0181     13.7702
   224.5000     49.5867      0.0000    715.3926     13.7425
   224.7500     49.7479      0.0000    717.2791     13.7353
   225.0000     49.7729      0.0000    718.7849     13.7371
   225.2500     50.0103      0.0000    719.0311     13.7345
   225.5000     50.5757      0.0000    718.3346     13.7212
   225.7500     51.4122      0.0000    718.1204     13.6995
   226.0000     52.2595      0.0000    719.4261     13.6758
   226.2500     52.7027      0.0000    721.8712     13.6567
   226.5000     52.4828      0.0000    724.2568     13.6486
   226.7500     51.7379      0.0000    725.7674     13.6603
   227.0000     50.8539      0.0000    726.3751     13.6994
   227.2500     50.1321      0.0000    726.4481     13.7607
   227.5000     49.6470      0.0000    726.3219     13.8207
   227.7500     49.3563      0.0000    726.1782     13.8516
   228.0000     49.3582      0.0000    726.0894     13.8444
   228.2500     50.0977      0.0000    726.0714     13.8168
   228.5000     52.2022      0.0000    726.1126     13.7998
   228.7500     55.9924      0.0000    726.1792     13.8171
   229.0000     61.1551      0.0000    726.2232     13.8729
   229.2500     66.8811      0.0000    726.2004     13.9527
   229.5000     72.2887      0.0000    726.0620     14.0387
   229.7500     76.8605      0.0000    725.6903     14.1238
   230.0000     80.6101      0.0000    724.8193     14.2074
   230.2500     83.7666      0.0000    723.1354     14.2812
   230.5000     86.2372      0.0000    720.7041     14.3290
   230.7500     87.5298      0.0000    718.3759     14.3425
   231.0000     87.3446      0.0000    717.4358     14.3307
   231.2500     86.1329      0.0000    718.4918     14.3095
   231.5000     84.8203      0.0000    720.8362     14.2881
   231.7500     83.9806      0.0000    723.0927     14.2647
   232.0000     83.4818      0.0000    724.1938     14.2183
   232.2500     82.8535      0.0000    723.4316     14.0930
   232.5000     81.6979      0.0000    719.8190     13.7931
   232.7500     79.9050      0.0000    712.1789     13.2272
   233.0000     77.9325      0.0000    700.7574     12.3945
   233.2500     76.8497      0.0000    689.2420     11.4214
   233.5000     77.6135      0.0000    684.2952     10.4717
   233.7500     80.0308      0.0000    691.3045      9.6257
   234.0000     82.6361      0.0000    709.4766      8.8942
   234.2500     83.8353      0.0000    731.8853      8.3073
   234.5000     83.1283      0.0000    751.2112      7.9126
   234.7500     81.2795      0.0000    764.6274      7.7088
   235.0000     79.5308     -3.0000    772.2696      7.6579
   235.2500     78.6159     -3.0000    773.0656      7.7731
   235.5000     78.2470      0.0000    765.1698      8.1750
   235.7500     77.6551      0.0000    749.7921      9.0271
   236.0000     76.7697      0.0000    731.5199     10.3423
   236.2500     76.4961      0.0000    714.3188     11.8208
   236.5000     77.5628      0.0000    698.9059     12.9744
   236.7500     79.4732      0.0000    684.3643     13.5008
   237.0000     80.7993      0.0000    670.8460     13.4932
   237.2500     80.1897      0.0000    660.0062     13.2565
   237.5000     77.1379      0.0000    653.5403     13.0149
   237.7500     72.3575      0.0000    651.9911     12.8284
   238.0000     67.6336      0.0000    654.6211     12.6799
   238.2500     64.9288      0.0000    660.2460     12.5520
   238.5000     65.1977      0.0000    667.9552     12.4407
   238.7500     67.8486      0.0000    676.4808     12.3450
   239.0000     71.2259      0.0000    682.8219     12.2629
   239.2500     73.5554      0.0000    683.0122     12.1927
   239.5000     73.6898      0.0000    675.6589     12.1348
   239.7500     71.5226      0.0000    663.9516     12.0877
   240.0000     67.9254      0.0000    653.0435     12.0467
   240.2500     64.0309      0.0000    645.9715     12.0063
