~Version Information
VERS.                      2.0: CWLS Log ASCII Standard - VERSION 2.0
WRAP.                       NO: One line per depth step
~Well Information Block
STRT.FT               742.7000: 
STOP.FT              1614.5000: 
STEP.FT                 0.1000: 
NULL.                -999.2500: 
COMP.          Pioneer Natural Resources: COMPANY
WELL.           Kermit 32-7 Tr: WELL
FLD.           Purgatoire River: FIELD
LOC.           2009' FNL & 2196' FEL: LOCATION
PROV.                 Colorado: PROVINCE
CNTY.               Las Animas: COUNTRY
SRVC.                Patterson: SERVICE COMPANY
DATE.          Mon Jan 16 13:19:56 2006: LOG DATE
UWI.           05 071 08664 00: UNIQUE WELL ID
~Curve Information Block
DEPT.FT            0 000 00 00: Depth
DCAL.in                       : CDL Caliper
RHOB.g/cc                     : CDL Bulk Density
RHOC.g/cc                     : CDL Density Correction
DPOR.pu                       : CDL Density Porosity
GR.GAPI                       : Gamma Ray
~Parameter Information Block
~A  Depth       DCAL        RHOB        RHOC        DPOR         GR     
# ...
  1325.1000      8.0316      1.8126      0.0741     50.7522    120.6805
  1325.2000      8.0316      1.8843      0.0499     46.4049    115.4535
  1325.3000      8.0563      1.9808      0.1334     40.5567    109.8935
  1325.4000      8.0563      2.0809      0.1218     34.4907    108.9674
  1325.5000      8.0913      2.1756      0.1357     28.7515    110.6344
  1325.6000      8.0913      2.2614      0.1953     23.5534    109.9704
  1325.7000      8.0913      2.3333      0.1894     19.1919    107.6904
  1325.8000      8.0486      2.3973      0.1791     15.3141    106.1263
  1325.9000      8.0486      2.4604      0.1156     11.4893    105.5933
  1326.0000      7.9935      2.5122      0.1299      8.3497    107.4347
  1326.1000      7.9935      2.5385      0.1142      6.7588    113.2944
  1326.2000      7.9935      2.5417      0.1009      6.5653    120.0598
  1326.3000      8.0018      2.5321      0.1042      7.1443    126.0940
  1326.4000      8.0018      2.5253      0.0722      7.5598    133.4292
  1326.5000      7.9497      2.5344      0.0866      7.0059    139.7551
  1326.6000      7.9497      2.5522      0.0927      5.9269    142.7101
  1326.7000      7.9497      2.5601      0.0910      5.4483    142.1285
  1326.8000      7.9457      2.5549      0.0785      5.7622    137.1406
  1326.9000      7.9457      2.5518      0.0835      5.9506    133.3449
  1327.0000      7.9146      2.5550      0.0609      5.7594    137.6819
  1327.1000      7.9146      2.5482      0.0788      6.1702    146.9857
  1327.2000      7.9146      2.5266      0.0178      7.4776    153.5472
  1327.3000      7.9144      2.5133      0.0151      8.2826    151.0079
  1327.4000      7.9144      2.5215      0.0782      7.7884    142.6582
  1327.5000      7.9152      2.5376      0.0713      6.8131    140.3145
  1327.6000      7.9152      2.5532      0.0861      5.8644    144.2397
  1327.7000      7.9152      2.5679      0.1132      4.9767    143.6157
  1327.8000      7.9226      2.5738      0.1294      4.6178    137.2158
  1327.9000      7.9226      2.5656      0.1310      5.1135    132.4217
  1328.0000      7.9249      2.5571      0.0467      5.6303    132.3476
  1328.1000      7.9249      2.5569      0.0897      5.6451    135.1459
  1328.2000      7.9249      2.5492      0.0436      6.1063    138.3779
  1328.3000      7.9366      2.5335      0.0766      7.0619    142.4381
  1328.4000      7.9366      2.5298      0.0721      7.2860    148.6998
  1328.5000      7.9567      2.5440      0.0993      6.4255    156.0013
  1328.6000      7.9567      2.5588      0.1095      5.5295    163.9498
  1328.7000      7.9567      2.5592      0.0913      5.5015    171.0060
  1328.8000      7.9548      2.5524      0.0763      5.9152    167.3199
  1328.9000      7.9548      2.5509      0.0791      6.0090    151.8490
  1329.0000      7.8861      2.5513      0.1326      5.9805    137.7189
  1329.1000      7.8861      2.5481      0.0578      6.1764    133.9554
  1329.2000      7.8861      2.5440      0.0938      6.4240    137.9860
  1329.3000      7.8910      2.5398      0.1096      6.6784    139.2792
  1329.4000      7.8910      2.5406      0.0764      6.6317    134.4617
  1329.5000      7.9015      2.5536      0.0839      5.8397    129.4672
  1329.6000      7.9015      2.5724      0.1347      4.7004    125.0551
  1329.7000      7.9015      2.5835      0.0961      4.0275    118.6858
  1329.8000      7.8997      2.5848      0.0985      3.9531    114.3673
  1329.9000      7.8997      2.5844      0.1237      3.9762    115.9530
  1330.0000      7.9078      2.5875      0.0752      3.7884    118.9332
  1330.1000      7.9078      2.5918      0.0736      3.5295    120.4675
  1330.2000      7.9078      2.5891      0.0789      3.6923    121.7007
  1330.3000      7.9245      2.5764      0.0790      4.4614    121.5086
  1330.4000      7.9245      2.5622      0.0669      5.3227    117.6190
  1330.5000      7.9309      2.5510      0.0835      6.0008    112.6012
  1330.6000      7.9309      2.5375      0.0661      6.8198    108.9430
  1330.7000      7.9309      2.5215      0.0702      7.7875    105.3143
  1330.8000      7.8968      2.5168      0.0109      8.0726    103.3023
  1330.9000      7.8968      2.5312      0.0767      7.2008    103.2043
  1331.0000      7.8753      2.5487      0.0671      6.1404    102.7766
  1331.1000      7.8753      2.5585      0.0572      5.5458    104.2565
  1331.2000      7.8753      2.5646      0.1221      5.1787    109.5555
  1331.3000      7.8817      2.5692      0.1151      4.8977    116.9821
  1331.4000      7.8817      2.5796      0.0711      4.2675    124.7902
  1331.5000      7.8406      2.6021      0.0986      2.9041    130.4062
  1331.6000      7.8406      2.6242      0.0805      1.5645    130.3300
  1331.7000      7.8406      2.6229      0.1200      1.6425    125.3947
  1331.8000      7.8509      2.6010      0.0335      2.9696    121.7124
  1331.9000      7.8509      2.5926      0.0286      3.4761    123.0193
  1332.0000      7.8672      2.6101      0.0707      2.4159    122.8602
  1332.1000      7.8672      2.6308      0.1326      1.1628    118.2459
  1332.2000      7.8672      2.6362      0.1167      0.8361    116.0455
  1332.3000      7.8950      2.6256      0.0439      1.4802    116.2682
  1332.4000      7.8950      2.5981      0.0850      3.1428    114.6556
  1332.5000      7.8750      2.5583     -0.0119      5.5589    112.9148
  1332.6000      7.8750      2.5279     -0.0188      7.4016    110.1433
  1332.7000      7.8750      2.5235     -0.0225      7.6651    103.5561
  1332.8000      7.8956      2.5410      0.0233      6.6082     94.5532
  1332.9000      7.8956      2.5653      0.0422      5.1310     85.7297
  1333.0000      7.8907      2.5875      0.0738      3.7870     80.8715
  1333.1000      7.8907      2.6067      0.0236      2.6237     83.2656
  1333.2000      7.8907      2.6186      0.0954      1.9033     91.2561
  1333.3000      7.8548      2.6142      0.1168      2.1714     99.4660
  1333.4000      7.8548      2.5979      0.0193      3.1556    104.8611
  1333.5000      7.8711      2.5823      0.0558      4.1032    105.3195
  1333.6000      7.8711      2.5780     -0.0027      4.3639    100.4681
  1333.7000      7.8711      2.5940      0.0564      3.3932     94.4388
  1333.8000      7.8863      2.6180      0.0973      1.9379     90.7545
  1333.9000      7.8863      2.6341      0.0569      0.9659     88.7733
  1334.0000      7.8531      2.6502      0.0026     -0.0105     87.9057
  1334.1000      7.8531      2.6683      0.0861     -1.1111     89.7256
  1334.2000      7.8531      2.6724      0.0669     -1.3558     91.7238
  1334.3000      7.8659      2.6589      0.0936     -0.5391     88.0544
  1334.4000      7.8659      2.6396      0.0455      0.6298     79.5253
  1334.5000      7.8849      2.6243      0.0568      1.5567     74.2554
  1334.6000      7.8849      2.6159      0.0101      2.0674     76.1710
  1334.7000      7.8849      2.6142      0.0558      2.1703     82.3366
  1334.8000      7.8634      2.6091      0.0539      2.4795     89.8057
  1334.9000      7.8634      2.5924      0.0886      3.4885     95.4720
  1335.0000      7.8849      2.5767      0.0218      4.4449     98.7162
  1335.1000      7.8849      2.5775      0.0555      4.3924    101.7377
  1335.2000      7.8849      2.5876      0.0540      3.7847    102.0372
  1335.3000      7.8567      2.5900      0.0791      3.6334     97.0964
  1335.4000      7.8567      2.5862      0.0779      3.8695     91.3531
  1335.5000      7.8458      2.5934      0.0352      3.4309     92.0775
  1335.6000      7.8458      2.6152      0.0780      2.1074     98.9775
  1335.7000      7.8458      2.6353      0.1146      0.8931    100.8186
  1335.8000      7.8378      2.6410      0.1024      0.5442     91.0000
  1335.9000      7.8378      2.6285      0.0845      1.3022     76.0040
  1336.0000      7.8341      2.6055      0.0451      2.6991     67.6550
  1336.1000      7.8341      2.5922      0.0436      3.5012     71.0165
  1336.2000      7.8341      2.5993      0.0583      3.0705     81.7681
