~Version Information
VERS.                      2.0: CWLS Log ASCII Standard - VERSION 2.0
WRAP.                       NO: One line per depth step
~Well Information Block
STRT.FT               570.0000: 
STOP.FT              1958.5000: 
STEP.FT                 0.2500: 
NULL.                -999.2500: 
COMP.          Petrogulf Corporation: COMPANY
WELL.            Montoya 7-14R: WELL
FLD.           Purgatorie River: FIELD
LOC.           628' FSL & 454' FWL: LOCATION
PROV.                 Colorado: PROVINCE
CNTY.               Las Animas: COUNTRY
SRVC.                Patterson: SERVICE COMPANY
DATE.          Sat Oct 08 17:13:52 2005: LOG DATE
UWI.                          : UNIQUE WELL ID
~Curve Information Block
DEPT.FT            0 000 00 00: Depth
SP.mV                         : DIL Spontaneous Potential
RILD.Ohm-m                    : DIL Deep Resistivity
RILM.Ohm-m                    : DIL Medium Resistivity
RLL3.Ohm-m                    : DIL Shallow Resistivity
GR.GAPI                       : Gamma Ray
~Parameter Information Block
~A  Depth        SP         RILD        RILM        RLL3         GR     
# ...
  1662.0000    238.9447      9.5757      9.3357      9.9898    148.1959
  1662.2500    239.0472      9.5121      9.1852      9.5610    147.3181
  1662.5000    239.1315      9.4691      9.0899      9.1607    147.6251
  1662.7500    239.1773      9.4310      9.0480      8.8892    149.1390
  1663.0000    239.1753      9.3835      9.0532      8.8461    151.9464
  1663.2500    239.1150      9.3164      9.0941      9.1240    152.8677
  1663.5000    238.9803      9.2268      9.1534      9.7766    151.4667
  1663.7500    238.7527      9.1198      9.2104     10.7484    148.8190
  1664.0000    238.4197      9.0062      9.2440     11.8154    143.6559
  1664.2500    237.9823      8.8978      9.2381     12.6215    140.3258
  1664.5000    237.4560      8.8034      9.1854     12.8422    136.3773
  1664.7500    236.8658      8.7277      9.0897     12.3824    134.5795
  1665.0000    236.2358      8.6699      8.9630     11.4389    133.6309
  1665.2500    235.5815      8.6255      8.8217     10.3684    134.8204
  1665.5000    234.9066      8.5871      8.6812      9.4796    140.1419
  1665.7500    234.2044      8.5464      8.5530      8.9140    145.5696
  1666.0000    233.4661      8.4954      8.4431      8.6628    153.8172
  1666.2500    232.6895      8.4291      8.3533      8.6421    157.3994
  1666.5000    231.8824      8.3470      8.2820      8.7530    157.9514
  1666.7500    231.0610      8.2534      8.2264      8.9097    155.6726
  1667.0000    230.2470      8.1560      8.1834      9.0532    151.5940
  1667.2500    229.4661      8.0634      8.1508      9.1578    150.3349
  1667.5000    228.7461      7.9829      8.1269      9.2292    151.5897
  1667.7500    228.1085      7.9192      8.1103      9.2894    153.7756
  1668.0000    227.5605      7.8746      8.0994      9.3555    157.2189
  1668.2500    227.0914      7.8489      8.0923      9.4289    158.8041
  1668.5000    226.6774      7.8404      8.0866      9.4983    159.1049
  1668.7500    226.2912      7.8461      8.0803      9.5418    157.4812
  1669.0000    225.9105      7.8627      8.0723      9.5271    152.2422
  1669.2500    225.5220      7.8868      8.0626      9.4260    147.4671
  1669.5000    225.1171      7.9154      8.0528      9.2438    140.1973
  1669.7500    224.6840      7.9459      8.0453      9.0336    136.3382
  1670.0000    224.2059      7.9765      8.0425      8.8689    132.8677
  1670.2500    223.6664      8.0066      8.0468      8.8013    131.7695
  1670.5000    223.0576      8.0363      8.0597      8.8388    130.5685
  1670.7500    222.3864      8.0676      8.0823      8.9554    129.4162
  1671.0000    221.6733      8.1048      8.1161      9.1108    126.8649
  1671.2500    220.9501      8.1544      8.1634      9.2636    124.6752
  1671.5000    220.2554      8.2242      8.2280      9.3753    120.6051
  1671.7500    219.6280      8.3210      8.3159      9.4182    117.4057
  1672.0000    219.0972      8.4483      8.4347      9.3910    112.7913
  1672.2500    218.6751      8.6051      8.5928      9.3326    110.7734
  1672.5000    218.3546      8.7859      8.7977      9.3222    110.2589
  1672.7500    218.1152      8.9826      9.0547      9.4684    111.1813
  1673.0000    217.9348      9.1852      9.3641      9.8869    112.8088
  1673.2500    217.8035      9.3819      9.7192     10.6780    113.4800
  1673.5000    217.7336      9.5593     10.1032     11.9125    114.5055
  1673.7500    217.7564      9.7050     10.4889     13.6210    116.0738
  1674.0000    217.9082      9.8109     10.8393     15.7252    120.3409
  1674.2500    218.2116      9.8762     11.1136     17.8964    123.7553
  1674.5000    218.6625      9.9067     11.2767     19.5047    127.4421
  1674.7500    219.2294      9.9110     11.3093     19.8762    127.9908
  1675.0000    219.8632      9.8955     11.2132     18.7589    126.5819
  1675.2500    220.5145      9.8622     11.0099     16.5502    125.7760
  1675.5000    221.1470      9.8087     10.7323     14.0278    127.5439
  1675.7500    221.7428      9.7308     10.4146     11.8604    131.0542
  1676.0000    222.2988      9.6249     10.0853     10.3399    138.1013
  1676.2500    222.8203      9.4900      9.7641      9.4400    142.6481
  1676.5000    223.3134      9.3284      9.4626      9.0007    147.8591
  1676.7500    223.7787      9.1457      9.1863      8.8501    149.9998
  1677.0000    224.2052      8.9513      8.9375      8.8403    151.2980
  1677.2500    224.5682      8.7567      8.7174      8.8517    151.1913
  1677.5000    224.8365      8.5736      8.5272      8.8053    150.1581
  1677.7500    224.9875      8.4114      8.3681      8.6809    148.9781
  1678.0000    225.0222      8.2757      8.2414      8.5171    146.4914
  1678.2500    224.9686      8.1674      8.1474      8.3826    144.7702
  1678.5000    224.8683      8.0835      8.0846      8.3367    143.3349
  1678.7500    224.7588      8.0182      8.0494      8.4050    143.4310
  1679.0000    224.6634      7.9645      8.0359      8.5809    144.1975
  1679.2500    224.5948      7.9159      8.0362      8.8425    144.2741
  1679.5000    224.5605      7.8670      8.0411      9.1618    143.0664
  1679.7500    224.5643      7.8138      8.0409      9.4973    141.5489
  1680.0000    224.6057      7.7538      8.0266      9.7813    138.9983
  1680.2500    224.6799      7.6860      7.9908      9.9294    137.7164
  1680.5000    224.7788      7.6105      7.9288      9.8830    137.4158
  1680.7500    224.8917      7.5288      7.8390      9.6519    138.5305
  1681.0000    225.0036      7.4430      7.7229      9.3106    141.6834
  1681.2500    225.0952      7.3554      7.5853      8.9489    144.2690
  1681.5000    225.1429      7.2685      7.4327      8.6210    148.2749
  1681.7500    225.1206      7.1846      7.2735      8.3364    150.7301
  1682.0000    225.0043      7.1064      7.1160      8.0844    153.2406
  1682.2500    224.7786      7.0368      6.9688      7.8571    153.6174
  1682.5000    224.4409      6.9784      6.8392      7.6497    151.7669
  1682.7500    223.9982      6.9337      6.7336      7.4594    148.7747
  1683.0000    223.4583      6.9047      6.6570      7.2924    141.9196
  1683.2500    222.8254      6.8935      6.6131      7.1758    136.8230
  1683.5000    222.1019      6.9025      6.6040      7.1542    131.2146
  1683.7500    221.2954      6.9354      6.6309      7.2685    129.6956
  1684.0000    220.4221      6.9967      6.6943      7.5282    129.6452
  1684.2500    219.5057      7.0930      6.7951      7.8963    129.8936
  1684.5000    218.5733      7.2321      6.9350      8.3034    129.7918
  1684.7500    217.6499      7.4233      7.1179      8.6817    129.6241
  1685.0000    216.7528      7.6757      7.3505      8.9998    129.6875
  1685.2500    215.8855      7.9972      7.6427      9.2806    129.8414
  1685.5000    215.0327      8.3936      8.0079      9.6102    129.8964
  1685.7500    214.1617      8.8687      8.4628     10.1643    130.0160
  1686.0000    213.2320      9.4255      9.0276     11.2781    131.1914
  1686.2500    212.2086     10.0670      9.7249     13.5285    132.6599
  1686.5000    211.0724     10.7964     10.5798     17.6939    134.1402
  1686.7500    209.8278     11.6178     11.6186     24.4356    133.0200
  1687.0000    208.5032     12.5363     12.8681     33.7542    126.0484
  1687.2500    207.1444     13.5598     14.3536     44.6164    117.6472
  1687.5000    205.8011     14.6997     16.0977     55.2009    100.9951
  1687.7500    204.5173     15.9702     18.1186     63.7349     88.9277
  1688.0000    203.3302     17.3859     20.4279     69.3482     72.4669
  1688.2500    202.2739     18.9561     23.0277     72.3550     63.7210
  1688.5000    201.3829     20.6758     25.9049     73.8369     54.1741
  1688.7500    200.6933     22.5152     29.0232     74.8735     49.6413
  1689.0000    200.2421     24.4120     32.3147     75.9640     44.6172
  1689.2500    200.0613     26.2729     35.6760     77.0049     42.2027
  1689.5000    200.1633     27.9878     38.9772     77.7162     39.7228
  1689.7500    200.5289     29.4523     42.0821     78.0742     38.4787
