~Version Information
VERS.                      2.0: CWLS Log ASCII Standard - VERSION 2.0
WRAP.                       NO: One line per depth step
~Well Information Block
STRT.FT               -14.7500: 
STOP.FT              1106.0000: 
STEP.FT                 0.2500: 
NULL.                -999.2500: 
COMP.          Pioneer Natural Resources: COMPANY
WELL.          Black Cat 13-32 Tr: WELL
FLD.           Purgatorie River: FIELD
LOC.           1679' FSL & 1150' FWL--: LOCATION
CNTY.               Las Animas: COUNTY
SRVC.          Patterson Wireline: SERVICE COMPANY
DATE.          Wed Mar 15 15:59:24 2006: LOG DATE
UWI.           05 071 08721 00: UNIQUE WELL ID
STAT.                       CO: STATE
~Curve Information Block
DEPT.FT            0 000 00 00: Depth
CCL.                          : Casing Collar Locator
TT3.usec                      : CBL 3' Travel Time
AMP3.mV                       : CBL 3' Amplitude
GR.GAPI                       : Gamma Ray
~Parameter Information Block
~A  Depth       CCL         TT3         AMP3         GR     
# ...
   286.7500      0.0000    714.3442      5.0410     62.1123
   287.0000      0.0000    713.9680      5.0728     68.4855
   287.2500      0.0000    711.2085      5.1102     75.8245
   287.5000      0.0000    705.9779      5.1598     81.8813
   287.7500      0.0000    698.3963      5.2351     85.3524
   288.0000      0.0000    686.1102      5.3478     87.0757
   288.2500      0.0000    662.9767      5.4985     88.8589
   288.5000      0.0000    622.0325      5.6757     91.4653
   288.7500      0.0000    562.2836      5.8617     94.0038
   289.0000      0.0000    493.1998      6.0387     95.1457
   289.2500      0.0000    430.4637      6.1912     94.6199
   289.5000      0.0000    385.7519      6.3044     93.3632
   289.7500      0.0000    360.7061      6.3661     92.5115
   290.0000      0.0000    349.6496      6.3714     92.5245
   290.2500      0.0000    345.7994      6.3271     92.9688
   290.5000      0.0000    344.7902      6.2487     92.6897
   290.7500      0.0000    344.7295      6.1555     90.2890
   291.0000      0.0000    345.0182      6.0673     84.8820
   291.2500      0.0000    345.4854      6.0010     76.8443
   291.5000      0.0000    346.0542      5.9651     68.1041
   291.7500      0.0000    346.7103      5.9550     61.4586
   292.0000      0.0000    347.4883      5.9567     59.0379
   292.2500      0.0000    348.4232      5.9567     61.0458
   292.5000      0.0000    349.4956      5.9504     65.8026
   292.7500      0.0000    350.6235      5.9414     70.9115
   293.0000      0.0000    351.7011      5.9356     74.6973
   293.2500      0.0000    352.6487      5.9368     76.8920
   293.5000      0.0000    353.4492      5.9469     77.9780
   293.7500      0.0000    354.1564      5.9680     77.9546
   294.0000      0.0000    354.8634      6.0018     76.2959
   294.2500      0.0000    355.6430      6.0498     73.3987
   294.5000      0.0000    356.5031      6.1131     71.3349
   294.7500      0.0000    357.3909      6.1910     72.2849
   295.0000      0.0000    358.2420      6.2787     76.4428
   295.2500      0.0000    359.0677      6.3691     82.1647
   295.5000      0.0000    360.0863      6.4566     87.9364
   295.7500      0.0000    361.9050      6.5413     93.3394
   296.0000      0.0000    365.6251      6.6304     98.2136
   296.2500      0.0000    372.7892      6.7382    102.0174
   296.5000      0.0000    385.2727      6.8799    104.4973
   296.7500      0.0000    405.4799      7.0582    106.1637
   297.0000      0.0000    436.4645      7.2545    107.5539
   297.2500      0.0000    480.3931      7.4362    108.6486
   297.5000      0.0000    535.0043      7.5765    109.4003
   297.7500      0.0000    591.7082      7.6676    110.1661
   298.0000      0.0000    639.3530      7.7180    111.1638
   298.2500      0.0000    671.1740      7.7400    111.8824
   298.5000      0.0000    687.8791      7.7431    111.3501
   298.7500      0.0000    694.6676      7.7344    108.9552
   299.0000      0.0000    696.6664      7.7189    105.1437
   299.2500      0.0000    696.8985      7.6972    101.5033
   299.5000      0.0000    696.6568      7.6662     99.8836
   299.7500      0.0000    696.4518      7.6230    101.1853
   300.0000      0.0000    696.6041      7.5659    105.0767
   300.2500      0.0000    697.5123      7.4933    110.4843
   300.5000      0.0000    699.6292      7.4032    115.8016
   300.7500      0.0000    703.0933      7.2944    119.1859
   301.0000      0.0000    707.2239      7.1664    119.7710
   301.2500      0.0000    710.6878      7.0223    118.5222
   301.5000      0.0000    712.6824      6.8709    117.1891
   301.7500      0.0000    713.9095      6.7264    116.5642
   302.0000      0.0000    715.8209      6.6003    116.2227
   302.2500      0.0000    718.8167      6.4948    115.5691
   302.5000      0.0000    721.6475      6.4034    114.4017
   302.7500      0.0000    722.6284      6.3162    112.5190
   303.0000      0.0000    721.1461      6.2255    109.4744
   303.2500      0.0000    718.1762      6.1312    105.1317
   303.5000      0.0000    715.7027      6.0403    100.1627
   303.7500      0.0000    715.3983      5.9590     95.7788
   304.0000      0.0000    717.4371      5.8844     93.0747
   304.2500      0.0000    720.5335      5.8078     92.4632
   304.5000      0.0000    723.0834      5.7245     93.3369
   304.7500      0.0000    724.0596      5.6415     94.3630
   305.0000      0.0000    722.9932      5.5764     94.3030
   305.2500      0.0000    719.7289      5.5473     92.4519
   305.5000      0.0000    714.6097      5.5567     88.5516
   305.7500      0.0000    708.7048      5.5825     82.9594
   306.0000      0.0000    703.4104      5.5894     77.2269
   306.2500      0.0000    699.6246      5.5549     74.0250
   306.5000      0.0000    697.3524      5.4801     75.7207
   306.7500      0.0000    696.0491      5.3797     82.5027
   307.0000      0.0000    695.1564      5.2659     91.8232
   307.2500      0.0000    694.3041      5.1471    100.1067
   307.5000      0.0000    693.1929      5.0342    105.4652
   307.7500      0.0000    691.5369      4.9469    108.7777
   308.0000      0.0000    689.3577      4.9070    111.9963
   308.2500      0.0000    687.3713      4.9249    115.7347
   308.5000      0.0000    686.7186      4.9877    118.9467
   308.7500      0.0000    687.9341      5.0637    120.6794
   309.0000      0.0000    690.3159      5.1210    121.3652
   309.2500      0.0000    692.5634      5.1457    122.0948
   309.5000      0.0000    693.8821      5.1428    123.0489
   309.7500      0.0000    694.3270      5.1245    123.1243
   310.0000      0.0000    694.3542      5.1003    121.1419
   310.2500      0.0000    694.3262      5.0746    117.1217
   310.5000      0.0000    694.3611      5.0510    112.3645
   310.7500      0.0000    694.4180      5.0361    108.5938
   311.0000      0.0000    694.4150      5.0412    107.1946
   311.2500      0.0000    694.3160      5.0784    108.9305
   311.5000      0.0000    694.1641      5.1505    113.7473
   311.7500      0.0000    694.0462      5.2421    120.6488
   312.0000      0.0000    694.0173      5.3236    128.0153
   312.2500      0.0000    694.0792      5.3733    134.4984
   312.5000      0.0000    694.2440      5.3971    139.8198
   312.7500      0.0000    694.5848      5.4255    144.4312
   313.0000      0.0000    695.2408      5.4901    148.2411
   313.2500      0.0000    696.5010      5.6019    150.0620
   313.5000      0.0000    699.0312      5.7540    148.5969
   313.7500      0.0000    703.8783      5.9386    143.7954
   314.0000      0.0000    711.5438      6.1574    137.2868
   314.2500      0.0000    720.4161      6.4101    131.8127
   314.5000      0.0000    726.4020      6.6748    129.9510
   314.7500      0.0000    725.1994      6.9092    132.5392
   315.0000      0.0000    715.1958      7.0775    138.1753
   315.2500      0.0000    698.2722      7.1762    144.5806
   315.5000      0.0000    679.6754      7.2238    150.0584
   315.7500      0.0000    668.3774      7.2296    153.1867
   316.0000      0.0000    673.6174      7.1907    152.1488
   316.2500      0.0000    695.6704      7.1269    145.8677
   316.5000      0.0000    721.5519      7.0894    135.5524
   316.7500      0.0000    735.5038      7.1143    124.1628
   317.0000      0.0000    733.4894      7.1857    114.6429
   317.2500      2.0000    722.8267      7.2547    109.1515
   317.5000     -2.0000    709.0988      7.2798    108.9159
   317.7500      0.0000    690.5775      7.2505    113.5098
   318.0000      0.0000    667.2283      7.1887    120.5433
   318.2500      0.0000    648.1956      7.1343    127.0701
   318.5000      0.0000    644.8396      7.1166    131.4103
   318.7500      0.0000    659.3982      7.1367    133.3551
   319.0000      0.0000    684.5422      7.1778    133.1432
   319.2500      0.0000    712.1190      7.2240    131.0946
   319.5000      0.0000    739.0930      7.2626    128.2490
   319.7500      0.0000    766.2181      7.2832    126.5333
   320.0000      0.0000    793.8995      7.2826    127.8029
