~Version Information
VERS.                      2.0: CWLS Log ASCII Standard - VERSION 2.0
WRAP.                       NO: One line per depth step
~Well Information Block
STRT.FT               550.0000: 
STOP.FT              1981.5000: 
STEP.FT                 0.2500: 
NULL.                -999.2500: 
COMP.          Pioneer Natural Resources: COMPANY
WELL.          Flying Horse 12-11 Tr: WELL
FLD.           Purgatoire River: FIELD
LOC.           2459' FNL & 410' FWL: LOCATION
STAT.                 Colorado: State
CNTY.               Las Animas: COUNTY
CTRY. USA : Country
SECT. 11 : Section
TOWN. 32S : Township
RANG. 66W : Range
SRVC.                Patterson: SERVICE COMPANY
DATE.          Sat Sep 03 20:17:31 2005: LOG DATE
API.           05 071 08485 00: UNIQUE WELL ID
~Curve Information Block
DEPT.FT            0 000 00 00: Depth
SN.Ohm-m                      : IEL Short Normal
SP.mV                         : IEL Spontaneous Potential
DIR.Ohm-m                     : IEL Induction Resistivity
GR.GAPI                       : Gamma Ray
~Parameter Information Block
~A  Depth        SN          SP         DIR          GR     
# ...
  1856.5000     52.2578    201.7619     25.2216     64.4732
  1856.7500     49.9842    201.7776     23.8175     67.7131
  1857.0000     46.5841    202.2660     22.2625     74.6322
  1857.2500     42.1901    203.1527     20.7454     81.0460
  1857.5000     37.2051    204.3276     19.3455     93.4200
  1857.7500     32.1570    205.7175     18.0695    102.9542
  1858.0000     27.5647    207.2933     16.8956    117.7806
  1858.2500     23.7707    209.0369     15.8021    127.1839
  1858.5000     20.8198    210.8985     14.7802    139.1662
  1858.7500     18.5410    212.7585     13.8356    145.1162
  1859.0000     16.7383    214.4133     12.9837    150.9755
  1859.2500     15.3246    215.6189     12.2392    153.4160
  1859.5000     14.2977    216.1988     11.6087    155.8008
  1859.7500     13.6524    216.1388     11.0891    156.6612
  1860.0000     13.3296    215.5980     10.6721    156.8716
  1860.2500     13.1890    214.8534     10.3514    156.5982
  1860.5000     13.0594    214.2363     10.1265    156.4642
  1860.7500     12.8524    214.0588     10.0033    156.9028
  1861.0000     12.6206    214.5203      9.9911    158.1831
  1861.2500     12.4686    215.6420     10.0983    158.9137
  1861.5000     12.4389    217.2828     10.3277    158.5388
  1861.7500     12.5687    219.2048     10.6724    156.7762
  1862.0000     12.9456    221.1163     11.1137    151.8469
  1862.2500     13.5823    222.6822     11.6211    147.3084
  1862.5000     14.3696    223.5558     12.1562    138.7601
  1862.7500     15.2254    223.4716     12.6788    131.8126
  1863.0000     16.1899    222.3797     13.1527    119.7649
  1863.2500     17.4069    220.5418     13.5488    111.2390
  1863.5000     19.0398    218.4713     13.8460     99.2197
  1863.7500     21.0821    216.6844     14.0303     92.6274
  1864.0000     23.2483    215.4030     14.0964     86.1289
  1864.2500     25.1100    214.4415     14.0536     84.5849
  1864.5000     26.2491    213.3672     13.9302     86.9838
  1864.7500     26.3169    211.8101     13.7677     91.7017
  1865.0000     25.1966    209.6979     13.6016    102.6123
  1865.2500     23.1793    207.2786     13.4426    111.5170
  1865.5000     20.8195    204.9597     13.2732    125.3433
  1865.7500     18.5965    203.0901     13.0647    133.7994
  1866.0000     16.7594    201.8059     12.7994    144.1879
  1866.2500     15.3555    200.9756     12.4811    149.3119
  1866.5000     14.2752    200.2474     12.1283    153.9785
  1866.7500     13.3671    199.2070     11.7630    154.9167
  1867.0000     12.6474    197.6030     11.4061    153.4599
  1867.2500     12.2565    195.4964     11.0777    151.3622
  1867.5000     12.1889    193.2209     10.7960    148.1454
  1867.7500     12.2483    191.1921     10.5737    146.5582
  1868.0000     12.2186    189.7035     10.4152    144.9700
  1868.2500     12.0363    188.8231     10.3200    143.7745
  1868.5000     11.7905    188.4251     10.2873    140.3679
  1868.7500     11.5623    188.3070     10.3205    136.9438
  1869.0000     11.4121    188.2953     10.4248    132.1713
  1869.2500     11.4154    188.2899     10.6015    131.0401
  1869.5000     11.5481    188.2657     10.8420    133.8077
  1869.7500     11.7708    188.2564     11.1238    137.6110
  1870.0000     12.2105    188.3249     11.4121    142.5903
  1870.2500     12.9045    188.5360     11.6644    143.6483
  1870.5000     13.5604    188.9471     11.8407    141.0361
  1870.7500     13.9067    189.5967     11.9119    137.0652
  1871.0000     13.9820    190.4569     11.8674    129.1796
  1871.2500     13.9265    191.3787     11.7168    123.4184
  1871.5000     13.8031    192.1071     11.4905    115.7132
  1871.7500     13.6849    192.3977     11.2361    112.5408
  1872.0000     13.6529    192.1595     11.0105    112.7329
  1872.2500     13.6547    191.5009     10.8665    116.4416
  1872.5000     13.5432    190.6423     10.8365    126.0613
  1872.7500     13.2676    189.7867     10.9193    133.7466
  1873.0000     12.9212    189.0665     11.0768    144.1948
  1873.2500     12.6234    188.5900     11.2435    148.7251
  1873.5000     12.3977    188.5014     11.3500    150.1662
  1873.7500     12.2015    188.9524     11.3490    147.7411
  1874.0000     12.0859    189.9902     11.2311    140.7024
  1874.2500     12.1474    191.4645     11.0206    134.8176
  1874.5000     12.2793    193.0512     10.7593    125.8549
  1874.7500     12.2280    194.3805     10.4907    120.9491
  1875.0000     11.9369    195.1927     10.2504    117.6288
  1875.2500     11.5780    195.4420     10.0625    119.1793
  1875.5000     11.2972    195.2920      9.9394    126.9517
  1875.7500     11.1896    194.9980      9.8821    134.2828
  1876.0000     11.2624    194.7631      9.8814    144.8783
  1876.2500     11.2788    194.6773      9.9200    149.9387
  1876.5000     11.0188    194.7524      9.9741    153.2385
  1876.7500     10.6022    194.9672     10.0169    152.5618
  1877.0000     10.2872    195.2798     10.0233    147.4801
  1877.2500     10.1539    195.6501      9.9793    141.6740
  1877.5000     10.1235    196.0954      9.8888    130.7902
  1877.7500     10.1659    196.7030      9.7731    123.5165
  1878.0000     10.3285    197.5433      9.6604    115.2360
  1878.2500     10.5400    198.5471      9.5721    112.6981
  1878.5000     10.6430    199.4694      9.5152    114.2265
  1878.7500     10.6594    199.9880      9.4823    118.1943
  1879.0000     10.7410    199.8914      9.4595    125.6244
  1879.2500     10.8696    199.2354      9.4332    129.5631
  1879.5000     10.8479    198.3420      9.3940    132.3262
  1879.7500     10.5781    197.6156      9.3378    132.6940
  1880.0000     10.1707    197.3229      9.2628    133.4856
  1880.2500      9.7667    197.5169      9.1692    135.2829
  1880.5000      9.4117    198.1223      9.0582    140.2994
  1880.7500      9.1403    199.0331      8.9340    144.6731
  1881.0000      9.0425    200.1128      8.8046    150.9441
  1881.2500      9.1543    201.1627      8.6783    153.5955
  1881.5000      9.3750    201.9705      8.5587    153.6119
  1881.7500      9.5393    202.4060      8.4414    150.8760
  1882.0000      9.4855    202.4671      8.3187    143.9138
  1882.2500      9.1728    202.2700      8.1869    138.6018
  1882.5000      8.7706    202.0200      8.0506    131.9738
  1882.7500      8.4658    201.9324      7.9195    129.5380
  1883.0000      8.3048    202.0979      7.8017    129.4705
  1883.2500      8.2736    202.3999      7.6995    131.3340
  1883.5000      8.3236    202.5761      7.6092    135.4219
  1883.7500      8.3486    202.3860      7.5247    138.1890
  1884.0000      8.2864    201.7536      7.4412    141.5972
  1884.2500      8.1962    200.7979      7.3587    143.1125
  1884.5000      8.1561    199.7567      7.2824    143.9903
  1884.7500      8.1310    198.8624      7.2192    143.9130
  1885.0000      8.0282    198.2398      7.1732    144.4252
  1885.2500      7.8369    197.8813      7.1432    146.2901
  1885.5000      7.6716    197.7080      7.1240    151.7255
  1885.7500      7.6592    197.6526      7.1103    156.0706
  1886.0000      7.7608    197.6995      7.0993    161.1729
  1886.2500      7.7881    197.8748      7.0904    162.8231
  1886.5000      7.6332    198.2104      7.0843    163.0098
  1886.7500      7.3771    198.6951      7.0812    162.2942
  1887.0000      7.1829    199.2503      7.0824    160.6768
  1887.2500      7.1705    199.7760      7.0907    159.2093
  1887.5000      7.3328    200.2322      7.1104    156.2394
  1887.7500      7.5419    200.6694      7.1447    153.8363
  1888.0000      7.6987    201.1661      7.1935    149.8150
  1888.2500      7.8515    201.7215      7.2532    146.8727
  1888.5000      8.1165    202.1998      7.3206    142.4140
  1888.7500      8.5214    202.3984      7.3957    140.0547
  1889.0000      8.9408    202.1998      7.4817    138.5385
  1889.2500      9.1342    201.6595      7.5804    138.8058
  1889.5000      8.9543    200.9373      7.6882    139.4464
  1889.7500      8.5809    200.1664      7.7953    138.5740
