~Version Information
VERS.                      2.0: CWLS Log ASCII Standard - VERSION 2.0
WRAP.                       NO: One line per depth step
~Well Information Block
STRT.FT               420.0000: 
STOP.FT              2888.7000: 
STEP.FT                 0.1000: 
NULL.                -999.2500: 
COMP.          Pioneer Natural Resources: COMPANY
WELL.          Touchstone 11-32: WELL
FLD.           Purgatoire River: FIELD
LOC.           853' FNL & 407' FWL--: LOCATION
CNTY.               Las Animas: COUNTY
SRVC.                Patterson: SERVICE COMPANY
DATE.          Fri Feb 24 11:16:52 2006: LOG DATE
UWI.           05 071 08564 00: UNIQUE WELL ID
STAT.                 Colorado: STATE
~Curve Information Block
DEPT.FT            0 000 00 00: Depth
DCAL.in                       : CDL Caliper
RHOB.g/cc                     : CDL Bulk Density
RHOC.g/cc                     : CDL Density Correction
DPOR.pu                       : CDL Density Porosity
NPOR.pu                       : Neutron Porosity
GR.GAPI                       : Gamma Ray
~Parameter Information Block
~A  Depth       DCAL        RHOB        RHOC        DPOR        NPOR         GR     
# ...
   909.6000      8.0624      2.4372      0.0993     12.8989     14.4199    152.1620
   909.7000      8.0624      2.4201      0.0410     13.9327     16.3725    144.8707
   909.8000      8.0598      2.4032      0.0445     14.9583     17.9758    140.7546
   909.9000      8.0598      2.4021      0.0421     15.0237     19.0876    141.7583
   910.0000      8.0554      2.4291      0.0568     13.3858     20.0044    141.8394
   910.1000      8.0554      2.4866      0.0729      9.9051     20.6940    138.9413
   910.2000      8.0554      2.5599      0.1343      5.4591     21.2425    135.3381
   910.3000      8.0509      2.6365      0.1040      0.8197     21.9688    131.6066
   910.4000      8.0509      2.7195      0.1409     -4.2144     22.7073    127.7959
   910.5000      8.0496      2.7992      0.2471     -9.0401     22.9855    123.2810
   910.6000      8.0496      2.8468      0.2548    -11.9287     23.1244    118.1210
   910.7000      8.0496      2.8498      0.2185    -12.1099     23.7262    116.5488
   910.8000      8.0508      2.8241      0.1406    -10.5539     24.5402    120.7383
   910.9000      8.0508      2.7891      0.1254     -8.4301     25.0866    126.5599
   911.0000      8.0542      2.7393      0.1061     -5.4144     25.4431    128.4166
   911.1000      8.0542      2.6629      0.0594     -0.7838     25.7244    125.9476
   911.2000      8.0542      2.5746     -0.0524      4.5726     25.9375    124.5027
   911.3000      8.0604      2.4990     -0.0167      9.1539     25.8102    128.4172
   911.4000      8.0604      2.4407     -0.0373     12.6826     24.9823    136.8372
   911.5000      8.0670      2.3900     -0.0125     15.7573     23.8123    144.8670
   911.6000      8.0670      2.3350     -0.0009     19.0921     22.7593    148.1294
   911.7000      8.0670      2.2841     -0.0341     22.1780     21.7636    146.7550
   911.8000      8.0767      2.2716     -0.0808     22.9342     20.6788    144.5121
   911.9000      8.0767      2.3086      0.0141     20.6901     19.7069    144.1691
   912.0000      8.0881      2.3511      0.0523     18.1127     19.2156    145.0911
   912.1000      8.0881      2.3617      0.0244     17.4751     19.2925    145.7871
   912.2000      8.0881      2.3506      0.0344     18.1426     19.5071    143.9813
   912.3000      8.0947      2.3259      0.1120     19.6437     19.2981    140.7585
   912.4000      8.0947      2.2703      0.1043     23.0103     18.6590    141.0200
   912.5000      8.0961      2.1945      0.0846     27.6056     18.0883    146.5763
   912.6000      8.0961      2.1376      0.1358     31.0549     17.9322    154.2463
   912.7000      8.0961      2.0959      0.2302     33.5796     18.0364    158.4535
   912.8000      8.0964      2.0235      0.1399     37.9711     18.1559    155.6044
   912.9000      8.0964      1.9256     -0.0552     43.9006     18.3892    150.4335
   913.0000      8.0971      1.8742     -0.1001     47.0180     18.9828    150.2590
   913.1000      8.0971      1.9135      0.0201     44.6391     19.6225    154.7839
   913.2000      8.0971      2.0225      0.1803     38.0306     19.6817    157.2402
   913.3000      8.0981      2.1657      0.2636     29.3522     19.4237    155.7318
   913.4000      8.0981      2.3115      0.5089     20.5159     19.4963    154.3533
   913.5000      8.1001      2.4152      0.5781     14.2300     20.1227    154.6532
   913.6000      8.1001      2.4548      0.4642     11.8312     21.0972    154.8585
   913.7000      8.1001      2.4525      0.4112     11.9705     21.7208    153.3809
   913.8000      8.1017      2.4354      0.2970     13.0054     21.7003    152.5150
   913.9000      8.1017      2.4112      0.2540     14.4699     21.3003    154.6245
   914.0000      8.1018      2.3783      0.1579     16.4691     20.2103    157.5404
   914.1000      8.1018      2.3447      0.1011     18.5032     18.4778    159.0605
   914.2000      8.1018      2.3230      0.0528     19.8209     17.2603    158.4135
   914.3000      8.1030      2.3132      0.0534     20.4147     16.9520    155.8326
   914.4000      8.1030      2.3046      0.0569     20.9357     16.9652    151.7319
   914.5000      8.1068      2.2912      0.0450     21.7473     17.1283    146.8358
   914.6000      8.1068      2.2849      0.0212     22.1264     17.4149    143.9342
   914.7000      8.1068      2.2954      0.0261     21.4892     17.7917    144.3830
   914.8000      8.1165      2.3063      0.1058     20.8279     18.5765    143.0925
   914.9000      8.1165      2.2998      0.0417     21.2228     19.5807    137.0179
   915.0000      8.1278      2.2825      0.0690     22.2744     19.9792    132.3758
   915.1000      8.1278      2.2744      0.0382     22.7628     19.6600    133.8920
   915.2000      8.1278      2.2939      0.0697     21.5831     19.1995    136.6799
   915.3000      8.1263      2.3379      0.1055     18.9171     18.7800    135.8102
   915.4000      8.1263      2.3836      0.1247     16.1462     18.5583    133.9241
   915.5000      8.1138      2.4127      0.1223     14.3808     18.7445    133.3031
   915.6000      8.1138      2.4197      0.0878     13.9570     18.9801    134.8242
   915.7000      8.1138      2.4072      0.0650     14.7157     18.9768    141.8415
   915.8000      8.1047      2.3811      0.0628     16.2979     18.9011    150.0986
   915.9000      8.1047      2.3534      0.0245     17.9748     18.9039    152.6727
   916.0000      8.1026      2.3427     -0.0021     18.6246     18.9013    149.8998
   916.1000      8.1026      2.3518      0.0370     18.0723     18.7719    143.8011
   916.2000      8.1026      2.3657      0.0240     17.2290     18.6760    135.9054
   916.3000      8.1043      2.3792      0.0163     16.4107     18.6516    127.8989
   916.4000      8.1043      2.3982      0.0237     15.2599     18.4497    122.1467
   916.5000      8.1052      2.4219      0.0554     13.8254     18.0280    120.0802
   916.6000      8.1052      2.4400      0.0819     12.7273     17.5670    120.9544
   916.7000      8.1052      2.4494      0.0935     12.1576     17.4338    123.2709
   916.8000      8.1059      2.4640      0.0848     11.2726     17.8068    125.8115
   916.9000      8.1059      2.4878      0.0964      9.8324     18.3456    127.5704
   917.0000      8.1060      2.5013      0.0656      9.0142     18.6838    130.0096
   917.1000      8.1060      2.4983      0.0117      9.1963     18.8572    134.3166
   917.2000      8.1060      2.4938      0.0163      9.4692     19.0775    136.8371
   917.3000      8.1012      2.4957      0.0236      9.3497     19.3336    132.9820
   917.4000      8.1012      2.5009      0.0135      9.0366     19.4736    126.1535
   917.5000      8.0887      2.5020      0.0636      8.9719     19.3343    122.9315
   917.6000      8.0887      2.4980      0.0375      9.2112     18.8972    123.9772
   917.7000      8.0887      2.5069      0.0097      8.6721     18.6221    125.0744
   917.8000      8.0729      2.5407      0.0689      6.6263     19.0718    123.1136
   917.9000      8.0729      2.5800      0.0964      4.2443     20.1637    119.8059
   918.0000      8.0635      2.5993      0.0806      3.0710     21.1886    116.6637
   918.1000      8.0635      2.5999      0.0490      3.0360     21.6080    115.0598
   918.2000      8.0635      2.5948      0.0829      3.3463     21.7940    115.7576
   918.3000      8.0590      2.5872      0.0158      3.8088     22.4214    117.3530
   918.4000      8.0590      2.5759      0.0367      4.4927     23.5441    119.1417
   918.5000      8.0565      2.5569      0.0472      5.6430     24.5710    120.5580
   918.6000      8.0565      2.5385     -0.0055      6.7596     25.1449    121.7326
   918.7000      8.0565      2.5397      0.0162      6.6850     25.5447    123.6466
   918.8000      8.0551      2.5506      0.0780      6.0227     25.7524    125.2579
   918.9000      8.0551      2.5496      0.0213      6.0833     25.5703    126.6931
   919.0000      8.0538      2.5473      0.0293      6.2226     25.3813    128.6529
   919.1000      8.0538      2.5569      0.0462      5.6442     25.4986    130.7886
