~Version Information
VERS.                      2.0: CWLS Log ASCII Standard - VERSION 2.0
WRAP.                       NO: One line per depth step
~Well Information Block
STRT.FT               875.0000: 
STOP.FT              2054.5000: 
STEP.FT                 0.2500: 
NULL.                -999.2500: 
COMP.          Pioneer Natural Resources: COMPANY
WELL.          Woodstock 43-19: WELL
FLD.           Purgatoire River: FIELD
LOC.           2195' FSL & 250' FEL: LOCATION
CNTY.               Las Animas: COUNTY
SRVC.                Patterson: SERVICE COMPANY
DATE.          Thu Feb 02 03:08:19 2006: LOG DATE
UWI.           05 071 08677 00: UNIQUE WELL ID
STAT.                 Colorado: STATE
~Curve Information Block
DEPT.FT            0 000 00 00: Depth
SN.Ohm-m                      : IEL Short Normal
SP.mV                         : IEL Spontaneous Potential
DIR.Ohm-m                     : IEL Induction Resistivity
GR.GAPI                       : Gamma Ray
~Parameter Information Block
~A  Depth        SN          SP         DIR          GR     
   875.0000   2000.0000   2000.0000     72.6569    108.3773
   875.2500   2000.0000   2000.0000     75.3690    108.9994
   875.5000   2000.0000   2000.0000     77.0978    111.2619
   875.7500   2000.0000   2000.0000     77.6366    113.2467
   876.0000   2000.0000   2000.0000     77.1741    115.8677
   876.2500   2000.0000   2000.0000     76.1178    117.1094
   876.5000   2000.0000   2000.0000     74.9200    118.3731
   876.7500   2000.0000   2000.0000     73.9465    119.0665
   877.0000   2000.0000   2000.0000     73.4074    120.4815
   877.2500   2000.0000   2000.0000     73.3643    121.8991
   877.5000   2000.0000   2000.0000     73.7897    124.1725
   877.7500   2000.0000   2000.0000     74.6292    124.8965
   878.0000   2000.0000   2000.0000     75.8450    123.5561
   878.2500   2000.0000   2000.0000     77.3988    121.1944
   878.5000   2000.0000   2000.0000     79.1580    117.0917
   878.7500   2000.0000   2000.0000     80.7951    114.9224
   879.0000   2000.0000   2000.0000     81.8385    112.7851
   879.2500   2000.0000   2000.0000     81.9665    111.5961
   879.5000   2000.0000   2000.0000     81.3110    109.3277
   879.7500   2000.0000   2000.0000     80.3963    107.3710
   880.0000   2000.0000   2000.0000     79.7444    103.9463
   880.2500   2000.0000   2000.0000     79.5513    101.4889
   880.5000   2000.0000   2000.0000     79.6958     97.8407
   880.7500   2000.0000   2000.0000     80.0039     95.6335
   881.0000   2000.0000   2000.0000     80.4765     93.0189
   881.2500   2000.0000   2000.0000     81.2121     92.0337
   881.5000   2000.0000   2000.0000     82.0773     92.4730
   881.7500   2000.0000   2000.0000     82.5261     94.4924
   882.0000   2000.0000   2000.0000     81.9318     99.9293
   882.2500   2000.0000   2000.0000     80.2318    104.1287
   882.5000   2000.0000   2000.0000     78.0937    108.8092
   882.7500   2000.0000   2000.0000     76.3516    110.1541
   883.0000   2000.0000   2000.0000     75.4176    110.6524
   883.2500   2000.0000   2000.0000     75.1854    111.1083
   883.5000   2000.0000   2000.0000     75.2983    112.2681
   883.7500   2000.0000   2000.0000     75.4665    112.5264
   884.0000   2000.0000   2000.0000     75.5976    111.4149
   884.2500   2000.0000   2000.0000     75.7132    110.4690
   884.5000   2000.0000   2000.0000     75.8123    110.6450
   884.7500   2000.0000   2000.0000     75.8183    111.9852
   885.0000   2000.0000   2000.0000     75.6239    114.4821
   885.2500   2000.0000   2000.0000     75.1568    115.7275
   885.5000   2000.0000   2000.0000     74.4302    116.7057
   885.7500   2000.0000   2000.0000     73.5635    116.8581
   886.0000   2000.0000   2000.0000     72.7773    116.2089
   886.2500   2000.0000   2000.0000     72.3406    115.0075
   886.5000   2000.0000   2000.0000     72.4684    112.2266
   886.7500   2000.0000   2000.0000     73.2108    110.2741
   887.0000   2000.0000   2000.0000     74.4061    108.1407
   887.2500   2000.0000   2000.0000     75.7433    107.2012
   887.5000   2000.0000   2000.0000     76.9071    105.6794
   887.7500   2000.0000   2000.0000     77.7129    104.4312
   888.0000   2000.0000   2000.0000     78.0726    103.0375
   888.2500   2000.0000   2000.0000     77.7990    103.0542
   888.5000   2000.0000   2000.0000     76.3728    104.9545
   888.7500   2000.0000   2000.0000     72.9328    107.3107
   889.0000   2000.0000   2000.0000     66.7930    111.5872
   889.2500   2000.0000   2000.0000     58.3320    114.1195
   889.5000   2000.0000   2000.0000     49.1515    115.8122
   889.7500   2000.0000   2000.0000     40.9886    114.5921
   890.0000   2000.0000   2000.0000     34.7263    108.0334
   890.2500   2000.0000   2000.0000     30.3959    100.5031
   890.5000   2000.0000   2000.0000     27.6242     86.2327
   890.7500   2000.0000   2000.0000     25.9585     76.4325
   891.0000   2000.0000   2000.0000     25.0080     63.8011
   891.2500   2000.0000   2000.0000     24.4935     57.3589
   891.5000   2000.0000   2000.0000     24.2726     50.2586
   891.7500   2000.0000   2000.0000     24.3477     46.7539
   892.0000   2000.0000   2000.0000     24.8781     43.2034
   892.2500   2000.0000   2000.0000     26.2514     42.2365
   892.5000   2000.0000   2000.0000     29.3054     42.7831
   892.7500   2000.0000   2000.0000     36.0254     37.9595
   893.0000   2000.0000   2000.0000     52.4515     38.8586
   893.2500   2000.0000   2000.0000    110.2425     38.7899
   893.5000   2000.0000   2000.0000 100000.0000     37.9773
   893.7500   2000.0000   2000.0000 100000.0000     33.1889
   894.0000   2000.0000   2000.0000 100000.0000     33.3971
   894.2500   2000.0000   2000.0000 100000.0000     34.0744
   894.5000   2000.0000   2000.0000 100000.0000     35.2455
   894.7500   2000.0000   2000.0000 100000.0000     31.0937
   895.0000   2000.0000   2000.0000 100000.0000     31.3379
   895.2500   2000.0000   2000.0000 100000.0000     31.4496
   895.5000   2000.0000   2000.0000 100000.0000     32.0555
   895.7500   2000.0000   2000.0000 100000.0000     32.8510
   896.0000   2000.0000   2000.0000 100000.0000     34.1666
   896.2500   2000.0000   2000.0000 100000.0000     34.6977
   896.5000   2000.0000   2000.0000 100000.0000     34.7950
   896.7500   2000.0000   2000.0000 100000.0000     34.7551
   897.0000   2000.0000   2000.0000 100000.0000     35.2817
   897.2500   2000.0000   2000.0000 100000.0000     36.1458
   897.5000   2000.0000   2000.0000 100000.0000     38.0177
   897.7500   2000.0000   2000.0000 100000.0000     39.6442
   898.0000   2000.0000   2000.0000 100000.0000     43.0372
   898.2500   2000.0000   2000.0000 100000.0000     46.1606
   898.5000   2000.0000   2000.0000 100000.0000     52.0503
   898.7500   2000.0000   2000.0000 100000.0000     56.3831
   899.0000   2000.0000   2000.0000 100000.0000     62.4983
   899.2500   2000.0000   2000.0000 100000.0000     65.8783
   899.5000   2000.0000   2000.0000 100000.0000     69.8781
   899.7500   2000.0000   2000.0000 100000.0000     72.0742
   900.0000   2000.0000   2000.0000 100000.0000     74.5548
   900.2500   2000.0000   2000.0000 100000.0000     75.0795
   900.5000   2000.0000   2000.0000 100000.0000     73.0797
   900.7500   2000.0000   2000.0000     43.1832     69.8054
   901.0000   2000.0000   2000.0000     12.5450     63.1695
   901.2500   2000.0000   2000.0000      5.2324     58.9138
   901.5000   2000.0000   2000.0000      2.8432     55.5297
   901.7500   2000.0000   2000.0000      1.9554     56.6816
   902.0000   2000.0000   2000.0000      1.6823     64.4939
   902.2500   2000.0000   2000.0000      1.8166     73.1324
   902.5000   2000.0000   2000.0000      2.5362     88.4564
   902.7500   2000.0000   2000.0000      5.2353     98.2459
   903.0000   2000.0000   2000.0000     80.4196    109.5089
   903.2500   2000.0000   2000.0000 100000.0000    114.0257
   903.5000   2000.0000   2000.0000 100000.0000    116.9251
   903.7500   2000.0000   2000.0000 100000.0000    117.3517
   904.0000   2000.0000   2000.0000    241.3868    117.7772
   904.2500   2000.0000   2000.0000      5.9061    118.8965
   904.5000   2000.0000   2000.0000      2.9862    122.9942
   904.7500   2000.0000   2000.0000      2.3626    127.5091
   905.0000   2000.0000   2000.0000      2.5650    135.7663
   905.2500   2000.0000   2000.0000      3.9926    140.8733
   905.5000   2000.0000   2000.0000     15.3163    146.0644
   905.7500   2000.0000   2000.0000 100000.0000    147.8401
   906.0000   2000.0000   2000.0000 100000.0000    149.1839
   906.2500   2000.0000   2000.0000 100000.0000    149.7499
   906.5000   2000.0000   2000.0000 100000.0000    150.0776
   906.7500   2000.0000   2000.0000 100000.0000    149.6894
   907.0000   2000.0000   2000.0000 100000.0000    148.0773
   907.2500   2000.0000   2000.0000 100000.0000    146.5583
   907.5000   2000.0000   2000.0000 100000.0000    144.2144
   907.7500   2000.0000   2000.0000 100000.0000    142.7775
   908.0000   2000.0000   2000.0000 100000.0000    140.7103
   908.2500   2000.0000   2000.0000 100000.0000    139.3129
