~Version Information
VERS.                      2.0: CWLS Log ASCII Standard - VERSION 2.0
WRAP.                       NO: One line per depth step
~Well Information Block
STRT.FT                -7.2500: 
STOP.FT              1196.2500: 
STEP.FT                 0.2500: 
NULL.                -999.2500: 
COMP.          Pioneer Natural Resources: COMPANY
WELL.             Mahalo 12-20: WELL
FLD.           Purgatorie River: FIELD
LOC.           1689' FNL & 479' FWL--: LOCATION
CNTY.               Las Animas: COUNTY
SRVC.          Patterson Wireline: SERVICE COMPANY
DATE.          Tue Mar 14 15:40:32 2006: LOG DATE
UWI.           05 071 08700 00: UNIQUE WELL ID
STAT.                       CO: STATE
~Curve Information Block
DEPT.FT            0 000 00 00: Depth
CCL.                          : Casing Collar Locator
TT3.usec                      : CBL 3' Travel Time
AMP3.mV                       : CBL 3' Amplitude
GR.GAPI                       : Gamma Ray
~Parameter Information Block
~A  Depth       CCL         TT3         AMP3         GR     
# ...
   461.7500      0.0000    792.4321      5.6841     93.5093
   462.0000      0.0000    788.3096      5.7420     95.3466
   462.2500      0.0000    789.2377      5.7845     96.8803
   462.5000      0.0000    794.8106      5.7991     97.3627
   462.7500      0.0000    802.2056      5.7802     96.1304
   463.0000      0.0000    807.2966      5.7297     93.2953
   463.2500      0.0000    809.4590      5.6561     89.5987
   463.5000      0.0000    812.5847      5.5743     86.2243
   463.7500      0.0000    819.2883      5.4997     84.6808
   464.0000      0.0000    827.1560      5.4346     85.8691
   464.2500      0.0000    833.6786      5.3626     88.7913
   464.5000      0.0000    841.3652      5.2634     90.8471
   464.7500      0.0000    853.5723      5.1366     90.1203
   465.0000      0.0000    866.9829      5.0103     87.0274
   465.2500      0.0000    873.6167      4.9259     83.2638
   465.5000      0.0000    871.3784      4.9149     79.7695
   465.7500      0.0000    868.3257      4.9842     76.3865
   466.0000      0.0000    874.3796      5.1164     72.9528
   466.2500      0.0000    892.0718      5.2764     70.0438
   466.5000      0.0000    916.7000      5.4202     68.9756
   466.7500      0.0000    940.7176      5.5076     71.3311
   467.0000      0.0000    955.1207      5.5203     77.8984
   467.2500      0.0000    951.1169      5.4732     87.6961
   467.5000      0.0000    926.2866      5.4086     98.5334
   467.7500      0.0000    889.0226      5.3785    108.6694
   468.0000      0.0000    853.4096      5.4240    117.5138
   468.2500      0.0000    828.7183      5.5604    125.0049
   468.5000      0.0000    814.5143      5.7755    131.3012
   468.7500      0.0000    804.9199      6.0426    137.0730
   469.0000      0.0000    795.7628      6.3280    143.0147
   469.2500      0.0000    787.9821      6.5850    148.6991
   469.5000      0.0000    785.9268      6.7538    152.5486
   469.7500      0.0000    794.0753      6.7876    153.3784
   470.0000      0.0000    815.2998      6.6893    151.7607
   470.2500      0.0000    848.9323      6.5201    149.7254
   470.5000      0.0000    886.8792      6.3637    149.2974
   470.7500      0.0000    914.6985      6.2735    151.2799
   471.0000      0.0000    923.1802      6.2421    154.9886
   471.2500      0.0000    918.6093      6.2164    158.8019
   471.5000      0.0000    915.5318      6.1489    161.1731
   471.7500      0.0000    919.5256      6.0437    161.4386
   472.0000      0.0000    923.4421      5.9598    159.9165
   472.2500      0.0000    921.4614      5.9622    157.2392
   472.5000      0.0000    919.9993      6.0613    153.4807
   472.7500      0.0000    930.1885      6.1983    148.2126
   473.0000      0.0000    952.7421      6.2916    141.7332
   473.2500      0.0000    975.3608      6.3017    135.6978
   473.5000      0.0000    984.7402      6.2557    131.7799
   473.7500      0.0000    976.4534      6.2171    129.7932
   474.0000      0.0000    952.3092      6.2375    127.7440
   474.2500      0.0000    914.7955      6.3283    123.9701
   474.5000      0.0000    868.6332      6.4694    119.1352
   474.7500      0.0000    823.0393      6.6400    116.2327
   475.0000      0.0000    786.3567      6.8466    118.5088
   475.2500      0.0000    759.7607      7.1155    126.8505
   475.5000      0.0000    739.4989      7.4529    138.9152
   475.7500      0.0000    724.2555      7.8157    150.8667
   476.0000      0.0000    716.9068      8.1341    159.9171
   476.2500      0.0000    718.5026      8.3650    165.0616
   476.5000      0.0000    722.9749      8.5197    166.0972
   476.7500      0.0000    720.3697      8.6398    163.2189
   477.0000      0.0000    706.0532      8.7484    157.4676
   477.2500      0.0000    686.5866      8.8278    150.2760
   477.5000      0.0000    675.6162      8.8453    142.3467
   477.7500      0.0000    682.4417      8.7972    133.8843
   478.0000      0.0000    704.3486      8.7159    125.9306
   478.2500      0.0000    729.2914      8.6387    120.5146
   478.5000      0.0000    743.9528      8.5832    119.1453
   478.7500      0.0000    740.9285      8.5490    121.6543
   479.0000      0.0000    723.4665      8.5215    126.6015
   479.2500      0.0000    704.2657      8.4682    132.4587
   479.5000      0.0000    695.7565      8.3478    138.2832
   479.7500      0.0000    700.2097      8.1372    143.5413
   480.0000      0.0000    709.9910      7.8499    147.5903
   480.2500      0.0000    715.1379      7.5397    149.5972
   480.5000      0.0000    709.9910      7.2998    149.1694
   480.7500      0.0000    697.2267      7.2221    146.8284
   481.0000      0.0000    688.2333      7.3073    143.5111
   481.2500      0.0000    695.2815      7.4377    139.6534
   481.5000      0.0000    718.9420      7.4977    135.0763
   481.7500      0.0000    746.4386      7.4914    129.8710
   482.0000      0.0000    765.8020      7.4920    125.2380
   482.2500      2.0000    776.6378      7.5240    123.2202
   482.5000      0.0000    783.2268      7.5464    125.3403
   482.7500      0.0000    784.3353      7.5162    131.3057
   483.0000      0.0000    776.5908      7.4263    138.9854
   483.2500      0.0000    762.5125      7.2980    145.7929
   483.5000      0.0000    749.0134      7.1625    150.1005
   483.7500      0.0000    740.7987      7.0459    151.4000
   484.0000      0.0000    738.4081      6.9593    149.6802
   484.2500      0.0000    740.1797      6.9017    145.3312
   484.5000      0.0000    743.8801      6.8623    139.7548
   484.7500      0.0000    747.2477      6.8213    135.4595
   485.0000      0.0000    748.5927      6.7619    134.7682
   485.2500      0.0000    747.5400      6.6892    138.0527
   485.5000      0.0000    745.2071      6.6312    143.4648
   485.7500      0.0000    743.3116      6.6190    148.5607
   486.0000      0.0000    742.6099      6.6631    151.9958
   486.2500      0.0000    742.4412      6.7436    153.6028
   486.5000      0.0000    741.8729      6.8217    153.2725
   486.7500      0.0000    740.7573      6.8628    150.4014
   487.0000      0.0000    739.3754      6.8544    144.8991
   487.2500      0.0000    737.7181      6.8061    138.5816
   487.5000      0.0000    735.6058      6.7355    134.8849
   487.7500      0.0000    733.0288      6.6543    136.7881
   488.0000      0.0000    730.1654      6.5635    144.7629
   488.2500      0.0000    727.5990      6.4614    156.1975
   488.5000      0.0000    726.5820      6.3528    166.6237
   488.7500      0.0000    728.1429      6.2507    172.0076
   489.0000      0.0000    731.3960      6.1663    170.6331
   489.2500      0.0000    733.4839      6.0948    163.5428
   489.5000      0.0000    732.0036      6.0092    153.7096
   489.7500      0.0000    727.1712      5.8778    144.4269
   490.0000      0.0000    721.2025      5.6995    137.7148
   490.2500      0.0000    716.0532      5.5187    133.7214
   490.5000      0.0000    712.2679      5.3947    131.2814
   490.7500      0.0000    709.6873      5.3521    129.0933
   491.0000      0.0000    708.3938      5.3677    126.9113
   491.2500      0.0000    708.4363      5.3968    125.8549
   491.5000      0.0000    708.9715      5.4014    127.2543
   491.7500      0.0000    708.6841      5.3617    131.2783
   492.0000      0.0000    707.4869      5.2781    136.9069
   492.2500      0.0000    706.9056      5.1667    142.8657
   492.5000      0.0000    708.1218      5.0459    148.1287
   492.7500      0.0000    710.4506      4.9263    151.8914
   493.0000      0.0000    712.6194      4.8183    153.7423
   493.2500      0.0000    714.8086      4.7376    153.8314
   493.5000      0.0000    718.1498      4.6970    152.4564
   493.7500      0.0000    722.5535      4.6951    149.4234
   494.0000      0.0000    726.5503      4.7147    143.9158
   494.2500      0.0000    729.4199      4.7281    135.0199
   494.5000      0.0000    732.2432      4.7110    122.8637
   494.7500      0.0000    737.0471      4.6598    109.6549
   495.0000      0.0000    746.0206      4.5948     98.8995
