~Version Information
VERS.                      2.0: CWLS Log ASCII Standard - VERSION 2.0
WRAP.                       NO: One line per depth step
~Well Information Block
STRT.FT                -6.7500: 
STOP.FT              1661.0000: 
STEP.FT                 0.2500: 
NULL.                -999.2500: 
COMP.          Pioneer Natural Resources: COMPANY
WELL.           Pedri 42-33 Tr: WELL
FLD.           Purgatorie River: FIELD
LOC.           1933'' FNL & 662' FEL--: LOCATION
PROV.                       CO: PROVINCE
CNTY.               Las Animas: COUNTRY
SRVC.          Patterson Wireline: SERVICE COMPANY
DATE.          Tue Dec 27 08:53:52 2005: LOG DATE
UWI.           05 071 08640 00: UNIQUE WELL ID
~Curve Information Block
DEPT.FT            0 000 00 00: Depth
CCL.                          : Casing Collar Locator
TT3.usec                      : CBL 3' Travel Time
AMP3.mV                       : CBL 3' Amplitude
GR.GAPI                       : Gamma Ray
~Parameter Information Block
~A  Depth       CCL         TT3         AMP3         GR     
# ...
  1400.2500      0.0000    616.8990      5.6759    132.7228
  1400.5000      0.0000    625.2104      5.6283    128.2930
  1400.7500      0.0000    626.1015      5.5771    125.8255
  1401.0000      0.0000    620.8738      5.5413    125.1139
  1401.2500      0.0000    613.1609      5.5368    125.8783
  1401.5000      0.0000    607.6450      5.5689    127.9339
  1401.7500      0.0000    607.6068      5.6269    131.0472
  1402.0000      0.0000    612.4522      5.6916    135.0475
  1402.2500      0.0000    617.7320      5.7467    139.9457
  1402.5000      0.0000    618.3604      5.7854    145.4530
  1402.7500      0.0000    612.2162      5.8094    150.4825
  1403.0000      0.0000    600.8052      5.8264    153.5813
  1403.2500      0.0000    587.1885      5.8482    153.8621
  1403.5000      0.0000    574.1240      5.8871    151.5015
  1403.7500      0.0000    563.9348      5.9519    147.7179
  1404.0000      0.0000    558.8193      6.0436    144.3130
  1404.2500      0.0000    559.9314      6.1518    142.7134
  1404.5000      0.0000    565.4932      6.2582    143.1306
  1404.7500      0.0000    570.1370      6.3480    144.6585
  1405.0000      0.0000    567.9453      6.4199    146.2292
  1405.2500      0.0000    558.2789      6.4817    147.7070
  1405.5000      0.0000    547.8431      6.5351    150.2718
  1405.7500      0.0000    544.4537      6.5702    155.2350
  1406.0000      0.0000    549.0605      6.5765    161.7660
  1406.2500      0.0000    556.1292      6.5535    166.3350
  1406.5000      0.0000    560.3600      6.5077    165.4658
  1406.7500      0.0000    559.8139      6.4428    159.1503
  1407.0000      0.0000    554.4148      6.3575    151.1950
  1407.2500      0.0000    545.7866      6.2513    146.3596
  1407.5000      0.0000    538.1439      6.1323    146.9978
  1407.7500      0.0000    535.2570      6.0199    151.5322
  1408.0000      0.0000    535.0936      5.9390    155.5688
  1408.2500      0.0000    530.3135      5.9068    154.9190
  1408.5000      0.0000    517.7307      5.9209    148.3707
  1408.7500      0.0000    507.0081      5.9602    138.1217
  1409.0000      0.0000    515.7874      5.9968    127.7507
  1409.2500      0.0000    553.2943      6.0099    119.6459
  1409.5000      0.0000    609.6940      5.9961    113.9927
  1409.7500      0.0000    662.9089      5.9693    109.8644
  1410.0000      0.0000    694.5784      5.9512    107.1129
  1410.2500      0.0000    698.5819      5.9597    106.9295
  1410.5000      0.0000    677.5210      6.0047    110.2100
  1410.7500      0.0000    636.2745      6.0892    115.6637
  1411.0000      0.0000    581.0555      6.2055    120.2748
  1411.2500      0.0000    521.9084      6.3334    121.8623
  1411.5000      0.0000    471.3698      6.4511    120.7715
  1411.7500      0.0000    438.1194      6.5473    119.0379
  1412.0000      0.0000    422.5833      6.6190    118.5093
  1412.2500      0.0000    419.2440      6.6595    119.7669
  1412.5000      0.0000    422.6918      6.6569    122.0278
  1412.7500      0.0000    430.8915      6.6043    123.7584
  1413.0000      0.0000    442.8247      6.5090    123.7268
  1413.2500      0.0000    454.1879      6.3913    121.4858
  1413.5000      0.0000    457.8266      6.2804    116.8148
  1413.7500      0.0000    450.0822      6.2041    109.4899
  1414.0000      0.0000    435.8073      6.1751    100.2839
  1414.2500      0.0000    426.3741      6.1845     91.7896
  1414.5000      0.0000    433.6821      6.2113     87.3947
  1414.7500      0.0000    464.7868      6.2347     88.9644
  1415.0000      0.0000    517.7454      6.2384     95.3888
  1415.2500      0.0000    580.5739      6.2084    103.3934
  1415.5000      0.0000    636.8959      6.1340    109.8523
  1415.7500      0.0000    675.3206      6.0115    113.3663
  1416.0000      0.0000    693.7579      5.8501    113.9127
  1416.2500      0.0000    695.6843      5.6711    111.6765
  1416.5000      0.0000    685.3755      5.4952    106.8695
  1416.7500      0.0000    668.3510      5.3310    100.6753
  1417.0000      0.0000    653.6783      5.1841     95.8032
  1417.2500      0.0000    650.7960      5.0792     95.2939
  1417.5000      0.0000    662.4107      5.0627    100.2828
  1417.7500      0.0000    682.7198      5.1725    109.1105
  1418.0000      0.0000    703.2952      5.4025    118.6873
  1418.2500      0.0000    719.0465      5.7040    126.3521
  1418.5000      0.0000    729.0768      6.0292    130.7081
  1418.7500      0.0000    735.1502      6.3725    131.9486
  1419.0000      0.0000    740.6224      6.7649    131.8964
  1419.2500      0.0000    748.8438      7.2254    132.9832
  1419.5000      0.0000    760.6259      7.7222    136.8082
  1419.7500      0.0000    773.2281      8.1801    143.7338
  1420.0000      0.0000    782.3138      8.5199    153.2345
  1420.2500      0.0000    785.0087      8.6891    163.8775
  1420.5000      0.0000    781.4451      8.6677    173.0356
  1420.7500      0.0000    774.0608      8.4635    177.3053
  1421.0000      0.0000    765.5831      8.1140    174.3169
  1421.2500      0.0000    757.2352      7.6890    164.9591
  1421.5000      0.0000    748.4810      7.2756    153.4921
  1421.7500      0.0000    738.3067      6.9416    144.8875
  1422.0000      0.0000    726.4648      6.7064    141.8148
  1422.2500      0.0000    713.6354      6.5432    143.4637
  1422.5000      0.0000    701.3700      6.4071    146.5151
  1422.7500      0.0000    692.3886      6.2635    147.6611
  1423.0000      0.0000    689.5682      6.1005    145.8580
  1423.2500      0.0000    693.1829      5.9239    142.4537
  1423.5000      0.0000    699.7606      5.7457    139.8301
  1423.7500      0.0000    704.6783      5.5747    140.1588
  1424.0000      0.0000    705.5895      5.4179    144.5315
  1424.2500      0.0000    703.7063      5.2895    152.4195
  1424.5000      0.0000    702.9135      5.2089    162.0625
  1424.7500      0.0000    706.9716      5.1865    171.2317
  1425.0000      0.0000    715.9401      5.2200    177.3013
  1425.2500      0.0000    725.9265      5.3027    177.5121
  1425.5000      0.0000    733.1186      5.4248    170.7077
  1425.7500      0.0000    737.0113      5.5708    159.1913
  1426.0000      0.0000    739.4838      5.7322    148.0031
  1426.2500      2.0000    743.0004      5.9219    141.6746
  1426.5000      0.0000    749.1231      6.1771    141.3636
  1426.7500      0.0000    754.9919      6.5405    144.5637
  1427.0000      0.0000    752.1868      7.0063    146.9348
  1427.2500      0.0000    734.1998      7.4680    144.8417
  1427.5000      0.0000    704.6623      7.7659    137.4022
  1427.7500      0.0000    674.4730      7.8321    126.9630
  1428.0000      0.0000    651.9623      7.7554    117.6393
  1428.2500      0.0000    638.0602      7.6667    112.8239
  1428.5000      0.0000    628.4989      7.6088    113.2348
  1428.7500      0.0000    617.5517      7.5500    116.8701
  1429.0000      0.0000    600.1717      7.4681    121.1027
  1429.2500      0.0000    573.4656      7.3760    124.8671
  1429.5000      0.0000    538.6431      7.2939    128.5863
  1429.7500      0.0000    502.0385      7.2300    132.4946
  1430.0000      0.0000    472.6225      7.1846    135.8242
  1430.2500      0.0000    457.3480      7.1596    137.5324
  1430.5000      0.0000    458.2599      7.1625    137.3103
  1430.7500      0.0000    472.3386      7.2007    136.0087
  1431.0000      0.0000    492.3190      7.2716    135.2023
  1431.2500      0.0000    509.3395      7.3587    135.9716
  1431.5000      0.0000    518.0857      7.4407    137.8148
  1431.7500      0.0000    519.7587      7.5068    138.9288
  1432.0000      0.0000    518.2931      7.5640    137.6338
  1432.2500      0.0000    514.6871      7.6290    133.5685
  1432.5000      0.0000    507.4844      7.7085    127.8128
  1432.7500      0.0000    497.2937      7.7849    122.0295
  1433.0000      0.0000    487.4688      7.8238    117.2969
  1433.2500      0.0000    480.7495      7.8028    113.7480
  1433.5000      0.0000    477.6655      7.7348    111.3530
