~Version Information
VERS.                      2.0: CWLS Log ASCII Standard - VERSION 2.0
WRAP.                       NO: One line per depth step
~Well Information Block
STRT.FT                -8.2500: 
STOP.FT              1729.7500: 
STEP.FT                 0.2500: 
NULL.                -999.2500: 
COMP.          Pioneer Natural Resources: COMPANY
WELL.            Dude 43-34 Tr: WELL
FLD.           Purgatorie River: FIELD
LOC.           2083' FSL & 1042' FEL--: LOCATION
PROV.                       CO: PROVINCE
CNTY.               Las Animas: COUNTRY
SRVC.          Patterson Wireline: SERVICE COMPANY
DATE.          Tue Jan 31 09:23:54 2006: LOG DATE
UWI.           05 071 08676 00: UNIQUE WELL ID
~Curve Information Block
DEPT.FT            0 000 00 00: Depth
CCL.                          : Casing Collar Locator
TT3.usec                      : CBL 3' Travel Time
AMP3.mV                       : CBL 3' Amplitude
GR.GAPI                       : Gamma Ray
~Parameter Information Block
~A  Depth       CCL         TT3         AMP3         GR     
# ...
   226.2500      0.0000    761.9630      5.7598     87.0785
   226.5000      0.0000    763.0607      5.7742     93.2804
   226.7500      0.0000    761.2733      5.7760     97.9468
   227.0000      0.0000    756.6871      5.7528    100.7285
   227.2500      0.0000    750.8842      5.6873    102.4818
   227.5000      0.0000    745.7747      5.5558    104.2436
   227.7500      0.0000    741.7107      5.3340    106.1627
   228.0000      0.0000    736.5524      5.0137    107.2783
   228.2500      0.0000    727.8912      4.6292    106.1883
   228.5000      0.0000    716.6664      4.2619    102.1918
   228.7500      0.0000    707.5959      3.9926     96.1697
   229.0000      0.0000    705.9720      3.8426     90.2797
   229.2500      0.0000    714.6855      3.7805     86.4265
   229.5000      0.0000    733.1433      3.7773     85.0405
   229.7500      0.0000    756.8959      3.8198     85.3864
   230.0000      0.0000    778.9318      3.8863     86.4978
   230.2500      0.0000    793.7037      3.9504     87.3854
   230.5000      2.0000    800.4979      4.0199     86.9429
   230.7500      0.0000    801.9120      4.1636     84.4918
   231.0000      0.0000    799.6158      4.4848     80.6191
   231.2500      0.0000    793.1967      5.0327     77.2703
   231.5000      0.0000    782.8538      5.7212     76.6529
   231.7500      0.0000    771.4497      6.3618     79.5039
   232.0000      0.0000    762.6484      6.8047     84.1517
   232.2500      0.0000    756.9558      7.0286     87.4572
   232.5000      0.0000    750.7667      7.0949     87.0151
   232.7500      0.0000    740.3210      7.0685     82.8664
   233.0000      0.0000    725.9695      6.9973     77.3893
   233.2500      0.0000    711.7087      6.9193     73.3259
   233.5000      0.0000    701.2687      6.8600     71.5504
   233.7500      0.0000    695.5762      6.8298     70.7265
   234.0000      0.0000    693.4723      6.8290     69.1773
   234.2500      0.0000    693.5863      6.8485     66.7758
   234.5000      0.0000    695.2143      6.8690     64.7420
   234.7500      0.0000    697.8420      6.8724     63.9653
   235.0000      0.0000    700.3666      6.8533     64.0930
   235.2500      0.0000    701.2700      6.8199     64.1735
   235.5000      0.0000    699.8046      6.7853     63.6808
   235.7500      0.0000    696.7480      6.7606     62.8095
   236.0000      0.0000    693.6580      6.7487     62.1212
   236.2500      0.0000    691.5574      6.7399     62.2167
   236.5000      0.0000    690.5609      6.7189     63.6689
   236.7500      0.0000    690.5275      6.6833     66.6350
   237.0000      0.0000    691.8044      6.6554     70.0572
   237.2500      0.0000    695.2354      6.6677     71.7860
   237.5000      0.0000    701.2004      6.7343     70.3142
   237.7500      0.0000    708.6486      6.8375     66.2397
   238.0000      0.0000    715.6506      6.9439     61.6342
   238.2500      0.0000    721.2318      7.0293     58.2850
   238.5000      0.0000    725.9232      7.0887     56.7791
   238.7500      0.0000    730.0687      7.1257     56.6813
   239.0000      0.0000    732.3525      7.1392     57.0489
   239.2500      0.0000    730.6774      7.1213     56.9934
   239.5000      0.0000    724.4692      7.0692     56.1862
   239.7500      0.0000    716.0064      6.9968     54.8964
   240.0000      0.0000    709.2518      6.9315     53.5227
   240.2500      0.0000    706.9859      6.8975     52.2807
   240.5000      0.0000    708.8367      6.9009     51.3926
   240.7500      0.0000    712.0133      6.9286     51.2142
   241.0000      0.0000    714.0264      6.9596     51.8247
   241.2500      0.0000    714.6025      6.9754     52.6713
   241.5000      0.0000    714.7833      6.9661     53.0402
   241.7500      0.0000    714.8163      6.9315     52.8940
   242.0000      0.0000    713.8998      6.8795     52.9303
   242.2500      0.0000    711.6703      6.8197     53.7925
   242.5000      0.0000    708.6774      6.7583     55.4511
   242.7500      0.0000    705.4757      6.6995     57.3992
   243.0000      0.0000    702.3589      6.6500     59.3823
   243.2500      0.0000    700.0502      6.6196     61.7882
   243.5000      0.0000    699.7566      6.6169     65.2457
   243.7500      0.0000    702.2598      6.6401     70.0209
   244.0000      0.0000    707.2059      6.6727     75.9796
   244.2500      0.0000    713.2871      6.6912     82.8329
   244.5000      0.0000    718.8574      6.6804     90.0403
   244.7500      0.0000    722.3145      6.6431     96.6047
   245.0000      0.0000    722.4855      6.5971    101.4713
   245.2500      0.0000    719.4021      6.5600    104.3569
   245.5000      0.0000    714.5535      6.5367    105.8807
   245.7500      0.0000    709.6855      6.5181    106.6778
   246.0000      0.0000    705.3965      6.4935    106.7960
   246.2500      0.0000    701.3671      6.4609    106.1633
   246.5000      0.0000    697.5618      6.4261    105.2003
   246.7500      0.0000    694.5116      6.3950    104.6344
   247.0000      0.0000    692.6218      6.3714    104.9465
   247.2500      0.0000    691.8149      6.3580    106.1751
   247.5000      0.0000    691.9390      6.3585    108.0823
   247.7500      0.0000    693.4039      6.3733    110.2374
   248.0000      0.0000    697.4227      6.3962    112.0553
   248.2500      0.0000    705.3145      6.4166    113.2122
   248.5000      0.0000    716.8106      6.4275    114.1064
   248.7500      0.0000    728.9777      6.4321    115.4062
   249.0000      0.0000    737.9691      6.4425    116.9397
   249.2500      0.0000    742.6656      6.4717    117.4286
   249.5000      0.0000    745.8414      6.5250    115.5477
   249.7500      0.0000    751.1974      6.5936    111.0181
   250.0000      0.0000    760.0038      6.6567    104.7549
   250.2500      0.0000    770.6694      6.6935     98.4236
   250.5000      0.0000    780.2047      6.7000     93.8480
   250.7500      0.0000    785.9432      6.6947     92.2113
   251.0000      0.0000    786.8919      6.7031     93.4693
   251.2500      0.0000    783.3052      6.7336     96.5148
   251.5000      0.0000    774.6837      6.7700     99.8022
   251.7500      0.0000    759.8178      6.7897    101.9007
   252.0000      0.0000    739.8444      6.7868    102.1502
   252.2500      0.0000    719.5153      6.7754    101.2969
   252.5000      0.0000    704.0206      6.7710    101.1672
   252.7500      0.0000    695.4653      6.7749    103.2300
   253.0000      0.0000    693.0233      6.7780    107.3392
   253.2500      0.0000    695.2255      6.7760    111.7810
   253.5000      0.0000    701.0549      6.7735    114.4669
   253.7500      0.0000    709.3948      6.7760    114.4632
   254.0000      0.0000    718.4883      6.7815    112.9328
   254.2500      0.0000    726.3453      6.7809    112.4885
   254.5000      0.0000    731.4104      6.7645    114.8590
   254.7500      0.0000    732.9356      6.7305    118.8567
   255.0000      0.0000    731.2546      6.6858    121.1869
   255.2500      0.0000    727.8261      6.6367    119.7552
   255.5000      0.0000    724.5618      6.5808    115.7488
   255.7500      0.0000    722.9097      6.5131    111.9053
   256.0000      0.0000    723.7809      6.4365    109.3498
   256.2500      0.0000    728.0950      6.3606    107.0495
   256.5000      0.0000    736.5312      6.2967    103.9545
   256.7500      0.0000    748.4224      6.2565    100.4451
   257.0000      0.0000    761.4221      6.2510     97.5386
   257.2500      0.0000    772.6154      6.2836     95.5199
   257.5000      0.0000    779.9880      6.3451     93.6570
   257.7500      0.0000    783.2800      6.4209     90.8593
   258.0000      0.0000    784.3143      6.4997     86.6652
   258.2500      0.0000    786.3856      6.5751     82.0089
   258.5000      0.0000    791.7381      6.6379     78.8241
   258.7500      0.0000    798.3802      6.6760     78.3739
   259.0000      0.0000    800.0556      6.6843     79.9532
   259.2500      0.0000    791.3936      6.6723     81.4592
   259.5000      0.0000    773.9879      6.6599     81.1594
