~Version Information
VERS.                      2.0: CWLS Log ASCII Standard - VERSION 2.0
WRAP.                       NO: One line per depth step
~Well Information Block
STRT.FT                -6.5000: 
STOP.FT              1636.7500: 
STEP.FT                 0.2500: 
NULL.                -999.2500: 
COMP.          Pioneer Natural Resources: COMPANY
WELL.          Stock Canyon 34-33: WELL
FLD.           Purgatorie River: FIELD
LOC.           980' FSL & 2191' FEL--: LOCATION
PROV.                       CO: PROVINCE
CNTY.               Las Animas: COUNTRY
SRVC.          Patterson Wireline: SERVICE COMPANY
DATE.          Mon Dec 12 09:29:49 2005: LOG DATE
UWI.           05 071 08601 00: UNIQUE WELL ID
~Curve Information Block
DEPT.FT            0 000 00 00: Depth
CCL.                          : Casing Collar Locator
TT3.usec                      : CBL 3' Travel Time
AMP3.mV                       : CBL 3' Amplitude
GR.GAPI                       : Gamma Ray
~Parameter Information Block
~A  Depth       CCL         TT3         AMP3         GR     
# ...
    94.0000      0.0000    280.3490     81.5931    118.7088
    94.2500      0.0000    280.3386     81.6177    113.9068
    94.5000      0.0000    280.3233     81.6339    110.1529
    94.7500      0.0000    280.3102     81.5406    108.2752
    95.0000      0.0000    280.3212     81.1474    108.1038
    95.2500      0.0000    280.4346     80.1741    109.2320
    95.5000      0.0000    280.8660     78.3508    111.8514
    95.7500      0.0000    282.0324     75.5591    116.0912
    96.0000      0.0000    284.3916     71.8964    120.7291
    96.2500      0.0000    287.9173     67.7341    123.3322
    96.5000      0.0000    291.6187     63.8470    122.0024
    96.7500      0.0000    293.9333     61.2398    116.7342
    97.0000      0.0000    293.9804     60.4424    108.9756
    97.2500      0.0000    292.3202     61.0249    100.4235
    97.5000      0.0000    290.2922     62.0396     92.7511
    97.7500      2.0000    288.8356     62.8170     87.8810
    98.0000      0.0000    288.0805     63.1904     87.4704
    98.2500      0.0000    287.7096     63.2059     91.8797
    98.5000      0.0000    287.3593     62.9363     99.8966
    98.7500      0.0000    286.7543     62.6252    109.3525
    99.0000      0.0000    285.7415     62.8470    117.8293
    99.2500      0.0000    284.3607     64.3163    123.2142
    99.5000      0.0000    282.8680     67.3549    124.4380
    99.7500      0.0000    281.6052     71.4648    122.2645
   100.0000      0.0000    280.7784     75.5234    119.2355
   100.2500      0.0000    280.3660     78.5334    118.2729
   100.5000      0.0000    280.2151     80.2166    120.5979
   100.7500      0.0000    280.1819     80.9246    124.5409
   101.0000      0.0000    280.1873     81.1512    126.6537
   101.2500      0.0000    280.1994     81.2121    124.5188
   101.5000      0.0000    280.2049     81.2356    118.6283
   101.7500      0.0000    280.1995     81.2614    111.6733
   102.0000      0.0000    280.1865     81.2943    106.3480
   102.2500      0.0000    280.1727     81.3244    103.7285
   102.5000      0.0000    280.1631     81.3423    103.1783
   102.7500      0.0000    280.1592     81.3530    103.3547
   103.0000      0.0000    280.1624     81.3710    103.3983
   103.2500      0.0000    280.1739     81.4021    103.6658
   103.5000      0.0000    280.1930     81.4337    105.4121
   103.7500      0.0000    280.2148     81.4476    109.2877
   104.0000      0.0000    280.2329     81.4391    114.0682
   104.2500      0.0000    280.2429     81.4212    117.4782
   104.5000      0.0000    280.2448     81.4105    118.4682
   104.7500      0.0000    280.2406     81.4134    118.0873
   105.0000      0.0000    280.2323     81.4248    117.9417
   105.2500      0.0000    280.2214     81.4345    118.5809
   105.5000      0.0000    280.2102     81.4362    119.7886
   105.7500      0.0000    280.2014     81.4295    121.6160
   106.0000      0.0000    280.1960     81.4205    124.1491
   106.2500      0.0000    280.1928     81.4193    126.4292
   106.5000      0.0000    280.1906     81.4349    126.6620
   106.7500      0.0000    280.1897     81.4636    124.0011
   107.0000      0.0000    280.1919     81.4879    119.6116
   107.2500      0.0000    280.1989     81.4926    115.5826
   107.5000      0.0000    280.2108     81.4835    113.0502
   107.7500      0.0000    280.2242     81.4807    111.6209
   108.0000      0.0000    280.2345     81.4926    110.2068
   108.2500      0.0000    280.2385     81.5056    107.9112
   108.5000      0.0000    280.2351     81.5023    104.4062
   108.7500      0.0000    280.2248     81.4801    100.0267
   109.0000      0.0000    280.2098     81.4478     95.2151
   109.2500      0.0000    280.1948     81.4093     89.6849
   109.5000      0.0000    280.1842     81.3605     82.9521
   109.7500      0.0000    280.1788     81.3040     76.0203
   110.0000      0.0000    280.1760     81.2589     71.4168
   110.2500      0.0000    280.1728     81.2460     70.8107
   110.5000      0.0000    280.1693     81.2626     73.1253
   110.7500      0.0000    280.1683     81.2832     75.4763
   111.0000      0.0000    280.1726     81.2886     75.6621
   111.2500      0.0000    280.1822     81.2836     73.4716
   111.5000      0.0000    280.1938     81.2821     69.9834
   111.7500      0.0000    280.2024     81.2857     66.2285
   112.0000      0.0000    280.2047     81.2868     62.6620
   112.2500      0.0000    280.2012     81.2850     59.5934
   112.5000      0.0000    280.1946     81.2893     57.5847
   112.7500      0.0000    280.1887     81.3071     57.0991
   113.0000      0.0000    280.1859     81.3352     57.8431
   113.2500      0.0000    280.1879     81.3647     58.7331
   113.5000      0.0000    280.1954     81.3916     58.6189
   113.7500      0.0000    280.2077     81.4182     57.0012
   114.0000      0.0000    280.2218     81.4468     54.1774
   114.2500      0.0000    280.2327     81.4757     51.1504
   114.5000      0.0000    280.2355     81.5017     49.4588
   114.7500      0.0000    280.2285     81.5218     50.4587
   115.0000      0.0000    280.2146     81.5332     54.3129
   115.2500      0.0000    280.1994     81.5358     59.8859
   115.5000      0.0000    280.1879     81.5363     65.7632
   115.7500      0.0000    280.1829     81.5442     71.0629
   116.0000      0.0000    280.1859     81.5628     75.3025
   116.2500      0.0000    280.1977     81.5840     78.2492
   116.5000      0.0000    280.2172     81.5932     80.4404
   116.7500      0.0000    280.2409     81.5795     83.3083
   117.0000      0.0000    280.2628     81.5453     87.8527
   117.2500      0.0000    280.2768     81.5067     93.0433
   117.5000      0.0000    280.2788     81.4833     96.0828
   117.7500      0.0000    280.2692     81.4803     94.6221
   118.0000      0.0000    280.2515     81.4834     88.6938
   118.2500      0.0000    280.2307     81.4741     80.6567
   118.5000      0.0000    280.2110     81.4517     73.5151
   118.7500      0.0000    280.1944     81.4350     69.0567
   119.0000      0.0000    280.1812     81.4424     67.1236
   119.2500      0.0000    280.1716     81.4734     66.3402
   119.5000      0.0000    280.1667     81.5110     65.3844
   119.7500      0.0000    280.1681     81.5394     63.6763
   120.0000      0.0000    280.1770     81.5577     61.3506
   120.2500      0.0000    280.1921     81.5781     58.9298
   120.5000      0.0000    280.2098     81.6106     57.0012
   120.7500      0.0000    280.2260     81.6506     56.0265
   121.0000      0.0000    280.2381     81.6826     56.1895
   121.2500      0.0000    280.2448     81.6928     57.1242
   121.5000      0.0000    280.2457     81.6777     57.8260
   121.7500      0.0000    280.2415     81.6450     57.2381
   122.0000      0.0000    280.2346     81.6091     55.2343
   122.2500      0.0000    280.2282     81.5818     52.8970
   122.5000      0.0000    280.2251     81.5664     51.5557
   122.7500      0.0000    280.2259     81.5646     51.5623
   123.0000      0.0000    280.2290     81.5837     52.0734
   123.2500      0.0000    280.2329     81.6264     51.9899
   123.5000      0.0000    280.2379     81.6754     51.1359
   123.7500      0.0000    280.2451     81.7018     50.5133
   124.0000      0.0000    280.2541     81.6919     51.3055
   124.2500      0.0000    280.2628     81.6586     53.6605
   124.5000      0.0000    280.2682     81.6275     56.6688
   124.7500      0.0000    280.2674     81.6195     59.5064
   125.0000      0.0000    280.2588     81.6408     62.1929
   125.2500      0.0000    280.2448     81.6800     65.2012
   125.5000      0.0000    280.2312     81.7132     68.8496
   125.7500      0.0000    280.2234     81.7180     73.2854
   126.0000      0.0000    280.2230     81.6868     78.5956
   126.2500      0.0000    280.2274     81.6282     84.4224
   126.5000      0.0000    280.2328     81.5616     89.5424
   126.7500      0.0000    280.2361     81.5130     92.4043
   127.0000      0.0000    280.2352     81.5038     92.5696
   127.2500      0.0000    280.2311     81.5336     91.4211
