~Version Information
VERS.                      2.0: CWLS Log ASCII Standard - VERSION 2.0
WRAP.                       NO: One line per depth step
~Well Information Block
STRT.FT               370.0000: 
STOP.FT              1282.5000: 
STEP.FT                 0.1000: 
NULL.                -999.2500: 
COMP.          Pioneer Natural Resources: COMPANY
WELL.          Irish Eyes 33-21: WELL
FLD.           Purgatoire River: FIELD
LOC.           1379' FSL & 2544' FEL: LOCATION
PROV.                 Colorado: PROVINCE
CNTY.               Las Animas: COUNTRY
SRVC.                Patterson: SERVICE COMPANY
DATE.          Mon Jan 16 13:31:01 2006: LOG DATE
UWI.           05 071 08658 00: UNIQUE WELL ID
~Curve Information Block
DEPT.FT            0 000 00 00: Depth
DCAL.in                       : CDL Caliper
RHOB.g/cc                     : CDL Bulk Density
RHOC.g/cc                     : CDL Density Correction
DPOR.pu                       : CDL Density Porosity
GR.GAPI                       : Gamma Ray
NPOR.pu                       : Neutron Porosity
~Parameter Information Block
~A  Depth       DCAL        RHOB        RHOC        DPOR         GR         NPOR    
# ...
   907.6000      7.9955      2.5024      0.0570      8.9464    156.8453     27.4407
   907.7000      7.9955      2.5511      0.1011      5.9938    163.1293     27.1015
   907.8000      7.9935      2.5937      0.1355      3.4137    166.3175     27.1590
   907.9000      7.9935      2.6085      0.0965      2.5138    166.2726     27.2190
   908.0000      7.9973      2.6047      0.0804      2.7482    164.1886     26.9047
   908.1000      7.9973      2.6019      0.0961      2.9157    164.9470     26.4365
   908.2000      7.9973      2.5956      0.1420      3.2979    165.6724     26.5920
   908.3000      8.0032      2.5722      0.0702      4.7148    160.6558     27.3389
   908.4000      8.0032      2.5357      0.0476      6.9271    153.1395     27.8535
   908.5000      8.0229      2.5013      0.0378      9.0110    148.2710     27.8156
   908.6000      8.0229      2.4771      0.0675     10.4806    145.9984     27.9134
   908.7000      8.0229      2.4626      0.0573     11.3547    145.3251     28.7046
   908.8000      8.0104      2.4611      0.0316     11.4473    150.1394     29.4078
   908.9000      8.0104      2.4744      0.0471     10.6397    158.7846     29.0878
   909.0000      7.9980      2.4965      0.0834      9.3041    160.9974     28.1724
   909.1000      7.9980      2.5235      0.0894      7.6675    153.9288     27.7153
   909.2000      7.9980      2.5505      0.1202      6.0307    145.4157     28.1518
   909.3000      8.0101      2.5633      0.1775      5.2540    142.9130     28.7571
   909.4000      8.0101      2.5622      0.1303      5.3217    146.9458     28.6931
   909.5000      8.0115      2.5651      0.0704      5.1448    152.4387     28.2511
   909.6000      8.0115      2.5644      0.1182      5.1864    153.2316     27.9019
   909.7000      8.0115      2.5354      0.1174      6.9453    148.6614     27.6425
   909.8000      8.0045      2.4867      0.0659      9.8970    148.0680     27.5847
   909.9000      8.0045      2.4490     -0.0018     12.1828    153.2797     27.7869
   910.0000      8.0021      2.4342     -0.0350     13.0778    155.6351     27.9357
   910.1000      8.0021      2.4281      0.0211     13.4467    153.6361     27.9846
   910.2000      8.0021      2.4147      0.0138     14.2622    151.2689     28.5901
   910.3000      8.0186      2.3965      0.0417     15.3654    149.2124     29.7144
   910.4000      8.0186      2.3817      0.0449     16.2586    145.6612     30.3294
   910.5000      8.0531      2.3688      0.0696     17.0441    140.3147     30.1731
   910.6000      8.0531      2.3491      0.0902     18.2368    135.1990     29.6552
   910.7000      8.0531      2.3341     -0.0052     19.1437    134.1142     29.0547
   910.8000      8.0109      2.3535      0.0172     17.9712    140.4314     28.6912
   910.9000      8.0109      2.4054      0.1217     14.8229    148.8967     28.7703
   911.0000      8.0272      2.4648      0.1047     11.2216    149.4150     29.0894
   911.1000      8.0272      2.5260      0.1464      7.5155    141.2262     29.2859
   911.2000      8.0272      2.5795      0.3192      4.2728    132.8811     29.5169
   911.3000      8.0529      2.5960      0.3495      3.2711    129.4126     29.9366
   911.4000      8.0529      2.5699      0.2717      4.8535    129.5422     29.9115
   911.5000      8.0886      2.5305      0.2065      7.2431    132.7725     29.1970
   911.6000      8.0886      2.5017      0.1451      8.9902    139.5961     28.4503
   911.7000      8.0886      2.4831      0.0731     10.1181    147.8345     27.9548
   911.8000      8.0388      2.4673      0.0334     11.0749    155.3568     27.6461
   911.9000      8.0388      2.4516      0.0304     12.0219    159.1259     27.3915
   912.0000      8.0437      2.4381      0.0349     12.8452    151.5563     27.0617
   912.1000      8.0437      2.4350      0.0170     13.0305    133.7962     26.8417
   912.2000      8.0437      2.4444      0.0412     12.4610    122.9297     26.9058
   912.3000      8.0188      2.4536      0.0821     11.9051    129.5831     26.8624
   912.4000      8.0188      2.4595     -0.0187     11.5426    144.8793     26.5941
   912.5000      8.0110      2.4701      0.1010     10.9010    152.5843     26.6004
   912.6000      8.0110      2.4804      0.1089     10.2814    147.0531     27.0758
   912.7000      8.0110      2.4844      0.0689     10.0342    139.4028     27.7437
   912.8000      7.9658      2.4854      0.0836      9.9740    140.9465     28.0543
   912.9000      7.9658      2.4909      0.1105      9.6424    152.2960     28.1414
   913.0000      7.9633      2.5043      0.1316      8.8323    167.0949     28.5513
   913.1000      7.9633      2.5176      0.1723      8.0254    176.4101     28.8062
   913.2000      7.9633      2.5262      0.1566      7.5026    172.9448     28.3405
   913.3000      7.9606      2.5420      0.1643      6.5463    159.5053     27.4041
   913.4000      7.9606      2.5687      0.2063      4.9262    148.0641     26.3297
   913.5000      7.9540      2.5854      0.2214      3.9144    144.9449     25.5550
   913.6000      7.9540      2.5752      0.1967      4.5356    145.7526     25.6133
   913.7000      7.9540      2.5466      0.1533      6.2667    145.7232     26.4114
   913.8000      7.9597      2.5229      0.0996      7.7012    141.6725     27.0109
   913.9000      7.9597      2.5174      0.1218      8.0365    132.2457     26.6375
   914.0000      7.9700      2.5234      0.1067      7.6757    121.2803     25.8158
   914.1000      7.9700      2.5277      0.1231      7.4114    113.5677     25.4274
   914.2000      7.9700      2.5162      0.1100      8.1097    112.5979     25.7998
   914.3000      7.9914      2.4886      0.0696      9.7813    118.8761     26.6071
   914.4000      7.9914      2.4661      0.0886     11.1470    126.3939     26.9815
   914.5000      7.9880      2.4634      0.0702     11.3063    127.6336     26.2591
   914.6000      7.9880      2.4777      0.0533     10.4419    122.2566     24.9810
   914.7000      7.9880      2.4959      0.1145      9.3383    114.7734     24.2412
   914.8000      7.9527      2.5152      0.0662      8.1692    109.3771     24.0771
   914.9000      7.9527      2.5438      0.0788      6.4353    107.1249     23.8259
   915.0000      7.9074      2.5776      0.0748      4.3882    104.1603     23.3768
   915.1000      7.9074      2.6103      0.0774      2.4055     97.3563     22.8464
   915.2000      7.9074      2.6391      0.1570      0.6597     90.0201     22.0067
   915.3000      7.9092      2.6548      0.1577     -0.2891     85.0238     20.9695
   915.4000      7.9092      2.6582      0.0990     -0.4947     80.8005     20.2536
   915.5000      7.9034      2.6496      0.1526      0.0271     76.7831     19.8132
   915.6000      7.9034      2.6182      0.0642      1.9295     71.2086     19.1762
   915.7000      7.9034      2.5731      0.0691      4.6585     61.3415     18.4106
   915.8000      7.8754      2.5423     -0.0112      6.5279     52.6237     17.9018
   915.9000      7.8754      2.5373      0.0301      6.8324     53.4538     17.7134
   916.0000      7.8690      2.5406      0.0513      6.6291     59.3196     17.5743
   916.1000      7.8690      2.5389      0.0183      6.7328     59.7632     16.9052
   916.2000      7.8690      2.5355      0.0396      6.9420     53.6570     15.2922
   916.3000      7.8643      2.5317      0.0414      7.1698     46.9764     23.1710
   916.4000      7.8643      2.5251      0.0773      7.5695     43.0376     21.7266
   916.5000      7.9055      2.5174      0.0479      8.0353     41.0914     21.0918
   916.6000      7.9055      2.5091      0.0438      8.5382     40.8501     20.2526
   916.7000      7.9055      2.4910      0.0902      9.6363     42.1170     19.3605
   916.8000      7.9421      2.4638      0.0057     11.2820     43.2347     19.3251
   916.9000      7.9421      2.4437      0.0063     12.5059     42.1914     19.9018
   917.0000      7.9601      2.4355      0.0058     13.0000     39.1945     20.5332
   917.1000      7.9601      2.4432      0.0158     12.5356     35.7495     20.5089
