~Version Information
VERS.                      2.0: CWLS Log ASCII Standard - VERSION 2.0
WRAP.                       NO: One line per depth step
~Well Information Block
STRT.FT               370.0000: 
STOP.FT              2832.5000: 
STEP.FT                 0.1000: 
NULL.                -999.2500: 
COMP.          Pioneer Natural Resources: COMPANY
WELL.          Black Cat 13-32: WELL
FLD.           Purgatoire River: FIELD
LOC.           1865' FSL & 1120' FWL--: LOCATION
PROV.                 Colorado: PROVINCE
CNTY.               Las Animas: COUNTRY
SRVC.                Patterson: SERVICE COMPANY
DATE.          Sun Jul 31 08:38:44 2005: LOG DATE
UWI.           05 071 08450 00: UNIQUE WELL ID
~Curve Information Block
DEPT.FT            0 000 00 00: Depth
DCAL.in                       : CDL Caliper
DPOR.pu                       : CDL Density Porosity
NPOR.pu                       : Neutron Porosity
RHOB.g/cc                     : CDL Bulk Density
RHOC.g/cc                     : CDL Density Correction
GR.GAPI                       : Gamma Ray
~Parameter Information Block
~A  Depth       DCAL        DPOR        NPOR        RHOB        RHOC         GR     
# ...
  2203.6000      7.9990      8.6461     27.1792      2.5073      0.0375    158.3219
  2203.7000      7.9990      8.3680     27.8346      2.5119      0.0717    164.7112
  2203.8000      7.9988      9.5538     27.7917      2.4924      0.0281    178.3061
  2203.9000      7.9988     11.3731     27.6206      2.4623     -0.0128    195.1890
  2204.0000      8.0017     12.2071     27.6456      2.4486      0.0171    203.4837
  2204.1000      8.0017     10.9916     27.7545      2.4686     -0.0151    193.5940
  2204.2000      8.0017      8.0199     27.7362      2.5177      0.0502    178.7087
  2204.3000      8.0030      4.7489     27.4035      2.5716      0.1060    170.9725
  2204.4000      8.0030      2.3772     26.9602      2.6108      0.1040    164.6309
  2204.5000      7.9960      1.3922     26.8302      2.6270      0.1675    157.0589
  2204.6000      7.9960      1.7301     26.9203      2.6215      0.1289    147.3458
  2204.7000      7.9960      2.2991     26.7327      2.6121      0.1203    134.1040
  2204.8000      7.9857      1.9877     26.2949      2.6172      0.1019    118.3977
  2204.9000      7.9857      1.0978     25.7794      2.6319      0.1188    106.4181
  2205.0000      7.9810      0.7016     25.3693      2.6384      0.1343    104.7948
  2205.1000      7.9810      1.4016     25.5769      2.6269      0.1274    111.8703
  2205.2000      7.9810      3.0649     26.2261      2.5994      0.0470    117.2372
  2205.3000      7.9785      4.9256     26.3968      2.5687      0.0101    112.9346
  2205.4000      7.9785      6.0937     25.9350      2.5495      0.0009     97.1693
  2205.5000      7.9765      6.1500     25.7821      2.5485      0.0256     70.5224
  2205.6000      7.9765      5.6350     26.4090      2.5570      0.0646     46.3719
  2205.7000      7.9765      5.5582     26.9948      2.5583      0.0582     36.3909
  2205.8000      7.9768      6.2723     27.0281      2.5465      0.0511     37.4968
  2205.9000      7.9768      7.5386     26.9408      2.5256      0.0405     46.3406
  2206.0000      7.9789      8.6257     26.6682      2.5077     -0.0120     57.0179
  2206.1000      7.9789      8.8266     25.9131      2.5044      0.0748     58.1805
  2206.2000      7.9789      8.5013     24.9290      2.5097      0.0350     48.8979
  2206.3000      7.9814      8.4150     24.1396      2.5112      0.0481     37.5665
  2206.4000      7.9814      8.7166     23.7662      2.5062      0.0209     29.4579
  2206.5000      7.9821      8.9672     23.9351      2.5020      0.0402     27.5197
  2206.6000      7.9821      9.1171     24.4206      2.4996      0.0621     31.9508
  2206.7000      7.9821      9.6119     24.6414      2.4914      0.0751     40.6231
  2206.8000      7.9813     10.4610     24.2563      2.4774      0.0530     48.6322
  2206.9000      7.9813     11.2067     23.2356      2.4651      0.0657     53.5006
  2207.0000      7.9811     11.5712     22.3170      2.4591      0.0545     54.3003
  2207.1000      7.9811     11.5155     22.2734      2.4600      0.0459     48.6699
  2207.2000      7.9811     11.3145     22.6127      2.4633      0.0473     40.8597
  2207.3000      7.9808     11.6327     22.6470      2.4581      0.0754     38.5561
  2207.4000      7.9808     12.4284     22.5627      2.4449      0.0453     43.2398
  2207.5000      7.9804     12.8501     22.8226      2.4380      0.0496     49.6085
  2207.6000      7.9804     12.9667     23.2630      2.4361      0.1049     54.2146
  2207.7000      7.9804     13.1959     23.1008      2.4323      0.0262     55.9983
  2207.8000      7.9797     12.9411     22.0285      2.4365      0.0642     55.3518
  2207.9000      7.9797     12.2973     20.9341      2.4471      0.1038     53.9260
  2208.0000      7.9783     12.0926     20.7470      2.4505      0.0864     50.2795
  2208.1000      7.9783     12.1011     20.9995      2.4503      0.0887     45.8381
  2208.2000      7.9783     11.7862     20.8880      2.4555      0.0984     48.7056
  2208.3000      7.9776     11.4058     20.7913      2.4618      0.1067     58.2836
  2208.4000      7.9776     11.5583     20.9614      2.4593      0.0781     65.1345
  2208.5000      7.9773     12.4467     21.1007      2.4446      0.0680     67.1372
  2208.6000      7.9773     13.3527     21.3849      2.4297      0.0461     67.3037
  2208.7000      7.9773     13.1977     21.6245      2.4322      0.0604     64.1822
  2208.8000      7.9775     11.8336     21.3254      2.4547      0.0556     56.8805
  2208.9000      7.9775     10.2432     20.9530      2.4810      0.1075     51.3356
  2209.0000      7.9786      9.4854     20.9036      2.4935      0.0926     51.2084
  2209.1000      7.9786      9.8418     20.7761      2.4876      0.0958     50.5564
  2209.2000      7.9786     10.9854     20.7029      2.4687      0.0696     45.2780
  2209.3000      7.9786     12.3730     21.1670      2.4458      0.0443     38.3638
  2209.4000      7.9786     13.6658     21.5895      2.4245      0.0597     31.8201
  2209.5000      7.9785     14.3762     21.0954      2.4128      0.0069     26.8712
  2209.6000      7.9785     14.0526     20.2987      2.4181      0.0141     29.0455
  2209.7000      7.9785     13.2592     20.1934      2.4312      0.0482     40.7097
  2209.8000      7.9809     12.7260     20.3146      2.4400      0.0249     52.7946
  2209.9000      7.9809     12.6274     20.1070      2.4416      0.0473     53.7009
  2210.0000      7.9858     12.6535     20.0244      2.4412      0.0070     46.5470
  2210.1000      7.9858     11.9886     20.3713      2.4522      0.0018     44.8353
  2210.2000      7.9858     10.5222     20.9855      2.4764      0.0556     48.6889
  2210.3000      7.9911      9.5997     21.2018      2.4916      0.0756     48.4475
  2210.4000      7.9911     10.3134     20.9853      2.4798      0.0408     42.8531
  2210.5000      7.9912     11.6093     21.4816      2.4584      0.0127     39.8819
  2210.6000      7.9912     11.6754     22.5346      2.4574      0.0514     41.6620
  2210.7000      7.9912     10.5996     22.6072      2.4751      0.0892     44.7680
  2210.8000      7.9903      9.5627     21.6799      2.4922      0.0677     46.3691
  2210.9000      7.9903      8.8960     21.0972      2.5032      0.0750     45.4125
  2211.0000      7.9970      8.7241     21.1559      2.5061      0.0863     45.5283
  2211.1000      7.9970      9.3721     21.3001      2.4954      0.0484     49.3205
  2211.2000      7.9970     10.5670     21.4403      2.4756      0.0449     51.1168
  2211.3000      8.0024     11.6925     21.6766      2.4571      0.0364     46.7380
  2211.4000      8.0024     12.3154     21.7818      2.4468      0.0208     41.0220
  2211.5000      8.0030     12.3849     21.4691      2.4457      0.0067     41.6505
  2211.6000      8.0030     12.2462     21.0348      2.4479      0.0701     50.5487
  2211.7000      8.0030     12.0497     21.1701      2.4512      0.0579     62.3023
  2211.8000      8.0047     11.6099     21.8656      2.4584      0.0544     67.4248
  2211.9000      8.0047     11.2010     22.4247      2.4652      0.0410     60.8365
  2212.0000      8.0067     10.9370     22.3853      2.4695      0.0378     52.3401
  2212.1000      8.0067     10.4888     21.8039      2.4769      0.0757     53.8988
  2212.2000      8.0067     10.0718     21.0932      2.4838      0.0543     60.7394
  2212.3000      8.0054     10.1624     20.5042      2.4823      0.0816     58.6607
  2212.4000      8.0054     11.0599     20.2089      2.4675      0.0680     48.0861
  2212.5000      7.9987     12.4534     20.3605      2.4445      0.0454     39.7155
  2212.6000      7.9987     13.3196     20.5187      2.4302      0.0014     36.6532
  2212.7000      7.9987     13.4461     20.4541      2.4281      0.0928     36.1094
  2212.8000      7.9878     13.3256     20.5287      2.4301      0.0214     36.4377
  2212.9000      7.9878     12.9513     20.6531      2.4363      0.0310     38.2149
  2213.0000      7.9809     12.8894     20.8330      2.4373      0.0483     42.4061
  2213.1000      7.9809     13.7722     21.3793      2.4228      0.0120     48.2454
