~Version Information
VERS.                      2.0: CWLS Log ASCII Standard - VERSION 2.0
WRAP.                       NO: One line per depth step
~Well Information Block
STRT.FT               240.0000: 
STOP.FT              1252.5000: 
STEP.FT                 0.2500: 
NULL.                -999.2500: 
COMP.          Pioneer Natural Resources: COMPANY
WELL.             Margaux 11-1: WELL
FLD.           Purgatoire River: FIELD
LOC.           1154' FNL & 472' FWL: LOCATION
PROV.                 Colorado: PROVINCE
CNTY.               Las Animas: COUNTRY
SRVC.                Patterson: SERVICE COMPANY
DATE.          Mon Dec 19 04:21:59 2005: LOG DATE
UWI.           05 071 08639 00: UNIQUE WELL ID
~Curve Information Block
DEPT.FT            0 000 00 00: Depth
SN.Ohm-m                      : IEL Short Normal
SP.mV                         : IEL Spontaneous Potential
DIR.Ohm-m                     : IEL Induction Resistivity
GR.GAPI                       : Gamma Ray
~Parameter Information Block
~A  Depth        SN          SP         DIR          GR     
# ...
   809.5000     24.3422      4.8593     16.8964     81.1238
   809.7500     22.7582      4.8530     16.1489     85.2441
   810.0000     20.9383      4.8856     15.3171     94.2252
   810.2500     19.0639      4.9445     14.4672    102.0493
   810.5000     17.4253      5.0050     13.6404    114.8307
   810.7500     16.2154      5.0389     12.8616    122.3447
   811.0000     15.3034      5.0290     12.1459    129.4147
   811.2500     14.4655      4.9798     11.5012    130.8276
   811.5000     13.7642      4.9165     10.9319    129.5207
   811.7500     13.3926      4.8739     10.4408    127.9335
   812.0000     13.3239      4.8805     10.0311    126.3588
   812.2500     13.3491      4.9484      9.7059    126.0089
   812.5000     13.3121      5.0724      9.4673    125.8317
   812.7500     13.2571      5.2348      9.3145    125.5600
   813.0000     13.2934      5.4108      9.2410    124.7932
   813.2500     13.3266      5.5733      9.2343    124.0878
   813.5000     13.1691      5.6980      9.2767    122.4843
   813.7500     12.8642      5.7697      9.3497    120.7766
   814.0000     12.6388      5.7891      9.4390    117.2617
   814.2500     12.5655      5.7744      9.5390    114.7891
   814.5000     12.5027      5.7523      9.6529    112.2471
   814.7500     12.4125      5.7412      9.7900    111.9366
   815.0000     12.5224      5.7420      9.9599    113.4896
   815.2500     13.0244      5.7422     10.1687    115.2375
   815.5000     13.8070      5.7258     10.4183    117.7306
   815.7500     14.6578      5.6817     10.7092    118.9290
   816.0000     15.4752      5.6089     11.0434    119.6198
   816.2500     16.1567      5.5179     11.4252    119.0297
   816.5000     16.6025      5.4217     11.8598    116.5245
   816.7500     16.9006      5.3249     12.3504    114.4188
   817.0000     17.2051      5.2193     12.8930    112.2116
   817.2500     17.4840      5.0915     13.4738    111.6870
   817.5000     17.6517      4.9320     14.0696    110.9091
   817.7500     17.7675      4.7402     14.6538    108.9173
   818.0000     17.9053      4.5249     15.2057    102.0626
   818.2500     18.0524      4.3015     15.7194     95.2946
   818.5000     18.2792      4.0883     16.2036     84.6540
   818.7500     18.8157      3.9028     16.6742     79.2255
   819.0000     19.9079      3.7588     17.1434     75.7440
   819.2500     21.6034      3.6643     17.6152     76.5641
   819.5000     23.6020      3.6197     18.0896     80.8042
   819.7500     25.4044      3.6211     18.5710     84.2910
   820.0000     26.6460      3.6659     19.0690     88.9535
   820.2500     27.3107      3.7542     19.5874     91.5415
   820.5000     27.6568      3.8849     20.1046     95.2154
   820.7500     27.9131      4.0523     20.5574     97.7325
   821.0000     28.0464      4.2484     20.8460    100.9784
   821.2500     27.8103      4.4672     20.8715    102.0086
   821.5000     27.0583      4.7041     20.5885    100.8009
   821.7500     25.9333      4.9535     20.0286     98.1171
   822.0000     24.6530      5.2066     19.2740     92.4337
   822.2500     23.2684      5.4508     18.4134     88.9336
   822.5000     21.7763      5.6713     17.5175     87.0167
   822.7500     20.3602      5.8564     16.6399     88.9984
   823.0000     19.2846      6.0044     15.8225     96.1472
   823.2500     18.5784      6.1234     15.0935    102.2152
   823.5000     18.0565      6.2252     14.4623    110.9681
   823.7500     17.5837      6.3184     13.9226    115.9775
   824.0000     17.1280      6.4036     13.4625    122.0898
   824.2500     16.6332      6.4742     13.0767    125.2252
   824.5000     16.0478      6.5209     12.7704    128.5614
   824.7500     15.4700      6.5372     12.5537    130.0261
   825.0000     15.0730      6.5221     12.4330    131.5733
   825.2500     14.8922      6.4794     12.4039    132.4301
   825.5000     14.8735      6.4170     12.4510    133.3068
   825.7500     15.0198      6.3427     12.5514    132.9809
   826.0000     15.2733      6.2593     12.6817    129.5886
   826.2500     15.4989      6.1625     12.8232    124.9702
   826.5000     15.7235      6.0438     12.9639    115.5366
   826.7500     16.1352      5.8990     13.0963    108.8566
   827.0000     16.8034      5.7358     13.2139     99.8080
   827.2500     17.5924      5.5744     13.3119     94.2458
   827.5000     18.3778      5.4393     13.3895     85.0959
   827.7500     19.1570      5.3490     13.4511     78.1511
   828.0000     19.8538      5.3099     13.5025     68.6292
   828.2500     20.1641      5.3156     13.5446     65.1958
   828.5000     19.8662      5.3506     13.5690     67.4192
   828.7500     19.1920      5.3945     13.5595     73.9230
   829.0000     18.5109      5.4285     13.5014     88.6623
   829.2500     17.8529      5.4417     13.3885     99.5366
   829.5000     17.0823      5.4365     13.2241    113.7963
   829.7500     16.2232      5.4297     13.0174    120.5312
   830.0000     15.3854      5.4461     12.7798    125.5770
   830.2500     14.6322      5.5076     12.5255    125.8717
   830.5000     14.0411      5.6222     12.2727    123.2388
   830.7500     13.7225      5.7786     12.0398    120.5123
   831.0000     13.6654      5.9499     11.8398    116.4546
   831.2500     13.6715      6.1045     11.6750    114.3269
   831.5000     13.5850      6.2180     11.5396    112.4913
   831.7500     13.4690      6.2829     11.4285    112.1780
   832.0000     13.4548      6.3105     11.3478    112.5468
   832.2500     13.5657      6.3254     11.3150    112.7872
   832.5000     13.7762      6.3531     11.3467    112.1554
   832.7500     14.0765      6.4058     11.4412    110.9035
   833.0000     14.4211      6.4759     11.5716    108.6403
   833.2500     14.7433      6.5402     11.6948    107.7845
   833.5000     14.9905      6.5725     11.7726    108.5589
   833.7500     15.0636      6.5583     11.7879    110.3500
   834.0000     14.8261      6.5026     11.7449    113.9038
   834.2500     14.2864      6.4254     11.6578    116.3561
   834.5000     13.6552      6.3477     11.5409    120.0762
   834.7500     13.1467      6.2778     11.4069    122.6171
   835.0000     12.8653      6.2071     11.2693    125.9238
   835.2500     12.8336      6.1190     11.1444    127.2861
   835.5000     12.9849      6.0026     11.0486    128.0176
   835.7500     13.1981      5.8631     10.9931    128.1420
   836.0000     13.3506      5.7182     10.9773    128.3941
   836.2500     13.3531      5.5867     10.9877    128.3554
   836.5000     13.2379      5.4784     11.0022    127.3959
   836.7500     13.1275      5.3894     10.9997    126.4867
   837.0000     13.0564      5.3040     10.9686    126.0932
   837.2500     12.9567      5.2025     10.9099    126.6369
   837.5000     12.7219      5.0740     10.8332    126.9663
   837.7500     12.2439      4.9261     10.7528    125.7357
   838.0000     11.5931      4.7873     10.6836    121.9435
   838.2500     11.0750      4.6969     10.6398    119.5241
   838.5000     10.9707      4.6850     10.6328    118.3849
   838.7500     11.3225      4.7553     10.6680    119.5154
   839.0000     11.9633      4.8852     10.7406    122.4662
   839.2500     12.6817      5.0415     10.8332    123.9347
   839.5000     13.3866      5.1995     10.9193    123.7725
   839.7500     14.0779      5.3492     10.9706    121.9846
   840.0000     14.6260      5.4878     10.9664    118.1858
   840.2500     14.7543      5.6111     10.8990    116.1803
   840.5000     14.3397      5.7125     10.7729    115.4413
   840.7500     13.6082      5.7909     10.6004    116.5240
   841.0000     12.9475      5.8543     10.3973    119.7740
   841.2500     12.5744      5.9152     10.1797    122.5067
   841.5000     12.4477      5.9805      9.9621    126.6471
   841.7500     12.4230      6.0477      9.7556    129.0366
   842.0000     12.3812      6.1094      9.5659    131.7204
   842.2500     12.2180      6.1601      9.3914    132.9386
   842.5000     11.8345      6.1981      9.2239    134.0642
   842.7500     11.2718      6.2205      9.0542    134.3576
