~Version Information
VERS.                      2.0: CWLS Log ASCII Standard - VERSION 2.0
WRAP.                       NO: One line per depth step
~Well Information Block
STRT.FT               460.0000: 
STOP.FT              2824.0000: 
STEP.FT                 0.2500: 
NULL.                -999.2500: 
COMP.          Pioneer Natural Resources: COMPANY
WELL.           Dolzanie 34-12: WELL
FLD.           Purgatoire River: FIELD
LOC.           1001' FSL & 1750' FEL--: LOCATION
PROV.                 Colorado: PROVINCE
CNTY.               Las Animas: COUNTRY
SRVC.                Patterson: SERVICE COMPANY
DATE.          Wed Jul 20 07:51:58 2005: LOG DATE
UWI.           05 071 08439 00: UNIQUE WELL ID
~Curve Information Block
DEPT.FT            0 000 00 00: Depth
DIR.Ohm-m                     : IEL Induction Resistivity
SN.Ohm-m                      : IEL Short Normal
SP.mV                         : IEL Spontaneous Potential
GR.GAPI                       : Gamma Ray
~Parameter Information Block
~A  Depth       DIR          SN          SP          GR     
# ...
   627.5000     34.1889   2000.0000   2000.0000     83.3829
   627.7500     34.5315   2000.0000   2000.0000     84.7595
   628.0000     34.8745   2000.0000   2000.0000     84.9309
   628.2500     35.1882   2000.0000   2000.0000     83.9713
   628.5000     35.4433   2000.0000   2000.0000     81.8772
   628.7500     35.6203   2000.0000   2000.0000     80.5209
   629.0000     35.7212   2000.0000   2000.0000     78.8213
   629.2500     35.7705   2000.0000   2000.0000     77.7781
   629.5000     35.8001   2000.0000   2000.0000     75.8841
   629.7500     35.8301   2000.0000   2000.0000     74.2635
   630.0000     35.8608   2000.0000   2000.0000     71.6746
   630.2500     35.8839   2000.0000   2000.0000     70.2360
   630.5000     35.9063   2000.0000   2000.0000     68.6290
   630.7500     35.9687   2000.0000   2000.0000     67.4810
   631.0000     36.1320   2000.0000   2000.0000     64.6361
   631.2500     36.4384   2000.0000   2000.0000     61.7969
   631.5000     36.8761   2000.0000   2000.0000     56.7515
   631.7500     37.3818   2000.0000   2000.0000     53.4115
   632.0000     37.8802   2000.0000   2000.0000     48.9386
   632.2500     38.3296   2000.0000   2000.0000     46.3783
   632.5000     38.7323   2000.0000   2000.0000     43.3582
   632.7500     39.1051   2000.0000   2000.0000     42.0837
   633.0000     39.4449   2000.0000   2000.0000     41.4948
   633.2500     39.7213   2000.0000   2000.0000     42.0172
   633.5000     39.8969   2000.0000   2000.0000     44.1403
   633.7500     39.9483   2000.0000   2000.0000     46.3042
   634.0000     39.8645   2000.0000   2000.0000     50.1349
   634.2500     39.6322   2000.0000   2000.0000     52.7624
   634.5000     39.2336   2000.0000   2000.0000     56.6328
   634.7500     38.6641   2000.0000   2000.0000     59.2063
   635.0000     37.9463   2000.0000   2000.0000     62.9647
   635.2500     37.1178   2000.0000   2000.0000     65.1645
   635.5000     36.2092   2000.0000   2000.0000     67.4767
   635.7500     35.2415   2000.0000   2000.0000     68.1798
   636.0000     34.2462   2000.0000   2000.0000     68.4085
   636.2500     33.2763   2000.0000   2000.0000     68.8667
   636.5000     32.3838   2000.0000   2000.0000     71.8733
   636.7500     31.5822   2000.0000   2000.0000     75.8969
   637.0000     30.8304   2000.0000   2000.0000     83.6862
   637.2500     30.0570   2000.0000   2000.0000     88.4805
   637.5000     29.2082   2000.0000   2000.0000     92.8914
   637.7500     28.2819   2000.0000   2000.0000     93.7777
   638.0000     27.3233   2000.0000   2000.0000     93.4486
   638.2500     26.3957   2000.0000   2000.0000     93.3510
   638.5000     25.5525   2000.0000   2000.0000     94.8440
   638.7500     24.8275   2000.0000   2000.0000     97.0075
   639.0000     24.2346   2000.0000   2000.0000    101.0208
   639.2500     23.7688   2000.0000   2000.0000    103.5018
   639.5000     23.4064   2000.0000   2000.0000    106.3788
   639.7500     23.1074   2000.0000   2000.0000    107.8405
   640.0000     22.8236   2000.0000   2000.0000    109.6331
   640.2500     22.5113   2000.0000   2000.0000    110.5270
   640.5000     22.1427   2000.0000   2000.0000    111.2531
   640.7500     21.7140   2000.0000   2000.0000    111.4120
   641.0000     21.2433   2000.0000   2000.0000    111.6709
   641.2500     20.7621   2000.0000   2000.0000    112.2376
   641.5000     20.3029   2000.0000   2000.0000    114.0881
   641.7500     19.8888   2000.0000   2000.0000    115.8063
   642.0000     19.5283   2000.0000   2000.0000    118.0077
   642.2500     19.2159   2000.0000   2000.0000    118.5918
   642.5000     18.9381   2000.0000   2000.0000    118.1779
   642.7500     18.6810   2000.0000   2000.0000    117.7869
   643.0000     18.4358   2000.0000   2000.0000    118.4745
   643.2500     18.2025   2000.0000   2000.0000    120.0306
   643.5000     17.9868   2000.0000   2000.0000    123.0711
   643.7500     17.7943   2000.0000   2000.0000    124.6549
   644.0000     17.6247   2000.0000   2000.0000    125.2914
   644.2500     17.4714   2000.0000   2000.0000    124.5287
   644.5000     17.3276   2000.0000   2000.0000    122.3694
   644.7500     17.1922   2000.0000   2000.0000    120.8848
   645.0000     17.0704   2000.0000   2000.0000    119.5110
   645.2500     16.9706   2000.0000   2000.0000    119.3879
   645.5000     16.8999   2000.0000   2000.0000    120.0062
   645.7500     16.8631   2000.0000   2000.0000    120.4675
   646.0000     16.8636   2000.0000   2000.0000    120.7169
   646.2500     16.9041   2000.0000   2000.0000    120.6098
   646.5000     16.9868   2000.0000   2000.0000    120.0266
   646.7500     17.1152   2000.0000   2000.0000    119.0888
   647.0000     17.2976   2000.0000   2000.0000    116.4350
   647.2500     17.5471   2000.0000   2000.0000    113.9743
   647.5000     17.8762   2000.0000   2000.0000    110.0930
   647.7500     18.2873   2000.0000   2000.0000    107.8802
   648.0000     18.7657   2000.0000   2000.0000    105.4239
   648.2500     19.2813   2000.0000   2000.0000    104.1642
   648.5000     19.7964   2000.0000   2000.0000    102.3351
   648.7500     20.2747   2000.0000   2000.0000    101.0692
   649.0000     20.6853   2000.0000   2000.0000     99.2864
   649.2500     21.0054   2000.0000   2000.0000     98.2217
   649.5000     21.2252   2000.0000   2000.0000     96.6046
   649.7500     21.3543   2000.0000   2000.0000     95.4150
   650.0000     21.4213   2000.0000   2000.0000     93.8641
   650.2500     21.4618   2000.0000   2000.0000     93.6198
   650.5000     21.4994   2000.0000   2000.0000     95.4692
   650.7500     21.5319   2000.0000   2000.0000     98.0922
   651.0000     21.5332   2000.0000   2000.0000    102.5325
   651.2500     21.4709   2000.0000   2000.0000    104.7720
   651.5000     21.3254   2000.0000   2000.0000    106.5147
   651.7500     21.0984   2000.0000   2000.0000    107.1417
   652.0000     20.8049   2000.0000   2000.0000    108.6096
   652.2500     20.4613   2000.0000   2000.0000    110.3865
   652.5000     20.0803   2000.0000   2000.0000    114.2052
   652.7500     19.6740   2000.0000   2000.0000    117.1709
   653.0000     19.2553   2000.0000   2000.0000    121.4815
   653.2500     18.8330   2000.0000   2000.0000    123.8882
   653.5000     18.4060   2000.0000   2000.0000    126.3486
   653.7500     17.9683   2000.0000   2000.0000    127.0674
   654.0000     17.5212   2000.0000   2000.0000    127.0006
   654.2500     17.0832   2000.0000   2000.0000    126.7888
   654.5000     16.6846   2000.0000   2000.0000    127.4840
   654.7500     16.3502   2000.0000   2000.0000    128.9217
   655.0000     16.0863   2000.0000   2000.0000    131.8320
   655.2500     15.8810   2000.0000   2000.0000    133.4917
   655.5000     15.7171   2000.0000   2000.0000    134.6752
   655.7500     15.5854   2000.0000   2000.0000    134.6373
   656.0000     15.4890   2000.0000   2000.0000    133.9156
   656.2500     15.4368   2000.0000   2000.0000    133.2606
   656.5000     15.4347   2000.0000   2000.0000    132.3727
   656.7500     15.4783   2000.0000   2000.0000    132.1094
   657.0000     15.5541   2000.0000   2000.0000    132.4019
   657.2500     15.6430   2000.0000   2000.0000    132.7565
   657.5000     15.7248   2000.0000   2000.0000    132.5120
   657.7500     15.7798   2000.0000   2000.0000    131.3712
   658.0000     15.7905   2000.0000   2000.0000    128.2395
   658.2500     15.7456   2000.0000   2000.0000    125.7172
   658.5000     15.6461   2000.0000   2000.0000    122.4441
   658.7500     15.5066   2000.0000   2000.0000    121.1751
   659.0000     15.3491   2000.0000   2000.0000    121.3043
   659.2500     15.1927   2000.0000   2000.0000    122.8074
   659.5000     15.0486   2000.0000   2000.0000    126.2643
   659.7500     14.9222   2000.0000   2000.0000    128.3756
   660.0000     14.8176   2000.0000   2000.0000    130.1004
   660.2500     14.7407   2000.0000   2000.0000    130.3694
   660.5000     14.6975   2000.0000   2000.0000    130.1206
   660.7500     14.6904   2000.0000   2000.0000    129.7041
