~Version Information
VERS.                      2.0: CWLS Log ASCII Standard - VERSION 2.0
WRAP.                       NO: One line per depth step
~Well Information Block
STRT.FT               -14.7500: 
STOP.FT              1106.0000: 
STEP.FT                 0.2500: 
NULL.                -999.2500: 
COMP.          Pioneer Natural Resources: COMPANY
WELL.          Black Cat 13-32 Tr: WELL
FLD.           Purgatorie River: FIELD
LOC.           1679' FSL & 1150' FWL--: LOCATION
CNTY.               Las Animas: COUNTY
SRVC.          Patterson Wireline: SERVICE COMPANY
DATE.          Wed Mar 15 15:59:24 2006: LOG DATE
UWI.           05 071 08721 00: UNIQUE WELL ID
STAT.                       CO: STATE
~Curve Information Block
DEPT.FT            0 000 00 00: Depth
CCL.                          : Casing Collar Locator
TT3.usec                      : CBL 3' Travel Time
AMP3.mV                       : CBL 3' Amplitude
GR.GAPI                       : Gamma Ray
~Parameter Information Block
~A  Depth       CCL         TT3         AMP3         GR     
# ...
   487.7500      0.0000    749.8549      5.1064     66.6445
   488.0000      0.0000    750.1248      5.2591     69.7755
   488.2500      0.0000    744.2237      5.4457     74.6411
   488.5000      0.0000    732.9634      5.6546     80.2314
   488.7500      0.0000    719.2037      5.8620     84.7523
   489.0000      0.0000    706.7039      6.0323     87.3439
   489.2500      0.0000    698.0437      6.1309     89.2465
   489.5000      0.0000    693.5429      6.1446     92.8688
   489.7500      0.0000    691.9333      6.0898     99.6370
   490.0000      0.0000    691.6873      6.0004    108.8263
   490.2500      0.0000    691.7837      5.9088    118.4873
   490.5000      0.0000    691.7839      5.8320    127.3840
   490.7500      0.0000    691.6099      5.7674    135.7842
   491.0000      0.0000    691.3226      5.6994    144.3020
   491.2500      0.0000    691.0102      5.6178    152.5432
   491.5000      0.0000    690.7740      5.5357    159.3733
   491.7500      0.0000    690.7045      5.4866    163.8752
   492.0000      0.0000    690.8156      5.5015    165.3241
   492.2500      0.0000    691.0228      5.5853    162.7428
   492.5000      0.0000    691.2191      5.7118    155.4113
   492.7500      0.0000    691.3574      5.8387    144.0424
   493.0000      0.0000    691.4524      5.9300    131.0004
   493.2500      0.0000    691.5339      5.9704    119.1292
   493.5000      0.0000    691.6143      5.9664    110.4386
   493.7500      0.0000    691.6769      5.9356    105.7465
   494.0000      0.0000    691.7490      5.8943    105.0479
   494.2500      0.0000    692.1309      5.8515    107.7976
   494.5000      0.0000    693.7165      5.8101    112.8745
   494.7500      0.0000    698.0220      5.7725    118.6934
   495.0000      0.0000    706.3852      5.7416    123.7536
   495.2500      0.0000    718.4678      5.7159    127.1732
   495.5000      0.0000    731.4012      5.6873    128.7223
   495.7500      0.0000    741.0432      5.6465    128.5581
   496.0000      0.0000    744.7713      5.5928    127.1151
   496.2500      0.0000    743.3430      5.5380    125.1940
   496.5000      0.0000    740.0594      5.4994    123.8538
   496.7500      0.0000    738.3030      5.4858    123.8919
   497.0000      0.0000    740.0055      5.4881    125.3409
   497.2500      0.0000    745.7429      5.4838    127.6477
   497.5000      0.0000    754.5639      5.4526    130.3525
   497.7500      0.0000    763.0741      5.3894    133.3686
   498.0000      0.0000    766.3441      5.3062    136.4510
   498.2500      0.0000    761.5820      5.2231    138.7223
   498.5000      0.0000    750.9939      5.1557    139.3053
   498.7500      0.0000    740.4651      5.1111    138.5540
   499.0000      0.0000    735.4483      5.0914    138.2225
   499.2500      0.0000    737.9483      5.0982    140.0597
   499.5000      0.0000    746.4549      5.1316    144.3394
   499.7500      0.0000    758.0010      5.1874    149.8003
   500.0000      0.0000    770.2686      5.2561    154.6144
   500.2500      0.0000    781.8959      5.3228    157.1161
   500.5000      0.0000    791.0353      5.3710    155.9385
   500.7500      0.0000    794.3494      5.3897    150.2724
   501.0000      0.0000    788.1334      5.3796    140.5351
   501.2500      0.0000    771.2767      5.3527    128.4953
   501.5000      0.0000    747.5439      5.3253    116.2204
   501.7500      0.0000    724.0925      5.3141    105.0120
   502.0000      0.0000    706.8158      5.3330     95.5439
   502.2500      0.0000    697.1760      5.3879     88.3760
   502.5000      0.0000    693.1306      5.4699     83.6848
   502.7500      0.0000    691.9115      5.5582     80.8882
   503.0000      0.0000    691.6635      5.6326     79.3297
   503.2500      0.0000    691.5635      5.6844     79.2989
   503.5000      0.0000    691.4091      5.7157     81.7243
   503.7500      0.0000    691.2682      5.7329     86.7450
   504.0000      0.0000    691.2547      5.7415     93.0968
   504.2500      0.0000    691.4178      5.7436     98.9880
   504.5000      0.0000    691.7820      5.7375    103.2244
   504.7500      0.0000    692.6110      5.7189    105.6076
   505.0000      0.0000    694.7626      5.6852    106.7071
   505.2500      0.0000    699.6328      5.6381    107.3051
   505.5000      0.0000    707.9927      5.5835    107.8445
   505.7500      0.0000    718.1919      5.5267    108.2657
   506.0000      0.0000    726.0587      5.4715    108.1439
   506.2500      0.0000    728.1538      5.4245    106.9742
   506.5000      0.0000    725.5206      5.3966    104.6483
   506.7500      0.0000    723.1570      5.3956    101.6294
   507.0000      0.0000    725.5074      5.4168     98.4880
   507.2500      0.0000    733.2378      5.4452     95.5307
   507.5000      0.0000    743.8472      5.4666     92.9786
   507.7500      0.0000    753.5020      5.4756     90.9833
   508.0000      0.0000    758.0497      5.4757     89.2692
   508.2500      0.0000    754.3725      5.4774     87.2420
   508.5000      0.0000    742.5267      5.4929     84.6297
   508.7500      0.0000    726.5580      5.5254     81.5408
   509.0000      0.0000    712.4600      5.5630     77.7717
   509.2500      0.0000    704.9615      5.5869     72.6859
   509.5000      0.0000    705.6604      5.5871     66.3258
   509.7500      0.0000    712.6552      5.5700     60.2322
   510.0000      0.0000    720.8727      5.5526     56.4209
   510.2500      0.0000    724.2482      5.5516     55.7165
   510.5000      0.0000    719.8876      5.5747     57.5552
   510.7500      0.0000    710.2618      5.6185     60.9256
   511.0000      0.0000    700.4675      5.6713     64.8350
   511.2500      0.0000    693.8432      5.7191     68.2913
   511.5000      0.0000    690.6124      5.7514     70.6395
   511.7500      0.0000    689.4315      5.7623     71.8731
   512.0000      0.0000    689.0443      5.7477     72.3629
   512.2500      0.0000    688.8074      5.7053     72.4692
   512.5000      0.0000    688.5516      5.6401     72.5264
   512.7500      0.0000    688.3386      5.5700     72.9074
   513.0000      0.0000    688.2556      5.5209     73.8549
   513.2500      0.0000    688.3307      5.5136     75.1939
   513.5000      0.0000    688.5222      5.5511     76.3490
   513.7500      0.0000    688.7493      5.6166     76.8172
   514.0000      0.0000    688.8797      5.6840     76.6949
   514.2500      0.0000    688.6829      5.7327     76.7151
   514.5000      0.0000    687.8119      5.7560     77.5835
   514.7500      0.0000    685.9545      5.7556     79.1080
   515.0000      0.0000    683.2472      5.7298     80.1533
   515.2500      0.0000    680.6348      5.6726     79.8228
   515.5000      0.0000    679.4822      5.5838     78.7243
   515.7500      0.0000    680.4348      5.4758     78.5919
   516.0000      0.0000    682.7498      5.3646     80.3217
   516.2500      0.0000    684.9771      5.2555     82.6273
   516.5000      0.0000    686.1100      5.1407     83.0437
   516.7500      0.0000    685.8923      5.0067     80.1405
   517.0000      0.0000    684.2808      4.8429     74.5002
   517.2500      0.0000    680.9744      4.6474     67.8225
   517.5000      0.0000    675.7286      4.4325     61.6134
   517.7500      0.0000    669.2307      4.2287     56.6826
   518.0000      0.0000    663.4255      4.0717     53.3377
   518.2500      0.0000    660.5371      3.9682     51.5220
   518.5000      0.0000    661.6522      3.8783     50.6619
   518.7500      0.0000    666.3507      3.7550     49.8467
   519.0000      0.0000    673.4484      3.5994     48.5927
   519.2500      0.0000    681.9338      3.4557     47.2315
   519.5000      0.0000    691.5297      3.3618     46.2210
   519.7500      2.0000    702.1923      3.3279     45.4278
   520.0000      0.0000    712.6021      3.3547     44.5985
   520.2500      0.0000    719.0100      3.4544     44.2372
   520.5000      0.0000    716.7447      3.6445     45.3546
   520.7500      0.0000    704.9000      3.9105     48.3009
   521.0000      0.0000    690.3676      4.1739     52.5135
