~Version Information
VERS.                      2.0: CWLS Log ASCII Standard - VERSION 2.0
WRAP.                       NO: One line per depth step
~Well Information Block
STRT.FT                -7.2500: 
STOP.FT              1196.2500: 
STEP.FT                 0.2500: 
NULL.                -999.2500: 
COMP.          Pioneer Natural Resources: COMPANY
WELL.             Mahalo 12-20: WELL
FLD.           Purgatorie River: FIELD
LOC.           1689' FNL & 479' FWL--: LOCATION
CNTY.               Las Animas: COUNTY
SRVC.          Patterson Wireline: SERVICE COMPANY
DATE.          Tue Mar 14 15:40:32 2006: LOG DATE
UWI.           05 071 08700 00: UNIQUE WELL ID
STAT.                       CO: STATE
~Curve Information Block
DEPT.FT            0 000 00 00: Depth
CCL.                          : Casing Collar Locator
TT3.usec                      : CBL 3' Travel Time
AMP3.mV                       : CBL 3' Amplitude
GR.GAPI                       : Gamma Ray
~Parameter Information Block
~A  Depth       CCL         TT3         AMP3         GR     
# ...
  1165.2500      0.0000    667.1306      2.3172    100.0911
  1165.5000      0.0000    657.9408      2.3507    100.0782
  1165.7500      0.0000    649.5007      2.4159    100.1390
  1166.0000      0.0000    642.2208      2.4747    100.7166
  1166.2500      0.0000    634.4074      2.5108    102.0729
  1166.5000      0.0000    621.8835      2.5268    103.8344
  1166.7500      0.0000    599.5837      2.5312    104.7704
  1167.0000      0.0000    566.0722      2.5313    103.6557
  1167.2500      0.0000    527.5330      2.5339    100.7108
  1167.5000      0.0000    496.3305      2.5466     97.6163
  1167.7500      0.0000    484.4845      2.5722     95.6099
  1168.0000      0.0000    497.3537      2.6069     94.1270
  1168.2500      0.0000    531.0320      2.6451     91.9539
  1168.5000      0.0000    573.9311      2.6864     89.2200
  1168.7500      0.0000    612.3047      2.7329     87.3629
  1169.0000      0.0000    637.0206      2.7805     87.2340
  1169.2500      0.0000    646.6329      2.8140     88.0345
  1169.5000      0.0000    645.1345      2.8129     88.2910
  1169.7500      0.0000    637.3467      2.7643     87.3390
  1170.0000      0.0000    626.0971      2.6758     85.6719
  1170.2500      0.0000    613.1442      2.5737     84.3100
  1170.5000      0.0000    601.9940      2.4877     84.0211
  1170.7500      0.0000    597.9421      2.4361     84.8350
  1171.0000      0.0000    603.9370      2.4209     86.3309
  1171.2500      0.0000    617.2331      2.4303     88.5116
  1171.5000      0.0000    631.5125      2.4464     91.8533
  1171.7500      0.0000    641.7755      2.4516     96.1585
  1172.0000      0.0000    646.6564      2.4372     99.9370
  1172.2500      0.0000    647.3134      2.4077    101.4520
  1172.5000      0.0000    645.5294      2.3781    100.3068
  1172.7500      0.0000    642.1678      2.3650     97.8301
  1173.0000      0.0000    636.2327      2.3755     95.9420
  1173.2500      0.0000    626.0391      2.4020     95.7449
  1173.5000      0.0000    612.0093      2.4263     97.1878
  1173.7500      0.0000    597.2282      2.4306     99.6228
  1174.0000      0.0000    584.5605      2.4084    102.0522
  1174.2500      0.0000    574.8759      2.3669    102.9444
  1174.5000      0.0000    569.0557      2.3166    100.9751
  1174.7500      0.0000    569.6352      2.2613     96.7015
  1175.0000      0.0000    578.5983      2.1989     92.8079
  1175.2500      0.0000    594.2033      2.1282     91.7844
  1175.5000      0.0000    611.2461      2.0540     93.6075
  1175.7500      0.0000    624.7080      1.9839     96.0895
  1176.0000      0.0000    632.8945      1.9245     96.9956
  1176.2500      0.0000    637.3690      1.8775     95.5391
  1176.5000      0.0000    640.8830      1.8388     92.5658
  1176.7500      0.0000    645.4417      1.8036     89.8101
  1177.0000      0.0000    651.3727      1.7735     88.6079
  1177.2500      0.0000    657.5709      1.7577     89.0904
  1177.5000      0.0000    662.7515      1.7656     90.7094
  1177.7500      0.0000    666.5110      1.7992     93.2257
  1178.0000      0.0000    669.0194      1.8522     96.7919
  1178.2500      0.0000    670.3666      1.9155    101.2730
  1178.5000      0.0000    670.8493      1.9809    105.8459
  1178.7500      0.0000    671.3810      2.0418    109.1933
  1179.0000      0.0000    672.8029      2.0935    110.1298
  1179.2500      0.0000    674.9826      2.1327    108.3006
  1179.5000      0.0000    677.0685      2.1578    104.3438
  1179.7500      0.0000    678.4288      2.1692     99.4596
  1180.0000      0.0000    679.0582      2.1692     95.1511
  1180.2500      0.0000    679.3290      2.1609     93.0291
  1180.5000      0.0000    679.6492      2.1475     93.8632
  1180.7500      0.0000    680.3096      2.1308     96.6043
  1181.0000      0.0000    681.5292      2.1107     98.9696
  1181.2500      0.0000    683.6622      2.0847     99.0911
  1181.5000      0.0000    687.2117      2.0501     96.1814
  1181.7500      0.0000    692.1740      2.0059     89.8058
  1182.0000      0.0000    697.2043      1.9547     79.3042
  1182.2500      0.0000    700.1052      1.9021     64.4767
  1182.5000      0.0000    699.7913      1.8560     46.7871
  1182.7500      0.0000    697.3239      1.8248     29.4189
  1183.0000      0.0000    694.4713      1.8149     15.6333
  1183.2500      0.0000    691.8749      1.8269      6.8829
  1183.5000      0.0000    689.2161      1.8556      2.4727
  1183.7500      0.0000    686.4649      1.8938      0.7161
  1184.0000      0.0000    684.1506      1.9358      0.1654
  1184.2500      0.0000    682.6934      1.9792      0.0298
  1184.5000      0.0000    682.0250      2.0258      0.0037
  1184.7500      0.0000    681.8263      2.0793   -999.2500
  1185.0000      0.0000    681.8745      2.1402   -999.2500
  1185.2500      0.0000    682.2026      2.2018   -999.2500
  1185.5000      0.0000    683.0143      2.2545   -999.2500
  1185.7500      0.0000    684.5175      2.2931   -999.2500
  1186.0000      0.0000    686.8373      2.3187   -999.2500
  1186.2500      0.0000    690.0375      2.3356   -999.2500
  1186.5000      0.0000    693.9886      2.3474   -999.2500
  1186.7500      0.0000    697.6464      2.3494   -999.2500
  1187.0000      0.0000    697.3566      2.3199   -999.2500
  1187.2500      0.0000    684.1241      2.2195   -999.2500
  1187.5000      0.0000    642.7510      2.0085   -999.2500
  1187.7500      0.0000    558.7095      1.6727   -999.2500
  1188.0000      0.0000    432.6080      1.2452   -999.2500
  1188.2500      0.0000    288.3070      0.8048   -999.2500
  1188.5000      0.0000    160.9229      0.4399   -999.2500
  1188.7500      0.0000     73.7301      0.1990   -999.2500
  1189.0000      0.0000     27.3330      0.0733   -999.2500
  1189.2500      0.0000      8.1140      0.0217   -999.2500
  1189.5000      0.0000      1.9117      0.0051   -999.2500
  1189.7500      0.0000      0.3524      0.0009   -999.2500
  1190.0000      0.0000   -999.2500   -999.2500   -999.2500
  1190.2500      0.0000   -999.2500   -999.2500   -999.2500
  1190.5000      0.0000   -999.2500   -999.2500   -999.2500
  1190.7500      0.0000   -999.2500   -999.2500   -999.2500
  1191.0000      0.0000   -999.2500   -999.2500   -999.2500
  1191.2500      0.0000   -999.2500   -999.2500   -999.2500
  1191.5000      0.0000   -999.2500   -999.2500   -999.2500
  1191.7500      0.0000   -999.2500   -999.2500   -999.2500
  1192.0000      0.0000   -999.2500   -999.2500   -999.2500
  1192.2500      0.0000   -999.2500   -999.2500   -999.2500
  1192.5000      0.0000   -999.2500   -999.2500   -999.2500
  1192.7500      0.0000   -999.2500   -999.2500   -999.2500
  1193.0000      0.0000   -999.2500   -999.2500   -999.2500
  1193.2500      0.0000   -999.2500   -999.2500   -999.2500
  1193.5000      0.0000   -999.2500   -999.2500   -999.2500
  1193.7500      0.0000   -999.2500   -999.2500   -999.2500
  1194.0000      0.0000   -999.2500   -999.2500   -999.2500
  1194.2500      0.0000   -999.2500   -999.2500   -999.2500
  1194.5000      0.0000   -999.2500   -999.2500   -999.2500
  1194.7500      0.0000   -999.2500   -999.2500   -999.2500
  1195.0000      0.0000   -999.2500   -999.2500   -999.2500
  1195.2500      0.0000   -999.2500   -999.2500   -999.2500
  1195.5000      0.0000   -999.2500   -999.2500   -999.2500
  1195.7500   -999.2500   -999.2500   -999.2500   -999.2500
  1196.0000   -999.2500   -999.2500   -999.2500   -999.2500
  1196.2500   -999.2500   -999.2500   -999.2500   -999.2500
