~Version Information
VERS.                      2.0: CWLS Log ASCII Standard - VERSION 2.0
WRAP.                       NO: One line per depth step
~Well Information Block
STRT.FT               555.0000: 
STOP.FT              1159.0000: 
STEP.FT                 0.2500: 
NULL.                -999.2500: 
COMP.          Pioneer Natural Resources: COMPANY
WELL.              Draco 31-21: WELL
FLD.           Purgatoire River: FIELD
LOC.           491' FNL & 2446' FEL: LOCATION
CNTY.               Las Animas: COUNTY
SRVC.                Patterson: SERVICE COMPANY
DATE.          Tue Jan 31 17:48:38 2006: LOG DATE
UWI.           05 071 08672 00: UNIQUE WELL ID
STAT.                 Colorado: STATE
~Curve Information Block
DEPT.FT            0 000 00 00: Depth
SN.Ohm-m                      : IEL Short Normal
SP.mV                         : IEL Spontaneous Potential
DIR.Ohm-m                     : IEL Induction Resistivity
GR.GAPI                       : Gamma Ray
~Parameter Information Block
~A  Depth        SN          SP         DIR          GR     
# ...
   588.5000   2000.0000   2000.0000     13.5459    152.6516
   588.7500   2000.0000   2000.0000     13.2619    152.9292
   589.0000   2000.0000   2000.0000     13.0231    153.0836
   589.2500   2000.0000   2000.0000     12.8182    153.5403
   589.5000   2000.0000   2000.0000     12.6297    155.1369
   589.7500   2000.0000   2000.0000     12.4443    156.5294
   590.0000   2000.0000   2000.0000     12.2607    158.1620
   590.2500   2000.0000   2000.0000     12.0879    158.4787
   590.5000   2000.0000   2000.0000     11.9366    157.6469
   590.7500   2000.0000   2000.0000     11.8079    156.5504
   591.0000   2000.0000   2000.0000     11.6905    154.9973
   591.2500   2000.0000   2000.0000     11.5687    154.4181
   591.5000   2000.0000   2000.0000     11.4355    154.4158
   591.7500   2000.0000   2000.0000     11.2992    155.0244
   592.0000   2000.0000   2000.0000     11.1787    157.3033
   592.2500   2000.0000   2000.0000     11.0923    160.0655
   592.5000   2000.0000   2000.0000     11.0484    165.6888
   592.7500   2000.0000   2000.0000     11.0438    169.3987
   593.0000   2000.0000   2000.0000     11.0675    172.8386
   593.2500   2000.0000   2000.0000     11.1032    173.2650
   593.5000   2000.0000   2000.0000     11.1329    172.2841
   593.7500   2000.0000   2000.0000     11.1411    171.7545
   594.0000   2000.0000   2000.0000     11.1216    172.2345
   594.2500   2000.0000   2000.0000     11.0815    173.0620
   594.5000   2000.0000   2000.0000     11.0383    173.6774
   594.7500   2000.0000   2000.0000     11.0099    173.0713
   595.0000   2000.0000   2000.0000     11.0089    170.4284
   595.2500   2000.0000   2000.0000     11.0445    167.7359
   595.5000   2000.0000   2000.0000     11.1277    162.9115
   595.7500   2000.0000   2000.0000     11.2727    159.5791
   596.0000   2000.0000   2000.0000     11.4920    155.2258
   596.2500   2000.0000   2000.0000     11.7880    153.1671
   596.5000   2000.0000   2000.0000     12.1468    151.2854
   596.7500   2000.0000   2000.0000     12.5379    150.2078
   597.0000   2000.0000   2000.0000     12.9224    147.4827
   597.2500   2000.0000   2000.0000     13.2666    144.5366
   597.5000   2000.0000   2000.0000     13.5535    138.6438
   597.7500   2000.0000   2000.0000     13.7834    133.9946
   598.0000   2000.0000   2000.0000     13.9644    126.3400
   598.2500   2000.0000   2000.0000     14.1051    121.3599
   598.5000   2000.0000   2000.0000     14.2141    115.8862
   598.7500   2000.0000   2000.0000     14.3068    114.4258
   599.0000   2000.0000   2000.0000     14.4095    115.2131
   599.2500   2000.0000   2000.0000     14.5554    116.6915
   599.5000   2000.0000   2000.0000     14.7741    118.9184
   599.7500   2000.0000   2000.0000     15.0794    120.4315
   600.0000   2000.0000   2000.0000     15.4644    123.5261
   600.2500   2000.0000   2000.0000     15.9042    126.1390
   600.5000   2000.0000   2000.0000     16.3628    129.4809
   600.7500   2000.0000   2000.0000     16.7994    130.1355
   601.0000   2000.0000   2000.0000     17.1729    127.2563
   601.2500   2000.0000   2000.0000     17.4473    122.5849
   601.5000   2000.0000   2000.0000     17.5983    112.6180
   601.7500   2000.0000   2000.0000     17.6159    105.3186
   602.0000   2000.0000   2000.0000     17.5000     95.4866
   602.2500   2000.0000   2000.0000     17.2580     90.2101
   602.5000   2000.0000   2000.0000     16.9092     84.1974
   602.7500   2000.0000   2000.0000     16.4930     81.5036
   603.0000   2000.0000   2000.0000     16.0682     80.2321
   603.2500   2000.0000   2000.0000     15.6984     81.9324
   603.5000   2000.0000   2000.0000     15.4316     89.2383
   603.7500   2000.0000   2000.0000     15.2865     97.3260
   604.0000   2000.0000   2000.0000     15.2523    113.0699
   604.2500   2000.0000   2000.0000     15.2977    124.4368
   604.5000   2000.0000   2000.0000     15.3814    139.1504
   604.7500   2000.0000   2000.0000     15.4611    145.2594
   605.0000   2000.0000   2000.0000     15.4981    146.6083
   605.2500   2000.0000   2000.0000     15.4616    142.4243
   605.5000   2000.0000   2000.0000     15.3331    131.2099
   605.7500   2000.0000   2000.0000     15.1091    122.6894
   606.0000   2000.0000   2000.0000     14.7993    111.5988
   606.2500   2000.0000   2000.0000     14.4246    106.3432
   606.5000   2000.0000   2000.0000     14.0144    101.7306
   606.7500   2000.0000   2000.0000     13.6031    100.1985
   607.0000   2000.0000   2000.0000     13.2218     99.2373
   607.2500   2000.0000   2000.0000     12.8879     99.6314
   607.5000   2000.0000   2000.0000     12.6010    102.9600
   607.7500   2000.0000   2000.0000     12.3489    107.4974
   608.0000   2000.0000   2000.0000     12.1182    117.4846
   608.2500   2000.0000   2000.0000     11.9025    125.5550
   608.5000   2000.0000   2000.0000     11.7015    138.1128
   608.7500   2000.0000   2000.0000     11.5166    145.7444
   609.0000   2000.0000   2000.0000     11.3468    154.5741
   609.2500   2000.0000   2000.0000     11.1908    158.1754
   609.5000   2000.0000   2000.0000     11.0504    159.9512
   609.7500   2000.0000   2000.0000     10.9323    159.0159
   610.0000   2000.0000   2000.0000     10.8446    155.2409
   610.2500   2000.0000   2000.0000     10.7927    151.4466
   610.5000   2000.0000   2000.0000     10.7747    144.0485
   610.7500   2000.0000   2000.0000     10.7839    138.2720
   611.0000   2000.0000   2000.0000     10.8155    129.5165
   611.2500   2000.0000   2000.0000     10.8730    124.5170
   611.5000   2000.0000   2000.0000     10.9673    119.6652
   611.7500   2000.0000   2000.0000     11.1081    118.6957
   612.0000   2000.0000   2000.0000     11.2939    120.6082
   612.2500   2000.0000   2000.0000     11.5065    123.5991
   612.5000   2000.0000   2000.0000     11.7123    129.3192
   612.7500   2000.0000   2000.0000     11.8700    133.0974
   613.0000   2000.0000   2000.0000     11.9425    137.1001
   613.2500   2000.0000   2000.0000     11.9089    137.7666
   613.5000   2000.0000   2000.0000     11.7690    135.3628
   613.7500   2000.0000   2000.0000     11.5401    132.4058
   614.0000   2000.0000   2000.0000     11.2480    128.9930
   614.2500   2000.0000   2000.0000     10.9192    129.0430
   614.5000   2000.0000   2000.0000     10.5758    133.4459
   614.7500   2000.0000   2000.0000     10.2330    138.3799
   615.0000   2000.0000   2000.0000      9.9001    145.9289
   615.2500   2000.0000   2000.0000      9.5828    149.5671
   615.5000   2000.0000   2000.0000      9.2857    152.0497
   615.7500   2000.0000   2000.0000      9.0129    152.2893
   616.0000   2000.0000   2000.0000      8.7677    152.2990
   616.2500   2000.0000   2000.0000      8.5525    152.8398
   616.5000   2000.0000   2000.0000      8.3691    154.7550
   616.7500   2000.0000   2000.0000      8.2198    156.5459
   617.0000   2000.0000   2000.0000      8.1074    159.6078
   617.2500   2000.0000   2000.0000      8.0345    161.8554
   617.5000   2000.0000   2000.0000      8.0014    165.5415
   617.7500   2000.0000   2000.0000      8.0050    168.0499
   618.0000   2000.0000   2000.0000      8.0396    171.5248
   618.2500   2000.0000   2000.0000      8.0997    173.6637
   618.5000   2000.0000   2000.0000      8.1828    176.8345
   618.7500   2000.0000   2000.0000      8.2901    178.7249
   619.0000   2000.0000   2000.0000      8.4238    180.1097
   619.2500   2000.0000   2000.0000      8.5836    179.4456
   619.5000   2000.0000   2000.0000      8.7648    176.0913
   619.7500   2000.0000   2000.0000      8.9614    173.0069
   620.0000   2000.0000   2000.0000      9.1715    168.7544
   620.2500   2000.0000   2000.0000      9.4013    166.6950
   620.5000   2000.0000   2000.0000      9.6654    164.2688
   620.7500   2000.0000   2000.0000      9.9820    162.4286
   621.0000   2000.0000   2000.0000     10.3687    159.1765
   621.2500   2000.0000   2000.0000     10.8375    157.3124
   621.5000   2000.0000   2000.0000     11.3925    155.6452
   621.7500   2000.0000   2000.0000     12.0296    154.6737
