~Version Information
VERS.                      2.0: CWLS Log ASCII Standard - VERSION 2.0
WRAP.                       NO: One line per depth step
~Well Information Block
STRT.FT               335.0000: 
STOP.FT              1154.7000: 
STEP.FT                 0.1000: 
NULL.                -999.2500: 
COMP.          Pioneer Natural Resources: COMPANY
WELL.             Croc 42-9 Tr: WELL
FLD.           Purgatoire River: FIELD
LOC.           2429' FNL & 315' FEL--: LOCATION
STAT.                 Colorado: State
CNTY.               Las Animas: COUNTY
CTRY. USA : Country
SECT. 9 : Section
TOWN. 32S : Township
RANG. 66W : Range
SRVC.                Patterson: SERVICE COMPANY
DATE.          Fri Oct 14 07:56:23 2005: LOG DATE
API.           05 071 08550 00: UNIQUE WELL ID
~Curve Information Block
DEPT.FT            0 000 00 00: Depth
DCAL.in                       : CDL Caliper
RHOB.g/cc                     : CDL Bulk Density
RHOC.g/cc                     : CDL Density Correction
DPOR.pu                       : CDL Density Porosity
NPOR.pu                       : Neutron Porosity
GR.GAPI                       : Gamma Ray
~Parameter Information Block
~A  Depth       DCAL        RHOB        RHOC        DPOR        NPOR         GR     
# ...
   651.8000      8.0552      2.4899      0.0445      9.7047     16.1182    160.7843
   651.9000      8.0552      2.5202      0.0640      7.8684     17.9293    161.6257
   652.0000      8.0530      2.5458      0.0708      6.3165     18.6763    155.4184
   652.1000      8.0530      2.5603      0.1064      5.4371     17.8209    144.5912
   652.2000      8.0530      2.5595      0.1067      5.4827     17.4029    137.7592
   652.3000      8.0542      2.5471      0.0617      6.2346     17.6406    139.9852
   652.4000      8.0542      2.5369      0.0439      6.8538     18.1000    144.2211
   652.5000      8.0589      2.5337      0.0524      7.0456     18.2313    138.9889
   652.6000      8.0589      2.5283      0.0311      7.3770     17.8078    129.2194
   652.7000      8.0589      2.5207     -0.0162      7.8352     18.4500    126.3748
   652.8000      8.0624      2.5252     -0.0003      7.5655     19.9960    127.1652
   652.9000      8.0624      2.5510      0.0286      6.0006     20.8220    128.3409
   653.0000      8.0635      2.5894      0.0894      3.6718     20.5338    132.0621
   653.1000      8.0635      2.6187      0.0814      1.8956     19.5992    135.0900
   653.2000      8.0635      2.6269      0.0856      1.4018     18.7230    134.9650
   653.3000      8.0634      2.6141      0.0766      2.1728     17.9422    133.0817
   653.4000      8.0634      2.5863      0.0483      3.8599     17.4199    129.9637
   653.5000      8.0629      2.5564      0.0197      5.6753     17.5062    126.4520
   653.6000      8.0629      2.5396     -0.0067      6.6902     16.7616    126.4016
   653.7000      8.0629      2.5410      0.0258      6.6050     15.3383    133.1093
   653.8000      8.0618      2.5518      0.0202      5.9539     16.5822    140.7322
   653.9000      8.0618      2.5634      0.0192      5.2498     18.9895    140.0906
   654.0000      8.0606      2.5719      0.0349      4.7364     19.9991    134.9679
   654.1000      8.0606      2.5763      0.0212      4.4696     20.3236    134.8057
   654.2000      8.0606      2.5769      0.0376      4.4291     20.5220    137.3440
   654.3000      8.0611      2.5789      0.0022      4.3110     20.5401    138.2475
   654.4000      8.0611      2.5922      0.0580      3.5030     20.0509    141.4454
   654.5000      8.0640      2.6098      0.0591      2.4360     18.6831    147.2338
   654.6000      8.0640      2.6090      0.0649      2.4832     17.2771    150.5201
   654.7000      8.0640      2.5862      0.0068      3.8688     17.5170    148.4982
   654.8000      8.0691      2.5605      0.0230      5.4226     18.9273    143.6180
   654.9000      8.0691      2.5416      0.0285      6.5667     19.2028    138.4925
   655.0000      8.0742      2.5318     -0.0109      7.1657     18.2619    133.3419
   655.1000      8.0742      2.5346      0.0268      6.9921     18.6958    132.7287
   655.2000      8.0742      2.5383      0.0461      6.7721     20.1267    140.6142
   655.3000      8.0753      2.5308      0.0148      7.2253     20.4054    151.6306
   655.4000      8.0753      2.5251      0.0159      7.5678     19.8151    158.3105
   655.5000      8.0751      2.5324      0.0413      7.1277     19.6915    158.4441
   655.6000      8.0751      2.5371      0.0576      6.8452     20.2805    151.3869
   655.7000      8.0751      2.5254      0.0466      7.5532     20.9448    142.2389
   655.8000      8.0753      2.5069      0.0135      8.6721     21.2506    140.8652
   655.9000      8.0753      2.4930      0.0396      9.5155     21.0598    150.5144
   656.0000      8.0757      2.4868      0.0327      9.8908     20.7828    162.2999
   656.1000      8.0757      2.4950      0.0612      9.3916     20.3634    163.0233
   656.2000      8.0757      2.5174      0.0833      8.0388     19.3986    154.4116
   656.3000      8.0754      2.5389      0.0922      6.7344     18.6350    148.2475
   656.4000      8.0754      2.5411      0.0984      6.6029     19.0094    147.3095
   656.5000      8.0722      2.5225      0.0301      7.7275     19.6388    147.3100
   656.6000      8.0722      2.5051      0.0304      8.7798     20.0091    147.0484
   656.7000      8.0722      2.5064      0.0435      8.7058     20.5212    148.7380
   656.8000      8.0593      2.5156      0.1056      8.1471     20.8379    152.2424
   656.9000      8.0593      2.5069      0.0510      8.6701     20.6284    153.1099
   657.0000      8.0404      2.4701      0.0343     10.9056     20.7295    149.6490
   657.1000      8.0404      2.4102      0.0138     14.5362     21.3332    149.8378
   657.2000      8.0404      2.3312     -0.0318     19.3241     21.4113    157.2866
   657.3000      8.0274      2.2365     -0.0437     25.0613     20.8431    161.3757
   657.4000      8.0274      2.1334     -0.1094     31.3063     20.6289    156.5792
   657.5000      8.0199      2.0374     -0.1216     37.1298     21.0323    147.8461
   657.6000      8.0199      1.9651     -0.1131     41.5103     21.2675    139.6436
   657.7000      8.0199      1.9215     -0.0962     44.1486     20.9778    133.7610
   657.8000      8.0143      1.9023     -0.0654     45.3159     19.9445    128.5702
   657.9000      8.0143      1.9088     -0.0505     44.9235     17.9259    121.7176
   658.0000      8.0124      1.9505      0.0295     42.3921     15.4043    112.8074
   658.1000      8.0124      2.0290      0.1564     37.6346     15.0668    101.6766
   658.2000      8.0124      2.1331      0.2195     31.3265     17.5062     90.1780
   658.3000      8.0135      2.2506      0.2757     24.2052     18.3498     81.4364
   658.4000      8.0135      2.3782      0.2700     16.4757     17.0454     78.7828
   658.5000      8.0154      2.5081      0.3128      8.6028     16.3065     84.6195
   658.6000      8.0154      2.6059      0.3386      2.6737     17.0566     94.8496
   658.7000      8.0154      2.6423      0.2114      0.4692     17.8357    101.6327
   658.8000      8.0172      2.6361      0.1216      0.8410     18.1408    102.0684
   658.9000      8.0172      2.6216      0.0935      1.7184     17.8771     99.3782
   659.0000      8.0170      2.6072      0.1067      2.5915     16.6771     95.8948
   659.1000      8.0170      2.5915      0.0152      3.5453     15.4420     93.2917
   659.2000      8.0170      2.5803      0.0076      4.2252     15.9860     91.6338
   659.3000      8.0172      2.5706      0.0448      4.8138     16.5857     89.2665
   659.4000      8.0172      2.5566      0.0101      5.6590     16.1108     88.7926
   659.5000      8.0178      2.5450     -0.0269      6.3637     16.2562     93.5686
   659.6000      8.0178      2.5372     -0.0041      6.8340     16.6924    100.3371
   659.7000      8.0178      2.5290     -0.0108      7.3342     16.0764    102.3391
   659.8000      8.0162      2.5290      0.0101      7.3324     14.5510    101.8904
   659.9000      8.0162      2.5470      0.0416      6.2400     12.7225    103.1423
   660.0000      8.0151      2.5746      0.0629      4.5700     12.1695    102.5611
   660.1000      8.0151      2.5960      0.0838      3.2740     13.7981     99.6180
   660.2000      8.0151      2.6030      0.0828      2.8483     15.4186     97.4379
   660.3000      8.0158      2.5952      0.0770      3.3218     16.0239     96.1395
   660.4000      8.0158      2.5783      0.0603      4.3441     16.6123     96.8414
   660.5000      8.0177      2.5672      0.0284      5.0182     17.5678     98.3355
   660.6000      8.0177      2.5805      0.0178      4.2096     17.9094     97.8190
   660.7000      8.0177      2.6098      0.0944      2.4337     17.0785     97.3266
   660.8000      8.0190      2.6204      0.0721      1.7966     15.5432    100.7386
   660.9000      8.0190      2.6070      0.0225      2.6082     15.6861    109.1954
   661.0000      8.0187      2.5994      0.0180      3.0696     17.9702    117.0839
   661.1000      8.0187      2.6126      0.0411      2.2694     19.1753    117.5008
   661.2000      8.0187      2.6354      0.0592      0.8852     18.9133    114.6463
   661.3000      8.0175      2.6496      0.0767      0.0238     19.0821    116.0411
