~Version Information
VERS.                      2.0: CWLS Log ASCII Standard - VERSION 2.0
WRAP.                       NO: One line per depth step
~Well Information Block
STRT.FT                -7.7500: 
STOP.FT              1485.2500: 
STEP.FT                 0.2500: 
NULL.                -999.2500: 
COMP.          Pioneer Natural Resources: COMPANY
WELL.          Hammerhead 24-24 Tr: WELL
FLD.           Purgatorie River: FIELD
LOC.           953' FSL & 1922' FWL--: LOCATION
CNTY.               Las Animas: COUNTY
SRVC.          Patterson Wireline: SERVICE COMPANY
DATE.          Thu Feb 02 15:03:23 2006: LOG DATE
UWI.           05 071 08669 00: UNIQUE WELL ID
STAT.                       CO: STATE
~Curve Information Block
DEPT.FT            0 000 00 00: Depth
CCL.                          : Casing Collar Locator
TT3.usec                      : CBL 3' Travel Time
AMP3.mV                       : CBL 3' Amplitude
GR.GAPI                       : Gamma Ray
~Parameter Information Block
~A  Depth       CCL         TT3         AMP3         GR     
    -7.7500   -999.2500   -999.2500   -999.2500    102.8900
    -7.5000   -999.2500   -999.2500   -999.2500    102.0094
    -7.2500   -999.2500   -999.2500   -999.2500     98.8263
    -7.0000   -999.2500   -999.2500   -999.2500     94.7000
    -6.7500   -999.2500   -999.2500   -999.2500     91.9674
    -6.5000   -999.2500   -999.2500   -999.2500     92.1246
    -6.2500   -999.2500   -999.2500   -999.2500     94.3909
    -6.0000   -999.2500   -999.2500   -999.2500     96.4149
    -5.7500   -999.2500   -999.2500   -999.2500     96.6230
    -5.5000   -999.2500   -999.2500   -999.2500     95.3629
    -5.2500   -999.2500   -999.2500   -999.2500     93.5263
    -5.0000   -999.2500   -999.2500   -999.2500     90.9665
    -4.7500   -999.2500   -999.2500   -999.2500     87.1673
    -4.5000   -999.2500   -999.2500   -999.2500     82.8769
    -4.2500   -999.2500   -999.2500   -999.2500     80.0106
    -4.0000   -999.2500   -999.2500   -999.2500     79.8643
    -3.7500   -999.2500   -999.2500   -999.2500     81.9453
    -3.5000   -999.2500   -999.2500   -999.2500     84.5373
    -3.2500   -999.2500   -999.2500   -999.2500     85.9984
    -3.0000   -999.2500   -999.2500   -999.2500     85.5983
    -2.7500   -999.2500   1161.0000      0.4082     83.7244
    -2.5000   -999.2500   1161.0000      0.4121     81.5555
    -2.2500   -999.2500   1161.0000      0.4181     80.0793
    -2.0000   -999.2500   1161.0000      0.4275     79.0784
    -1.7500   -999.2500   1161.0000      0.4430     77.4441
    -1.5000   -999.2500   1161.0000      0.4673     74.6470
    -1.2500   -999.2500   1161.0000      0.4981     71.5037
    -1.0000   -999.2500   1161.0000      0.5233     69.3281
    -0.7500   -999.2500   1161.0000      0.5257     68.4716
    -0.5000   -999.2500   1161.0000      0.4989     67.6177
    -0.2500   -999.2500   1161.0000      0.4563     64.6088
     0.0000   -999.2500   1161.0000      0.4199     58.3885
     0.2500   -999.2500   1161.0000      0.4026     42.6134
     0.5000   -999.2500   1161.0000      0.4116     37.1544
     0.7500   -999.2500   1161.0000      0.4212     33.6477
     1.0000   -999.2500   1161.0000      0.4265     31.1958
     1.2500   -999.2500   1161.0000      0.4266     29.5146
     1.5000   -999.2500   1161.0000      0.4239     29.0606
     1.7500   -999.2500   1161.0000      0.4211     30.1618
     2.0000   -999.2500   1161.0000      0.4193     32.4471
     2.2500   -999.2500   1161.0000      0.4178     35.2949
     2.5000      0.0000   1161.0000      0.4165     38.4614
     2.7500      0.0000   1161.0000      0.4176     41.8648
     3.0000      0.0000   1161.0000      0.4229     45.0570
     3.2500      0.0000   1161.0000      0.4305     47.5337
     3.5000      0.0000   1161.0000      0.4358     49.4867
     3.7500      0.0000   1161.0000      0.4359     51.7597
     4.0000      0.0000   1161.0000      0.4317     55.0651
     4.2500      0.0000   1161.0000      0.4265     59.5072
     4.5000      0.0000   1161.0000      0.4236     64.6305
     4.7500      0.0000   1161.0000      0.4238     69.5437
     5.0000      0.0000   1161.0000      0.4255     73.1703
     5.2500      0.0000   1161.0000      0.4270     74.8147
     5.5000      0.0000   1161.0000      0.4290     74.6194
     5.7500      0.0000   1161.0000      0.4343     73.4134
     6.0000      0.0000   1161.0000      0.4439     72.0545
     6.2500      0.0000   1160.9795      0.4556     70.9044
     6.5000      0.0000   1160.8352      0.4656     69.9111
     6.7500      0.0000   1160.0586      0.4781     69.0501
     7.0000      0.0000   1156.8362      0.5205     68.4569
     7.2500      0.0000   1146.2292      0.7159     68.1940
     7.5000      0.0000   1118.3545      1.4688     68.2246
     7.7500      0.0000   1059.4240      3.7549     68.5626
     8.0000      0.0000    958.4202      9.1892     69.1096
     8.2500      0.0000    817.1760     19.2832     69.5474
     8.5000      0.0000    655.4943     33.9184     69.7221
     8.7500      0.0000    504.1282     50.4716     69.9386
     9.0000      0.0000    388.7787     65.0701     70.6366
     9.2500      0.0000    317.7400     75.0999     71.8637
     9.5000      0.0000    282.6642     80.4428     73.0611
     9.7500      0.0000    268.8857     82.5706     73.3832
    10.0000      0.0000    264.6173     82.9726     72.3693
    10.2500      2.0000    263.6033     82.3684     70.3823
    10.5000      0.0000    263.4758     80.7870     68.3481
    10.7500      0.0000    263.5984     77.9733     67.0357
    11.0000      0.0000    263.9280     73.7529     66.6053
    11.2500      0.0000    264.6553     68.2286     66.8916
    11.5000      0.0000    266.2245     61.7800     67.8761
    11.7500      0.0000    269.3152     54.9289     69.5560
    12.0000      0.0000    274.5819     48.1716     71.5767
    12.2500      0.0000    282.1707     41.8740     73.4114
    12.5000      0.0000    291.7971     36.2449     74.8290
    12.7500      0.0000    303.8273     31.3364     76.0435
    13.0000      0.0000    320.4261     27.0687     77.4056
    13.2500      0.0000    344.6557     23.3092     78.7667
    13.5000      0.0000    377.0414     19.9817     78.9862
    13.7500      0.0000    413.5375     17.1207     76.5089
    14.0000      0.0000    449.7324     14.8063     70.9414
    14.2500      0.0000    487.7692     13.0352     63.9066
    14.5000      0.0000    535.3043     11.6907     57.9311
    14.7500      0.0000    595.4350     10.6576     54.5169
    15.0000      0.0000    661.2350      9.9142     53.4360
    15.2500      0.0000    721.7424      9.4714     53.6803
    15.5000      0.0000    768.9702      9.2757     54.6611
    15.7500      2.0000    796.5281      9.2187     56.3022
    16.0000      0.0000    796.8021      9.2142     58.3387
    16.2500      0.0000    767.3503      9.2478     60.0816
    16.5000      0.0000    720.4203      9.3712     60.8877
    16.7500      0.0000    678.5883      9.6436     60.5305
    17.0000      0.0000    656.2663     10.0406     59.1590
    17.2500      0.0000    648.9192     10.4239     57.1856
    17.5000      0.0000    643.5808     10.6533     55.2206
    17.7500      0.0000    636.2316     10.7211     53.8714
    18.0000      0.0000    634.4315     10.7292     53.4205
    18.2500      0.0000    644.9294     10.7535     53.6494
    18.5000      0.0000    664.1553     10.7859     53.9626
    18.7500      0.0000    682.1953     10.7884     53.8114
    19.0000      0.0000    692.5150     10.7511     53.2219
    19.2500      0.0000    695.4967     10.6958     52.9236
    19.5000      0.0000    694.9282     10.6489     53.7184
    19.7500      0.0000    693.7926     10.6216     55.6002
    20.0000      0.0000    693.1229     10.6105     57.6466
    20.2500      0.0000    692.8521     10.6096     58.8663
    20.5000      0.0000    692.7015     10.6159     59.0440
    20.7500      0.0000    692.5347     10.6271     58.6625
    21.0000      0.0000    692.3284     10.6392     58.0757
    21.2500      0.0000    692.1168     10.6496     57.0550
    21.5000      0.0000    691.9419     10.6603     55.3798
    21.7500      0.0000    691.8288     10.6763     53.4331
    22.0000      0.0000    691.7667     10.7006     51.7312
    22.2500      0.0000    691.7192     10.7325     50.2333
    22.5000      0.0000    691.6563     10.7664     48.6359
    22.7500      0.0000    691.5768     10.7939     47.0485
    23.0000      0.0000    691.5005     10.8094     45.8832
    23.2500      0.0000    691.4451     10.8138     45.2557
    23.5000      0.0000    691.4116     10.8129     44.8756
    23.7500      0.0000    691.3837     10.8119     44.4442
    24.0000      0.0000    691.3369     10.8138     43.8047
    24.2500      0.0000    691.2484     10.8209     42.7165
    24.5000      0.0000    691.1072     10.8345     40.9096
    24.7500      0.0000    690.9202     10.8539     38.6291
    25.0000      0.0000    690.7109     10.8742     36.8928
    25.2500      0.0000    690.5103     10.8875     36.8344
    25.5000      0.0000    690.3516     10.8873     38.6708
