~Version Information
VERS.                      2.0: CWLS Log ASCII Standard - VERSION 2.0
WRAP.                       NO: One line per depth step
~Well Information Block
STRT.FT               245.0000: 
STOP.FT              1102.5000: 
STEP.FT                 0.1000: 
NULL.                -999.2500: 
COMP.          Pioneer Natural Resources: COMPANY
WELL.           Pavilion 44-25: WELL
FLD.           Purgatoire River: FIELD
LOC.           719' FSL & 650' FEL: LOCATION
PROV.                 Colorado: PROVINCE
CNTY.               Las Animas: COUNTRY
SRVC.                Patterson: SERVICE COMPANY
DATE.          Wed Dec 14 09:57:07 2005: LOG DATE
UWI.           05 071 08624 00: UNIQUE WELL ID
~Curve Information Block
DEPT.FT            0 000 00 00: Depth
DCAL.in                       : CDL Caliper
RHOB.g/cc                     : CDL Bulk Density
RHOC.g/cc                     : CDL Density Correction
DPOR.pu                       : CDL Density Porosity
GR.GAPI                       : Gamma Ray
NPOR.pu                       : Neutron Porosity
~Parameter Information Block
~A  Depth       DCAL        RHOB        RHOC        DPOR         GR         NPOR    
# ...
   417.8000      8.0672      2.6101      0.0148      2.4205    130.6738     26.1449
   417.9000      8.0672      2.6013      0.0487      2.9532    130.6736     26.1115
   418.0000      8.0677      2.5825      0.0075      4.0911    136.2721     26.5123
   418.1000      8.0677      2.5593      0.0303      5.4999    146.0666     26.5940
   418.2000      8.0677      2.5349      0.0074      6.9765    154.9889     26.5373
   418.3000      8.0661      2.5168     -0.0338      8.0699    161.8109     26.4624
   418.4000      8.0661      2.5155      0.0260      8.1527    165.6966     25.8304
   418.5000      8.0629      2.5256      0.0154      7.5367    164.1026     25.0643
   418.6000      8.0629      2.5329      0.0370      7.0990    159.0750     25.0256
   418.7000      8.0629      2.5256      0.0716      7.5392    154.9865     25.5915
   418.8000      8.0633      2.5078      0.0168      8.6206    154.1631     26.1058
   418.9000      8.0633      2.5045      0.0048      8.8157    160.7285     26.2743
   419.0000      8.0647      2.5310      0.1033      7.2104    173.4682     26.3346
   419.1000      8.0647      2.5685      0.1230      4.9376    183.2708     26.5536
   419.2000      8.0647      2.5898      0.1147      3.6509    185.5296     27.1362
   419.3000      8.0776      2.5836      0.1091      4.0257    182.8135     27.9733
   419.4000      8.0776      2.5587      0.0552      5.5339    179.0042     28.3490
   419.5000      8.0924      2.5316      0.0518      7.1733    175.8506     28.2557
   419.6000      8.0924      2.5104      0.0273      8.4600    173.0493     28.4834
   419.7000      8.0924      2.5001     -0.0112      9.0876    170.5894     29.2196
   419.8000      8.1083      2.5043      0.0031      8.8304    169.6819     29.8916
   419.9000      8.1083      2.5163      0.0062      8.1012    172.5790     29.9274
   420.0000      8.1106      2.5289      0.0093      7.3383    180.7987     29.3340
   420.1000      8.1106      2.5396      0.0331      6.6918    189.8708     28.8215
   420.2000      8.1106      2.5464      0.0321      6.2817    194.1085     28.6679
   420.3000      8.1071      2.5491      0.0457      6.1177    195.9302     28.1525
   420.4000      8.1071      2.5514     -0.0200      5.9772    200.1906     26.9570
   420.5000      8.1069      2.5523      0.0370      5.9231    200.0814     25.7605
   420.6000      8.1069      2.5496     -0.0073      6.0854    189.8265     25.2178
   420.7000      8.1069      2.5553     -0.0155      5.7400    178.0013     25.3328
   420.8000      8.1054      2.5637      0.0539      5.2306    170.0656     25.6963
   420.9000      8.1054      2.5519      0.0097      5.9439    161.5787     26.1788
   421.0000      8.1074      2.5297     -0.0470      7.2938    154.6012     26.9407
   421.1000      8.1074      2.5168     -0.0291      8.0742    159.1428     27.4315
   421.2000      8.1074      2.5053      0.0120      8.7711    173.1832     27.4287
   421.3000      8.1084      2.4897     -0.0204      9.7138    182.8096     27.5951
   421.4000      8.1084      2.4830      0.0048     10.1240    179.0211     27.9220
   421.5000      8.1054      2.4826      0.0108     10.1442    169.1546     27.9583
   421.6000      8.1054      2.4795     -0.0108     10.3336    169.0053     27.5763
   421.7000      8.1054      2.4851     -0.0030      9.9925    178.7620     27.2458
   421.8000      8.0676      2.5082      0.0224      8.5960    182.2097     27.6700
   421.9000      8.0676      2.5337      0.0547      7.0513    173.8843     28.4807
   422.0000      7.9895      2.5431      0.0526      6.4769    164.6710     28.5526
   422.1000      7.9895      2.5347      0.0282      6.9905    163.6924     27.9443
   422.2000      7.9895      2.5192      0.0035      7.9256    167.4920     27.6862
   422.3000      7.9800      2.5072      0.0163      8.6515    164.9811     28.1370
   422.4000      7.9800      2.5076     -0.0151      8.6283    153.6406     29.0521
   422.5000      7.9774      2.5267      0.0208      7.4700    146.5525     29.7544
   422.6000      7.9774      2.5507      0.0565      6.0170    151.5241     29.7152
   422.7000      7.9774      2.5623      0.0228      5.3138    160.7903     29.6689
   422.8000      7.9761      2.5730      0.0225      4.6697    166.3498     30.3818
   422.9000      7.9761      2.5920      0.0701      3.5165    163.2257     31.4563
   423.0000      7.9755      2.6003      0.0628      3.0144    148.8024     32.5034
   423.1000      7.9755      2.5907      0.0312      3.5969    130.3540     33.4866
   423.2000      7.9755      2.5857      0.0181      3.8999    117.8388     34.0280
   423.3000      7.9739      2.5957      0.0157      3.2919    111.3554     33.7888
   423.4000      7.9739      2.6049      0.0647      2.7324    108.6044     33.0436
   423.5000      7.9721      2.6067     -0.0357      2.6233    110.6477     32.2609
   423.6000      7.9721      2.6111     -0.0358      2.3592    113.7529     31.5533
   423.7000      7.9721      2.6096      0.0146      2.4463    111.3657     30.7932
   423.8000      7.9705      2.5939     -0.0815      3.3995    103.4914     30.0512
   423.9000      7.9705      2.5859     -0.0937      3.8864     93.8521     29.2806
   424.0000      7.9620      2.6003     -0.0074      3.0112     84.1147     28.3633
   424.1000      7.9620      2.6227     -0.0000      1.6524     74.9658     27.6298
   424.2000      7.9620      2.6336      0.0772      0.9955     69.4161     27.1805
   424.3000      7.9378      2.6189      0.0888      1.8843     68.6791     26.6183
   424.4000      7.9378      2.5828      0.0447      4.0726     70.5730     25.8206
   424.5000      7.9315      2.5515      0.0330      5.9698     74.1510     25.0535
   424.6000      7.9315      2.5394      0.0460      6.7024     77.4739     24.4317
   424.7000      7.9315      2.5385      0.0265      6.7563     78.8051     24.0884
   424.8000      7.9333      2.5528      0.0015      5.8931     79.9985     24.2754
   424.9000      7.9333      2.5974      0.0661      3.1875     82.4490     24.7498
   425.0000      7.9534      2.6616      0.1456     -0.7047     84.6917     25.1167
   425.1000      7.9534      2.7082      0.2524     -3.5297     84.9784     25.1657
   425.2000      7.9534      2.7094      0.2402     -3.6002     84.5946     24.8340
   425.3000      7.9817      2.6759      0.1964     -1.5712     86.9517     24.2830
   425.4000      7.9817      2.6398      0.1707      0.6204     93.3665     23.7396
   425.5000      7.9942      2.6162      0.1324      2.0497    101.2550     23.4897
   425.6000      7.9942      2.6040      0.0793      2.7896    106.4380     23.7432
   425.7000      7.9942      2.5955      0.1025      3.3037    108.7878     24.1980
   425.8000      8.0070      2.5832      0.0255      4.0468    113.4326     24.3018
   425.9000      8.0070      2.5704      0.0360      4.8230    121.2114     23.9344
   426.0000      8.0083      2.5574      0.0506      5.6131    128.1442     23.8378
   426.1000      8.0083      2.5372      0.0613      6.8368    135.3493     24.7769
   426.2000      8.0083      2.5064      0.0479      8.7012    147.6046     26.2608
   426.3000      8.0044      2.4741     -0.0138     10.6628    161.6856     26.9807
   426.4000      8.0044      2.4547      0.0249     11.8366    168.1740     26.9152
   426.5000      8.0076      2.4544     -0.0253     11.8528    170.2263     27.2402
   426.6000      8.0076      2.4707     -0.0032     10.8653    175.5819     28.0562
   426.7000      8.0076      2.4873      0.0368      9.8614    178.7185     28.7162
   426.8000      8.0074      2.4926      0.0379      9.5400    176.4844     29.3380
   426.9000      8.0074      2.5100      0.0055      8.4823    175.1392     30.1012
   427.0000      8.0058      2.5639      0.0786      5.2171    176.5408     30.6978
   427.1000      8.0058      2.6327      0.1666      1.0490    174.9967     31.0217
   427.2000      8.0058      2.6782      0.1677     -1.7101    167.3225     31.1425
   427.3000      8.0122      2.7004      0.1001     -3.0526    158.0819     31.2646
