~Version Information Section
 VERS.      2.0         :CWLS LAS VERSION
 WRAP.      NO          :WRAPING MODE
 WARE.      oller 2.5.0J:SOFTWARE VERSION
~Well Information Section
#MNEM.UNIT               VALUE/NAME                 DESCRIPTION
#----.----     ----------------------------------   --------------------
 WELL.         Dicks 35-05R                         :WELL
 COMP.         Pioneer Natrual Resources USA Inc.   :COMPANY
 FLD .         Purgatoire River                     :FIELD
 LOC .         SW/NE SEC05 T33S R65W                :LOCATION
 DATE.         12/08/05                             :DATE(S) LOGGED
 SRVC.         Blanco Geological Services LLC       :SERVICE COMPANY
 STAT.         Colorado                             :STATE
 CNTY.         Las Animas                           :COUNTY
 CTRY.         USA                                  :COUNTRY
 API .         05-071-08596-00                      :API NUMBER
 STRT.FT           400.0000                         :START DEPTH
 STOP.FT          1345.0000                         :STOP DEPTH
 STEP.FT             1.0000                         :DEPTH INCREMENT
 NULL.           -9999.0000                         :NULL VALUE
~Curve Information Section
#MNEM .UNIT         CURVE DESCRIPTION
#---- .----         -------------------------
 DEPTH.FT           :1
 ROP  .MIN/FT       :2
 GAS  .UNITS        :3
~Parameter Information Section
#MNEM.UNIT                  VALUE                   DESCRIPTION
#----.----     ----------------------------------   --------------------
~A  DEPTH     ROP        GAS    
  400.0000 -9999.0000     1.3000
  401.0000     0.3000     1.1000
  402.0000     0.2700     0.7000
  403.0000     0.2700     0.9000
  404.0000     0.2700     0.9000
  405.0000     0.3000     0.5000
  406.0000     0.2700     0.3000
  407.0000     0.2700     0.8000
  408.0000     0.2700     0.6000
  409.0000     0.2700     0.6000
  410.0000     0.2700     0.2000
  411.0000     0.1300     0.1000
  412.0000     0.2800     0.8000
  413.0000     0.2700     0.2000
  414.0000     0.2700     0.1000
  415.0000     0.0700     0.1000
  416.0000     0.2700     0.1000
  417.0000     0.2700     0.2000
  418.0000     0.2000     0.1000
  419.0000     0.3700     0.5000
  420.0000     0.3000     0.4000
  421.0000     0.2700     0.4000
  422.0000     0.6500     0.3000
  423.0000     0.5700     0.5000
  424.0000     0.1700     0.1000
  425.0000     0.3700     0.1000
  426.0000     0.2700     0.2000
  427.0000     0.2700     0.6000
  428.0000     0.2800     0.3000
  429.0000     0.2700     0.3000
  430.0000     0.2700     0.5000
  431.0000     0.2700     0.5000
  432.0000     0.1000     0.5000
  433.0000     0.2700     0.7000
  434.0000     0.2700     0.3000
  435.0000     0.2800     0.1000
  436.0000     0.2700     0.1000
  437.0000     0.0700     0.3000
  438.0000     0.3000     0.6000
  439.0000     0.1300     0.6000
  440.0000     0.1300    25.6000
  441.0000     0.2700    40.0000
  442.0000     0.1000    40.0000
  443.0000     0.3200    16.8000
  444.0000     0.3700     5.0000
  445.0000     0.2700     0.5000
  446.0000     0.2700     0.2000
  447.0000     0.1000     0.2000
  448.0000     0.2700     0.2000
  449.0000     0.2800     0.3000
  450.0000     0.1700     0.3000
  451.0000     0.2700     0.0000
  452.0000     0.2700     0.1000
  453.0000     0.2700     0.3000
  454.0000     0.2700     0.3000
  455.0000     0.2700     0.3000
  456.0000     0.2800     0.0000
  457.0000     0.2700     0.1000
  458.0000     0.5300     0.4000
  459.0000     0.2700     0.3000
  460.0000     0.2500     0.7000
  461.0000     0.2700     0.3000
  462.0000     0.2000     0.5000
  463.0000     0.3000     0.8000
  464.0000     0.2700     0.6000
  465.0000     0.0300     0.6000
  466.0000     0.2700     1.3000
  467.0000     0.2700     2.0000
  468.0000     0.0700     2.0000
  469.0000     0.2800     2.6000
  470.0000     0.1000     2.9000
  471.0000     0.2700     3.2000
  472.0000     0.2700     2.5000
  473.0000     0.3000     1.9000
  474.0000     0.2700     1.5000
  475.0000     0.2700     1.4000
  476.0000     0.2700     1.4000
  477.0000     0.2700     1.7000
  478.0000     0.2800     1.5000
  479.0000     0.2300     1.4000
  480.0000     0.2700     1.8000
  481.0000     0.3000     2.0000
  482.0000     0.3000     2.8000
  483.0000     0.2700     3.4000
  484.0000     0.2800     2.9000
  485.0000     0.2700     2.9000
  486.0000     0.2700     2.6000
  487.0000     0.2700     2.1000
  488.0000     0.2700     2.1000
  489.0000     0.2700     1.8000
  490.0000     0.2700     2.4000
  491.0000     0.2700     2.0000
  492.0000     0.3200     2.0000
  493.0000     0.2700     1.8000
  494.0000     0.1700     1.7000
  495.0000     0.2700     1.8000
  496.0000     0.2800     2.4000
  497.0000     0.2700     3.5000
  498.0000     0.2700     5.0000
  499.0000     0.2700     4.3000
  500.0000     0.2700     5.0000
  501.0000     0.2700     8.4000
  502.0000     0.2700    11.4000
  503.0000     0.2800    12.4000
  504.0000     0.2700    10.7000
  505.0000     0.4700     8.3000
  506.0000     0.2700     6.1000
  507.0000     0.3000     4.8000
  508.0000     0.2700     4.0000
  509.0000     0.1000     3.6000
  510.0000     0.2800     3.3000
  511.0000     0.2700     3.1000
  512.0000     0.2000     3.0000
  513.0000     0.2700     2.8000
  514.0000     0.2700     3.1000
  515.0000     0.2700     3.0000
  516.0000     0.2800     2.9000
  517.0000     0.2700     3.2000
  518.0000     0.2700     3.3000
  519.0000     0.2700     3.3000
  520.0000     0.2700     2.9000
  521.0000     0.2700     3.3000
  522.0000     0.2700    10.0000
  523.0000     0.2700    18.4000
  524.0000     0.1000    18.4000
  525.0000     0.2700    26.0000
  526.0000     0.2700    29.8000
  527.0000     0.2700    30.9000
  528.0000     0.2700    30.1000
  529.0000     0.2800    27.8000
  530.0000     0.2700    27.4000
  531.0000     0.2700    27.4000
  532.0000     0.2700    26.9000
  533.0000     0.2700    27.7000
  534.0000     0.1300    27.7000
  535.0000     0.2700    27.6000
  536.0000     0.2700    27.3000
  537.0000     0.5300    26.9000
  538.0000     0.2700    26.9000
  539.0000     0.2700    26.1000
  540.0000     0.2700    25.4000
  541.0000     0.2800    25.7000
  542.0000     0.1300    24.3000
  543.0000     0.2700    25.3000
  544.0000     0.2700    25.5000
  545.0000     0.2700    28.9000
  546.0000     0.2700    29.8000
  547.0000     0.2700    38.3000
  548.0000     0.2700    53.7000
  549.0000     0.2700    61.4000
  550.0000     0.2700    57.3000
  551.0000     0.2700    55.1000
  552.0000     0.2700    39.4000
  553.0000     0.2700    33.9000
  554.0000     0.2800    29.6000
  555.0000     0.2700    28.3000
  556.0000     0.2700    26.5000
  557.0000     0.2700    28.7000
  558.0000     0.0700    28.7000
  559.0000     0.2700    29.4000
  560.0000     0.2700    31.8000
  561.0000     0.2700    32.5000
  562.0000     0.3300    30.8000
  563.0000     0.2700    28.5000
  564.0000     0.2700    26.8000
  565.0000     0.2700    26.6000
  566.0000     1.9200    27.7000
  567.0000     0.5000    25.7000
  568.0000     0.2700    26.6000
  569.0000     0.2700    26.2000
  570.0000     0.2700    28.3000
  571.0000     0.2700    34.1000
  572.0000     0.2700    48.1000
  573.0000     0.2800    71.1000
  574.0000     0.2700    94.6000
  575.0000     0.2700   122.4000
  576.0000     0.2700   125.0000
  577.0000     0.2700   116.8000
  578.0000     0.2700   109.0000
  579.0000     0.2700    94.6000
  580.0000     0.2700    80.3000
  581.0000     0.2700    73.7000
  582.0000     0.1000    75.6000
  583.0000     0.2700    91.0000
  584.0000     0.2700   139.9000
  585.0000     0.2700   158.5000
  586.0000     0.2800   134.8000
  587.0000     0.2700    98.9000
  588.0000     0.2700    77.4000
  589.0000     0.2700    65.5000
  590.0000     0.2300    58.0000
  591.0000     0.2700    53.9000
  592.0000     0.2700    52.2000
  593.0000     0.2700    51.0000
  594.0000     0.2700    50.0000
  595.0000     0.2300    49.8000
  596.0000     0.2700    49.8000
  597.0000     0.2700    49.9000
  598.0000     0.2700    49.8000
  599.0000     0.2800    49.0000
  600.0000     0.2700    48.8000
  601.0000     0.2700    47.8000
  602.0000     0.2700    46.5000
  603.0000     0.2700    46.0000
  604.0000     0.2000    44.6000
  605.0000     0.2700    43.7000
  606.0000     0.2700    42.4000
  607.0000     0.2700    42.2000
  608.0000     0.2700    40.1000
  609.0000     0.2700    39.8000
  610.0000     0.2700    38.5000
  611.0000     0.2800    38.0000
  612.0000     0.2700    37.3000
  613.0000     0.2700    33.1000
  614.0000     0.1300    29.0000
  615.0000     0.2700    24.6000
  616.0000     0.2700    20.9000
  617.0000     0.2700    20.9000
  618.0000     0.3000    28.2000
  619.0000     0.2700    34.0000
  620.0000     0.2700    38.0000
  621.0000     0.2700    40.3000
  622.0000     0.2700    41.3000
  623.0000     0.2700    41.4000
  624.0000     0.3500    40.5000
  625.0000     0.3000    38.4000
  626.0000     0.2700    38.0000
  627.0000     0.2700    36.9000
  628.0000     0.2700    35.1000
  629.0000     0.2000    34.6000
  630.0000     0.2700    34.0000
  631.0000     0.2700    34.5000
  632.0000     0.2700    34.5000
  633.0000     0.2700    33.0000
  634.0000     0.2700    33.3000
  635.0000     0.2700    32.0000
  636.0000     0.2700    31.7000
  637.0000     0.2800    31.3000
  638.0000     0.2700    30.1000
  639.0000     0.2700    29.1000
  640.0000     0.2700    28.8000
  641.0000     0.3000    26.9000
  642.0000     0.2700    22.8000
