~Version Information
VERS.                      2.0: CWLS Log ASCII Standard - VERSION 2.0
WRAP.                       NO: One line per depth step
~Well Information Block
STRT.FT               262.2500: 
STOP.FT              1942.0000: 
STEP.FT                 0.2500: 
NULL.                -999.2500: 
COMP.          XTO Energy Inc.: COMPANY
WELL.          Golden Eagle 19-11: WELL
FLD.           Purgatoire River: FIELD
LOC.           2351' FSL & 1926' FWL--: LOCATION
CNTY.               Las Animas: COUNTY
SRVC.                Patterson: SERVICE COMPANY
DATE.          Wed Mar 08 23:33:01 2006: LOG DATE
UWI.           05 071 08696 00: UNIQUE WELL ID
STAT.                 Colorado: STATE
~Curve Information Block
DEPT.FT            0 000 00 00: Depth
SP.mV                         : DIL Spontaneous Potential
RILD.Ohm-m                    : DIL Deep Resistivity
RILM.Ohm-m                    : DIL Medium Resistivity
RLL3.Ohm-m                    : DIL Shallow Resistivity
GR.GAPI                       : Gamma Ray
~Parameter Information Block
~A  Depth        SP         RILD        RILM        RLL3         GR     
# ...
   822.2500   -999.2500     20.0088     24.3004   2000.0000     93.1632
   822.5000   -999.2500     20.5919     25.3284   2000.0000     96.3252
   822.7500   -999.2500     21.0649     26.2886   2000.0000     98.8282
   823.0000   -999.2500     21.3894     27.1254   2000.0000    102.4989
   823.2500   -999.2500     21.5517     27.7377   2000.0000    104.2003
   823.5000   -999.2500     21.5629     27.9885   2000.0000    104.5082
   823.7500   -999.2500     21.4523     27.7690   2000.0000    103.2924
   824.0000   -999.2500     21.2593     27.0837   2000.0000    101.1313
   824.2500   -999.2500     21.0227     26.0733   2000.0000    100.7624
   824.5000   -999.2500     20.7704     24.9483   2000.0000    102.6424
   824.7500   -999.2500     20.5130     23.8961   2000.0000    104.8956
   825.0000   -999.2500     20.2467     23.0261   2000.0000    107.9375
   825.2500   -999.2500     19.9628     22.3611   2000.0000    109.0897
   825.5000   -999.2500     19.6557     21.8551   2000.0000    109.6984
   825.7500   -999.2500     19.3245     21.4225   2000.0000    109.8228
   826.0000   -999.2500     18.9726     20.9755   2000.0000    110.0261
   826.2500   -999.2500     18.6089     20.4606   2000.0000    110.2229
   826.5000   -999.2500     18.2534     19.8751   2000.0000    111.0805
   826.7500   -999.2500     17.9365     19.2554   2000.0000    112.6366
   827.0000   -999.2500     17.6903     18.6505   2000.0000    117.1689
   827.2500   -999.2500     17.5341     18.1011   2000.0000    121.3209
   827.5000   -999.2500     17.4663     17.6361   2000.0000    127.5340
   827.7500   -999.2500     17.4658     17.2803   2000.0000    130.6835
   828.0000   -999.2500     17.5045     17.0615   2000.0000    133.1861
   828.2500   -999.2500     17.5604     17.0119   2000.0000    133.4132
   828.5000   -999.2500     17.6248     17.1632   2000.0000    131.8523
   828.7500   -999.2500     17.7006     17.5390   2000.0000    129.6646
   829.0000   -999.2500     17.7963     18.1438   2000.0000    124.9522
   829.2500   -999.2500     17.9206     18.9439   2000.0000    121.1525
   829.5000   -999.2500     18.0806     19.8488   2000.0000    115.1241
   829.7500   -999.2500     18.2814     20.7160   2000.0000    111.2619
   830.0000   -999.2500     18.5277     21.4041   2000.0000    106.1742
   830.2500   -999.2500     18.8236     21.8524   2000.0000    103.3415
   830.5000   -999.2500     19.1709     22.1148   2000.0000     99.7051
   830.7500   -999.2500     19.5654     22.3068   2000.0000     97.4994
   831.0000   -999.2500     19.9938     22.5210   2000.0000     94.6447
   831.2500   -999.2500     20.4311     22.7777   2000.0000     93.4796
   831.5000   -999.2500     20.8418     23.0325   2000.0000     93.6553
   831.7500   -999.2500     21.1855     23.2189   2000.0000     95.1509
   832.0000   -999.2500     21.4261     23.2930   2000.0000     98.7013
   832.2500   -999.2500     21.5392     23.2525   2000.0000    101.1652
   832.5000   -999.2500     21.5174     23.1242   2000.0000    103.7602
   832.7500   -999.2500     21.3743     22.9374   2000.0000    104.3853
   833.0000   -999.2500     21.1472     22.7059   2000.0000    103.9616
   833.2500   -999.2500     20.8917     22.4267   2000.0000    103.4104
   833.5000   -999.2500     20.6628     22.0923   2000.0000    103.3691
   833.7500   -999.2500     20.4924     21.7092   2000.0000    104.2137
   834.0000   -999.2500     20.3781     21.3119   2000.0000    106.7088
   834.2500   -999.2500     20.2906     20.9648   2000.0000    108.9616
   834.5000   -999.2500     20.1955     20.7451   2000.0000    112.5907
   834.7500   -999.2500     20.0736     20.7128   2000.0000    114.4948
   835.0000   -999.2500     19.9304     20.8805   2000.0000    115.0898
   835.2500   -999.2500     19.7900     21.1975   2000.0000    113.5058
   835.5000   -999.2500     19.6825     21.5591   2000.0000    108.9487
   835.7500   -999.2500     19.6314     21.8489   2000.0000    105.6328
   836.0000   -999.2500     19.6478     21.9926   2000.0000    102.0210
   836.2500   -999.2500     19.7312     21.9909   2000.0000    100.7667
   836.5000   -999.2500     19.8753     21.9072   2000.0000     99.7371
   836.7500   -999.2500     20.0738     21.8325   2000.0000     98.9979
   837.0000   -999.2500     20.3220     21.8534   2000.0000     97.7209
   837.2500   -999.2500     20.6150     22.0328   2000.0000     97.2254
   837.5000   -999.2500     20.9453     22.3990   2000.0000     97.4207
   837.7500   -999.2500     21.3031     22.9382   2000.0000     97.6094
   838.0000   -999.2500     21.6800     23.5949   2000.0000     96.1414
   838.2500   -999.2500     22.0713     24.2883   2000.0000     93.2971
   838.5000   -999.2500     22.4759     24.9432   2000.0000     86.7555
   838.7500   -999.2500     22.8916     25.5192   2000.0000     81.9905
   839.0000   -999.2500     23.3118     26.0201   2000.0000     76.3225
   839.2500   -999.2500     23.7221     26.4791   2000.0000     74.3574
   839.5000   -999.2500     24.0992     26.9330   2000.0000     74.4904
   839.7500   -999.2500     24.4119     27.4025   2000.0000     76.1355
   840.0000   -999.2500     24.6279     27.8844   2000.0000     79.1020
   840.2500   -999.2500     24.7232     28.3525   2000.0000     80.2624
   840.5000   -999.2500     24.6887     28.7631   2000.0000     79.7575
   840.7500   -999.2500     24.5309     29.0625   2000.0000     78.1336
   841.0000   -999.2500     24.2660     29.1964   2000.0000     75.2891
   841.2500   -999.2500     23.9114     29.1212   2000.0000     74.3134
   841.5000   -999.2500     23.4752     28.8124   2000.0000     75.7468
   841.7500   -999.2500     22.9464     28.2654   2000.0000     78.7634
   842.0000   -999.2500     22.2967     27.4844   2000.0000     85.3731
   842.2500   -999.2500     21.4994     26.4734   2000.0000     90.2650
   842.5000   -999.2500     20.5549     25.2383   2000.0000     97.0088
   842.7500   -999.2500     19.5028     23.8013   2000.0000    100.7845
   843.0000   -999.2500     18.4084     22.2122   2000.0000    105.6205
   843.2500   -999.2500     17.3367     20.5455   2000.0000    108.5425
   843.5000   -999.2500     16.3336     18.8856   2000.0000    112.4591
   843.7500   -999.2500     15.4202     17.3112   2000.0000    114.6607
   844.0000   -999.2500     14.5981     15.8821   2000.0000    117.7852
   844.2500   -999.2500     13.8573     14.6336   2000.0000    120.3316
   844.5000   -999.2500     13.1833     13.5755   2000.0000    125.4961
   844.7500   -999.2500     12.5617     12.6977   2000.0000    129.6614
   845.0000   -999.2500     11.9812     11.9771   2000.0000    136.1085
   845.2500   -999.2500     11.4357     11.3842   2000.0000    140.1708
   845.5000   -999.2500     10.9246     10.8880   2000.0000    145.9453
   845.7500   -999.2500     10.4521     10.4605   2000.0000    149.6681
   846.0000   -999.2500     10.0252     10.0797   2000.0000    154.3441
   846.2500   -999.2500      9.6505      9.7326   2000.0000    155.9355
   846.5000   -999.2500      9.3326      9.4142   2000.0000    155.1717
   846.7500   -999.2500      9.0720      9.1247   2000.0000    153.3278
   847.0000   -999.2500      8.8641      8.8663   2000.0000    151.3567
   847.2500   -999.2500      8.6998      8.6414   2000.0000    151.6552
   847.5000   -999.2500      8.5673      8.4527   2000.0000    153.9406
   847.7500   -999.2500      8.4542      8.3044   2000.0000    155.5228
   848.0000   -999.2500      8.3479      8.2007   2000.0000    156.4709
   848.2500   -999.2500      8.2373      8.1433   2000.0000    155.8647
   848.5000   -999.2500      8.1146      8.1272   2000.0000    153.0340
   848.7500   -999.2500      7.9781      8.1373   2000.0000    149.8577
   849.0000   -999.2500      7.8336      8.1490   2000.0000    143.5392
   849.2500   -999.2500      7.6936      8.1340   2000.0000    139.0708
   849.5000   -999.2500      7.5744      8.0706   2000.0000    134.0910
   849.7500   -999.2500      7.4917      7.9543   2000.0000    132.9165
   850.0000   -999.2500      7.4568      7.8015   2000.0000    134.4256
