~Version Information
VERS.                      2.0: CWLS Log ASCII Standard - VERSION 2.0
WRAP.                       NO: One line per depth step
~Well Information Block
STRT.FT               -15.7500: 
STOP.FT              1862.5000: 
STEP.FT                 0.2500: 
NULL.                -999.2500: 
COMP.          XTO Energy Inc.: COMPANY
WELL.          Golden Eagle 19-11: WELL
FLD.           Purgatorie River: FIELD
LOC.           2351' FSL &1926' WL--: LOCATION
CNTY.               Las Animas: COUNTY
SRVC.          Patterson Wireline: SERVICE COMPANY
DATE.          Fri Mar 24 16:29:29 2006: LOG DATE
UWI.           05 071 08696 00: UNIQUE WELL ID
STAT.                       CO: STATE
~Curve Information Block
DEPT.FT            0 000 00 00: Depth
CCL.                          : Casing Collar Locator
TT3.usec                      : CBL 3' Travel Time
AMP3.mV                       : CBL 3' Amplitude
GR.GAPI                       : Gamma Ray
~Parameter Information Block
~A  Depth       CCL         TT3         AMP3         GR     
# ...
   955.7500      0.0000    683.6742      3.8242    174.9795
   956.0000      0.0000    662.9357      3.7587    173.9974
   956.2500      0.0000    632.1424      3.7087    168.2809
   956.5000      0.0000    590.3704      3.6845    158.2601
   956.7500      0.0000    544.7576      3.6911    146.0509
   957.0000      0.0000    509.8143      3.7274    133.9223
   957.2500      0.0000    498.2281      3.7818    123.7950
   957.5000      0.0000    512.6681      3.8329    117.6640
   957.7500      0.0000    544.7202      3.8639    117.3607
   958.0000      0.0000    579.9929      3.8757    122.9739
   958.2500      0.0000    607.3990      3.8831    131.7355
   958.5000      0.0000    626.9669      3.8946    139.4933
   958.7500      0.0000    647.1427      3.9006    143.7128
   959.0000      0.0000    673.2948      3.8839    144.9671
   959.2500      0.0000    701.6934      3.8415    145.7897
   959.5000      0.0000    724.9390      3.7917    148.2522
   959.7500      0.0000    738.9551      3.7559    152.1766
   960.0000      0.0000    743.5416      3.7377    155.2224
   960.2500      0.0000    740.1834      3.7198    154.7853
   960.5000      0.0000    731.9960      3.6851    150.2068
   960.7500      0.0000    723.7468      3.6346    143.4909
   961.0000      0.0000    719.2227      3.5857    137.9553
   961.2500      0.0000    718.4655      3.5555    135.9257
   961.5000      0.0000    718.6758      3.5492    137.3608
   961.7500      0.0000    717.8938      3.5629    140.3809
   962.0000      0.0000    717.1179      3.5899    143.1267
   962.2500      0.0000    718.8347      3.6216    145.2063
   962.5000      0.0000    724.1066      3.6456    147.2296
   962.7500      0.0000    731.1400      3.6469    149.1501
   963.0000      0.0000    736.2291      3.6169    149.9532
   963.2500      0.0000    736.1881      3.5639    149.2990
   963.5000      0.0000    730.8302      3.5120    148.6316
   963.7500      0.0000    723.6382      3.4827    149.9772
   964.0000      0.0000    719.3741      3.4762    153.8871
   964.2500      0.0000    720.2028      3.4720    158.8725
   964.5000      0.0000    724.0944      3.4467    162.8561
   964.7500      0.0000    726.9102      3.3888    165.3000
   965.0000      0.0000    725.7281      3.3002    167.9702
   965.2500      0.0000    720.5146      3.1911    173.1095
   965.5000      0.0000    713.3716      3.0766    180.3814
   965.7500      0.0000    706.4630      2.9740    185.9922
   966.0000      0.0000    700.6275      2.9009    185.6689
   966.2500      0.0000    695.8550      2.8728    178.6478
   966.5000      0.0000    692.6528      2.9024    168.1760
   966.7500      0.0000    692.3702      2.9959    158.0431
   967.0000      0.0000    695.8075      3.1464    149.3912
   967.2500      0.0000    701.1922      3.3332    141.0891
   967.5000      0.0000    702.7407      3.5318    132.2412
   967.7500      0.0000    691.0427      3.7271    123.5062
   968.0000      0.0000    657.2847      3.9156    116.1183
   968.2500      0.0000    600.8153      4.0991    110.2766
   968.5000      0.0000    533.3416      4.2788    104.9788
   968.7500      0.0000    473.3459      4.4505     99.5547
   969.0000      0.0000    435.0912      4.6020     95.1754
   969.2500      0.0000    423.4596      4.7105     94.3662
   969.5000      0.0000    437.4929      4.7492     98.7925
   969.7500      0.0000    474.5530      4.7041    107.6801
   970.0000      0.0000    529.0119      4.5862    118.3571
   970.2500      0.0000    589.5589      4.4270    128.0051
   970.5000      0.0000    642.2824      4.2599    135.0593
   970.7500      0.0000    678.2931      4.1040    139.6352
   971.0000      0.0000    697.5832      3.9643    143.0273
   971.2500      0.0000    705.8344      3.8411    146.5051
   971.5000      0.0000    709.1071      3.7377    150.1166
   971.7500      0.0000    711.4310      3.6593    152.6039
   972.0000      0.0000    715.0162      3.6085    152.6404
   972.2500      0.0000    720.6378      3.5866    149.9756
   972.5000      0.0000    727.4382      3.5994    145.4035
   972.7500      0.0000    733.2775      3.6575    140.1823
   973.0000      0.0000    736.0199      3.7692    135.7752
   973.2500      0.0000    734.3770      3.9328    133.4591
   973.5000      0.0000    727.0897      4.1346    133.5615
   973.7500      0.0000    711.9435      4.3523    135.3055
   974.0000      0.0000    686.9940      4.5620    137.6058
   974.2500      0.0000    653.6122      4.7463    139.7662
   974.5000      0.0000    617.8099      4.8980    141.4349
   974.7500      0.0000    587.3680      5.0182    142.4321
   975.0000      0.0000    567.3016      5.1137    142.7852
   975.2500      0.0000    558.7610      5.1948    142.7822
   975.5000      0.0000    561.9315      5.2728    143.1025
   975.7500      0.0000    577.8764      5.3551    144.7731
   976.0000      0.0000    605.9342      5.4384    148.4125
   976.2500      0.0000    640.3939      5.5057    153.3120
   976.5000      0.0000    672.1949      5.5343    157.5944
   976.7500      0.0000    694.6884      5.5133    159.5600
   977.0000      0.0000    707.0059      5.4589    159.1167
   977.2500      0.0000    712.2996      5.4101    157.8260
   977.5000      0.0000    714.1589      5.4079    157.4653
   977.7500      0.0000    714.7670      5.4711    158.7762
   978.0000      0.0000    715.0012      5.5866    161.5065
   978.2500      0.0000    715.1138      5.7199    164.8524
   978.5000      0.0000    715.1688      5.8362    167.5302
   978.7500      0.0000    715.1844      5.9206    168.1466
   979.0000      0.0000    715.1571      5.9779    166.0351
   979.2500      0.0000    715.0947      6.0157    161.6419
   979.5000      0.0000    715.0125      6.0275    156.0988
   979.7500      0.0000    714.8797      5.9949    150.6929
   980.0000      0.0000    714.5714      5.9037    146.6584
   980.2500      0.0000    713.9033      5.7522    144.8729
   980.5000      0.0000    712.6486      5.5436    145.4849
   980.7500      0.0000    710.4205      5.2795    148.0550
   981.0000      0.0000    706.4309      4.9624    151.9556
   981.2500      0.0000    699.6709      4.6031    156.2118
   981.5000      0.0000    689.8930      4.2260    159.1883
   981.7500      0.0000    678.2819      3.8678    159.0354
   982.0000      0.0000    665.4518      3.5661    154.5172
   982.2500      0.0000    647.6602      3.3430    145.6039
   982.5000      0.0000    617.1849      3.1996    134.0203
   982.7500      0.0000    570.0675      3.1236    123.1072
   983.0000      0.0000    514.1071      3.0994    115.9507
   983.2500      0.0000    467.6194      3.1093    113.1421
   983.5000      0.0000    449.5494      3.1314    112.8330
   983.7500      0.0000    469.0933      3.1461    112.9766
   984.0000      0.0000    520.4960      3.1461    113.2130
   984.2500      0.0000    585.3873      3.1400    114.7740
   984.5000      0.0000    642.7906      3.1452    118.8458
   984.7500      0.0000    680.3877      3.1746    124.8760
   985.0000      0.0000    697.7105      3.2267    130.5144
   985.2500      0.0000    700.9387      3.2841    133.3940
   985.5000      0.0000    697.2161      3.3215    132.8286
   985.7500      0.0000    692.6782      3.3183    129.8809
   986.0000      0.0000    691.7421      3.2706    126.2673
   986.2500      0.0000    695.9180      3.1942    123.2982
   986.5000      0.0000    703.4577      3.1143    121.4545
   986.7500      0.0000    710.7626      3.0512    120.5817
   987.0000      0.0000    714.7109      3.0117    120.3941
   987.2500      0.0000    714.6629      2.9901    120.8756
   987.5000      0.0000    712.6396      2.9742    122.3148
   987.7500      0.0000    711.2099      2.9509    125.0265
   988.0000      0.0000    711.0888      2.9109    129.1405
   988.2500      0.0000    710.9984      2.8533    134.6468
   988.5000      0.0000    709.5895      2.7860    141.3554
   988.7500      0.0000    706.9184      2.7223    148.5358
   989.0000      0.0000    704.0519      2.6734    154.8949
