~Version Information
VERS.                      2.0: CWLS Log ASCII Standard - VERSION 2.0
WRAP.                       NO: One line per depth step
~Well Information Block
STRT.FT               615.0000: 
STOP.FT              2807.0000: 
STEP.FT                 0.1000: 
NULL.                -999.2500: 
COMP.          Pioneer Natural Resources: COMPANY
WELL.              Loews 41-32: WELL
FLD.           Purgatoire River: FIELD
LOC.           751' FNL & 128' FEL: LOCATION
CNTY.               Las Animas: COUNTY
SRVC.                Patterson: SERVICE COMPANY
DATE.          Mon Feb 13 07:19:27 2006: LOG DATE
UWI.           05 071 08693 00: UNIQUE WELL ID
STAT.                 Colorado: STATE
~Curve Information Block
DEPT.FT            0 000 00 00: Depth
DCAL.in                       : CDL Caliper
RHOB.g/cc                     : CDL Bulk Density
RHOC.g/cc                     : CDL Density Correction
DPOR.pu                       : CDL Density Porosity
GR.GAPI                       : Gamma Ray
NPOR.pu                       : Neutron Porosity
~Parameter Information Block
~A  Depth       DCAL        RHOB        RHOC        DPOR         GR         NPOR    
# ...
  1920.6000      8.1592      2.4634     -0.1071     11.3076    145.1694     28.2757
  1920.7000      8.1592      2.4405     -0.0720     12.6950    145.0171     28.5730
  1920.8000      8.1591      2.4465     -0.0136     12.3352    146.5522     29.2047
  1920.9000      8.1591      2.4663      0.0307     11.1310    150.0754     29.5202
  1921.0000      8.1624      2.4805      0.0204     10.2749    154.4021     29.3577
  1921.1000      8.1624      2.4807      0.0260     10.2577    158.7876     29.4227
  1921.2000      8.1624      2.4683      0.0271     11.0104    161.9372     29.9806
  1921.3000      8.1695      2.4433      0.0487     12.5262    164.0970     30.3967
  1921.4000      8.1695      2.4021      0.0192     15.0237    163.1087     30.4674
  1921.5000      8.1599      2.3425     -0.0107     18.6345    159.4992     30.5997
  1921.6000      8.1599      2.2576     -0.0073     23.7809    156.7027     30.7675
  1921.7000      8.1599      2.1459     -0.0684     30.5512    156.3663     30.7295
  1921.8000      8.1593      2.0331     -0.0918     37.3897    158.9503     30.7099
  1921.9000      8.1593      1.9437     -0.0884     42.8089    160.8484     30.8621
  1922.0000      8.1614      1.8677     -0.0920     47.4111    157.3089     31.1011
  1922.1000      8.1614      1.7905     -0.1264     52.0904    150.5908     31.4755
  1922.2000      8.1614      1.7441     -0.1250     54.9021    146.4869     31.7799
  1922.3000      8.1908      1.7810     -0.0651     52.6638    146.7573     31.5320
  1922.4000      8.1908      1.8920      0.1523     45.9397    146.8340     30.8491
  1922.5000      8.4051      2.0118      0.1749     38.6809    140.2452     30.5063
  1922.6000      8.4051      2.0996      0.2221     33.3594    128.5177     30.9593
  1922.7000      8.4051      2.1600      0.1628     29.6974    117.2038     31.4377
  1922.8000      8.5633      2.2182      0.1717     26.1716    108.0312     30.8805
  1922.9000      8.5633      2.2893      0.1701     21.8591    101.3367     29.3034
  1923.0000      8.6718      2.3734      0.0880     16.7644     99.8925     27.6236
  1923.1000      8.6718      2.4567      0.1092     11.7171    103.8661     26.9110
  1923.2000      8.6718      2.5139      0.0136      8.2509    108.9330     27.0768
  1923.3000      8.2427      2.5370      0.0105      6.8478    112.2342     27.2844
  1923.4000      8.2427      2.5412      0.0204      6.5963    113.6505     27.1514
  1923.5000      8.1647      2.5473     -0.0199      6.2229    117.3681     26.5002
  1923.6000      8.1647      2.5615      0.0124      5.3663    125.9370     25.7737
  1923.7000      8.1647      2.5704      0.0053      4.8223    132.9200     25.8307
  1923.8000      8.1591      2.5682     -0.0095      4.9571    135.4897     26.3378
  1923.9000      8.1591      2.5613     -0.0210      5.3735    137.7330     26.5162
  1924.0000      8.1587      2.5508      0.0079      6.0136    138.4756     26.3738
  1924.1000      8.1587      2.5351     -0.0322      6.9608    133.6086     26.4773
  1924.2000      8.1587      2.5244     -0.0115      7.6149    126.9922     27.1819
  1924.3000      8.1606      2.5244     -0.0059      7.6111    127.0446     28.0821
  1924.4000      8.1606      2.5281      0.0115      7.3906    133.5273     28.5067
  1924.5000      8.1632      2.5305      0.0068      7.2397    139.4271     28.0431
  1924.6000      8.1632      2.5375      0.0081      6.8164    141.8248     26.9542
  1924.7000      8.1632      2.5551      0.0190      5.7542    142.7995     25.9383
  1924.8000      8.1642      2.5841      0.0060      3.9926    144.8347     25.3755
  1924.9000      8.1642      2.6183      0.0567      1.9225    146.9650     25.2964
  1925.0000      8.1614      2.6365      0.0861      0.8210    148.4155     25.5810
  1925.1000      8.1614      2.6235      0.0646      1.6066    151.6124     26.0609
  1925.2000      8.1614      2.5918      0.0131      3.5278    153.3761     26.4850
  1925.3000      8.1626      2.5574      0.0077      5.6146    150.0022     26.3327
  1925.4000      8.1626      2.5222     -0.0288      7.7479    148.3004     25.6863
  1925.5000      8.1679      2.4947     -0.0672      9.4132    151.3140     25.4099
  1925.6000      8.1679      2.4875     -0.0454      9.8492    151.7889     25.5319
  1925.7000      8.1679      2.4965     -0.0389      9.3059    148.8874     25.1456
  1925.8000      8.1619      2.5139     -0.0127      8.2455    146.3742     24.5341
  1925.9000      8.1619      2.5442     -0.0090      6.4132    143.5268     24.8556
  1926.0000      8.1623      2.5850      0.0217      3.9374    139.6906     25.7199
  1926.1000      8.1623      2.6130      0.0665      2.2426    138.0673     26.0578
  1926.2000      8.1623      2.6129      0.0500      2.2481    141.5996     25.9434
  1926.3000      8.1682      2.6004      0.0502      3.0039    147.1159     25.6969
  1926.4000      8.1682      2.5921      0.0243      3.5100    147.1558     25.4518
  1926.5000      8.1924      2.5915      0.0402      3.5443    140.1433     25.3198
  1926.6000      8.1924      2.6009      0.0460      2.9782    134.7827     24.9721
  1926.7000      8.1924      2.6187      0.0175      1.8970    136.6313     23.9582
  1926.8000      8.1331      2.6379      0.0102      0.7319    138.4115     22.6109
  1926.9000      8.1331      2.6485      0.0564      0.0912    133.9027     21.9836
  1927.0000      8.1184      2.6453      0.0416      0.2869    126.6406     22.4352
  1927.1000      8.1184      2.6366      0.0366      0.8095    119.6543     23.0284
  1927.2000      8.1184      2.6377      0.0258      0.7462    111.8873     22.8569
  1927.3000      8.1187      2.6528      0.0613     -0.1706    104.2536     21.9984
  1927.4000      8.1187      2.6705      0.0504     -1.2397     95.5512     21.4196
  1927.5000      8.1194      2.6732      0.0826     -1.4037     84.0734     21.9811
  1927.6000      8.1194      2.6523      0.0429     -0.1382     78.2356     23.0329
  1927.7000      8.1194      2.6195      0.0222      1.8493     83.4768     23.4030
  1927.8000      8.1227      2.5964      0.0040      3.2482     91.2336     23.3138
  1927.9000      8.1227      2.5909     -0.0100      3.5847     94.9103     23.5260
  1928.0000      8.1327      2.5893      0.0062      3.6759     96.7413     24.0197
  1928.1000      8.1327      2.5757      0.0369      4.5050    103.4202     24.5266
  1928.2000      8.1327      2.5510     -0.0265      5.9976    116.2734     24.6888
  1928.3000      8.1321      2.5334     -0.0215      7.0638    122.8521     24.3600
  1928.4000      8.1321      2.5342     -0.0019      7.0209    116.9259     24.1249
  1928.5000      8.1257      2.5481      0.0027      6.1747    110.4726     24.4044
  1928.6000      8.1257      2.5639      0.0323      5.2198    111.0182     24.7966
  1928.7000      8.1257      2.5722      0.0317      4.7163    116.3998     25.0275
  1928.8000      8.1288      2.5745      0.0417      4.5777    123.2389     25.5014
  1928.9000      8.1288      2.5810      0.0003      4.1825    129.6954     26.1635
  1929.0000      8.1345      2.5934      0.0354      3.4304    137.3136     26.1169
  1929.1000      8.1345      2.6037     -0.0061      2.8035    143.3131     25.5723
  1929.2000      8.1345      2.6169     -0.0320      2.0071    143.3591     25.7542
  1929.3000      8.1264      2.6353      0.0462      0.8907    139.7184     26.6049
  1929.4000      8.1264      2.6443      0.0263      0.3432    137.3830     27.1314
  1929.5000      8.1263      2.6370      0.0426      0.7855    136.6548     26.6824
  1929.6000      8.1263      2.6229      0.0044      1.6419    132.4906     25.4971
  1929.7000      8.1263      2.6160      0.0127      2.0596    125.7915     24.6868
  1929.8000      8.1125      2.6181      0.0165      1.9327    122.5801     24.8640
  1929.9000      8.1125      2.6203      0.0189      1.7975    120.1818     25.2127
  1930.0000      8.1095      2.6259      0.0181      1.4614    112.4509     24.9458
  1930.1000      8.1095      2.6416      0.0214      0.5085    104.8202     24.7368
