~Version Information
VERS.                      2.0: CWLS Log ASCII Standard - VERSION 2.0
WRAP.                       NO: One line per depth step
~Well Information Block
STRT.FT               460.0000: 
STOP.FT              1498.0000: 
STEP.FT                 0.1000: 
NULL.                -999.2500: 
COMP.          Pioneer Natural Resources: COMPANY
WELL.           Amore 32-09 Tr: WELL
FLD.           Purgatoire River: FIELD
LOC.           1941' FNL & 2297' FEL: LOCATION
PROV.                 Colorado: PROVINCE
CNTY.               Las Animas: COUNTRY
SRVC.                Patterson: SERVICE COMPANY
DATE.          Mon Nov 14 13:24:57 2005: LOG DATE
UWI.           05 071 08584 00: UNIQUE WELL ID
~Curve Information Block
DEPT.FT            0 000 00 00: Depth
DCAL.in                       : CDL Caliper
RHOB.g/cc                     : CDL Bulk Density
RHOC.g/cc                     : CDL Density Correction
DPOR.pu                       : CDL Density Porosity
GR.GAPI                       : Gamma Ray
NPOR.pu                       : Neutron Porosity
~Parameter Information Block
~A  Depth       DCAL        RHOB        RHOC        DPOR         GR         NPOR    
# ...
  1074.4000      8.1190      2.5167      0.0379      8.0779    147.2938     26.9803
  1074.5000      8.1203      2.5091      0.0993      8.5374    146.1542     27.1275
  1074.6000      8.1203      2.4952      0.0606      9.3803    147.0609     27.2523
  1074.7000      8.1203      2.4756      0.0774     10.5726    144.9820     27.3096
  1074.8000      8.1221      2.4749      0.0170     10.6115    139.0572     27.5983
  1074.9000      8.1221      2.5074      0.1116      8.6409    136.4922     28.0783
  1075.0000      8.1212      2.5506      0.1217      6.0229    137.5844     28.7003
  1075.1000      8.1212      2.5798      0.1592      4.2565    139.2260     28.9956
  1075.2000      8.1212      2.5834      0.1850      4.0357    141.5583     28.5244
  1075.3000      8.1094      2.5598      0.1535      5.4675    140.9787     27.7580
  1075.4000      8.1094      2.5278      0.0649      7.4036    136.7819     27.1466
  1075.5000      8.0877      2.5111      0.0661      8.4189    134.0788     27.0456
  1075.6000      8.0877      2.5024      0.1129      8.9428    132.1203     27.9881
  1075.7000      8.0877      2.4700      0.1077     10.9086    130.7959     29.4494
  1075.8000      8.0745      2.4035      0.0508     14.9411    133.4952     30.0462
  1075.9000      8.0745      2.3310      0.0318     19.3333    138.2150     29.6278
  1076.0000      8.0715      2.2858      0.0088     22.0753    141.3799     29.0051
  1076.1000      8.0715      2.2767      0.0493     22.6222    141.5986     28.5712
  1076.2000      8.0715      2.2952      0.0290     21.5006    139.2245     28.2032
  1076.3000      8.0714      2.3291      0.0867     19.4488    136.7591     27.8849
  1076.4000      8.0714      2.3623      0.1471     17.4357    134.8420     27.8618
  1076.5000      8.0708      2.3876      0.1400     15.9014    131.4160     27.8722
  1076.6000      8.0708      2.4150      0.1412     14.2446    125.9685     27.1066
  1076.7000      8.0708      2.4507      0.1324     12.0778    121.1226     25.8508
  1076.8000      8.0699      2.4884      0.1762      9.7935    121.0038     25.5948
  1076.9000      8.0699      2.5265      0.0711      7.4845    127.2287     26.6730
  1077.0000      8.0696      2.5604      0.1145      5.4298    136.2944     27.7073
  1077.1000      8.0696      2.5705      0.1235      4.8173    142.9053     28.0132
  1077.2000      8.0696      2.5581      0.0756      5.5695    146.7956     27.7148
  1077.3000      8.0701      2.5461      0.0805      6.2949    148.0591     26.8933
  1077.4000      8.0701      2.5405      0.1294      6.6345    145.2065     26.6548
  1077.5000      8.0727      2.5300      0.1189      7.2718    139.6201     27.7391
  1077.6000      8.0727      2.5011      0.1116      9.0245    130.8264     28.8029
  1077.7000      8.0727      2.4450      0.0513     12.4216    122.8147     28.4911
  1077.8000      8.0779      2.3771      0.0082     16.5413    121.9748     27.3467
  1077.9000      8.0779      2.3317     -0.0317     19.2930    123.6886     26.5441
  1078.0000      8.0815      2.3258     -0.0043     19.6474    124.7397     26.4660
  1078.1000      8.0815      2.3473      0.0101     18.3463    128.4567     26.6869
  1078.2000      8.0815      2.3829      0.0293     16.1885    132.2678     27.1227
  1078.3000      8.0824      2.4318      0.0413     13.2263    133.4555     28.3114
  1078.4000      8.0824      2.4835      0.1702     10.0902    136.4245     29.8036
  1078.5000      8.0822      2.5210      0.1576      7.8201    142.0983     30.2425
  1078.6000      8.0822      2.5463      0.1890      6.2838    146.2903     29.5074
  1078.7000      8.0822      2.5679      0.1721      4.9730    148.9464     28.9292
  1078.8000      8.0821      2.5807      0.1771      4.1975    152.7438     29.3063
  1078.9000      8.0821      2.5691      0.1599      4.9021    154.6310     29.8216
  1079.0000      8.0825      2.5345      0.0739      6.9984    149.4686     29.4490
  1079.1000      8.0825      2.5063      0.0209      8.7120    141.5990     28.4229
  1079.2000      8.0825      2.5010      0.0281      9.0329    137.0863     27.8489
  1079.3000      8.0831      2.5113      0.0002      8.4047    135.7095     28.3105
  1079.4000      8.0831      2.5275      0.0465      7.4244    138.0090     29.0629
  1079.5000      8.0835      2.5401      0.0454      6.6581    141.0012     29.4208
  1079.6000      8.0835      2.5436      0.0192      6.4493    138.7930     29.3230
  1079.7000      8.0835      2.5309      0.0767      7.2172    134.4368     28.9402
  1079.8000      8.0842      2.4977      0.0423      9.2323    131.7519     28.0671
  1079.9000      8.0842      2.4550      0.0475     11.8177    128.7474     27.0594
  1080.0000      8.0857      2.4130      0.0270     14.3612    125.8405     27.3459
  1080.1000      8.0857      2.3665      0.0168     17.1793    123.8111     28.9166
  1080.2000      8.0857      2.3074      0.0198     20.7654    119.1373     30.1009
  1080.3000      8.0874      2.2348     -0.0110     25.1630    113.0269     30.0888
  1080.4000      8.0874      2.1417     -0.0340     30.8044    110.4553     29.4207
  1080.5000      8.0893      2.0260     -0.0630     37.8196    111.4725     28.8960
  1080.6000      8.0893      1.9227     -0.1126     44.0763    112.5612     28.4855
  1080.7000      8.0893      1.8700     -0.1080     47.2699    111.9574     28.0410
  1080.8000      8.0936      1.8532     -0.0289     48.2885    113.4290     27.9926
  1080.9000      8.0936      1.8410     -0.0322     49.0285    119.9379     28.3499
  1081.0000      8.1035      1.8434     -0.0283     48.8863    127.0238     28.8884
  1081.1000      8.1035      1.8801      0.1114     46.6599    131.4574     29.4287
  1081.2000      8.1035      1.9401      0.1597     43.0228    136.5135     29.5890
  1081.3000      8.1121      1.9989      0.1763     39.4603    140.5166     29.5110
  1081.4000      8.1121      2.0384      0.1888     37.0690    138.5036     29.9495
  1081.5000      8.0989      2.0650      0.0912     35.4523    136.3323     30.7804
  1081.6000      8.0989      2.1013      0.0639     33.2528    139.9635     30.9614
  1081.7000      8.0989      2.1445      0.0499     30.6379    143.0443     30.0531
  1081.8000      8.0679      2.1801      0.0376     28.4791    138.0881     29.0027
  1081.9000      8.0679      2.2071      0.0716     26.8415    129.6298     28.5972
  1082.0000      8.0485      2.2228      0.0865     25.8880    131.1802     28.7020
  1082.1000      8.0485      2.2249      0.0727     25.7623    144.0181     29.3365
  1082.2000      8.0485      2.2220      0.0967     25.9383    154.7261     30.3405
  1082.3000      8.0437      2.2225      0.0524     25.9078    157.2837     31.4896
  1082.4000      8.0437      2.2277      0.0361     25.5969    156.8245     32.2748
  1082.5000      8.0427      2.2366      0.0682     25.0566    157.4002     32.1491
  1082.6000      8.0427      2.2420      0.0927     24.7303    154.3174     31.6698
  1082.7000      8.0427      2.2340      0.0995     25.2120    147.1523     31.3259
  1082.8000      8.0421      2.2241      0.0447     25.8108    142.7397     31.1072
  1082.9000      8.0421      2.2342      0.0751     25.1996    142.3467     31.0549
  1083.0000      8.0420      2.2640      0.1156     23.3938    143.1398     30.7458
  1083.1000      8.0420      2.2958      0.1204     21.4686    143.5793     30.0308
  1083.2000      8.0420      2.3186      0.1121     20.0867    138.7827     29.5493
  1083.3000      8.0422      2.3401      0.1002     18.7834    129.9321     29.6669
  1083.4000      8.0422      2.3740      0.0996     16.7295    126.9265     29.9596
  1083.5000      8.0431      2.4163      0.1150     14.1613    128.7059     29.7175
  1083.6000      8.0431      2.4537      0.1210     11.8961    127.6600     28.8291
  1083.7000      8.0431      2.4931      0.1186      9.5079    127.5954     27.6797
  1083.8000      8.0431      2.5483      0.1173      6.1610    132.0248     26.3770
  1083.9000      8.0431      2.5991      0.1702      3.0836    137.6361     25.0961
