~Version Information
VERS.                      2.0: CWLS Log ASCII Standard - VERSION 2.0
WRAP.                       NO: One line per depth step
~Well Information Block
STRT.FT               240.0000: 
STOP.FT               902.0000: 
STEP.FT                 0.1000: 
NULL.                -999.2500: 
COMP.          Pioneer Natural Resources: COMPANY
WELL.          Bienville 31-28: WELL
FLD.           Purgatoire River: FIELD
LOC.           1212' FNL & 2271' FEL: LOCATION
PROV.                 Colorado: PROVINCE
CNTY.               Las Animas: COUNTRY
SRVC.                Patterson: SERVICE COMPANY
DATE.          Mon Jan 16 13:39:21 2006: LOG DATE
UWI.           05 071 08666 00: UNIQUE WELL ID
~Curve Information Block
DEPT.FT            0 000 00 00: Depth
DCAL.in                       : CDL Caliper
RHOB.g/cc                     : CDL Bulk Density
RHOC.g/cc                     : CDL Density Correction
DPOR.pu                       : CDL Density Porosity
GR.GAPI                       : Gamma Ray
NPOR.pu                       : Neutron Porosity
~Parameter Information Block
~A  Depth       DCAL        RHOB        RHOC        DPOR         GR         NPOR    
# ...
   451.2000      7.8577      2.5205      0.0477      7.8472    143.4465     26.5343
   451.3000      7.8689      2.5364      0.1103      6.8851    145.0887     26.2804
   451.4000      7.8689      2.5534      0.1227      5.8560    142.4352     26.4340
   451.5000      7.8641      2.5642      0.1208      5.2019    134.4066     26.6311
   451.6000      7.8641      2.5690      0.1234      4.9061    126.8215     26.5012
   451.7000      7.8641      2.5623      0.1132      5.3150    123.4993     26.1376
   451.8000      7.8692      2.5464      0.0319      6.2760    123.4986     25.9415
   451.9000      7.8692      2.5333      0.0511      7.0717    123.7900     25.9547
   452.0000      7.8735      2.5256      0.0027      7.5397    121.5569     25.9605
   452.1000      7.8735      2.5248      0.0413      7.5860    115.1333     25.9463
   452.2000      7.8735      2.5355      0.0123      6.9423    107.6642     25.8183
   452.3000      7.8785      2.5577      0.0628      5.5943    105.1309     25.5204
   452.4000      7.8785      2.5873      0.0286      3.8004    109.4022     25.2288
   452.5000      7.8926      2.6162      0.0380      2.0503    112.9473     25.0674
   452.6000      7.8926      2.6328      0.0494      1.0414    110.3704     24.9215
   452.7000      7.8926      2.6362      0.0198      0.8340    106.9985     24.7217
   452.8000      7.8911      2.6347      0.0764      0.9301    104.6932     24.6088
   452.9000      7.8911      2.6248      0.1019      1.5287     98.4582     24.5656
   453.0000      7.9075      2.5961      0.0661      3.2696     90.8482     24.2937
   453.1000      7.9075      2.5495      0.0215      6.0911     87.9571     23.7297
   453.2000      7.9075      2.5019     -0.0478      8.9763     87.7391     23.2098
   453.3000      7.8861      2.4731     -0.0282     10.7213     86.7017     22.9853
   453.4000      7.8861      2.4686     -0.0426     10.9922     86.7574     22.9632
   453.5000      7.8568      2.4797     -0.0044     10.3215     87.7570     23.2033
   453.6000      7.8568      2.4939      0.0221      9.4630     86.7091     23.6430
   453.7000      7.8568      2.5084      0.0659      8.5829     85.3176     23.7046
   453.8000      7.9108      2.5261      0.1465      7.5068     89.4684     23.3942
   453.9000      7.9108      2.5412      0.1771      6.5947    101.5847     23.5682
   454.0000      7.8828      2.5398      0.2155      6.6762    116.4318     24.5349
   454.1000      7.8828      2.5095      0.1715      8.5143    124.4256     25.7727
   454.2000      7.8828      2.4621      0.0824     11.3907    121.4119     26.4341
   454.3000      7.7869      2.4311      0.1025     13.2691    114.5612     26.1335
   454.4000      7.7869      2.4380      0.0191     12.8458    112.6828     25.2838
   454.5000      7.7734      2.4856      0.0906      9.9616    115.0833     24.5384
   454.6000      7.7734      2.5593      0.1168      5.4944    117.9415     24.3188
   454.7000      7.7734      2.6324      0.2142      1.0649    118.8656     24.6056
   454.8000      7.7814      2.6876      0.2769     -2.2799    116.3088     24.9882
   454.9000      7.7814      2.7193      0.3063     -4.1971    112.0509     25.1460
   455.0000      7.8171      2.7183      0.2955     -4.1407    107.9539     24.9016
   455.1000      7.8171      2.6909      0.2102     -2.4796    104.2378     24.1886
   455.2000      7.8171      2.6558      0.1874     -0.3491    100.4274     23.4462
   455.3000      7.7869      2.6168      0.1536      2.0130     97.1281     23.0957
   455.4000      7.7869      2.5769      0.0701      4.4324     93.7079     22.9738
   455.5000      7.8356      2.5490      0.0163      6.1239     89.6925     22.9088
   455.6000      7.8356      2.5439      0.0216      6.4309     86.0215     22.8914
   455.7000      7.8356      2.5653      0.0458      5.1305     79.9883     22.8943
   455.8000      7.8538      2.6025      0.0887      2.8772     73.9460     22.9700
   455.9000      7.8538      2.6254      0.1667      1.4926     74.1831     23.1024
   456.0000      7.8633      2.6170      0.1229      2.0009     75.6968     23.1151
   456.1000      7.8633      2.5997      0.1437      3.0507     72.5374     22.9075
   456.2000      7.8633      2.5993      0.1380      3.0742     71.6223     22.7367
   456.3000      7.8783      2.6116      0.1566      2.3267     79.0704     22.8816
   456.4000      7.8783      2.6149      0.1228      2.1260     87.2072     23.1068
   456.5000      7.8540      2.6023      0.0614      2.8922     88.8817     22.9860
   456.6000      7.8540      2.5851      0.0592      3.9339     89.1387     22.4797
   456.7000      7.8540      2.5737      0.0320      4.6240     92.1759     22.2145
   456.8000      7.8450      2.5699      0.0907      4.8533     92.1702     22.5867
   456.9000      7.8450      2.5682      0.0670      4.9564     86.6710     23.0705
   457.0000      7.8628      2.5666      0.0855      5.0525     83.1712     23.1871
   457.1000      7.8628      2.5666      0.0995      5.0543     86.2194     22.9488
   457.2000      7.8628      2.5639      0.0979      5.2211     89.1680     22.4189
   457.3000      7.8955      2.5477      0.0384      6.1995     83.9520     21.9956
   457.4000      7.8955      2.5208     -0.0035      7.8324     73.0706     22.3202
   457.5000      7.8731      2.5038     -0.0352      8.8630     68.2765     23.2236
   457.6000      7.8731      2.4959      0.0520      9.3397     73.1496     24.0493
   457.7000      7.8731      2.4819      0.0034     10.1893     78.7523     24.3636
   457.8000      7.8991      2.4688      0.0321     10.9790     80.1769     23.9826
   457.9000      7.8991      2.4604      0.0428     11.4937     79.5157     23.2041
   458.0000      7.8906      2.4598     -0.0063     11.5271     77.5050     22.7597
   458.1000      7.8906      2.4865      0.0528      9.9115     74.4561     22.9806
   458.2000      7.8906      2.5354      0.0754      6.9437     73.4015     23.4726
   458.3000      7.8795      2.5771      0.1005      4.4209     74.2603     23.8561
   458.4000      7.8795      2.5961      0.0953      3.2664     72.3035     24.0163
   458.5000      7.8816      2.6043      0.1109      2.7691     66.7444     23.7329
   458.6000      7.8816      2.6227      0.1605      1.6551     60.3551     23.2888
   458.7000      7.8816      2.6565      0.1782     -0.3922     55.2444     23.3392
   458.8000      7.8660      2.6965      0.1811     -2.8180     52.6122     23.5676
   458.9000      7.8660      2.7328      0.1629     -5.0153     51.2750     23.3847
   459.0000      7.8459      2.7454      0.1903     -5.7848     50.1683     22.8490
   459.1000      7.8459      2.7209      0.0938     -4.2945     50.0448     22.0725
   459.2000      7.8459      2.6884      0.0292     -2.3265     50.2754     21.4573
   459.3000      7.8558      2.6755      0.1147     -1.5472     49.0978     21.4541
   459.4000      7.8558      2.6696      0.1163     -1.1900     46.4742     21.8722
   459.5000      7.9056      2.6610      0.0750     -0.6647     44.9736     22.0302
   459.6000      7.9056      2.6511      0.1402     -0.0664     46.7202     21.4640
   459.7000      7.9056      2.6347      0.1161      0.9251     49.6936     20.5266
   459.8000      7.9028      2.6193      0.0561      1.8611     50.7627     19.8283
   459.9000      7.9028      2.6253      0.0427      1.4985     51.4081     19.5239
   460.0000      7.8650      2.6542      0.0717     -0.2536     53.0803     19.5187
   460.1000      7.8650      2.6888      0.1452     -2.3507     53.0281     19.6954
   460.2000      7.8650      2.7141      0.1050     -3.8877     50.6668     19.7157
   460.3000      7.8650      2.7169      0.1724     -4.0523     48.2733     19.3685
   460.4000      7.8650      2.6923      0.1047     -2.5618     45.0132     18.8478
   460.5000      7.8765      2.6661      0.0688     -0.9754     40.2173     18.2929
   460.6000      7.8765      2.6617      0.1075     -0.7101     36.0516     17.8635
   460.7000      7.8765      2.6663      0.0780     -0.9875     33.9824     17.8678
