~Version Information
VERS.                      2.0: CWLS Log ASCII Standard - VERSION 2.0
WRAP.                       NO: One line per depth step
~Well Information Block
STRT.FT               360.0000: 
STOP.FT              1349.5000: 
STEP.FT                 0.1000: 
NULL.                -999.2500: 
COMP.          Pioneer Natural Resources: COMPANY
WELL.          Challenger 31-29: WELL
FLD.           Purgatoire River: FIELD
LOC.           51' FNL & 1923' FEL: LOCATION
STAT.                 Colorado: State
CNTY.               Las Animas: COUNTY
CTRY. USA : Country
SECT. 29 : Section
TOWN. 33S : Township
RANG. 65W : Range
SRVC.                Patterson: SERVICE COMPANY
DATE.          Thu Sep 15 13:35:50 2005: LOG DATE
API.           05 071 08514 00: UNIQUE WELL ID
~Curve Information Block
DEPT.FT            0 000 00 00: Depth
DCAL.in                       : CDL Caliper
RHOB.g/cc                     : CDL Bulk Density
RHOC.g/cc                     : CDL Density Correction
DPOR.pu                       : CDL Density Porosity
GR.GAPI                       : Gamma Ray
NPOR.pu                       : Neutron Porosity
~Parameter Information Block
~A  Depth       DCAL        RHOB        RHOC        DPOR         GR         NPOR    
   360.0000      5.0411      0.1732     -0.5048    150.1106     48.0258     17.0198
   360.1000      5.0411      0.1675     -0.5206    150.4559     44.2640     16.8533
   360.2000      5.0411      0.1751     -0.4680    149.9920     42.7935     16.4493
   360.3000      5.0392      0.1910     -0.4989    149.0296     44.5062     15.3972
   360.4000      5.0392      0.2116     -0.4317    147.7798     48.7529     14.6950
   360.5000      5.0391      0.2295     -0.4308    146.6943     51.7319     14.8316
   360.6000      5.0391      0.2363     -0.3835    146.2875     50.3576     15.3958
   360.7000      5.0391      0.2325     -0.4522    146.5182     47.4747     15.9445
   360.8000      5.0482      0.2257     -0.4422    146.9246     48.2245     16.4150
   360.9000      5.0482      0.2183     -0.4400    147.3751     49.6911     16.2493
   361.0000      5.0701      0.2143     -0.4789    147.6161     46.1525     15.0686
   361.1000      5.0701      0.2233     -0.4595    147.0723     42.0255     14.2360
   361.2000      5.0701      0.2369     -0.3855    146.2492     43.5478     14.8837
   361.3000      5.0550      0.2377     -0.4082    146.2000     49.6488     16.6216
   361.4000      5.0550      0.2285     -0.4723    146.7598     54.6921     17.7384
   361.5000      5.0487      0.2177     -0.4261    147.4135     54.3652     17.1008
   361.6000      5.0487      0.2029     -0.4823    148.3111     50.6357     16.0006
   361.7000      5.0487      0.1838     -0.4641    149.4641     48.9542     16.0341
   361.8000      5.0402      0.1694     -0.5091    150.3366     51.3191     17.0824
   361.9000      5.0402      0.1727     -0.5353    150.1416     54.3706     18.0080
   362.0000      5.0411      0.1900     -0.4561    149.0936     56.0197     17.9702
   362.1000      5.0411      0.2014     -0.4564    148.3989     56.2905     17.2436
   362.2000      5.0411      0.2009     -0.4752    148.4300     52.2095     16.6163
   362.3000      5.0370      0.1976     -0.4715    148.6298     44.1806     16.2330
   362.4000      5.0370      0.1989     -0.4698    148.5527     36.0187     16.1784
   362.5000      5.0442      0.2065     -0.4767    148.0894     29.4889     16.6536
   362.6000      5.0442      0.2166     -0.4543    147.4788     26.2379     17.1016
   362.7000      5.0442      0.2186     -0.4125    147.3591     25.6299     17.1009
   362.8000      5.0423      0.2109     -0.4737    147.8256     25.5970     17.0581
   362.9000      5.0423      0.2089     -0.4694    147.9481     27.1793     17.4107
   363.0000      5.0470      0.2203     -0.4412    147.2570     29.8962     18.2152
   363.1000      5.0470      0.2328     -0.4138    146.4995     31.2889     18.8657
   363.2000      5.0470      0.2306     -0.3969    146.6307     32.6221     19.0925
   363.3000      5.0440      0.2178     -0.4665    147.4087     35.5237     19.6270
   363.4000      5.0440      0.2160     -0.4935    147.5163     37.3804     20.4517
   363.5000      5.0440      0.2281     -0.4027    146.7844     36.5958     20.5741
   363.6000      5.0440      0.2344     -0.4300    146.3996     34.8384     19.5984
   363.7000      5.0440      0.2291     -0.4319    146.7198     33.8844     18.1596
   363.8000      5.0484      0.2221     -0.4504    147.1443     34.5816     17.4737
   363.9000      5.0484      0.2184     -0.4349    147.3678     35.6107     17.9529
   364.0000      5.0528      0.2159     -0.4765    147.5204     36.0525     18.8717
   364.1000      5.0528      0.2127     -0.4343    147.7152     36.5797     19.5293
   364.2000      5.0528      0.2141     -0.5197    147.6286     36.5840     19.6272
   364.3000      5.0433      0.2258     -0.4328    146.9222     35.5239     18.9628
   364.4000      5.0433      0.2337     -0.4041    146.4452     35.3059     17.9570
   364.5000      5.0395      0.2278     -0.4612    146.8002     36.3379     17.3966
   364.6000      5.0395      0.2226     -0.4787    147.1142     36.8251     17.7400
   364.7000      5.0395      0.2267     -0.4252    146.8687     37.0784     18.6974
   364.8000      5.0398      0.2313     -0.4433    146.5887     38.6195     19.5499
   364.9000      5.0398      0.2335     -0.4506    146.4525     39.5007     20.5761
   365.0000      5.0510      0.2406     -0.4366    146.0228     36.7938     21.9559
   365.1000      5.0510      0.2567     -0.4136    145.0484     33.0290     22.3100
   365.2000      5.0510      0.2786     -0.3923    143.7210     31.7259     20.8940
   365.3000      5.0493      0.2947     -0.3345    142.7458     32.5011     19.0282
   365.4000      5.0493      0.2929     -0.3675    142.8537     36.2099     17.9467
   365.5000      5.0480      0.2780     -0.3984    143.7589     43.7302     17.9621
   365.6000      5.0480      0.2666     -0.4431    144.4484     50.0954     18.8191
   365.7000      5.0480      0.2647     -0.3918    144.5667     48.8825     19.1097
   365.8000      5.0384      0.2650     -0.4170    144.5485     42.1492     17.7963
   365.9000      5.0384      0.2649     -0.4096    144.5501     35.7049     16.4514
   366.0000      5.0390      0.2625     -0.3816    144.6966     32.1898     16.6304
   366.1000      5.0390      0.2544     -0.4387    145.1885     32.2661     17.6860
   366.2000      5.0390      0.2435     -0.4284    145.8456     33.8683     18.4801
   366.3000      5.0457      0.2308     -0.4303    146.6208     35.3855     19.0722
   366.4000      5.0457      0.2195     -0.4940    147.3044     37.9823     19.7283
   366.5000      5.0409      0.2194     -0.4683    147.3067     40.8754     20.4381
   366.6000      5.0409      0.2327     -0.4679    146.5034     42.6985     21.4608
   366.7000      5.0409      0.2546     -0.4360    145.1757     44.6528     22.8495
   366.8000      5.0458      0.2757     -0.4005    143.8987     45.9234     23.6342
   366.9000      5.0458      0.2818     -0.3664    143.5286     43.1700     22.8746
   367.0000      5.0507      0.2726     -0.4346    144.0821     38.8197     21.2974
   367.1000      5.0507      0.2641     -0.4133    144.5988     37.9486     20.3447
   367.2000      5.0507      0.2659     -0.4221    144.4921     39.3146     20.3127
   367.3000      5.0474      0.2790     -0.4200    143.6987     39.6645     20.3400
   367.4000      5.0474      0.3000     -0.4138    142.4246     37.9106     19.9236
   367.5000      5.0426      0.3156     -0.3234    141.4811     34.8342     19.4861
   367.6000      5.0426      0.3148     -0.3917    141.5249     30.5668     19.4723
   367.7000      5.0426      0.3065     -0.4088    142.0312     25.9729     19.8292
   367.8000      5.0439      0.2969     -0.3786    142.6116     25.4631     20.3036
   367.9000      5.0439      0.2829     -0.3921    143.4591     30.9909     20.6097
   368.0000      5.0447      0.2768     -0.4690    143.8296     37.3570     20.8862
   368.1000      5.0447      0.2893     -0.3840    143.0723     38.4737     21.4832
   368.2000      5.0447      0.3007     -0.3579    142.3834     36.7576     21.9311
   368.3000      5.0421      0.2923     -0.3908    142.8894     38.3324     21.5201
   368.4000      5.0421      0.2787     -0.4590    143.7171     42.2553     20.4601
   368.5000      5.0462      0.2858     -0.4305    143.2828     44.9474     19.5567
   368.6000      5.0462      0.3164     -0.3758    141.4297     46.6348     19.5183
   368.7000      5.0462      0.3487     -0.3265    139.4749     49.4706     20.3646
   368.8000      5.0483      0.3597     -0.3038    138.8084     53.3781     21.3463
   368.9000      5.0483      0.3457     -0.3471    139.6523     55.0389     21.7136
   369.0000      5.0414      0.3253     -0.3753    140.8898     55.7750     21.4822
   369.1000      5.0414      0.3170     -0.4038    141.3956     59.4885     21.3721
   369.2000      5.0414      0.3199     -0.3651    141.2195     62.6409     21.6128
   369.3000      5.0328      0.3221     -0.3570    141.0852     62.1460     21.8345
   369.4000      5.0328      0.3225     -0.3933    141.0608     62.4235     21.7817
   369.5000      5.0616      0.3270     -0.3661    140.7892     65.9684     21.5382
