~Version Information
VERS.                      2.0: CWLS Log ASCII Standard - VERSION 2.0
WRAP.                       NO: One line per depth step
~Well Information Block
STRT.FT                -8.0000: 
STOP.FT              1472.2500: 
STEP.FT                 0.2500: 
NULL.                -999.2500: 
COMP.          Pioneer Natural Resources: COMPANY
WELL.           Amore 32-09 Tr: WELL
FLD.           Purgatoire River: FIELD
LOC.           1941' FNL & 2297' FEL--: LOCATION
PROV.                       CO: PROVINCE
CNTY.               Las Animas: COUNTRY
SRVC.          Patterson Wireline: SERVICE COMPANY
DATE.          Tue Nov 22 11:37:00 2005: LOG DATE
UWI.           05 071 08584 00: UNIQUE WELL ID
~Curve Information Block
DEPT.FT            0 000 00 00: Depth
CCL.                          : Casing Collar Locator
TT3.usec                      : CBL 3' Travel Time
AMP3.mV                       : CBL 3' Amplitude
GR.GAPI                       : Gamma Ray
~Parameter Information Block
~A  Depth       CCL         TT3         AMP3         GR     
# ...
  1332.0000      0.0000    738.5876      8.9196    138.5775
  1332.2500      0.0000    735.3348      8.9224    136.8596
  1332.5000      0.0000    725.5969      8.9653    134.6841
  1332.7500      0.0000    709.8770      9.0209    130.1606
  1333.0000      0.0000    691.6615      9.0701    123.2579
  1333.2500      0.0000    675.0623      9.1061    115.6522
  1333.5000      0.0000    662.1843      9.1251    109.7854
  1333.7500      0.0000    652.8798      9.1219    107.9343
  1334.0000      0.0000    646.8387      9.0987    111.1892
  1334.2500      0.0000    645.0521      9.0804    118.6796
  1334.5000      0.0000    648.6896      9.1121    128.0609
  1334.7500      0.0000    657.2972      9.2277    137.0942
  1335.0000      0.0000    669.2204      9.4177    144.5892
  1335.2500      0.0000    683.2499      9.6394    149.9903
  1335.5000      0.0000    698.3984      9.8579    152.8377
  1335.7500      0.0000    712.6068     10.0645    153.0231
  1336.0000      0.0000    723.3840     10.2467    151.2145
  1336.2500      0.0000    729.7441     10.3570    148.7206
  1336.5000      0.0000    732.6091     10.3353    146.8958
  1336.7500      0.0000    733.5521     10.1704    146.4354
  1337.0000      0.0000    733.7304      9.9332    146.8759
  1337.2500      0.0000    733.7206      9.7352    146.9014
  1337.5000      0.0000    733.7456      9.6471    145.8325
  1337.7500      0.0000    733.8531      9.6524    144.9801
  1338.0000      0.0000    734.0459      9.6790    146.6082
  1338.2500      0.0000    734.3285      9.6737    151.2119
  1338.5000      0.0000    734.6815      9.6385    156.8462
  1338.7500      0.0000    734.9990      9.5927    161.4216
  1339.0000      0.0000    735.1166      9.5188    164.3546
  1339.2500      0.0000    734.9235      9.3710    165.6698
  1339.5000      0.0000    734.3160      9.1402    165.0444
  1339.7500      0.0000    732.7763      8.8846    162.4682
  1340.0000      0.0000    728.6485      8.6821    158.9546
  1340.2500      0.0000    718.8792      8.5626    155.9209
  1340.5000      0.0000    700.4387      8.4972    153.9628
  1340.7500      0.0000    673.3357      8.4417    152.4303
  1341.0000      0.0000    642.3788      8.3719    150.2332
  1341.2500      0.0000    614.8167      8.2843    146.9598
  1341.5000      0.0000    595.5715      8.1827    143.1845
  1341.7500      0.0000    584.8682      8.0751    139.9713
  1342.0000      0.0000    579.8215      7.9833    138.2746
  1342.2500      0.0000    577.1086      7.9450    138.6244
  1342.5000      0.0000    574.2081      7.9976    140.9922
  1342.7500      0.0000    569.5460      8.1553    144.7851
  1343.0000      0.0000    562.7299      8.3928    149.1362
  1343.2500      0.0000    554.7664      8.6518    153.5167
  1343.5000      0.0000    547.4700      8.8686    157.8202
  1343.7500      0.0000    542.3196      9.0081    161.4437
  1344.0000      0.0000    539.9255      9.0776    162.6903
  1344.2500      0.0000    540.4529      9.1092    159.8072
  1344.5000      0.0000    543.9809      9.1303    152.6381
  1344.7500      0.0000    550.0772      9.1485    142.9402
  1345.0000      0.0000    557.2985      9.1621    133.2472
  1345.2500      0.0000    563.6743      9.1794    125.6501
  1345.5000      0.0000    567.9088      9.2219    121.1005
  1345.7500      0.0000    570.0257      9.3044    119.1138
  1346.0000      0.0000    570.9963      9.4178    118.2777
  1346.2500      0.0000    572.0822      9.5432    117.6080
  1346.5000      0.0000    574.6710      9.6804    117.2272
  1346.7500      0.0000    580.3760      9.8512    117.4850
  1347.0000      0.0000    590.4532     10.0605    118.0768
  1347.2500      0.0000    604.3015     10.2624    118.4946
  1347.5000      0.0000    618.6279     10.3777    118.6323
  1347.7500      0.0000    629.0541     10.3512    118.4124
  1348.0000      0.0000    633.0473     10.1923    117.3345
  1348.2500      0.0000    630.7449      9.9609    114.9005
  1348.5000      0.0000    622.7129      9.7201    111.2872
  1348.7500      0.0000    608.6494      9.5033    107.5497
  1349.0000      0.0000    590.0602      9.3224    105.4153
  1349.2500      0.0000    573.4312      9.1952    106.5850
  1349.5000      0.0000    568.3474      9.1496    111.2704
  1349.7500      0.0000    581.5465      9.1954    117.1655
  1350.0000      0.0000    612.4518      9.3062    120.7868
  1350.2500      0.0000    653.1033      9.4431    120.5574
  1350.5000      0.0000    692.4644      9.5837    118.2730
  1350.7500      0.0000    722.6892      9.7231    117.1889
  1351.0000      0.0000    742.1901      9.8622    118.8648
  1351.2500      0.0000    753.3603     10.0016    121.8372
  1351.5000      0.0000    758.9453     10.1296    123.0846
  1351.7500      0.0000    760.6151     10.2145    120.7871
  1352.0000      0.0000    759.1221     10.2252    115.7381
  1352.2500      0.0000    754.9060     10.1622    110.1787
  1352.5000      0.0000    748.9320     10.0541    105.7106
  1352.7500      0.0000    742.9490      9.9262    102.5228
  1353.0000      0.0000    738.5333      9.7829    100.1610
  1353.2500      0.0000    736.1616      9.6218     98.5276
  1353.5000      0.0000    735.3217      9.4557     98.1201
  1353.7500      0.0000    735.2849      9.3119     99.5621
  1354.0000      0.0000    735.5966      9.2018    102.9683
  1354.2500      0.0000    736.0208      9.0916    107.6662
  1354.5000      0.0000    735.9694      8.9069    112.5346
  1354.7500      0.0000    733.8392      8.5699    117.0112
  1355.0000      0.0000    727.0566      8.0546    121.9453
  1355.2500      0.0000    713.7474      7.4474    128.9136
  1355.5000      0.0000    695.5154      6.9376    138.1007
  1355.7500      0.0000    678.5346      6.6783    147.1795
  1356.0000      0.0000    670.2986      6.6438    153.0524
  1356.2500      0.0000    673.2442      6.6836    154.6077
  1356.5000      0.0000    681.6207      6.7092    153.1647
  1356.7500      0.0000    686.2342      6.7598    150.4942
  1357.0000      2.0000    682.7372      6.9021    147.4087
  1357.2500      0.0000    674.3445      7.1416    144.3301
  1357.5000      0.0000    666.7421      7.4334    142.2631
  1357.7500      0.0000    662.5781      7.7404    142.5592
  1358.0000      0.0000    661.8294      8.0597    146.1122
  1358.2500      0.0000    665.4014      8.3922    152.8281
  1358.5000      0.0000    674.9238      8.6859    161.1959
  1358.7500      0.0000    687.8776      8.8412    168.1794
  1359.0000      0.0000    695.7260      8.8080    170.3884
  1359.2500      0.0000    690.0314      8.6537    166.3657
  1359.5000      0.0000    670.3882      8.5006    157.9671
  1359.7500      0.0000    645.8192      8.4189    149.1034
  1360.0000      0.0000    629.1290      8.4009    142.7341
  1360.2500      0.0000    629.3981      8.4085    139.0109
  1360.5000      0.0000    647.5563      8.4162    136.0803
  1360.7500      0.0000    676.5755      8.4231    132.1996
  1361.0000      0.0000    705.6172      8.4437    127.1256
  1361.2500      0.0000    725.9970      8.4931    122.0412
  1361.5000      0.0000    735.3017      8.5745    118.5899
  1361.7500      0.0000    736.8391      8.6865    117.8921
  1362.0000      0.0000    735.6287      8.8388    119.9821
  1362.2500      0.0000    735.1151      9.0496    123.7544
  1362.5000      0.0000    736.5971      9.3169    127.7295
  1362.7500      0.0000    739.9965      9.5997    131.1872
  1363.0000      0.0000    744.3506      9.8361    134.4557
  1363.2500      0.0000    748.0521      9.9797    137.9758
  1363.5000      0.0000    749.4615     10.0194    141.4553
  1363.7500      0.0000    747.6087      9.9703    144.1432
  1364.0000      0.0000    742.1868      9.8487    145.6421
  1364.2500      0.0000    732.4728      9.6583    146.3900
  1364.5000      0.0000    716.1932      9.4095    147.3580
  1364.7500      0.0000    690.4905      9.1498    148.9430
  1365.0000      0.0000    655.4985      8.9499    150.2663
  1365.2500      0.0000    616.9407      8.8468    150.1281
