~Version Information
VERS.                      2.0: CWLS Log ASCII Standard - VERSION 2.0
WRAP.                       NO: One line per depth step
~Well Information Block
STRT.FT                 0.0000: 
STOP.FT              1923.5000: 
STEP.FT                 0.2500: 
NULL.                -999.2500: 
COMP.          Petrogulf Corporation: COMPANY
WELL.            Montoya 7-14R: WELL
FLD.           Purgatorie River: FIELD
LOC.           628' FSL & 454' FWL: LOCATION
STAT.                 Colorado: State
CNTY.               Las Animas: COUNTY
CTRY. USA : Country
SECT. 7 : Section
TOWN. 33S : Township
RANG. 67W : Range
SRVC.                Patterson: SERVICE COMPANY
DATE.          Wed Nov 09 12:02:27 2005: LOG DATE
API. 05-071-08554                         : UNIQUE WELL ID
~Curve Information Block
DEPT.FT            0 000 00 00: Depth
CCL.                          : Casing Collar Locator
TT3.usec                      : CBL 3' Travel Time
AMP3.mV                       : CBL 3' Amplitude
GR.GAPI                       : Gamma Ray
~Parameter Information Block
~A  Depth       CCL         TT3         AMP3         GR     
# ...
  1742.0000      0.0000    684.7025      1.9872    128.0801
  1742.2500      0.0000    693.9678      2.2047    127.8914
  1742.5000      0.0000    704.4062      2.5309    127.8345
  1742.7500      0.0000    707.7800      2.9048    126.3832
  1743.0000      0.0000    699.3271      3.2283    122.8984
  1743.2500      0.0000    683.6199      3.4083    118.1465
  1743.5000      0.0000    672.7757      3.4627    113.8019
  1743.7500      0.0000    679.1667      3.5655    111.4741
  1744.0000      0.0000    704.0687      3.7999    111.8338
  1744.2500      0.0000    735.1234      4.0284    114.0543
  1744.5000      0.0000    761.7684      4.1655    115.9964
  1744.7500      0.0000    782.0635      4.2378    115.5462
  1745.0000      0.0000    792.6327      4.1971    112.4285
  1745.2500     -2.0000    786.2201      3.9679    108.7970
  1745.5000      2.0000    758.4683      3.5877    107.7444
  1745.7500      0.0000    715.5126      3.1899    110.9316
  1746.0000      0.0000    677.3354      2.9188    117.3067
  1746.2500      0.0000    664.9943      2.8678    123.7352
  1746.5000      0.0000    679.2266      3.0005    126.8506
  1746.7500      0.0000    698.9008      3.1124    124.9290
  1747.0000      0.0000    705.6533      3.0388    118.6411
  1747.2500      0.0000    701.4474      2.8636    110.0589
  1747.5000      0.0000    697.2262      2.7498    100.8319
  1747.7500      0.0000    696.0050      2.7208     91.4124
  1748.0000      0.0000    694.2826      2.6950     81.7758
  1748.2500      0.0000    693.6479      2.6048     72.2046
  1748.5000      0.0000    699.1995      2.4588     63.1652
  1748.7500      0.0000    710.4784      2.2973     54.9520
  1749.0000      0.0000    723.1747      2.1233     47.8803
  1749.2500      0.0000    730.1240      1.9239     42.5512
  1749.5000      0.0000    720.8148      1.7116     39.3972
  1749.7500      0.0000    694.5482      1.5075     38.0271
  1750.0000      0.0000    666.6032      1.3321     37.4404
  1750.2500      0.0000    650.0923      1.2063     36.8971
  1750.5000      0.0000    644.2851      1.1434     36.2538
  1750.7500      0.0000    643.1172      1.1562     35.6503
  1751.0000      0.0000    643.2449      1.2498     35.2659
  1751.2500      0.0000    644.1912      1.4031     35.3043
  1751.5000      0.0000    646.8472      1.5767     35.9439
  1751.7500      0.0000    653.1055      1.7377     37.3871
  1752.0000      0.0000    664.7395      1.8669     39.9965
  1752.2500      0.0000    680.6925      1.9525     44.1843
  1752.5000      0.0000    696.6960      2.0040     50.1032
  1752.7500      0.0000    708.0532      2.0613     57.4827
  1753.0000      0.0000    711.2348      2.1746     65.7595
  1753.2500      0.0000    704.3737      2.3722     74.4485
  1753.5000      0.0000    689.2673      2.6251     83.5345
  1753.7500      0.0000    672.1887      2.8505     93.2481
  1754.0000      0.0000    659.0371      2.9724    103.0727
  1754.2500      0.0000    651.5084      2.9844    111.0923
  1754.5000      0.0000    651.7853      2.9589    114.8621
  1754.7500      0.0000    662.0624      2.9875    113.2490
  1755.0000      0.0000    674.3179      3.1126    107.3780
  1755.2500      0.0000    675.5278      3.3123     99.7442
  1755.5000      0.0000    664.4311      3.5309     92.4901
  1755.7500      0.0000    649.3563      3.7212     86.5343
  1756.0000      0.0000    637.4459      3.8616     82.0133
  1756.2500      0.0000    632.0849      3.9471     78.9644
  1756.5000      0.0000    631.3812      3.9692     77.3085
  1756.7500      0.0000    630.5540      3.9162     76.6115
  1757.0000      0.0000    627.9045      3.7957     76.4372
  1757.2500      0.0000    626.2853      3.6395     76.8902
  1757.5000      0.0000    630.3433      3.4979     78.5460
  1757.7500      0.0000    643.5726      3.4270     81.7708
  1758.0000      0.0000    665.7650      3.4515     86.2265
  1758.2500      0.0000    689.6061      3.5338     91.2141
  1758.5000      0.0000    703.0101      3.5977     96.5506
  1758.7500      0.0000    703.7296      3.6048    102.7582
  1759.0000      0.0000    701.2169      3.5969    110.0517
  1759.2500      0.0000    697.0885      3.6505    117.2896
  1759.5000      0.0000    687.7065      3.8236    122.4868
  1759.7500      0.0000    679.4852      4.1479    124.5661
  1760.0000      0.0000    678.9794      4.6264    124.2361
  1760.2500      0.0000    681.9080      5.2086    122.8931
  1760.5000      0.0000    680.1053      5.7540    121.0250
  1760.7500      0.0000    672.2592      6.0852    118.1773
  1761.0000      0.0000    665.4410      6.1343    114.3444
  1761.2500      0.0000    664.9443      6.0123    110.7172
  1761.5000      0.0000    668.0854      5.9275    108.7343
  1761.7500      0.0000    671.5961      6.0346    108.7770
  1762.0000      0.0000    677.7175      6.3563    110.2420
  1762.2500      0.0000    688.2812      6.8556    112.7084
  1762.5000      0.0000    698.1482      7.5066    116.4956
  1762.7500      0.0000    699.2242      8.2361    121.8942
  1763.0000      0.0000    691.9347      8.9000    128.1769
  1763.2500      0.0000    683.2514      9.4493    133.8126
  1763.5000      0.0000    665.8439     10.0647    137.7981
  1763.7500      0.0000    619.6423     11.0376    140.3866
  1764.0000      0.0000    542.2853     12.5230    142.2676
  1764.2500      0.0000    458.1538     14.3385    143.5243
  1764.5000      0.0000    394.4305     16.0470    144.0186
  1764.7500      0.0000    359.9597     17.3170    144.4357
  1765.0000      0.0000    347.0390     18.0607    145.8638
  1765.2500      0.0000    342.9268     18.2674    147.9594
  1765.5000      0.0000    339.1094     17.9362    148.3669
  1765.7500      0.0000    334.9709     17.1724    144.8311
  1766.0000      0.0000    333.6926     16.1910    137.6446
  1766.2500      0.0000    338.9250     15.1736    129.4267
  1766.5000      0.0000    357.1974     14.1896    122.8603
  1766.7500      0.0000    399.1103     13.2178    119.1560
  1767.0000      0.0000    470.2751     12.2160    118.1745
  1767.2500      0.0000    553.9449     11.2147    119.2113
  1767.5000      0.0000    615.0560     10.3266    121.6156
  1767.7500      0.0000    635.5254      9.6599    125.0569
  1768.0000      0.0000    628.1683      9.2733    129.2682
  1768.2500      0.0000    608.9258      9.1781    133.3499
  1768.5000      0.0000    585.6230      9.2992    135.6036
  1768.7500      0.0000    575.4011      9.4591    134.6924
  1769.0000      0.0000    591.9695      9.4831    131.0711
  1769.2500      0.0000    620.8223      9.3206    126.7967
  1769.5000      0.0000    638.9182      8.9876    123.6532
  1769.7500      0.0000    639.3926      8.4425    121.6367
  1770.0000      0.0000    626.5782      7.6401    119.4385
  1770.2500      0.0000    608.1228      6.6650    116.2574
  1770.5000      0.0000    591.5969      5.6862    112.7612
  1770.7500      0.0000    580.1062      4.8048    110.1689
  1771.0000      0.0000    573.3349      4.0271    108.8435
  1771.2500      0.0000    571.1846      3.3391    108.0527
  1771.5000      0.0000    574.5917      2.7436    106.7121
  1771.7500      0.0000    583.9741      2.2567    103.9579
  1772.0000      0.0000    596.5399      1.8888     99.2860
  1772.2500      0.0000    607.8342      1.6205     92.8134
  1772.5000      0.0000    617.6583      1.4184     85.5636
  1772.7500      0.0000    629.7656      1.2716     79.0458
  1773.0000      0.0000    643.8737      1.1857     74.2708
  1773.2500      0.0000    653.1890      1.1647     71.3129
  1773.5000      0.0000    652.8265      1.1963     69.8391
  1773.7500      0.0000    645.1946      1.2437     69.7697
  1774.0000      0.0000    634.8803      1.2725     71.1518
  1774.2500      0.0000    624.5384      1.2723     73.4307
  1774.5000      0.0000    615.6880      1.2421     75.2639
  1774.7500      0.0000    609.2963      1.1883     75.5781
  1775.0000      0.0000    606.2003      1.1382     74.7212
  1775.2500      0.0000    606.2365      1.1215     74.0070
