~Version Information
VERS.                      2.0: CWLS Log ASCII Standard - VERSION 2.0
WRAP.                       NO: One line per depth step
~Well Information Block
STRT.FT               370.0000: 
STOP.FT              2831.7500: 
STEP.FT                 0.2500: 
NULL.                -999.2500: 
COMP.          Pioneer Natural Resources: COMPANY
WELL.          Black Cat 13-32: WELL
FLD.           Purgatoire River: FIELD
LOC.           1865' FSL & 1120' FWL--: LOCATION
PROV.                 Colorado: PROVINCE
CNTY.               Las Animas: COUNTRY
SRVC.                Patterson: SERVICE COMPANY
DATE.          Sun Jul 31 08:49:16 2005: LOG DATE
UWI.           05 071 08450 00: UNIQUE WELL ID
~Curve Information Block
DEPT.FT            0 000 00 00: Depth
DIR.Ohm-m                     : IEL Induction Resistivity
SN.Ohm-m                      : IEL Short Normal
SP.mV                         : IEL Spontaneous Potential
GR.GAPI                       : Gamma Ray
~Parameter Information Block
~A  Depth       DIR          SN          SP          GR     
# ...
  1274.5000     52.3809     55.1708     37.1024     64.4011
  1274.7500     54.9459     56.2479     35.4823     62.2539
  1275.0000     57.2999     57.4595     33.8049     59.3009
  1275.2500     59.3901     58.8106     32.0897     57.6669
  1275.5000     61.2953     60.3144     30.3625     55.8209
  1275.7500     63.1277     61.9861     28.6532     55.2554
  1276.0000     64.9965     63.8317     26.9925     55.9519
  1276.2500     67.0083     65.8387     25.4091     57.5312
  1276.5000     69.2484     67.9701     23.9273     61.0924
  1276.7500     71.7276     70.1600     22.5657     63.6111
  1277.0000     74.3364     72.3175     21.3377     66.1012
  1277.2500     76.8160     74.3445     20.2527     66.2087
  1277.5000     78.8174     76.1620     19.3171     63.9813
  1277.7500     80.0410     77.7203     18.5367     61.5408
  1278.0000     80.3995     78.9911     17.9166     57.8627
  1278.2500     80.0941     79.9562     17.4619     55.9493
  1278.5000     79.5225     80.6027     17.1765     54.1093
  1278.7500     79.0795     80.9244     17.0614     53.4502
  1279.0000     78.9839     80.9199     17.1138     53.1559
  1279.2500     79.2118     80.5949     17.3251     53.5478
  1279.5000     79.5388     79.9681     17.6807     55.5419
  1279.7500     79.6476     79.0763     18.1602     57.9606
  1280.0000     79.2628     77.9734     18.7373     62.5014
  1280.2500     78.2610     76.7247     19.3821     65.2546
  1280.5000     76.7022     75.4021     20.0627     67.9280
  1280.7500     74.7625     74.0766     20.7479     68.9582
  1281.0000     72.6367     72.8092     21.4107     70.6207
  1281.2500     70.5021     71.6469     22.0306     72.2132
  1281.5000     68.5461     70.6300     22.5967     74.7192
  1281.7500     66.9731     69.8014     23.1080     75.7108
  1282.0000     65.9399     69.2038     23.5730     75.2628
  1282.2500     65.4694     68.8639     24.0068     73.6187
  1282.5000     65.4336     68.7785     24.4278     69.7458
  1282.7500     65.6485     68.9126     24.8538     66.8077
  1283.0000     66.0170     69.2120     25.2984     62.8472
  1283.2500     66.5894     69.6191     25.7699     60.8572
  1283.5000     67.4742     70.0851     26.2708     58.8334
  1283.7500     68.6987     70.5763     26.7992     57.8016
  1284.0000     70.1576     71.0749     27.3514     56.1038
  1284.2500     71.6882     71.5748     27.9243     54.7178
  1284.5000     73.1885     72.0783     28.5167     52.3893
  1284.7500     74.6408     72.5936     29.1296     50.8727
  1285.0000     76.0229     73.1309     29.7656     49.1752
  1285.2500     77.2143     73.6967     30.4264     48.8245
  1285.5000     78.0153     74.2876     31.1110     49.9551
  1285.7500     78.2682     74.8919     31.8141     51.6738
  1286.0000     77.9692     75.4962     32.5255     54.4708
  1286.2500     77.2714     76.0950     33.2312     55.4372
  1286.5000     76.3977     76.6965     33.9152     54.3951
  1286.7500     75.5325     77.3214     34.5616     52.3171
  1287.0000     74.7435     77.9929     35.1574     48.9459
  1287.2500     73.9724     78.7156     35.6942     47.5793
  1287.5000     73.1167     79.4447     36.1703     47.3970
  1287.7500     72.1423     80.0640     36.5909     48.1115
  1288.0000     71.1284     80.4004     36.9693     49.3648
  1288.2500     70.2151     80.2821     37.3264     49.9013
  1288.5000     69.5211     79.6071     37.6897     50.0698
  1288.7500     69.1002     78.3740     38.0914     49.7870
  1289.0000     68.9336     76.6597     38.5653     48.8140
  1289.2500     68.9041     74.5690     39.1429     47.9222
  1289.5000     68.7419     72.1977     39.8501     46.9764
  1289.7500     68.0154     69.6256     40.7030     47.4505
  1290.0000     66.2715     66.9248     41.7057     51.7191
  1290.2500     63.3144     64.1610     42.8489     57.9232
  1290.5000     59.3958     61.3880     44.1098     72.5491
  1290.7500     55.0874     58.6519     45.4539     84.7231
  1291.0000     50.9516     56.0082     46.8387    103.0718
  1291.2500     47.3216     53.5381     48.2183    113.4030
  1291.5000     44.3055     51.3473     49.5491    124.6661
  1291.7500     41.9053     49.5429     50.7959    129.8834
  1292.0000     40.1192     48.1999     51.9366    136.1382
  1292.2500     38.9692     47.3330     52.9657    139.8338
  1292.5000     38.4692     46.8936     53.8944    143.6261
  1292.7500     38.5857     46.8009     54.7490    143.5067
  1293.0000     39.2292     47.0027     55.5671    137.0859
  1293.2500     40.2838     47.5368     56.3937    128.3966
  1293.5000     41.6552     48.5600     57.2780    110.6814
  1293.7500     43.3034     50.3114     58.2710     97.7126
  1294.0000     45.2395     52.9930     59.4246     79.6282
  1294.2500     47.4901     56.5859     60.7905     69.5681
  1294.5000     50.0370     60.6842     62.4174     58.1452
  1294.7500     52.7239     64.4845     64.3474     52.9837
  1295.0000     55.1535     67.0090     66.6090     48.7219
  1295.2500     56.6779     67.4814     69.2117     48.0005
  1295.5000     56.6285     65.6560     72.1407     49.3983
  1295.7500     54.7358     61.9240     75.3550     51.3237
  1296.0000     51.3656     57.1318     78.7894     54.7987
  1296.2500     47.2940     52.2098     82.3600     57.5961
  1296.5000     43.2604     47.8182     85.9717     63.7435
  1296.7500     39.6961     44.1941     89.5279     69.8342
  1297.0000     36.7145     41.2330     92.9382     81.7277
  1297.2500     34.2321     38.6949     96.1253     90.3366
  1297.5000     32.1012     36.3886     99.0292    101.5348
  1297.7500     30.2060     34.2498    101.6090    106.7023
  1298.0000     28.5022     32.3174    103.8421    110.8365
  1298.2500     27.0089     30.6717    105.7231    112.0379
  1298.5000     25.7735     29.3841    107.2600    113.4231
  1298.7500     24.8383     28.4885    108.4718    114.6959
  1299.0000     24.2236     27.9681    109.3860    116.9430
  1299.2500     23.9224     27.7581    110.0362    118.3015
  1299.5000     23.9023     27.7653    110.4602    120.0494
  1299.7500     24.1111     27.9002    110.6989    121.1961
  1300.0000     24.4889     28.1022    110.7943    122.5967
  1300.2500     24.9839     28.3481    110.7875    122.5752
  1300.5000     25.5641     28.6393    110.7165    119.5248
  1300.7500     26.2153     28.9768    110.6144    115.1445
  1301.0000     26.9237     29.3376    110.5082    106.4509
  1301.2500     27.6522     29.6704    110.4184    100.8265
  1301.5000     28.3277     29.9203    110.3597     94.7771
  1301.7500     28.8530     30.0655    110.3411     92.6362
  1302.0000     29.1472     30.1327    110.3655     91.7474
  1302.2500     29.1915     30.1732    110.4282     92.4245
  1302.5000     29.0438     30.2217    110.5146     95.3586
  1302.7500     28.8044     30.2711    110.5986     98.6911
  1303.0000     28.5568     30.2794    110.6429    105.2238
  1303.2500     28.3261     30.1968    110.6011    109.5808
  1303.5000     28.0783     29.9942    110.4224    113.7469
  1303.7500     27.7616     29.6783    110.0567    114.0590
  1304.0000     27.3588     29.2937    109.4579    111.1842
  1304.2500     26.9166     28.9166    108.5859    108.0526
  1304.5000     26.5297     28.6394    107.4069    103.2882
  1304.7500     26.2991     28.5446    105.8941    100.6654
  1305.0000     26.2945     28.6731    104.0306     98.0205
  1305.2500     26.5400     29.0055    101.8180     97.3474
  1305.5000     27.0167     29.4706     99.2877     98.5019
  1305.7500     27.6737     29.9744     96.5131    100.8974
  1306.0000     28.4393     30.4305     93.6174    106.4373
  1306.2500     29.2330     30.7826     90.7697    110.4928
  1306.5000     29.9810     31.0155     88.1671    114.8276
  1306.7500     30.6336     31.1550     86.0049    115.4635
  1307.0000     31.1799     31.2565     84.4391    112.8559
  1307.2500     31.6473     31.3786     83.5525    109.6734
  1307.5000     32.0835     31.5515     83.3356    104.7862
  1307.7500     32.5286     31.7547     83.6892    102.1258
