~Version Information
VERS.                      2.0: CWLS Log ASCII Standard - VERSION 2.0
WRAP.                       NO: One line per depth step
~Well Information Block
STRT.FT               875.0000: 
STOP.FT              2947.2500: 
STEP.FT                 0.2500: 
NULL.                -999.2500: 
COMP.          Pioneer Natural Resources: COMPANY
WELL.          Hanginstone 21-27: WELL
FLD.           Purgatoire River: FIELD
LOC.           1186' FNL & 1606' FWL--: LOCATION
PROV.                 Colorado: PROVINCE
CNTY.               Las Animas: COUNTRY
SRVC.                Patterson: SERVICE COMPANY
DATE.          Sat Jan 07 09:06:14 2006: LOG DATE
UWI.           05 071 08632 00: UNIQUE WELL ID
~Curve Information Block
DEPT.FT            0 000 00 00: Depth
SN.Ohm-m                      : IEL Short Normal
SP.mV                         : IEL Spontaneous Potential
DIR.Ohm-m                     : IEL Induction Resistivity
GR.GAPI                       : Gamma Ray
~Parameter Information Block
~A  Depth        SN          SP         DIR          GR     
# ...
  1813.0000      7.1812    -15.6129      6.2385    127.1773
  1813.2500      6.7376    -15.3582      6.3945    127.3764
  1813.5000      6.3992    -15.0618      6.5280    127.1896
  1813.7500      6.2322    -14.7387      6.6379    126.3218
  1814.0000      6.2546    -14.4060      6.7261    123.5640
  1814.2500      6.4359    -14.0811      6.7945    120.9610
  1814.5000      6.7223    -13.7798      6.8429    116.9002
  1814.7500      7.0683    -13.5146      6.8707    114.6888
  1815.0000      7.4474    -13.2929      6.8782    112.7410
  1815.2500      7.8386    -13.1157      6.8672    112.5131
  1815.5000      8.2073    -12.9776      6.8410    113.7384
  1815.7500      8.5045    -12.8677      6.8025    115.2651
  1816.0000      8.6872    -12.7728      6.7538    117.5307
  1816.2500      8.7423    -12.6809      6.6959    118.4056
  1816.5000      8.6954    -12.5850      6.6295    118.5862
  1816.7500      8.5971    -12.4850      6.5564    118.4916
  1817.0000      8.4982    -12.3877      6.4788    119.0676
  1817.2500      8.4304    -12.3044      6.3984    119.8851
  1817.5000      8.4012    -12.2473      6.3160    120.7331
  1817.7500      8.3970    -12.2258      6.2309    120.7893
  1818.0000      8.3919    -12.2431      6.1427    121.0852
  1818.2500      8.3563    -12.2958      6.0521    122.1515
  1818.5000      8.2657    -12.3738      5.9613    125.0592
  1818.7500      8.1076    -12.4632      5.8741    127.2641
  1819.0000      7.8816    -12.5492      5.7959    130.2288
  1819.2500      7.5982    -12.6191      5.7321    131.9872
  1819.5000      7.2798    -12.6655      5.6871    134.2875
  1819.7500      6.9626    -12.6879      5.6630    135.2199
  1820.0000      6.6914    -12.6923      5.6588    134.8893
  1820.2500      6.5102    -12.6901      5.6702    133.4234
  1820.5000      6.4519    -12.6945      5.6905    130.1680
  1820.7500      6.5347    -12.7183      5.7128    128.0724
  1821.0000      6.7582    -12.7718      5.7317    126.1559
  1821.2500      7.0941    -12.8616      5.7456    125.9551
  1821.5000      7.4794    -12.9920      5.7571    127.0732
  1821.7500      7.8300    -13.1649      5.7728    128.5069
  1822.0000      8.0784    -13.3804      5.8016    131.1656
  1822.2500      8.2056    -13.6359      5.8535    132.7752
  1822.5000      8.2355    -13.9239      5.9368    133.8029
  1822.7500      8.1971    -14.2302      6.0567    133.2200
  1823.0000      8.0917    -14.5339      6.2128    131.0251
  1823.2500      7.8977    -14.8077      6.3989    129.2761
  1823.5000      7.6060    -15.0210      6.6029    126.4413
  1823.7500      7.2551    -15.1441      6.8095    124.0690
  1824.0000      6.9345    -15.1531      7.0042    119.5607
  1824.2500      6.7530    -15.0331      7.1780    116.4152
  1824.5000      6.7927    -14.7818      7.3284    112.8932
  1824.7500      7.0768    -14.4097      7.4567    111.9565
  1825.0000      7.5627    -13.9391      7.5623    112.9425
  1825.2500      8.1573    -13.4008      7.6398    114.9382
  1825.5000      8.7472    -12.8305      7.6812    119.0028
  1825.7500      9.2383    -12.2643      7.6816    121.8531
  1826.0000      9.5908    -11.7349      7.6462    125.8744
  1826.2500      9.8305    -11.2694      7.5920    128.3931
  1826.5000     10.0256    -10.8872      7.5443    131.7993
  1826.7500     10.2386    -10.5989      7.5293    133.4807
  1827.0000     10.4872    -10.4064      7.5672    134.3655
  1827.2500     10.7404    -10.3027      7.6668    133.5785
  1827.5000     10.9496    -10.2732      7.8254    130.3614
  1827.7500     11.0868    -10.2982      8.0305    127.2127
  1828.0000     11.1638    -10.3565      8.2641    122.0515
  1828.2500     11.2217    -10.4288      8.5074    119.0609
  1828.5000     11.3027    -10.5017      8.7453    116.6095
  1828.7500     11.4271    -10.5692      8.9674    117.0286
  1829.0000     11.5858    -10.6330      9.1677    120.8308
  1829.2500     11.7472    -10.7008      9.3433    124.5853
  1829.5000     11.8765    -10.7827      9.4944    130.0004
  1829.7500     11.9586    -10.8881      9.6251    132.9248
  1830.0000     12.0092    -11.0225      9.7435    136.5616
  1830.2500     12.0674    -11.1863      9.8611    138.6310
  1830.5000     12.1748    -11.3756      9.9925    140.7472
  1830.7500     12.3578    -11.5847     10.1540    141.0803
  1831.0000     12.6181    -11.8087     10.3626    139.4628
  1831.2500     12.9394    -12.0462     10.6340    136.8466
  1831.5000     13.3070    -12.3002     10.9806    130.9612
  1831.7500     13.7270    -12.5772     11.4106    126.4144
  1832.0000     14.2274    -12.8856     11.9289    120.1721
  1832.2500     14.8469    -13.2337     12.5394    117.0382
  1832.5000     15.6229    -13.6296     13.2470    114.2387
  1832.7500     16.5799    -14.0818     14.0567    113.4225
  1833.0000     17.7170    -14.6010     14.9666    112.8447
  1833.2500     19.0008    -15.2027     15.9592    112.3375
  1833.5000     20.3746    -15.9081     16.9946    111.0763
  1833.7500     21.7810    -16.7443     18.0153    109.9943
  1834.0000     23.1833    -17.7416     18.9634    108.0369
  1834.2500     24.5767    -18.9286     19.8045    106.4544
  1834.5000     25.9854    -20.3258     20.5423    103.8582
  1834.7500     27.4447    -21.9374     21.2135    102.0683
  1835.0000     28.9808    -23.7442     21.8668     98.6279
  1835.2500     30.5953    -25.6975     22.5419     95.1477
  1835.5000     32.2527    -27.7178     23.2544     87.8575
  1835.7500     33.8681    -29.6978     23.9856     82.2691
  1836.0000     35.3051    -31.5098     24.6744     74.3874
  1836.2500     36.3911    -33.0184     25.2180     70.1082
  1836.5000     36.9502    -34.0950     25.4920     65.5961
  1836.7500     36.8492    -34.6333     25.3889     63.8373
  1837.0000     36.0427    -34.5630     24.8526     62.6468
  1837.2500     34.5917    -33.8601     23.8906     62.6890
  1837.5000     32.6314    -32.5516     22.5634     65.1418
  1837.7500     30.3039    -30.7138     20.9671     69.9660
  1838.0000     27.7107    -28.4633     19.2156     84.5162
  1838.2500     24.9181    -25.9435     17.4220     99.1141
  1838.5000     22.0033    -23.3070     15.6810    125.3194
  1838.7500     19.0944    -20.6986     14.0603    142.9113
  1839.0000     16.3684    -18.2413     12.6015    164.6693
  1839.2500     14.0062    -16.0267     11.3268    173.6822
  1839.5000     12.1405    -14.1121     10.2452    176.6315
  1839.7500     10.8285    -12.5216      9.3551    171.8981
  1840.0000     10.0515    -11.2517      8.6456    158.2350
  1840.2500      9.7294    -10.2776      8.0975    147.6525
  1840.5000      9.7427     -9.5594      7.6869    134.0741
  1840.7500      9.9533     -9.0488      7.3898    128.0547
  1841.0000     10.2225     -8.6928      7.1869    123.8044
  1841.2500     10.4325     -8.4392      7.0652    123.5016
  1841.5000     10.5067     -8.2400      7.0180    125.7025
  1841.7500     10.4180     -8.0553      7.0420    128.3038
  1842.0000     10.1795     -7.8560      7.1342    132.4560
  1842.2500      9.8302     -7.6251      7.2899    134.6741
  1842.5000      9.4247     -7.3565      7.5024    137.1531
  1842.7500      9.0309     -7.0529      7.7625    138.7328
  1843.0000      8.7273     -6.7230      8.0583    141.3986
  1843.2500      8.5920     -6.3782      8.3748    143.0833
  1843.5000      8.6789     -6.0310      8.6940    144.5600
  1843.7500      8.9904     -5.6938      8.9976    144.3101
  1844.0000      9.4698     -5.3782      9.2720    141.4382
  1844.2500     10.0280     -5.0944      9.5121    137.8990
  1844.5000     10.5890     -4.8513      9.7211    131.3466
  1844.7500     11.1183     -4.6553      9.9080    127.3372
  1845.0000     11.6172     -4.5100     10.0835    123.5931
  1845.2500     12.0928     -4.4166     10.2587    122.7727
  1845.5000     12.5331     -4.3740     10.4428    122.7495
  1845.7500     12.9052     -4.3799     10.6418    122.5388
  1846.0000     13.1758     -4.4316     10.8556    121.2022
  1846.2500     13.3341     -4.5267     11.0787    119.8977
