~Version Information
VERS.                      2.0: CWLS Log ASCII Standard - VERSION 2.0
WRAP.                       NO: One line per depth step
~Well Information Block
STRT.FT                -8.5000: 
STOP.FT              1945.2500: 
STEP.FT                 0.2500: 
NULL.                -999.2500: 
COMP.          Pioneer Natural Resources: COMPANY
WELL.          Flying Horse 12-11 Tr: WELL
FLD.           Purgatorie River: FIELD
LOC.           2459' FNL & 410' FWL: LOCATION
STAT.                       CO: PROVINCE
CNTY.               Las Animas: COUNTY
CTRY.        USA : Country
SECT. 11 : Section
TOWN. 32S : Township
RANG. 66W : Range
SRVC.          Patterson Wireline: SERVICE COMPANY
DATE.          Thu Sep 08 15:44:22 2005: LOG DATE
API.           05 071 08485 00: UNIQUE WELL ID
~Curve Information Block
DEPT.FT            0 000 00 00: Depth
CCL.                          : Casing Collar Locator
TT3.usec                      : CBL 3' Travel Time
AMP3.mV                       : CBL 3' Amplitude
GR.GAPI                       : Gamma Ray
~Parameter Information Block
~A  Depth       CCL         TT3         AMP3         GR     
# ...
   896.0000      0.0000    302.9212     36.3442    136.2459
   896.2500      0.0000    302.9906     36.1889    126.6271
   896.5000      0.0000    303.0228     36.0205    116.3677
   896.7500      0.0000    303.0407     35.7585    107.7903
   897.0000      0.0000    303.0608     35.3914    103.1753
   897.2500      0.0000    303.0841     34.9874    103.1117
   897.5000      0.0000    303.1017     34.6561    105.8573
   897.7500      0.0000    303.0999     34.4902    108.3233
   898.0000      0.0000    303.0663     34.5212    108.0172
   898.2500      0.0000    303.0007     34.7028    104.4556
   898.5000      0.0000    302.9233     34.9295     99.2162
   898.7500      0.0000    302.8634     35.0890     94.8221
   899.0000      0.0000    302.8383     35.1180     93.0151
   899.2500      0.0000    302.8467     35.0211     93.3072
   899.5000      0.0000    302.8759     34.8492     93.3056
   899.7500      0.0000    302.9087     34.6698     91.0516
   900.0000      0.0000    302.9266     34.5427     86.9641
   900.2500      0.0000    302.9137     34.5032     83.1132
   900.5000      0.0000    302.8615     34.5575     80.9377
   900.7500      0.0000    302.7739     34.6897     80.1893
   901.0000      0.0000    302.6674     34.8693     79.7390
   901.2500      0.0000    302.5677     35.0548     78.7524
   901.5000      0.0000    302.4997     35.2034     77.2434
   901.7500      0.0000    302.4773     35.2925     75.9865
   902.0000      0.0000    302.5012     35.3345     75.9828
   902.2500      0.0000    302.5709     35.3683     77.8818
   902.5000      0.0000    302.6920     35.4313     81.7866
   902.7500      0.0000    302.8557     35.5333     87.3186
   903.0000      0.0000    303.0076     35.6547     93.7476
   903.2500      0.0000    303.0620     35.7690    100.2852
   903.5000      0.0000    302.9746     35.8663    106.4293
   903.7500      0.0000    302.7905     35.9532    112.1993
   904.0000      0.0000    302.6039     36.0328    118.1691
   904.2500      0.0000    302.4813     36.0922    125.0716
   904.5000      0.0000    302.4334     36.1114    133.0886
   904.7500      0.0000    302.4388     36.0767    141.6547
   905.0000      0.0000    302.4747     35.9828    149.9581
   905.2500      0.0000    302.5281     35.8263    157.1387
   905.5000      0.0000    302.5940     35.6069    161.9977
   905.7500      0.0000    302.6715     35.3335    163.3627
   906.0000      0.0000    302.7613     35.0269    161.2541
   906.2500      0.0000    302.8632     34.7094    157.4090
   906.5000      0.0000    302.9746     34.3901    154.3292
   906.7500      0.0000    303.0886     34.0676    153.5121
   907.0000      0.0000    303.1929     33.7500    154.4082
   907.2500      0.0000    303.2731     33.4644    155.1297
   907.5000      0.0000    303.3208     33.2383    154.3098
   907.7500      0.0000    303.3406     33.0752    152.1874
   908.0000      0.0000    303.3475     32.9529    149.7888
   908.2500      0.0000    303.3574     32.8448    147.4652
   908.5000      0.0000    303.3738     32.7418    144.8634
   908.7500      0.0000    303.3801     32.6642    141.9987
   909.0000      0.0000    303.3477     32.6540    139.3183
   909.2500      0.0000    303.2598     32.7480    136.7177
   909.5000      0.0000    303.1295     32.9511    133.5571
   909.7500      0.0000    302.9917     33.2349    130.0455
   910.0000      0.0000    302.8777     33.5613    127.7690
   910.2500      0.0000    302.7995     33.9043    128.0938
   910.5000      0.0000    302.7525     34.2495    130.2767
   910.7500      0.0000    302.7284     34.5783    131.5470
   911.0000      0.0000    302.7232     34.8601    129.0343
   911.2500      0.0000    302.7354     35.0664    121.9922
   911.5000      0.0000    302.7572     35.1883    112.7871
   911.7500      0.0000    302.7728     35.2322    105.5515
   912.0000      0.0000    302.7680     35.1974    103.2457
   912.2500      0.0000    302.7426     35.0659    105.8210
   912.5000      0.0000    302.7133     34.8208    111.0313
   912.7500      0.0000    302.7056     34.4706    116.3892
   913.0000      0.0000    302.7430     34.0503    120.4577
   913.2500      0.0000    302.8400     33.5981    123.3278
   913.5000      0.0000    302.9980     33.1355    126.1980
   913.7500      0.0000    303.2041     32.6699    129.8475
   914.0000      0.0000    303.4341     32.2100    133.3856
   914.2500      0.0000    303.6622     31.7738    134.9426
   914.5000      0.0000    303.8715     31.3784    133.5491
   914.7500      0.0000    304.0550     31.0271    130.1308
   915.0000      0.0000    304.2063     30.7118    126.7473
   915.2500      0.0000    304.3165     30.4289    124.7854
   915.5000      0.0000    304.3852     30.1883    123.7255
   915.7500      0.0000    304.4313     30.0047    121.8209
   916.0000      0.0000    304.4857     29.8818    117.9834
   916.2500      0.0000    304.5685     29.8086    112.6660
   916.5000      0.0000    304.6718     29.7711    106.9459
   916.7500      0.0000    304.7645     29.7650    101.2746
   917.0000      0.0000    304.8131     29.7933     95.2832
   917.2500      0.0000    304.8008     29.8539     88.3968
   917.5000      0.0000    304.7350     29.9360     80.4168
   917.7500      0.0000    304.6437     30.0274     71.8726
   918.0000      0.0000    304.5646     30.1175     64.2405
   918.2500      0.0000    304.5319     30.1854     59.5972
   918.5000      0.0000    304.5635     30.1896     59.4370
   918.7500      0.0000    304.6489     30.0840     63.6631
   919.0000      0.0000    304.7509     29.8548     70.7473
   919.2500      0.0000    304.8314     29.5354     78.4488
   919.5000      0.0000    304.8796     29.1848     84.2025
   919.7500      0.0000    304.9155     28.8521     85.8095
   920.0000      0.0000    304.9712     28.5621     82.8956
   920.2500      0.0000    305.1323     28.3199     77.5782
   920.5000      0.0000    305.7098     28.1214     72.9745
   920.7500      0.0000    307.4717     27.9546     70.8064
   921.0000      0.0000    311.5582     27.7970     70.4727
   921.2500      0.0000    318.5325     27.6256     70.2573
   921.5000      0.0000    326.8778     27.4433     69.2370
   921.7500      0.0000    332.8186     27.2941     68.0958
   922.0000      0.0000    332.8571     27.2369     68.2552
   922.2500      0.0000    326.9325     27.3007     70.2844
   922.5000      0.0000    318.4729     27.4688     73.1458
   922.7500      0.0000    311.2833     27.7003     75.0335
   923.0000      0.0000    306.9588     27.9558     75.0444
   923.2500      0.0000    304.9960     28.2101     74.1918
   923.5000      0.0000    304.2751     28.4557     74.8178
   923.7500      0.0000    304.0513     28.7039     78.8994
   924.0000      0.0000    304.1047     28.9821     86.7666
   924.2500      0.0000    304.8387     29.3172     97.3063
   924.5000      0.0000    307.8059     29.6803    109.1279
   924.7500      0.0000    316.8143     29.9161    121.2831
   925.0000      0.0000    338.0462     29.7559    132.8451
   925.2500      0.0000    376.8592     28.9632    142.1676
   925.5000      0.0000    431.2914     27.4948    147.1743
   925.7500      0.0000    487.7442     25.5414    146.7974
   926.0000      0.0000    525.5688     23.4660    141.9723
   926.2500      0.0000    529.9780     21.6901    134.9781
   926.5000      0.0000    503.0861     20.5135    127.9529
   926.7500     -2.0000    462.4086     19.9634    122.2067
   927.0000      0.0000    427.8703     19.8496    118.6234
   927.2500      0.0000    410.8888     19.9762    118.0383
   927.5000      0.0000    413.8431     20.3060    120.6896
   927.7500      0.0000    433.9794     20.9510    125.4097
   928.0000      0.0000    464.2296     21.9883    129.9744
   928.2500      0.0000    493.9075     23.2331    132.5797
   928.5000      0.0000    515.5011     24.2492    132.8933
   928.7500      0.0000    534.2933     24.6735    131.7497
   929.0000      0.0000    569.1024     24.4523    130.0601
   929.2500      0.0000    637.8797     23.6911    127.9479
