~Version Information
VERS.                      2.0: CWLS Log ASCII Standard - VERSION 2.0
WRAP.                       NO: One line per depth step
~Well Information Block
STRT.FT                -8.0000: 
STOP.FT              1060.7500: 
STEP.FT                 0.2500: 
NULL.                -999.2500: 
COMP.          Pioneer Natural Resources: COMPANY
WELL.          Pavillion 44-25: WELL
FLD.           Purgatorie River: FIELD
LOC.           719' FSL & 650' FEL--: LOCATION
PROV.                       CO: PROVINCE
CNTY.               Las Animas: COUNTRY
SRVC.          Patterson Wireline: SERVICE COMPANY
DATE.          Mon Dec 19 11:59:26 2005: LOG DATE
UWI.           05 071 08624 00: UNIQUE WELL ID
~Curve Information Block
DEPT.FT            0 000 00 00: Depth
CCL.                          : Casing Collar Locator
TT3.usec                      : CBL 3' Travel Time
AMP3.mV                       : CBL 3' Amplitude
GR.GAPI                       : Gamma Ray
~Parameter Information Block
~A  Depth       CCL         TT3         AMP3         GR     
# ...
   126.0000      0.0000    728.3886      7.0549     97.9064
   126.2500      0.0000    723.6965      7.0806     97.5600
   126.5000      0.0000    721.6600      7.1505     94.6692
   126.7500      0.0000    723.2609      7.2557     90.8980
   127.0000      0.0000    728.3458      7.3700     87.4835
   127.2500      0.0000    735.3367      7.4597     84.3963
   127.5000      0.0000    741.3480      7.5073     80.9243
   127.7500      0.0000    744.2527      7.5234     76.5920
   128.0000      0.0000    745.1087      7.5350     71.3857
   128.2500      0.0000    747.4757      7.5661     65.6793
   128.5000      0.0000    754.0264      7.6223     60.2445
   128.7500      0.0000    764.5184      7.6863     56.1170
   129.0000      0.0000    776.7135      7.7300     54.1955
   129.2500      0.0000    788.0972      7.7401     54.6950
   129.5000      0.0000    796.8184      7.7324     56.7638
   129.7500      0.0000    802.1476      7.7318     58.7552
   130.0000      0.0000    804.5521      7.7417     59.2246
   130.2500      0.0000    805.4063      7.7414     57.9008
   130.5000      0.0000    806.5414      7.7096     55.7921
   130.7500      0.0000    809.5551      7.6407     54.3695
   131.0000      0.0000    814.9914      7.5445     54.5136
   131.2500      0.0000    823.0725      7.4404     55.8536
   131.5000      0.0000    835.8597      7.3510     56.8402
   131.7500      0.0000    856.0577      7.2942     55.6785
   132.0000      0.0000    881.0665      7.2785     51.6738
   132.2500      0.0000    900.6800      7.3029     45.8190
   132.5000      0.0000    904.3341      7.3567     39.9313
   132.7500      0.0000    889.4663      7.4225     35.2773
   133.0000      0.0000    861.3395      7.4827     32.0900
   133.2500      0.0000    827.6615      7.5248     30.0609
   133.5000      0.0000    795.0033      7.5413     28.9375
   133.7500      0.0000    767.6641      7.5287     28.8504
   134.0000      0.0000    747.8417      7.4909     30.2605
   134.2500      0.0000    736.7549      7.4405     33.2643
   134.5000      0.0000    734.6969      7.3944     36.8684
   134.7500      0.0000    739.6827      7.3668     39.4721
   135.0000      0.0000    747.5144      7.3653     40.3431
   135.2500      0.0000    754.2842      7.3898     40.2327
   135.5000      0.0000    758.5248      7.4344     40.3711
   135.7500      0.0000    761.0490      7.4946     41.1790
   136.0000      0.0000    763.6233      7.5720     42.0870
   136.2500      0.0000    767.7690      7.6656     42.3865
   136.5000      0.0000    773.6954      7.7585     42.1027
   136.7500      0.0000    779.6301      7.8208     41.9767
   137.0000      0.0000    782.9149      7.8323     42.6767
   137.2500      0.0000    782.7831      7.7992     44.3216
   137.5000      0.0000    781.6777      7.7437     46.7640
   137.7500      0.0000    782.7739      7.6801     49.8813
   138.0000      0.0000    786.4000      7.6061     53.4291
   138.2500      0.0000    789.7078      7.5169     56.9435
   138.5000      0.0000    789.5792      7.4187     59.9568
   138.7500      0.0000    785.0030      7.3255     62.2986
   139.0000      0.0000    777.2190      7.2448     64.3832
   139.2500      0.0000    768.8955      7.1720     67.2542
   139.5000      0.0000    762.8224      7.0974     71.9731
   139.7500      0.0000    760.1788      7.0172     78.5106
   140.0000      0.0000    760.0547      6.9392     85.2891
   140.2500      0.0000    760.8253      6.8783     90.1759
   140.5000      0.0000    761.6875      6.8449     91.9930
   140.7500      0.0000    763.0685      6.8371     90.9046
   141.0000      0.0000    766.3389      6.8442     87.6631
   141.2500      0.0000    773.0234      6.8585     83.1929
   141.5000      0.0000    783.0302      6.8775     78.8744
   141.7500      0.0000    793.0247      6.8966     76.2024
   142.0000      0.0000    798.0426      6.9061     75.5774
   142.2500      0.0000    796.5250      6.8990     75.9212
   142.5000      0.0000    793.5648      6.8773     75.8172
   142.7500      0.0000    797.9244      6.8516     74.8391
   143.0000      0.0000    815.4212      6.8378     73.8093
   143.2500      0.0000    844.4619      6.8532     73.8915
   143.5000      0.0000    876.7529      6.9022     75.4192
   143.7500      0.0000    902.2556      6.9619     77.6079
   144.0000      0.0000    914.7487      6.9888     79.2220
   144.2500      0.0000    914.3068      6.9503     79.2582
   144.5000      0.0000    905.7469      6.8495     77.3369
   144.7500      0.0000    894.4968      6.7161     74.0892
   145.0000      0.0000    883.2158      6.5815     71.1601
   145.2500      0.0000    872.5277      6.4677     70.3379
   145.5000      0.0000    864.1747      6.3879     72.2872
   145.7500      0.0000    860.6140      6.3474     75.8444
   146.0000      0.0000    861.0191      6.3397     78.4853
   146.2500      0.0000    860.4128      6.3477     77.8925
   146.5000      0.0000    853.5761      6.3495     73.5649
   146.7500      0.0000    838.3303      6.3297     67.1807
   147.0000      0.0000    815.6248      6.2901     61.5799
   147.2500      0.0000    788.6935      6.2520     59.2951
   147.5000      0.0000    762.3519      6.2404     61.5084
   147.7500      0.0000    741.2867      6.2666     67.7697
   148.0000      0.0000    728.0054      6.3244     76.3398
   148.2500      0.0000    722.8060      6.3984     84.8764
   148.5000      0.0000    726.0731      6.4743     91.4020
   148.7500      0.0000    740.0696      6.5459     95.2827
   149.0000      0.0000    766.8643      6.6136     97.3624
   149.2500      0.0000    802.9221      6.6731     98.8691
   149.5000      0.0000    836.5026      6.7111    100.1389
   149.7500      0.0000    853.6457      6.7175    100.3978
   150.0000      0.0000    848.9301      6.6989     98.6042
   150.2500      0.0000    830.3626      6.6701     94.5953
   150.5000      0.0000    813.7656      6.6351     89.5811
   150.7500      0.0000    811.5084      6.5854     85.3941
   151.0000      0.0000    823.5882      6.5158     83.0940
   151.2500      0.0000    838.0483      6.4330     82.2159
   151.5000      0.0000    841.8442      6.3449     81.3568
   151.7500      0.0000    832.1525      6.2494     79.6425
   152.0000      0.0000    815.7966      6.1396     77.7214
   152.2500      0.0000    798.7672      6.0211     77.2502
   152.5000      0.0000    780.3680      5.9185     79.3718
   152.7500      0.0000    758.4803      5.8621     83.6534
   153.0000      0.0000    736.3016      5.8647     88.4196
   153.2500      0.0000    721.1557      5.9123     92.0721
   153.5000      0.0000    718.3162      5.9751     93.9664
   153.7500      0.0000    727.8642      6.0261     93.9665
   154.0000      0.0000    745.9631      6.0509     91.6823
   154.2500      0.0000    766.6176      6.0478     86.9053
   154.5000      0.0000    782.3434      6.0251     80.7221
   154.7500      0.0000    786.5726      5.9942     75.5332
   155.0000      0.0000    778.4756      5.9652     73.6296
   155.2500      0.0000    764.6063      5.9461     75.6804
   155.5000      0.0000    753.8489      5.9409     80.4162
   155.7500      0.0000    751.0038      5.9432     85.6195
   156.0000      0.0000    755.3106      5.9399     89.4602
   156.2500      0.0000    763.0873      5.9244     91.2538
   156.5000      0.0000    770.6561      5.9040     91.4113
   156.7500      0.0000    775.8442      5.8918     90.7490
   157.0000      0.0000    778.1108      5.8951     89.7571
   157.2500      0.0000    777.7967      5.9145     88.6242
   157.5000      0.0000    775.6077      5.9506     87.6641
   157.7500      0.0000    773.0933      6.0051     87.1807
   158.0000      0.0000    773.2520      6.0739     87.0588
   158.2500      0.0000    779.6744      6.1419     87.0880
   158.5000      0.0000    793.8556      6.1878     87.5297
   158.7500      0.0000    813.3494      6.1933     88.7448
   159.0000      0.0000    833.2104      6.1488     90.3713
   159.2500      0.0000    848.6699      6.0585     91.5239
