~Version Information
VERS.                      2.0: CWLS Log ASCII Standard - VERSION 2.0
WRAP.                       NO: One line per depth step
~Well Information Block
STRT.FT                -7.5000: 
STOP.FT              2228.7500: 
STEP.FT                 0.2500: 
NULL.                -999.2500: 
COMP.          Pioneer Natural Resources: COMPANY
WELL.          McDonald 33-31 R: WELL
FLD.           Purgatorie River: FIELD
LOC.           1386' FSL & 1926' FEL: LOCATION
STAT.                       CO: State
CNTY.               Las Animas: COUNTY
CTRY.                      USA: Country
SECT.                       31: Section
TOWN.                      32S: Township
RANG.                      66W: Range
SRVC.          Patterson Wireline: SERVICE COMPANY
DATE.          Wed Sep 28 13:29:18 2005: LOG DATE
API.           05 071 08533 00: API#
~Curve Information Block
DEPT.FT            0 000 00 00: Depth
CCL.                          : Casing Collar Locator
TT3.usec                      : CBL 3' Travel Time
AMP3.mV                       : CBL 3' Amplitude
GR.GAPI                       : Gamma Ray
~Parameter Information Block
~A  Depth       CCL         TT3         AMP3         GR     
# ...
   428.0000      0.0000    744.8452     12.3327    111.3822
   428.2500      0.0000    742.6990     11.9804    110.0634
   428.5000      0.0000    743.3450     11.5431    107.9896
   428.7500      0.0000    747.1479     11.0967    104.1058
   429.0000      0.0000    752.3624     10.7218     97.7466
   429.2500      0.0000    756.0569     10.4501     90.2574
   429.5000      0.0000    756.3619     10.2658     84.1615
   429.7500      0.0000    753.4156     10.1352     80.7451
   430.0000      0.0000    748.2335     10.0435     78.9829
   430.2500      0.0000    741.5132     10.0222     76.9989
   430.5000      0.0000    734.0415     10.1348     74.1252
   430.7500      0.0000    727.6544     10.4110     71.1848
   431.0000      0.0000    724.4848     10.7966     69.2073
   431.2500      0.0000    724.5240     11.1888     68.5990
   431.5000      0.0000    723.9906     11.5155     69.4837
   431.7500      0.0000    717.3062     11.7619     71.8972
   432.0000      0.0000    702.6220     11.9370     75.2677
   432.2500      0.0000    686.2128     12.0454     78.3108
   432.5000      0.0000    679.2151     12.0904     79.8299
   432.7500      0.0000    687.5662     12.0833     79.5433
   433.0000      0.0000    706.0850     12.0460     78.4455
   433.2500      0.0000    723.8680     12.0152     78.6390
   433.5000      0.0000    733.5212     12.0387     82.1120
   433.7500      0.0000    733.7299     12.1534     88.7680
   434.0000      0.0000    725.2164     12.3540     95.7198
   434.2500      0.0000    707.8317     12.5866     99.2071
   434.5000      0.0000    683.4013     12.7826     97.7403
   434.7500      0.0000    660.1874     12.9040     93.5049
   435.0000      0.0000    650.2888     12.9588     90.3678
   435.2500      0.0000    659.5892     12.9836     90.2481
   435.5000      0.0000    681.4438     13.0201     91.6320
   435.7500      0.0000    701.5287     13.0993     91.7198
   436.0000      0.0000    707.6487     13.2334     89.4864
   436.2500      0.0000    696.4438     13.4138     86.2761
   436.5000      0.0000    675.3742     13.6200     83.9864
   436.7500      0.0000    658.1279     13.8302     83.4084
   437.0000      0.0000    652.4236     14.0201     84.1572
   437.2500      0.0000    650.9673     14.1586     85.3517
   437.5000      0.0000    639.5283     14.2141     85.9491
   437.7500      0.0000    615.7687     14.1697     84.7914
   438.0000      0.0000    595.1312     14.0352     80.9248
   438.2500      0.0000    595.8604     13.8428     74.2284
   438.5000      0.0000    621.4213     13.6287     65.8238
   438.7500      0.0000    659.9927     13.4123     57.6472
   439.0000      0.0000    699.0221     13.1888     51.3785
   439.2500      0.0000    736.2950     12.9416     47.6665
   439.5000      0.0000    775.7964     12.6629     46.1961
   439.7500      0.0000    816.8696     12.3658     46.2866
   440.0000      0.0000    851.4811     12.0809     47.2853
   440.2500      0.0000    870.7741     11.8421     48.4642
   440.5000      0.0000    871.5602     11.6741     48.9520
   440.7500      0.0000    857.4084     11.5964     48.1872
   441.0000      0.0000    835.8743     11.6316     46.4073
   441.2500      0.0000    814.6626     11.7995     44.4304
   441.5000      0.0000    798.9233     12.0917     42.9856
   441.7500      0.0000    791.0833     12.4581     42.4559
   442.0000      0.0000    792.0142     12.8283     43.0057
   442.2500      0.0000    801.1589     13.1504     44.4543
   442.5000      0.0000    815.0908     13.4068     46.0599
   442.7500      0.0000    826.9034     13.6019     46.8797
   443.0000      0.0000    828.7997     13.7440     46.6033
   443.2500      0.0000    816.0295     13.8420     45.9120
   443.5000      0.0000    787.6472     13.9118     45.7939
   443.7500      0.0000    744.1010     13.9751     46.5532
   444.0000      0.0000    687.1086     14.0499     47.7477
   444.2500      0.0000    623.0035     14.1430     48.9849
   444.5000      0.0000    562.8220     14.2506     50.3406
   444.7500      0.0000    516.2430     14.3630     51.9528
   445.0000      0.0000    486.3529     14.4701     53.6943
   445.2500      0.0000    470.6633     14.5676     55.4080
   445.5000      0.0000    465.1342     14.6604     57.1396
   445.7500      0.0000    466.3281     14.7633     58.9664
   446.0000      0.0000    471.2910     14.8981     60.6499
   446.2500      0.0000    477.2835     15.0847     61.4917
   446.5000      0.0000    482.4409     15.3229     60.7653
   446.7500      0.0000    486.3908     15.5817     58.4482
   447.0000      0.0000    489.6829     15.8085     55.3488
   447.2500      0.0000    492.6104     15.9531     52.6027
   447.5000      0.0000    494.8842     15.9902     51.4279
   447.7500      0.0000    496.0710     15.9269     53.0950
   448.0000      0.0000    495.7664     15.7941     58.3008
   448.2500      0.0000    493.3824     15.6302     66.3958
   448.5000      0.0000    488.2040     15.4635     75.6464
   448.7500      0.0000    479.8938     15.3033     84.2416
   449.0000      0.0000    468.7141     15.1434     90.8382
   449.2500      0.0000    454.9622     14.9729     94.6723
   449.5000      0.0000    438.5398     14.7879     95.9578
   449.7500      0.0000    419.8221     14.5952     96.0553
   450.0000      0.0000    400.8950     14.4122     96.5430
   450.2500      0.0000    384.9963     14.2625     97.8661
   450.5000      0.0000    374.3548     14.1678     99.0809
   450.7500      0.0000    368.9497     14.1387     98.8754
   451.0000      0.0000    367.3506     14.1740     96.7642
   451.2500      0.0000    368.1194     14.2670     93.4627
   451.5000      0.0000    370.1489     14.4079     90.3624
   451.7500      0.0000    372.1827     14.5830     88.7150
   452.0000      0.0000    372.8018     14.7761     89.1340
   452.2500      0.0000    371.2109     14.9703     91.6061
   452.5000      0.0000    367.6712     15.1509     95.7483
   452.7500      0.0000    362.8895     15.3065    100.6999
   453.0000      0.0000    357.4373     15.4282    104.6928
   453.2500      0.0000    352.1898     15.5086    105.6512
   453.5000      0.0000    348.7745     15.5444    103.0641
   453.7500      0.0000    348.6629     15.5418     98.5993
   454.0000      0.0000    351.7097     15.5134     94.0177
   454.2500      0.0000    356.1222     15.4701     89.2400
   454.5000      0.0000    359.9741     15.4197     83.4301
   454.7500      0.0000    362.4499     15.3732     77.3057
   455.0000      0.0000    363.8452     15.3450     73.2909
   455.2500      0.0000    365.0441     15.3408     73.3809
   455.5000      0.0000    367.3353     15.3513     77.3725
   455.7500      0.0000    372.3708     15.3640     83.1882
   456.0000      0.0000    381.6613     15.3748     88.6131
   456.2500      0.0000    396.0725     15.3610     92.6188
   456.5000      0.0000    417.1208     15.2282     95.4601
   456.7500      0.0000    449.7430     14.8137     97.9989
   457.0000      0.0000    501.7644     14.0166    100.7144
   457.2500      0.0000    576.7216     12.9607    102.8905
   457.5000      0.0000    666.5264     11.9774    102.9638
   457.7500      0.0000    753.3730     11.3630    100.0747
   458.0000      0.0000    819.5875     11.1562     95.0758
   458.2500      0.0000    855.9124     11.1727     89.7891
   458.5000      2.0000    864.1539     11.2075     85.5205
   458.7500      0.0000    855.0341     11.1614     82.3179
   459.0000      0.0000    840.7186     11.0285     79.2713
   459.2500      0.0000    825.0224     10.8696     75.4268
   459.5000      0.0000    801.5715     10.8338     70.6093
   459.7500      0.0000    764.5423     11.1262     65.5916
   460.0000      0.0000    720.8922     11.8400     61.6821
   460.2500      0.0000    688.3561     12.8006     59.9662
   460.5000      0.0000    679.6324     13.6494     60.5041
   460.7500      0.0000    691.2748     14.1159     62.1558
   461.0000      0.0000    709.7659     14.1812     63.3871
   461.2500      0.0000    724.7475     14.0027     63.2946
