~Version Information
VERS.                      2.0: CWLS Log ASCII Standard - VERSION 2.0
WRAP.                       NO: One line per depth step
~Well Information Block
STRT.FT                -7.2500: 
STOP.FT              1196.2500: 
STEP.FT                 0.2500: 
NULL.                -999.2500: 
COMP.          Pioneer Natural Resources: COMPANY
WELL.             Mahalo 12-20: WELL
FLD.           Purgatorie River: FIELD
LOC.           1689' FNL & 479' FWL--: LOCATION
CNTY.               Las Animas: COUNTY
SRVC.          Patterson Wireline: SERVICE COMPANY
DATE.          Tue Mar 14 15:40:32 2006: LOG DATE
UWI.           05 071 08700 00: UNIQUE WELL ID
STAT.                       CO: STATE
~Curve Information Block
DEPT.FT            0 000 00 00: Depth
CCL.                          : Casing Collar Locator
TT3.usec                      : CBL 3' Travel Time
AMP3.mV                       : CBL 3' Amplitude
GR.GAPI                       : Gamma Ray
~Parameter Information Block
~A  Depth       CCL         TT3         AMP3         GR     
# ...
   394.7500      0.0000    800.1459      3.5428     91.8891
   395.0000      0.0000    799.5006      3.5418     88.9508
   395.2500      0.0000    788.6967      3.5589     87.2855
   395.5000      0.0000    773.3516      3.5826     86.9945
   395.7500      0.0000    758.9122      3.6010     87.2817
   396.0000      0.0000    748.2207      3.6067     86.4407
   396.2500      0.0000    741.8199      3.5988     83.2245
   396.5000      0.0000    739.1271      3.5819     78.2999
   396.7500      0.0000    739.2947      3.5641     74.0173
   397.0000      0.0000    741.2598      3.5527     72.5097
   397.2500      0.0000    743.3340      3.5487     73.8908
   397.5000      0.0000    743.3687      3.5449     76.2468
   397.7500      0.0000    739.9111      3.5294     77.5125
   398.0000      0.0000    733.2852      3.4989     77.2494
   398.2500      0.0000    725.5566      3.4757     76.4660
   398.5000      0.0000    719.5393      3.4992     76.0902
   398.7500      0.0000    717.4913      3.5792     76.0486
   399.0000      0.0000    719.9811      3.6711     75.7016
   399.2500      0.0000    725.4541      3.7235     74.6099
   399.5000      0.0000    731.0723      3.7391     72.6958
   399.7500      0.0000    734.6862      3.7631     70.0925
   400.0000      2.0000    736.4340      3.8289     67.1817
   400.2500      0.0000    738.3645      3.9409     64.5471
   400.5000      0.0000    742.1863      4.0990     62.5897
   400.7500      0.0000    746.9387      4.3165     61.2582
   401.0000      0.0000    748.8439      4.6018     60.2067
   401.2500      0.0000    744.2898      4.9131     59.0608
   401.5000      0.0000    733.4820      5.1445     57.6436
   401.7500      0.0000    720.6058      5.1924     56.3259
   402.0000      0.0000    710.1820      5.0535     56.0477
   402.2500      0.0000    703.9029      4.8309     57.7178
   402.5000      0.0000    700.8441      4.6390     61.5837
   402.7500      0.0000    699.4434      4.5239     67.1055
   403.0000      0.0000    698.7177      4.4697     73.2264
   403.2500      0.0000    698.2847      4.4440     78.7929
   403.5000      0.0000    698.0308      4.4262     82.9716
   403.7500      0.0000    697.9232      4.4106     85.2973
   404.0000      0.0000    697.9398      4.3970     85.5162
   404.2500      0.0000    698.0418      4.3836     83.8177
   404.5000      0.0000    698.1674      4.3684     81.1170
   404.7500      0.0000    698.2643      4.3530     78.5789
   405.0000      0.0000    698.3158      4.3432     76.8554
   405.2500      0.0000    698.3308      4.3439     75.9613
   405.5000      0.0000    698.3143      4.3548     75.6059
   405.7500      0.0000    698.2576      4.3712     75.3460
   406.0000      0.0000    698.1540      4.3866     74.6053
   406.2500      0.0000    698.0118      4.3950     72.9710
   406.5000      0.0000    697.8481      4.3925     70.5991
   406.7500      0.0000    697.6755      4.3795     68.1612
   407.0000      0.0000    697.4999      4.3617     66.3152
   407.2500      0.0000    697.3304      4.3472     65.2306
   407.5000      0.0000    697.1901      4.3405     64.7679
   407.7500      0.0000    697.1100      4.3385     65.3757
   408.0000      0.0000    697.1014      4.3311     68.6975
   408.2500      0.0000    697.1020      4.3098     76.5466
   408.5000      0.0000    696.9429      4.2757     88.7850
   408.7500      0.0000    696.3595      4.2376    102.4803
   409.0000      0.0000    695.1838      4.2071    113.5449
   409.2500      0.0000    693.8199      4.1976    119.3181
   409.5000      0.0000    693.7166      4.2237    119.9218
   409.7500      0.0000    696.8900      4.2912    117.6397
   410.0000      0.0000    704.1337      4.3862    114.9895
   410.2500      0.0000    713.6776      4.4788    112.9702
   410.5000      0.0000    722.6042      4.5419    110.7791
   410.7500      0.0000    730.1270      4.5669    106.8380
   411.0000      0.0000    738.4492      4.5637    100.1779
   411.2500      0.0000    749.7644      4.5495     91.5193
   411.5000      0.0000    763.1848      4.5398     83.5372
   411.7500      0.0000    774.7701      4.5457     79.7710
   412.0000      0.0000    779.3862      4.5735     82.6140
   412.2500      0.0000    773.0828      4.6206     91.7217
   412.5000      0.0000    756.0922      4.6736    103.9147
   412.7500      0.0000    733.6619      4.7155    114.6351
   413.0000      0.0000    712.0349      4.7428    120.2402
   413.2500      0.0000    693.5192      4.7772    119.9235
   413.5000      0.0000    676.4265      4.8502    115.8255
   413.7500      0.0000    658.8532      4.9695    111.0738
   414.0000      0.0000    641.1404      5.1076    107.6948
   414.2500      0.0000    625.2112      5.2278    106.2948
   414.5000      0.0000    613.0754      5.3130    106.7809
   414.7500      0.0000    606.1644      5.3659    108.5751
   415.0000      0.0000    604.7847      5.3938    110.6662
   415.2500      0.0000    607.5287      5.4021    112.2737
   415.5000      0.0000    611.8951      5.3975    113.2339
   415.7500      0.0000    616.1114      5.3890    113.4355
   416.0000      0.0000    619.8473      5.3816    112.5721
   416.2500      0.0000    622.8646      5.3688    110.9393
   416.5000      0.0000    624.1141      5.3337    109.9362
   416.7500      0.0000    623.4399      5.2643    111.0928
   417.0000      0.0000    623.6005      5.1671    114.5720
   417.2500      0.0000    628.8865      5.0626    118.6866
   417.5000      0.0000    640.8760      4.9668    120.8499
   417.7500      0.0000    655.6788      4.8795    119.3217
   418.0000      0.0000    666.2549      4.7937    114.6273
   418.2500      0.0000    668.8329      4.7104    109.5182
   418.5000      0.0000    666.9223      4.6389    107.3893
   418.7500      0.0000    667.3679      4.5824    110.3839
   419.0000      0.0000    672.5530      4.5290    118.5522
   419.2500      0.0000    677.8177      4.4635    130.2244
   419.5000      0.0000    676.0863      4.3857    142.7113
   419.7500      0.0000    664.3463      4.3145    152.9336
   420.0000      0.0000    647.1793      4.2714    158.2030
   420.2500      0.0000    634.8498      4.2624    156.9488
   420.5000      0.0000    635.9239      4.2738    149.0275
   420.7500      0.0000    650.2505      4.2851    135.8032
   421.0000      0.0000    669.8124      4.2839    120.0268
   421.2500      0.0000    686.1640      4.2722    105.1264
   421.5000      0.0000    695.8732      4.2597     94.1354
   421.7500      0.0000    699.8511      4.2540     88.8166
   422.0000      0.0000    700.0801      4.2570     89.0258
   422.2500      0.0000    697.8556      4.2687     92.4662
   422.5000      0.0000    693.7619      4.2889     95.6392
   422.7500      0.0000    687.8066      4.3176     96.0763
   423.0000      0.0000    679.5744      4.3521     94.1446
   423.2500      0.0000    669.4210      4.3869     92.4541
   423.5000      0.0000    659.8950      4.4144     93.2597
   423.7500      0.0000    654.6517      4.4284     96.6574
   424.0000      0.0000    654.7844      4.4267    101.3607
   424.2500      0.0000    657.0563      4.4120    106.5731
   424.5000      0.0000    656.8666      4.3897    112.5558
   424.7500      0.0000    652.6098      4.3665    119.7200
   425.0000      0.0000    646.4647      4.3493    127.7735
   425.2500      0.0000    641.8943      4.3442    135.7451
   425.5000      0.0000    641.2394      4.3539    142.4472
   425.7500      0.0000    644.6911      4.3746    146.6333
   426.0000      0.0000    650.4255      4.3978    146.7953
   426.2500      0.0000    656.0513      4.4162    141.3719
   426.5000      0.0000    660.4141      4.4276    129.9848
   426.7500      0.0000    663.9438      4.4355    114.8984
   427.0000      0.0000    667.3836      4.4438    100.7463
   427.2500      0.0000    670.6710      4.4526     91.8728
   427.5000      0.0000    673.2001      4.4572     89.3656
   427.7500      0.0000    674.6815      4.4548     90.7262
   428.0000      0.0000    675.3258      4.4505     92.5030
