~Version Information
VERS.                      2.0: CWLS Log ASCII Standard - VERSION 2.0
WRAP.                       NO: One line per depth step
~Well Information Block
STRT.FT               970.0000: 
STOP.FT              1881.0000: 
STEP.FT                 0.1000: 
NULL.                -999.2500: 
COMP.          Petrogulf Corporation: COMPANY
WELL.             Norton 9-14R: WELL
FLD.           Purgatorie River: FIELD
LOC.           725' FSL & 1103' FWL: LOCATION
PROV.                 Colorado: PROVINCE
CNTY.               Las Animas: COUNTRY
SRVC.                Patterson: SERVICE COMPANY
DATE.          Fri Oct 07 07:52:23 2005: LOG DATE
UWI.                          : UNIQUE WELL ID
~Curve Information Block
DEPT.FT            0 000 00 00: Depth
DCAL.in                       : CDL Caliper
RHOB.g/cc                     : CDL Bulk Density
RHOC.g/cc                     : CDL Density Correction
DPOR.pu                       : CDL Density Porosity
GR.GAPI                       : Gamma Ray
NPOR.pu                       : Neutron Porosity
~Parameter Information Block
~A  Depth       DCAL        RHOB        RHOC        DPOR         GR         NPOR    
# ...
  1325.2000      7.9204      2.6067      0.1106      2.6257     93.1673     21.1230
  1325.3000      7.8891      2.6222      0.1008      1.6833     92.8565     20.3150
  1325.4000      7.8891      2.6257      0.1188      1.4747     91.5179     19.6668
  1325.5000      7.8993      2.6200      0.1033      1.8202     90.7992     19.6898
  1325.6000      7.8993      2.6144      0.1022      2.1601     90.4939     20.3862
  1325.7000      7.8993      2.6170      0.0544      2.0004     89.4322     21.0202
  1325.8000      7.9115      2.6258      0.0817      1.4694     88.4362     21.3992
  1325.9000      7.9115      2.6320      0.0851      1.0901     87.6977     22.0427
  1326.0000      7.9224      2.6379      0.0635      0.7339     85.6277     22.9189
  1326.1000      7.9224      2.6461      0.0645      0.2346     83.7107     23.3195
  1326.2000      7.9224      2.6471      0.0950      0.1765     85.3235     23.0248
  1326.3000      7.9273      2.6351      0.0604      0.9056     88.0821     22.4746
  1326.4000      7.9273      2.6146      0.0344      2.1436     87.4842     22.0544
  1326.5000      7.9386      2.5895      0.0168      3.6670     85.5758     21.8289
  1326.6000      7.9386      2.5650     -0.0074      5.1530     85.0729     21.6939
  1326.7000      7.9386      2.5543     -0.0010      5.8008     84.7174     21.6073
  1326.8000      7.9374      2.5647      0.0291      5.1708     85.2800     21.4510
  1326.9000      7.9374      2.5818      0.0648      4.1343     87.4831     21.1658
  1327.0000      7.9325      2.5802      0.0544      4.2326     89.1240     21.0627
  1327.1000      7.9325      2.5457      0.0440      6.3199     89.8735     21.4268
  1327.2000      7.9325      2.4816      0.0421     10.2089     90.2725     22.0564
  1327.3000      7.9364      2.4061     -0.0231     14.7822     91.2163     22.7563
  1327.4000      7.9364      2.3437     -0.0032     18.5637     94.7545     23.7120
  1327.5000      7.9407      2.3037     -0.0103     20.9895    100.6410     24.8335
  1327.6000      7.9407      2.2780     -0.0110     22.5480    108.6238     25.6072
  1327.7000      7.9407      2.2630      0.0003     23.4538    117.7469     25.9457
  1327.8000      7.9467      2.2745     -0.0098     22.7577    125.5132     26.2682
  1327.9000      7.9467      2.3235      0.0856     19.7895    130.8256     26.5555
  1328.0000      7.9434      2.3922      0.1766     15.6224    130.9827     26.4282
  1328.1000      7.9434      2.4605      0.1593     11.4833    126.4329     26.1855
  1328.2000      7.9434      2.5238      0.1762      7.6508    122.9041     26.3803
  1328.3000      7.8881      2.5741      0.1425      4.6003    121.7236     26.7208
  1328.4000      7.8881      2.5986      0.1390      3.1155    121.5259     26.6306
  1328.5000      7.8591      2.6030      0.1013      2.8486    122.0461     26.0338
  1328.6000      7.8591      2.6095      0.1012      2.4522    123.4587     25.2257
  1328.7000      7.8591      2.6230      0.1256      1.6344    125.8454     24.5996
  1328.8000      7.8513      2.6314      0.0963      1.1290    127.0109     24.3215
  1328.9000      7.8513      2.6251      0.1194      1.5119    125.4864     24.1436
  1329.0000      7.8262      2.6024      0.0652      2.8852    123.0346     23.7353
  1329.1000      7.8262      2.5705      0.0576      4.8198    121.7128     23.4072
  1329.2000      7.8262      2.5373      0.0054      6.8328    120.8634     23.5458
  1329.3000      7.8549      2.5081      0.0081      8.5984    118.7375     23.8882
  1329.4000      7.8549      2.4895      0.0005      9.7246    114.9255     24.0467
  1329.5000      7.9297      2.4959     -0.0509      9.3423    111.4925     23.8499
  1329.6000      7.9297      2.5338      0.0722      7.0395    112.8222     23.5438
  1329.7000      7.9297      2.5814      0.1386      4.1547    117.8620     23.4604
  1329.8000      7.8807      2.6101      0.1267      2.4176    120.4764     23.3823
  1329.9000      7.8807      2.6108      0.0955      2.3753    120.8780     23.0642
  1330.0000      7.8652      2.5928      0.1113      3.4645    122.6847     22.7398
  1330.1000      7.8652      2.5740      0.1024      4.6064    123.2770     22.8218
  1330.2000      7.8652      2.5709      0.0513      4.7928    120.4205     23.2785
  1330.3000      7.9076      2.5813      0.1085      4.1626    119.8369     23.7257
  1330.4000      7.9076      2.5808      0.0855      4.1923    124.2886     24.0408
  1330.5000      7.9275      2.5594      0.0506      5.4919    127.0679     24.1201
  1330.6000      7.9275      2.5365      0.0311      6.8813    124.1129     23.9267
  1330.7000      7.9275      2.5285      0.0451      7.3611    120.6206     23.6729
  1330.8000      7.9332      2.5320      0.0747      7.1540    122.5252     23.4832
  1330.9000      7.9332      2.5366      0.0594      6.8751    126.7418     23.4052
  1331.0000      7.9242      2.5328      0.1105      7.1043    127.5476     23.4479
  1331.1000      7.9242      2.5195      0.0268      7.9110    126.4795     23.7023
  1331.2000      7.9242      2.5138     -0.0010      8.2543    127.2608     24.2603
  1331.3000      7.9217      2.5229      0.0758      7.7055    130.5597     24.7018
  1331.4000      7.9217      2.5333      0.0375      7.0726    133.0476     24.9048
  1331.5000      7.9337      2.5347      0.0373      6.9852    132.2962     25.2498
  1331.6000      7.9337      2.5239      0.0511      7.6453    132.3515     25.6721
  1331.7000      7.9337      2.5112     -0.0042      8.4107    135.7320     25.9322
  1331.8000      7.9287      2.5168      0.0078      8.0732    138.2874     26.0581
  1331.9000      7.9287      2.5358      0.0345      6.9206    138.2224     25.9955
  1332.0000      7.9296      2.5480      0.0275      6.1810    136.6639     25.6690
  1332.1000      7.9296      2.5516      0.0084      5.9655    132.5664     25.2865
  1332.2000      7.9296      2.5508      0.0551      6.0139    127.6177     25.1208
  1332.3000      7.9203      2.5443      0.0504      6.4059    124.9363     25.3597
  1332.4000      7.9203      2.5424      0.0021      6.5239    123.6496     25.9255
  1332.5000      7.9148      2.5546      0.0972      5.7802    120.9995     26.1134
  1332.6000      7.9148      2.5779      0.0432      4.3719    116.0715     25.6125
  1332.7000      7.9148      2.6077      0.0435      2.5646    111.7358     24.8976
  1332.8000      7.9061      2.6338      0.0661      0.9809    109.0169     24.4433
  1332.9000      7.9061      2.6497      0.0470      0.0167    105.9019     24.4768
  1333.0000      7.9021      2.6548      0.0661     -0.2926    101.8738     24.7392
  1333.1000      7.9021      2.6517      0.0501     -0.1006     96.6432     24.6910
  1333.2000      7.9021      2.6533      0.0617     -0.1983     89.5300     24.0332
  1333.3000      7.8782      2.6625      0.0644     -0.7557     83.5705     23.1961
  1333.4000      7.8782      2.6622      0.0935     -0.7377     81.0995     22.8182
  1333.5000      7.8476      2.6448      0.0346      0.3130     78.5046     22.7608
  1333.6000      7.8476      2.6251      0.0040      1.5067     73.8489     22.6369
  1333.7000      7.8476      2.6139      0.0321      2.1853     68.8160     22.5227
  1333.8000      7.8138      2.6112      0.0319      2.3500     63.7882     22.4854
  1333.9000      7.8138      2.6175      0.0569      1.9667     59.7346     22.2185
  1334.0000      7.8075      2.6316      0.0889      1.1178     58.3079     21.4441
  1334.1000      7.8075      2.6493      0.0940      0.0444     58.1140     20.4076
  1334.2000      7.8075      2.6650      0.1210     -0.9081     56.1787     19.5694
  1334.3000      7.8205      2.6697      0.1157     -1.1913     53.6559     18.9635
  1334.4000      7.8205      2.6570      0.1069     -0.4249     55.0841     18.5710
  1334.5000      7.8179      2.6322      0.0507      1.0806     61.0316     18.5645
  1334.6000      7.8179      2.6010      0.0971      2.9679     67.0322     18.8973
  1334.7000      7.8179      2.5692      0.0175      4.8964     68.8609     19.2030
