~Version Information
VERS.                      2.0: CWLS Log ASCII Standard - VERSION 2.0
WRAP.                       NO: One line per depth step
~Well Information Block
STRT.FT               -14.0000: 
STOP.FT               951.0000: 
STEP.FT                 0.2500: 
NULL.                -999.2500: 
COMP.          Pioneer Natural Resources: COMPANY
WELL.             Giggle 21-22: WELL
FLD.           Purgatoire River: FIELD
LOC.           950' FNL & 2094' FWL: LOCATION
CNTY.               Las Animas: COUNTY
SRVC.                         : SERVICE COMPANY
DATE.          Mon Apr 17 17:51:33 2006: LOG DATE
UWI.           05 071 08726 00: UNIQUE WELL ID
STAT.                       CO: STATE
~Curve Information Block
DEPT.FT            0 000 00 00: Depth
CCL.                          : Casing Collar Locator
TT3.usec                      : CBL 3' Travel Time
AMP3.mV                       : CBL 3' Amplitude
GR.GAPI                       : Gamma Ray
~Parameter Information Block
~A  Depth       CCL         TT3         AMP3         GR     
# ...
   622.5000      0.0000    692.2746      7.3723     85.3153
   622.7500      0.0000    695.2770      7.4333     93.6369
   623.0000      0.0000    698.2836      7.5225    102.7008
   623.2500      0.0000    700.7714      7.6388    111.2637
   623.5000      0.0000    701.7758      7.7252    118.4585
   623.7500      0.0000    700.8528      7.7166    123.9224
   624.0000      0.0000    698.7021      7.6111    127.3423
   624.2500      0.0000    696.5496      7.4772    128.0951
   624.5000      0.0000    695.0937      7.3850    125.7439
   624.7500      0.0000    694.2499      7.3430    120.9404
   625.0000      0.0000    693.6725      7.3051    115.6301
   625.2500      0.0000    693.2227      7.2291    112.1184
   625.5000      0.0000    693.0738      7.1142    111.5321
   625.7500      0.0000    693.6870      6.9807    113.0248
   626.0000      0.0000    695.6901      6.8322    114.7014
   626.2500      0.0000    699.3684      6.6494    115.3045
   626.5000      0.0000    703.9229      6.4193    114.8177
   626.7500      0.0000    707.4026      6.1666    113.8112
   627.0000      0.0000    707.9454      5.9625    112.8876
   627.2500      0.0000    705.3278      5.9013    112.6953
   627.5000      0.0000    701.1202      6.0496    113.6545
   627.7500      0.0000    697.3038      6.3939    115.1709
   628.0000      0.0000    694.8843      6.8355    115.5442
   628.2500      0.0000    693.5986      7.2451    113.2012
   628.5000      0.0000    692.5243      7.5324    107.9708
   628.7500      0.0000    690.9865      7.6682    101.0863
   629.0000      0.0000    689.2075      7.6630     94.3053
   629.2500      0.0000    688.1105      7.5494     89.0063
   629.5000      0.0000    688.3321      7.3835     85.5449
   629.7500      0.0000    689.5427      7.2336     83.2262
   630.0000      0.0000    690.8934      7.1409     81.1125
   630.2500      0.0000    691.9570      7.0846     78.6892
   630.5000      0.0000    693.1488      7.0006     75.5617
   630.7500      0.0000    695.4549      6.8438     71.2441
   631.0000      0.0000    699.7623      6.6335     66.0237
   631.2500      0.0000    706.0439      6.4424     61.5151
   631.5000      0.0000    712.9365      6.3468     59.6063
   631.7500      0.0000    718.2699      6.3833     60.9641
   632.0000      0.0000    720.2746      6.5405     64.7958
   632.2500      0.0000    718.5518      6.7766     69.7152
   632.5000      0.0000    714.3399      7.0454     74.7458
   632.7500      0.0000    710.0319      7.3199     79.9892
   633.0000      0.0000    707.8394      7.5962     86.4639
   633.2500      0.0000    708.1594      7.8782     94.7801
   633.5000      0.0000    709.1728      8.1638    103.7655
   633.7500      0.0000    708.4391      8.4384    110.8260
   634.0000      0.0000    704.9509      8.6702    113.9223
   634.2500      0.0000    699.5749      8.8200    113.0472
   634.5000      0.0000    693.9984      8.8619    109.9079
   634.7500      0.0000    689.7784      8.7845    106.5822
   635.0000      0.0000    687.9333      8.5795    104.3020
   635.2500      0.0000    688.5132      8.2527    102.9011
   635.5000      0.0000    690.4600      7.8433    101.4006
   635.7500      0.0000    692.3530      7.4188     99.3874
   636.0000      0.0000    693.4022      7.0495     97.5980
   636.2500      0.0000    693.6576      6.7851     96.8702
   636.5000      0.0000    693.5208      6.6426     96.7291
   636.7500      0.0000    693.2921      6.6070     95.2782
   637.0000      0.0000    693.0261      6.6458     90.7074
   637.2500      0.0000    692.5302      6.7258     83.1069
   637.5000      0.0000    691.3480      6.8228     74.7004
   637.7500      0.0000    688.8043      6.9249     68.0229
   638.0000      0.0000    684.3205      7.0249     63.9883
   638.2500      0.0000    678.0449      7.0921     61.8922
   638.5000      0.0000    671.2759      7.0640     60.7446
   638.7500      0.0000    666.0698      6.9092     60.1090
   639.0000      0.0000    664.2687      6.7058     59.9921
   639.2500      0.0000    666.7563      6.6060     60.4662
   639.5000      0.0000    673.3516      6.6903     61.4820
   639.7500      0.0000    683.2787      6.8754     62.8273
   640.0000      0.0000    696.1297      6.9921     64.1039
   640.2500      0.0000    712.5972      6.9402     64.8092
   640.5000      0.0000    733.7064      6.7458     64.5537
   640.7500      0.0000    758.2467      6.4820     63.1449
   641.0000      0.0000    780.8698      6.1891     60.4674
   641.2500      0.0000    794.2870      5.8949     56.5712
   641.5000      0.0000    794.7859      5.6597     52.0847
   641.7500      0.0000    785.1760      5.5426     48.3471
   642.0000     -2.1716    771.8180      5.5398     46.7746
   642.2500      0.0000    760.1219      5.5932     47.9467
   642.5000      5.0000    753.5389      5.6509     51.3033
   642.7500      0.0000    754.2509      5.7102     55.5995
   643.0000      0.0000    761.6056      5.8276     59.5406
   643.2500      0.0000    769.9907      6.0883     62.1402
   643.5000      0.0000    771.1747      6.5251     62.7975
   643.7500      0.0000    760.6777      7.0469     61.3650
   644.0000      0.0000    741.4390      7.4812     58.3273
   644.2500      0.0000    720.8270      7.7008     54.7814
   644.5000      0.0000    704.8745      7.6974     51.9095
   644.7500      0.0000    695.3683      7.5535     50.3271
   645.0000      0.0000    690.8945      7.3770     49.9387
   645.2500      0.0000    689.2000      7.2538     50.1875
   645.5000      0.0000    688.6500      7.2369     50.2195
   645.7500      0.0000    688.4684      7.3531     49.1154
   646.0000      0.0000    688.4089      7.5912     46.4881
   646.2500      0.0000    688.4297      7.8891     42.9941
   646.5000      0.0000    688.5198      8.1688     40.0186
   646.7500      0.0000    688.6299      8.3911     38.6287
   647.0000      0.0000    688.6782      8.5479     38.8194
   647.2500      0.0000    688.6075      8.6108     39.7640
   647.5000      0.0000    688.4326      8.5182     40.6557
   647.7500      0.0000    688.2216      8.2280     41.2072
   648.0000      0.0000    688.0410      7.7773     41.4857
   648.2500      0.0000    687.9291      7.2970     41.5812
   648.5000      0.0000    687.9075      6.9536     41.5432
   648.7500      0.0000    687.9913      6.8531     41.4734
   649.0000      0.0000    688.1808      6.9809     41.5395
   649.2500      0.0000    688.4492      7.2219     42.0758
   649.5000      0.0000    688.7384      7.4313     43.9465
   649.7500      0.0000    688.9719      7.5086     48.6154
   650.0000      0.0000    689.0904      7.4566     57.2695
   650.2500      0.0000    689.0656      7.3798     69.6854
   650.5000      0.0000    688.8455      7.3902     84.0413
   650.7500      0.0000    688.2585      7.4898     97.6161
   651.0000      0.0000    687.0735      7.5641    107.5777
   651.2500      0.0000    685.3655      7.5053    112.0175
   651.5000      0.0000    683.8751      7.3252    111.2990
   651.7500      0.0000    683.6907      7.1396    108.2240
   652.0000      0.0000    685.2524      7.0630    105.9911
   652.2500      0.0000    687.8034      7.1276    105.7464
   652.5000      0.0000    690.0208      7.2821    106.2834
   652.7500      0.0000    691.0046      7.4422    106.0567
   653.0000      0.0000    690.5153      7.5439    105.1575
   653.2500      0.0000    688.6545      7.5663    105.0262
   653.5000      0.0000    685.8344      7.5294    106.2870
   653.7500      0.0000    683.0538      7.4746    107.4346
   654.0000      0.0000    681.6569      7.4335    106.0573
   654.2500      0.0000    682.3513      7.4033    100.9282
   654.5000      0.0000    684.5599      7.3448     92.6617
   654.7500      0.0000    687.0001      7.1995     83.1495
   655.0000      0.0000    688.8314      6.9145     74.8903
   655.2500      0.0000    690.2184      6.4852     70.0642
   655.5000      0.0000    692.0114      5.9893     69.2265
   655.7500      0.0000    694.9226      5.5570     70.8100
