~Version Information
VERS.                      2.0: CWLS Log ASCII Standard - VERSION 2.0
WRAP.                       NO: One line per depth step
~Well Information Block
STRT.FT               892.0000: 
STOP.FT              2094.0000: 
STEP.FT                 0.1000: 
NULL.                -999.2500: 
COMP.          Pioneer Natural Resources: COMPANY
WELL.          Greenwood 43-29 Tr: WELL
FLD.           Purgatoire River: FIELD
LOC.           1478' FSL & 744' FEL: LOCATION
STAT.                 Colorado: State
CNTY.               Las Animas: COUNTY
CTRY. USA : Country
SECT. 29 : Section
TOWN. 32S : Township
RANG. 67W : Range
SRVC.                Patterson: SERVICE COMPANY
DATE.          Wed Aug 31 10:39:20 2005: LOG DATE
API.           05 071 08478 00: UNIQUE WELL ID
~Curve Information Block
DEPT.FT            0 000 00 00: Depth
DCAL.in                       : CDL Caliper
RHOB.g/cc                     : CDL Bulk Density
RHOC.g/cc                     : CDL Density Correction
DPOR.pu                       : CDL Density Porosity
GR.GAPI                       : Gamma Ray
NPOR.pu                       : Neutron Porosity
~Parameter Information Block
~A  Depth       DCAL        RHOB        RHOC        DPOR         GR         NPOR    
# ...
  1285.6000      8.3909      1.6707      0.1738     59.3509     70.9311     34.9848
  1285.7000      8.3909      1.8152      0.1360     50.5925     83.1840     34.6690
  1285.8000      8.2762      1.9981      0.2251     39.5113     90.7396     34.0288
  1285.9000      8.2762      2.1885      0.3595     27.9703     98.7125     33.5669
  1286.0000      8.5615      2.3388      0.3713     18.8621    106.8359     33.2739
  1286.1000      8.5615      2.4349      0.3565     13.0391    107.5099     33.0936
  1286.2000      8.5615      2.4922      0.2727      9.5636    105.4423     33.0288
  1286.3000      8.4125      2.5215      0.2805      7.7873    107.5521     32.7960
  1286.4000      8.4125      2.5344      0.1091      7.0047    110.2935     32.3297
  1286.5000      8.1223      2.5517      0.1105      5.9583    111.2811     31.4725
  1286.6000      8.1223      2.5650      0.1324      5.1492    113.8760     30.0987
  1286.7000      8.1223      2.5570      0.0718      5.6369    120.3351     28.7769
  1286.8000      8.0938      2.5449     -0.0054      6.3718    125.2566     28.0988
  1286.9000      8.0938      2.5447      0.0519      6.3797    124.9614     28.2662
  1287.0000      8.1248      2.5480     -0.0154      6.1829    126.3237     28.6868
  1287.1000      8.1248      2.5506      0.0622      6.0265    134.0310     28.1104
  1287.2000      8.1248      2.5532      0.0660      5.8677    142.0286     26.4766
  1287.3000      8.1453      2.5569      0.0668      5.6450    141.3804     25.3216
  1287.4000      8.1453      2.5673      0.0417      5.0119    132.1730     25.4989
  1287.5000      8.1348      2.5844      0.0939      3.9750    124.5703     26.1444
  1287.6000      8.1348      2.5950      0.0848      3.3318    126.2951     26.2190
  1287.7000      8.1348      2.6010      0.0260      2.9718    135.7493     25.7474
  1287.8000      8.1002      2.6244      0.0435      1.5490    143.6603     25.2537
  1287.9000      8.1002      2.6621      0.0956     -0.7335    142.3336     25.3629
  1288.0000      8.1184      2.6825      0.0992     -1.9713    135.8992     26.3795
  1288.1000      8.1184      2.6789      0.0721     -1.7526    131.3792     27.5890
  1288.2000      8.1184      2.6724      0.0583     -1.3573    127.7702     28.4386
  1288.3000      8.1280      2.6749      0.0344     -1.5114    125.3324     28.7146
  1288.4000      8.1280      2.6736      0.0969     -1.4315    127.0784     27.7654
  1288.5000      8.1443      2.6553      0.0289     -0.3182    128.3094     25.8279
  1288.6000      8.1443      2.6374     -0.0232      0.7659    122.9188     24.5407
  1288.7000      8.1443      2.6327      0.0366      1.0466    115.1134     24.8435
  1288.8000      8.1354      2.6253      0.0450      1.4972    111.1850     26.2780
  1288.9000      8.1354      2.6070      0.0050      2.6037    112.1266     27.6194
  1289.0000      8.1413      2.5864     -0.0193      3.8567    117.2843     27.9266
  1289.1000      8.1413      2.5723     -0.0044      4.7070    123.1902     27.2741
  1289.2000      8.1413      2.5627      0.0347      5.2897    124.0230     26.5851
  1289.3000      8.1453      2.5526      0.0186      5.9011    118.6225     26.5472
  1289.4000      8.1453      2.5460      0.0192      6.3012    111.5159     26.7507
  1289.5000      8.1405      2.5495     -0.0007      6.0891    106.6101     26.8063
  1289.6000      8.1405      2.5672      0.0209      5.0165    105.9186     27.0659
  1289.7000      8.1405      2.5849      0.1022      3.9460    110.6390     27.1404
  1289.8000      8.1346      2.5798      0.1200      4.2532    116.8910     25.9867
  1289.9000      8.1346      2.5635      0.0675      5.2427    118.9536     24.2985
  1290.0000      8.1036      2.5619      0.1049      5.3409    117.2450     23.6276
  1290.1000      8.1036      2.5813      0.0772      4.1629    118.6077     24.1538
  1290.2000      8.1036      2.6196      0.0692      1.8433    125.3741     24.9696
  1290.3000      8.1301      2.6518      0.1400     -0.1090    130.4590     25.2046
  1290.4000      8.1301      2.6505      0.1174     -0.0282    130.5715     24.4073
  1290.5000      8.1324      2.6263      0.0921      1.4351    128.1143     23.3222
  1290.6000      8.1324      2.5978      0.0609      3.1620    125.8124     23.2229
  1290.7000      8.1324      2.5651      0.0264      5.1476    124.1412     23.9385
  1290.8000      8.1287      2.5338     -0.0104      7.0447    118.2227     24.6191
  1290.9000      8.1287      2.5232     -0.0371      7.6872    108.8416     25.3023
  1291.0000      8.1299      2.5413     -0.0249      6.5894    106.0144     26.2306
  1291.1000      8.1299      2.5706      0.0293      4.8124    111.9691     27.3081
  1291.2000      8.1299      2.5945     -0.0296      3.3623    115.4722     28.1009
  1291.3000      8.1367      2.6153      0.0273      2.1038    112.4263     28.5633
  1291.4000      8.1367      2.6352      0.0514      0.8942    111.8762     28.8865
  1291.5000      8.1687      2.6550      0.0809     -0.3059    116.4908     28.7682
  1291.6000      8.1687      2.6653      0.0901     -0.9270    121.4088     27.9704
  1291.7000      8.1687      2.6386      0.0899      0.6898    124.6744     26.8165
  1291.8000      8.1760      2.5612      0.0159      5.3798    124.2349     26.2694
  1291.9000      8.1760      2.4487      0.0604     12.1989    119.3210     26.8180
  1292.0000      8.1855      2.3272     -0.0458     19.5611    114.7646     27.8202
  1292.1000      8.1855      2.2170     -0.0862     26.2409    112.0322     28.8205
  1292.2000      8.1855      2.1187     -0.0711     32.2020    109.4805     29.5411
  1292.3000      8.1921      2.0368     -0.0953     37.1642    108.3764     29.7663
  1292.4000      8.1921      2.0012     -0.0856     39.3223    114.4548     29.8082
  1292.5000      8.1933      2.0337      0.0200     37.3524    126.4779     29.7116
  1292.6000      8.1933      2.1228      0.1552     31.9511    132.4799     29.4615
  1292.7000      8.1933      2.2356      0.3452     25.1177    127.7513     29.4607
  1292.8000      8.2070      2.3279      0.4086     19.5238    124.0515     29.9693
  1292.9000      8.2070      2.3725      0.4177     16.8202    128.6429     30.9406
  1293.0000      8.2502      2.3798      0.3886     16.3743    137.1623     31.7134
  1293.1000      8.2502      2.3641      0.4129     17.3269    146.8965     31.5089
  1293.2000      8.2502      2.3281      0.2969     19.5101    153.6850     31.2429
  1293.3000      8.3510      2.2919      0.1944     21.7041    152.4725     32.0216
  1293.4000      8.3510      2.2813      0.1364     22.3428    144.9194     33.1418
  1293.5000      8.3684      2.2885      0.1792     21.9093    140.2537     33.6257
  1293.6000      8.3684      2.2872      0.1457     21.9892    141.6893     33.0936
  1293.7000      8.3684      2.2770      0.1711     22.6038    143.8166     31.7888
  1293.8000      8.2902      2.2817      0.0737     22.3188    144.5783     31.0432
  1293.9000      8.2902      2.3092      0.1701     20.6547    142.5471     31.7396
  1294.0000      8.2816      2.3344      0.1931     19.1249    136.9468     32.7772
  1294.1000      8.2816      2.3453      0.1389     18.4650    134.1555     32.9815
  1294.2000      8.2816      2.3585      0.1384     17.6641    136.8436     32.6295
  1294.3000      8.2466      2.3736      0.1940     16.7513    138.6428     32.3676
  1294.4000      8.2466      2.3711      0.1640     16.9024    135.7277     32.1639
  1294.5000      8.2107      2.3472      0.1113     18.3522    130.7157     31.4555
  1294.6000      8.2107      2.3111      0.0663     20.5380    130.0244     30.8292
  1294.7000      8.2107      2.2718      0.0318     22.9213    138.7216     31.1953
  1294.8000      8.2488      2.2396      0.0065     24.8739    147.8131     31.7758
  1294.9000      8.2488      2.2291     -0.0152     25.5105    147.3869     31.8926
  1295.0000      8.3244      2.2460      0.0360     24.4860    138.4372     31.8297
  1295.1000      8.3244      2.2762      0.1054     22.6519    127.1828     31.4292
