~Version Information
VERS.                      2.0: CWLS Log ASCII Standard - VERSION 2.0
WRAP.                       NO: One line per depth step
~Well Information Block
STRT.FT               840.0000: 
STOP.FT              1913.5000: 
STEP.FT                 0.2500: 
NULL.                -999.2500: 
COMP.          Petrogulf Corporation: COMPANY
WELL.             Kraft 17-23R: WELL
FLD.           Purgatorie River: FIELD
LOC.           1509' FSL & 1673' FWL: LOCATION
PROV.                 Colorado: PROVINCE
CNTY.               Las Animas: COUNTRY
SRVC.                Patterson: SERVICE COMPANY
DATE.          Tue Oct 11 13:03:25 2005: LOG DATE
UWI.                          : UNIQUE WELL ID
~Curve Information Block
DEPT.FT            0 000 00 00: Depth
SP.mV                         : DIL Spontaneous Potential
RILD.Ohm-m                    : DIL Deep Resistivity
RILM.Ohm-m                    : DIL Medium Resistivity
RLL3.Ohm-m                    : DIL Shallow Resistivity
GR.GAPI                       : Gamma Ray
~Parameter Information Block
~A  Depth        SP         RILD        RILM        RLL3         GR     
# ...
  1400.0000    210.3601     15.0184     17.9418     31.3130     96.4369
  1400.2500    210.4049     14.4793     16.5285     25.1428    102.2179
  1400.5000    210.3592     13.9976     15.1778     19.5267    112.1777
  1400.7500    210.2092     13.5933     13.9806     15.3125    119.6683
  1401.0000    209.9486     13.2750     12.9827     12.6602    131.8679
  1401.2500    209.5887     13.0438     12.1986     11.2457    140.0013
  1401.5000    209.1597     12.8966     11.6252     10.6281    150.3374
  1401.7500    208.7044     12.8249     11.2525     10.5148    154.9460
  1402.0000    208.2708     12.8159     11.0698     10.8941    157.6180
  1402.2500    207.9010     12.8536     11.0687     12.0950    156.7005
  1402.5000    207.6200     12.9253     11.2432     14.7318    152.0757
  1402.7500    207.4282     13.0278     11.5892     19.4082    147.3873
  1403.0000    207.3053     13.1715     12.1022     26.1658    138.5993
  1403.2500    207.2251     13.3801     12.7749     33.9801    131.6310
  1403.5000    207.1691     13.6858     13.5953     40.8429    119.5577
  1403.7500    207.1329     14.1225     14.5463     44.6644    110.9918
  1404.0000    207.1235     14.7187     15.6080     44.4715     99.7607
  1404.2500    207.1523     15.4914     16.7619     40.9729     94.9549
  1404.5000    207.2259     16.4380     17.9949     36.0500     92.6536
  1404.7500    207.3391     17.5268     19.2991     31.6300     93.2131
  1405.0000    207.4759     18.6843     20.6652     28.8115     93.8369
  1405.2500    207.6168     19.7887     22.0672     27.7675     92.9289
  1405.5000    207.7474     20.6809     23.4439     28.2623     90.0815
  1405.7500    207.8639     21.2027     24.6802     30.1578     88.3122
  1406.0000    207.9743     21.2529     25.6050     33.3945     87.4169
  1406.2500    208.0999     20.8278     26.0202     37.5148     88.1521
  1406.5000    208.2729     20.0191     25.7674     41.3215     90.0923
  1406.7500    208.5260     18.9702     24.8063     43.1843     90.8808
  1407.0000    208.8775     17.8237     23.2498     41.8943     90.5311
  1407.2500    209.3197     16.6891     21.3232     37.4180     90.0021
  1407.5000    209.8168     15.6340     19.2762     30.9544     91.0837
  1407.7500    210.3136     14.6916     17.3084     24.2602     93.9934
  1408.0000    210.7518     13.8726     15.5416     18.7579    101.7260
  1408.2500    211.0893     13.1760     14.0293     15.0192    108.6975
  1408.5000    211.3136     12.5966     12.7800     12.8288    121.0892
  1408.7500    211.4415     12.1281     11.7795     11.6036    130.0117
  1409.0000    211.5041     11.7637     11.0053     10.8143    142.6778
  1409.2500    211.5303     11.4957     10.4353     10.2066    149.6021
  1409.5000    211.5374     11.3152     10.0509      9.8293    156.7778
  1409.7500    211.5315     11.2120      9.8380      9.9726    159.4957
  1410.0000    211.5115     11.1765      9.7864     11.0646    161.1083
  1410.2500    211.4755     11.2013      9.8886     13.4735    160.7394
  1410.5000    211.4280     11.2835     10.1382     17.1748    157.6596
  1410.7500    211.3864     11.4247     10.5283     21.4743    153.7123
  1411.0000    211.3800     11.6309     11.0504     25.1813    145.6002
  1411.2500    211.4385     11.9105     11.6941     27.3565    139.5513
  1411.5000    211.5748     12.2721     12.4461     28.1043    130.4933
  1411.7500    211.7738     12.7219     13.2904     28.6112    124.6497
  1412.0000    211.9973     13.2604     14.2062     30.2600    116.5236
  1412.2500    212.2001     13.8785     15.1653     33.5296    111.8991
  1412.5000    212.3465     14.5562     16.1282     37.5639    106.4726
  1412.7500    212.4202     15.2621     17.0441     40.6588    103.6719
  1413.0000    212.4250     15.9588     17.8569     41.2380    100.4346
  1413.2500    212.3782     16.6109     18.5199     38.6914     99.3503
  1413.5000    212.2993     17.1935     19.0129     33.6698    100.7395
  1413.7500    212.2003     17.6947     19.3517     27.7506    104.0008
  1414.0000    212.0824     18.1103     19.5833     22.7001    111.1271
  1414.2500    211.9440     18.4379     19.7696     19.7666    115.9743
  1414.5000    211.7893     18.6751     19.9681     19.3390    121.2343
  1414.7500    211.6337     18.8255     20.2183     20.9939    122.6724
  1415.0000    211.5025     18.9050     20.5370     23.7813    121.6233
  1415.2500    211.4253     18.9429     20.9214     26.6275    119.2984
  1415.5000    211.4316     18.9779     21.3585     28.7169    114.3529
  1415.7500    211.5444     19.0509     21.8353     29.6995    110.2908
  1416.0000    211.7745     19.1974     22.3482     29.7284    103.2534
  1416.2500    212.1158     19.4405     22.9049     29.4155     98.5268
  1416.5000    212.5429     19.7823     23.5184     29.6287     93.1458
  1416.7500    213.0145     20.1971     24.1947     31.0370     91.4300
  1417.0000    213.4826     20.6297     24.9193     33.7001     91.2683
  1417.2500    213.9068     21.0065     25.6447     37.1684     91.6730
  1417.5000    214.2683     21.2576     26.2876     41.0368     90.9431
  1417.7500    214.5723     21.3425     26.7394     45.2804     89.0287
  1418.0000    214.8392     21.2640     26.8942     49.8613     85.0415
  1418.2500    215.0905     21.0628     26.6867     53.9421     82.9556
  1418.5000    215.3374     20.7980     26.1225     55.6734     82.2875
  1418.7500    215.5781     20.5256     25.2803     53.1818     83.4417
  1419.0000    215.8009     20.2838     24.2856     46.1563     86.4943
  1419.2500    215.9875     20.0869     23.2701     36.5085     88.9880
  1419.5000    216.1184     19.9248     22.3395     27.2991     93.8169
  1419.7500    216.1812     19.7640     21.5582     20.9021     98.3137
  1420.0000    216.1800     19.5546     20.9467     18.0112    106.8009
  1420.2500    216.1393     19.2437     20.4875     17.9470    112.2069
  1420.5000    216.0973     18.7945     20.1325     19.5028    116.2641
  1420.7500    216.0912     18.2009     19.8127     21.5682    115.0490
  1421.0000    216.1452     17.4903     19.4515     23.3729    109.0963
  1421.2500    216.2652     16.7147     18.9824     24.5041    104.9315
  1421.5000    216.4397     15.9360     18.3666     24.8074    101.6348
  1421.7500    216.6466     15.2101     17.6043     24.2529    101.4400
  1422.0000    216.8642     14.5747     16.7315     22.8588    102.5496
  1422.2500    217.0843     14.0444     15.8059     20.7252    103.7657
  1422.5000    217.3150     13.6117     14.8883     18.1222    106.9193
  1422.7500    217.5722     13.2523     14.0279     15.5026    110.4786
  1423.0000    217.8662     12.9337     13.2558     13.3594    118.5600
  1423.2500    218.1964     12.6236     12.5841     12.0067    125.6603
  1423.5000    218.5553     12.2981     12.0109     11.4567    137.4912
  1423.7500    218.9349     11.9464     11.5245     11.4754    144.7654
  1424.0000    219.3289     11.5728     11.1090     11.7422    152.5153
  1424.2500    219.7325     11.1932     10.7491     11.9863    154.9463
  1424.5000    220.1438     10.8307     10.4330     12.0500    154.9934
  1424.7500    220.5626     10.5087     10.1542     11.8956    153.7600
  1425.0000    220.9877     10.2454      9.9115     11.5823    152.3046
  1425.2500    221.4138     10.0508      9.7079     11.2235    152.1967
  1425.5000    221.8336      9.9261      9.5481     10.9384    152.4030
  1425.7500    222.2389      9.8649      9.4366     10.8101    151.7352
  1426.0000    222.6173      9.8571      9.3764     10.8662    148.6564
  1426.2500    222.9467      9.8929      9.3683     11.0831    145.7643
  1426.5000    223.1985      9.9661      9.4113     11.4109    142.3625
  1426.7500    223.3492     10.0744      9.5031     11.8055    141.8420
  1427.0000    223.3901     10.2175      9.6407     12.2537    143.7214
  1427.2500    223.3275     10.3957      9.8222     12.7688    145.5415
  1427.5000    223.1767     10.6098     10.0463     13.3503    146.4950
  1427.7500    222.9557     10.8629     10.3138     13.9419    145.3120
