~Version Information
VERS.                      2.0: CWLS Log ASCII Standard - VERSION 2.0
WRAP.                       NO: One line per depth step
~Well Information Block
STRT.FT               -12.0000: 
STOP.FT              1728.0000: 
STEP.FT                 0.2500: 
NULL.                -999.2500: 
COMP.          XTO Energy Inc.: COMPANY
WELL.          Apache Canyon 35-06: WELL
FLD.              Vermejo Coal: FIELD
LOC.           2422' FNL & 1889' FWL--: LOCATION
STAT.                       CO: State
CNTY.               Las Animas: COUNTY
CTRY. USA : Country
SECT.  : Section
TOWN.  : Township
RANG.  : Range
SRVC.          Patterson Wireline: SERVICE COMPANY
DATE.          Fri Jan 06 08:11:44 2006: LOG DATE
API.              05 071 08540: UNIQUE WELL ID
~Curve Information Block
DEPT.FT            0 000 00 00: Depth
CCL.                          : Casing Collar Locator
TT3.usec                      : CBL 3' Travel Time
AMP3.mV                       : CBL 3' Amplitude
GR.GAPI                       : Gamma Ray
~Parameter Information Block
~A  Depth       CCL         TT3         AMP3         GR     
# ...
    88.5000      0.0000    765.0438      5.2098     71.7071
    88.7500      0.0000    778.6110      5.7312     70.1031
    89.0000      0.0000    793.2318      6.1402     69.2613
    89.2500      0.0000    801.4560      6.2805     68.8489
    89.5000      0.0000    800.2488      6.1881     68.2813
    89.7500      0.0000    792.4478      6.0264     67.1734
    90.0000      0.0000    783.1316      5.9242     65.5817
    90.2500      0.0000    775.6698      5.9040     63.9635
    90.5000      0.0000    770.7158      5.9247     62.9750
    90.7500      0.0000    767.0875      5.9453     63.2420
    91.0000      0.0000    762.8810      5.9502     64.9734
    91.2500      0.0000    756.3975      5.9430     67.5636
    91.5000      0.0000    746.9200      5.9325     69.8720
    91.7500      0.0000    735.2429      5.9208     71.2404
    92.0000      0.0000    723.7587      5.9039     72.1425
    92.2500      0.0000    715.4698      5.8834     73.6291
    92.5000      0.0000    711.7016      5.8736     76.3045
    92.7500      0.0000    710.7011      5.8938     79.9504
    93.0000      0.0000    709.4355      5.9556     83.8924
    93.2500      0.0000    706.5988      6.0568     87.5218
    93.5000      0.0000    703.0320      6.1849     90.6721
    93.7500      0.0000    699.7871      6.3248     93.6986
    94.0000      0.0000    696.7308      6.4660     97.0558
    94.2500      0.0000    692.7139      6.6048    100.6353
    94.5000      0.0000    686.5198      6.7406    103.6425
    94.7500      0.0000    677.7206      6.8708    105.2702
    95.0000      0.0000    666.6376      6.9921    105.3507
    95.2500      0.0000    652.7473      7.1042    104.1016
    95.5000      0.0000    632.8257      7.2131    101.4126
    95.7500      0.0000    601.8359      7.3297     96.9862
    96.0000      0.0000    557.5641      7.4635     91.3615
    96.2500      0.0000    504.9974      7.6153     86.2052
    96.5000      0.0000    454.8596      7.7741     83.1542
    96.7500      0.0000    416.6679      7.9241     82.5396
    97.0000      0.0000    393.1320      8.0566     83.3826
    97.2500      0.0000    380.7664      8.1744     84.4016
    97.5000      0.0000    374.4840      8.2847     84.8688
    97.7500      0.0000    371.1613      8.3889     84.7398
    98.0000      0.0000    369.9693      8.4811     84.4117
    98.2500      0.0000    370.7166      8.5540     84.4268
    98.5000      0.0000    372.5920      8.6067     85.0064
    98.7500      0.0000    374.4179      8.6487     85.7394
    99.0000      0.0000    375.5318      8.6950     86.0031
    99.2500      0.0000    376.0192      8.7565     85.8922
    99.5000      0.0000    376.2759      8.8324     86.5367
    99.7500      0.0000    376.5969      8.9117     89.1745
   100.0000      0.0000    377.0821      8.9816     93.8736
   100.2500      0.0000    377.6824      9.0349     99.2746
   100.5000      0.0000    378.1957      9.0756    103.4782
   100.7500      0.0000    378.1947      9.1202    105.1583
   101.0000      0.0000    377.0489      9.1880    104.1640
   101.2500      0.0000    374.3738      9.2839    101.3481
   101.5000      0.0000    370.8522      9.3890     97.9002
   101.7500      0.0000    368.4957      9.4699     94.8970
   102.0000      0.0000    369.5074      9.4987     93.2282
   102.2500      0.0000    374.5802      9.4670     93.3612
   102.5000      0.0000    382.3175      9.3857     94.9148
   102.7500      0.0000    390.0669      9.2767     96.7523
   103.0000      0.0000    395.2706      9.1617     97.7208
   103.2500      0.0000    396.8902      9.0537     97.2844
   103.5000      0.0000    396.3291      8.9554     95.5445
   103.7500      0.0000    396.6111      8.8636     93.0598
   104.0000      0.0000    399.9429      8.7741     90.7897
   104.2500      0.0000    405.9807      8.6859     89.7969
   104.5000      0.0000    412.5222      8.6023     90.5186
   104.7500      0.0000    417.5538      8.5284     92.3930
   105.0000      0.0000    420.4284      8.4672     94.4498
   105.2500      0.0000    421.4762      8.4169     96.0708
   105.5000      0.0000    421.0413      8.3744     97.0572
   105.7500      0.0000    419.0463      8.3394     97.4084
   106.0000      0.0000    415.4478      8.3147     97.2322
   106.2500      0.0000    411.0910      8.3021     96.5297
   106.5000      0.0000    407.7748      8.3003     94.9977
   106.7500      0.0000    406.8121      8.3076     92.3222
   107.0000      0.0000    407.3751      8.3247     88.6478
   107.2500      0.0000    406.8831      8.3537     84.7529
   107.5000      0.0000    403.4103      8.3950     81.8061
   107.7500      0.0000    397.4478      8.4460     80.6370
   108.0000      0.0000    391.1849      8.5026     80.8987
   108.2500      0.0000    386.4864      8.5597     81.0588
   108.5000      0.0000    383.8083      8.6123     79.5198
   108.7500      0.0000    382.6119      8.6553     75.8868
   109.0000      0.0000    382.2179      8.6855     71.2184
   109.2500      0.0000    382.2059      8.7032     67.1203
   109.5000      0.0000    382.4227      8.7128     64.4601
   109.7500      0.0000    383.0144      8.7197     62.7864
   110.0000      0.0000    384.7291      8.7226     61.1333
   110.2500      0.0000    389.3687      8.7085     59.3283
   110.5000      0.0000    400.0340      8.6567     58.0005
   110.7500      0.0000    420.5563      8.5537     57.2999
   111.0000      0.0000    453.6209      8.4046     56.4321
   111.2500      0.0000    498.1374      8.2323     54.8623
   111.5000      0.0000    548.2505      8.0625     53.4388
   111.7500      0.0000    596.0847      7.9106     53.9546
   112.0000      0.0000    636.2468      7.7794     57.7459
   112.2500      0.0000    667.1879      7.6673     64.6744
   112.5000      0.0000    688.2297      7.5755     73.1160
   112.7500      0.0000    696.2529      7.5084     80.8329
   113.0000      0.0000    685.7830      7.4715     86.2508
   113.2500      0.0000    652.6627      7.4675     89.2576
   113.5000      0.0000    598.9920      7.4930     90.7948
   113.7500      0.0000    534.9872      7.5394     91.7306
   114.0000      0.0000    474.4461      7.5980     92.3495
   114.2500      0.0000    427.0454      7.6640     92.7659
   114.5000      0.0000    394.8110      7.7347     93.2176
   114.7500      0.0000    374.7565      7.8052     93.7116
   115.0000      0.0000    363.0448      7.8655     93.8075
   115.2500      0.0000    356.7886      7.9010     93.0325
   115.5000      0.0000    353.9370      7.8976     91.3027
   115.7500      0.0000    352.9677      7.8485     88.8894
   116.0000      0.0000    352.8547      7.7593     86.3023
   116.2500      0.0000    353.0175      7.6467     84.2701
   116.5000      0.0000    353.1882      7.5310     83.4292
   116.7500      0.0000    353.2677      7.4271     83.7786
   117.0000      0.0000    353.2500      7.3411     84.6596
   117.2500      0.0000    353.1742      7.2717     85.2440
   117.5000      0.0000    353.0888      7.2177     84.8561
   117.7500      0.0000    353.0222      7.1806     83.2160
   118.0000      0.0000    352.9697      7.1617     80.9375
   118.2500      0.0000    352.9002      7.1582     79.4496
   118.5000      0.0000    352.7737      7.1646     79.9082
   118.7500      0.0000    352.5636      7.1762     82.4056
   119.0000      0.0000    352.2748      7.1881     86.3759
   119.2500      0.0000    351.9470      7.1942     91.1548
   119.5000      0.0000    351.6341      7.1886     95.8118
   119.7500      0.0000    351.3735      7.1709     99.0297
   120.0000      0.0000    351.1669      7.1476     99.8548
   120.2500      0.0000    350.9862      7.1282     98.6016
   120.5000      0.0000    350.7976      7.1183     96.5696
   120.7500      0.0000    350.5883      7.1167     94.8232
   121.0000      0.0000    350.3801      7.1168     93.5923
   121.2500      0.0000    350.2178      7.1111     92.6849
   121.5000      0.0000    350.1384      7.0919     91.9190
   121.7500      0.0000    350.1508      7.0538     91.0925
