~Version Information
 VERS.                                  2.0 : CWLS LAS VERSION
 WRAP.                                   NO : WRAPING MODE
 SWARE .                 MController 2.5.0N : SOFTWARE VERSION
~Well Information
 WELL.                        Cleaver 24-12 : WELL
 COMP.    Pioneer Natural Resources USA Inc : COMPANY
 FLD.                      Purgatoire River : FIELD
 LOC.                SE/SW Sec 12 T32S R67W : LOCATION
 DATE.                         1/05-06/2006 : DATE(S) LOGGED
 SRVC.       BLANCO Geological Services LLC : SERVICE COMPANY
 STAT.                                   CO : STATE
 CNTY.                           Las Animas : COUNTY
 CTRY.                                  USA : COUNTRY
 API.                       05-071-08634-00 : API NUMBER
 STRT.FT                             461.00 : START DEPTH
 STOP.FT                            3055.00 : STOP DEPTH
 STEP.FT                               1.00 : DEPTH INCREMENT
 NULL.                                -9999 : NULL VALUE
~Curve information
 DEPTH.FT                                   :
 ROP.MIN/FT                                 :
 GAS.UNITS                                  :
~ASCII Log data
# ...
      1661.0         0.53         24.9 
      1662.0         0.60         29.4 
      1663.0         0.60         31.0 
      1664.0         0.33         29.0 
      1665.0         0.48         24.7 
      1666.0         0.33         17.4 
      1667.0         0.27         13.4 
      1668.0         0.53         16.2 
      1669.0         1.27         34.7 
      1670.0         1.52         69.2 
      1671.0         1.55         68.4 
      1672.0         0.77         66.4 
      1673.0         0.30         64.9 
      1674.0         1.15         64.6 
      1675.0         0.50         71.0 
      1676.0         5.63        111.1 
      1677.0         0.37         18.8 
      1678.0         0.37         21.3 
      1679.0         0.37         21.8 
      1680.0         0.37         21.8 
      1681.0         0.40         21.9 
      1682.0         0.47         23.6 
      1683.0         0.63         26.6 
      1684.0         0.65         27.7 
      1685.0         0.47         23.4 
      1686.0         0.33         16.3 
      1687.0         0.33         15.0 
      1688.0         0.60         16.4 
      1689.0         0.63         28.1 
      1690.0         0.58         59.2 
      1691.0         0.57         95.7 
      1692.0         0.40        119.5 
      1693.0         0.67        126.1 
      1694.0         0.93        111.4 
      1695.0         0.27         54.7 
      1696.0         0.17         45.0 
      1697.0         0.13         39.2 
      1698.0         0.15         35.8 
      1699.0         0.33         31.6 
      1700.0         0.57         25.4 
      1701.0         0.43         22.1 
      1702.0         0.33         23.5 
      1703.0         0.30         25.4 
      1704.0         1.03         37.2 
      1705.0         0.52         37.4 
      1706.0         5.88         33.1 
      1707.0         0.55         16.4 
      1708.0         0.57         18.6 
      1709.0         0.50         20.1 
      1710.0         0.60         23.1 
      1711.0         0.67         25.1 
      1712.0         0.73         27.4 
      1713.0         0.52         26.4 
      1714.0         0.57         17.3 
      1715.0         0.53         11.5 
      1716.0         0.37         14.2 
      1717.0         0.23         15.5 
      1718.0         0.37         16.2 
      1719.0         0.23         16.5 
      1720.0         0.37         19.8 
      1721.0         0.17         20.7 
      1722.0         0.17         21.7 
      1723.0         0.22         23.4 
      1724.0         0.27         23.8 
      1725.0         0.23         24.0 
      1726.0         0.27         23.1 
      1727.0         0.43         21.4 
      1728.0         0.50         18.0 
      1729.0         0.33         11.6 
      1730.0         0.27          6.8 
      1731.0         0.40          4.6 
      1732.0         0.37          6.8 
      1733.0         0.38         11.7 
      1734.0         0.43         18.0 
      1735.0         0.53         25.1 
      1736.0         9.82        164.3 
      1737.0         0.40         35.1 
      1738.0         0.53         37.1 
      1739.0         0.43         41.9 
      1740.0         0.57         43.8 
      1741.0         0.55         43.1 
      1742.0         0.60         36.6 
      1743.0         0.40         23.3 
      1744.0         0.33         20.6 
      1745.0         0.37         20.8 
      1746.0         0.30         20.7 
      1747.0         0.30         19.9 
      1748.0         0.37         19.2 
      1749.0         0.47         19.5 
      1750.0         0.45         19.6 
      1751.0         0.33         20.3 
      1752.0         0.37         20.6 
      1753.0         0.40         20.4 
      1754.0         0.47         18.1 
      1755.0         0.40         12.2 
      1756.0         0.40         12.0 
      1757.0         0.43         18.7 
      1758.0         0.52         23.4 
      1759.0         0.63         28.4 
      1760.0         0.57         32.6 
      1761.0         0.43         35.9 
      1762.0         0.47         38.3 
      1763.0         1.98         38.5 
      1764.0         1.37         69.1 
      1765.0         0.98         69.0 
      1766.0         4.18         27.5 
      1767.0         0.30         11.7 
      1768.0         0.47         13.6 
      1769.0         0.43         14.4 
      1770.0         0.47         14.8 
      1771.0         0.47         14.3 
      1772.0         0.52         13.8 
      1773.0         0.37         11.9 
      1774.0         0.40         11.3 
      1775.0         0.37         11.4 
      1776.0         0.43         12.2 
      1777.0         0.53         13.9 
      1778.0         0.40         14.3 
      1779.0         0.40         14.6 
      1780.0         0.42         15.2 
      1781.0         0.43         17.6 
      1782.0         0.47         20.9 
      1783.0         0.53         21.2 
      1784.0         0.50         19.5 
      1785.0         0.47         15.1 
      1786.0         0.43         10.8 
      1787.0         0.27          8.1 
      1788.0         0.38          8.2 
      1789.0         0.53         10.6 
      1790.0         0.37         12.8 
      1791.0         0.37         14.6 
      1792.0         0.37         15.8 
      1793.0         0.43         17.7 
      1794.0         0.33         18.8 
      1795.0         0.27         19.7 
      1796.0         5.77        124.0 
      1797.0         0.77         91.2 
      1798.0         0.68         30.6 
      1799.0         0.43         11.3 
      1800.0         0.53         14.3 
      1801.0         0.37         16.1 
      1802.0         0.33         16.1 
      1803.0         0.50         15.6 
      1804.0         0.57         14.7 
      1805.0         0.52         13.5 
      1806.0         0.63         13.1 
      1807.0         0.60         12.7 
      1808.0         0.43         13.3 
      1809.0         0.43         14.1 
      1810.0         0.47         15.3 
      1811.0         0.68         15.8 
      1812.0         0.67         24.9 
      1813.0         0.37         31.5 
      1814.0         0.47         33.8 
      1815.0         0.47         34.6 
      1816.0         0.50         35.3 
      1817.0         0.63         35.2 
      1818.0         0.20         33.1 
      1819.0         0.22         31.8 
      1820.0         0.23         30.5 
      1821.0         0.37         29.4 
      1822.0         0.23         27.8 
      1823.0         0.37         26.6 
      1824.0         0.67         25.0 
      1825.0         0.83         20.8 
      1826.0         7.22         84.5 
      1827.0         0.43         10.3 
      1828.0         0.43         13.1 
      1829.0         0.53         15.1 
      1830.0         0.60         17.6 
      1831.0         0.57         20.4 
      1832.0         0.57         20.4 
      1833.0         0.58         21.8 
      1834.0         0.47         21.8 
      1835.0         0.40         20.5 
      1836.0         0.37         17.8 
      1837.0         0.40         17.8 
      1838.0         0.33         19.2 
      1839.0         0.33         20.1 
      1840.0         0.53         27.6 
      1841.0         0.32         35.5 
      1842.0         0.13         38.7 
      1843.0         0.13         42.0 
      1844.0         0.13         45.1 
      1845.0         0.13         48.1 
      1846.0         0.30         54.8 
      1847.0         0.33         61.4 
      1848.0         0.47         67.1 
      1849.0         0.60         68.0 
      1850.0         0.60         66.6 
      1851.0         0.38         61.3 
      1852.0         0.53         56.0 
      1853.0         0.80         41.8 
      1854.0         0.77         31.2 
      1855.0         0.63         34.2 
      1856.0         7.62         85.2 
      1857.0         0.87         16.2 
      1858.0         0.57         17.8 
      1859.0         0.47         17.5 
      1860.0         0.57         16.3 
