~Version Information
VERS.                      2.0: CWLS Log ASCII Standard - VERSION 2.0
WRAP.                       NO: One line per depth step
~Well Information Block
STRT.FT               452.0000: 
STOP.FT              1726.5000: 
STEP.FT                 0.1000: 
NULL.                -999.2500: 
COMP.          Pioneer Natural Resources: COMPANY
WELL.          Parrothead 31-31 Tr: WELL
FLD.           Purgatoire River: FIELD
LOC.           496' FNL & 1546' FEL: LOCATION
PROV.                 Colorado: PROVINCE
CNTY.               Las Animas: COUNTRY
SRVC.                Patterson: SERVICE COMPANY
DATE.          Thu Nov 10 07:29:36 2005: LOG DATE
UWI.           05 071 08610 00: UNIQUE WELL ID
~Curve Information Block
DEPT.FT            0 000 00 00: Depth
DCAL.in                       : CDL Caliper
RHOB.g/cc                     : CDL Bulk Density
RHOC.g/cc                     : CDL Density Correction
DPOR.pu                       : CDL Density Porosity
GR.GAPI                       : Gamma Ray
NPOR.pu                       : Neutron Porosity
~Parameter Information Block
~A  Depth       DCAL        RHOB        RHOC        DPOR         GR         NPOR    
# ...
   874.4000      7.9722      2.4779      0.0788     10.4323    154.9186     25.9323
   874.5000      8.0006      2.4722      0.0791     10.7735    150.4753     25.6174
   874.6000      8.0006      2.4766      0.1093     10.5110    149.2227     25.1428
   874.7000      8.0006      2.4788      0.1086     10.3769    149.5165     24.6918
   874.8000      7.9844      2.4568      0.1243     11.7068    147.0507     24.5605
   874.9000      7.9844      2.4122      0.0757     14.4144    142.2129     24.5155
   875.0000      7.9781      2.3777      0.0162     16.5036    142.3365     23.9163
   875.1000      7.9781      2.3721      0.0979     16.8446    146.7531     22.7610
   875.2000      7.9781      2.3718      0.1080     16.8602    145.9822     21.8143
   875.3000      7.9708      2.3656      0.0602     17.2343    140.6933     21.6010
   875.4000      7.9708      2.3743      0.0751     16.7066    139.5063     21.9248
   875.5000      7.9664      2.4029      0.1597     14.9778    145.3438     22.1542
   875.6000      7.9664      2.4315      0.2350     13.2448    155.8371     22.1386
   875.7000      7.9664      2.4550      0.1739     11.8156    165.8542     22.2339
   875.8000      8.0135      2.4838      0.2264     10.0725    167.3495     22.4857
   875.9000      8.0135      2.5037      0.3248      8.8679    158.8409     22.4551
   876.0000      8.0697      2.4932      0.2047      9.5057    150.2919     22.2112
   876.1000      8.0697      2.4638      0.2048     11.2860    145.0849     22.2572
   876.2000      8.0697      2.4400      0.1505     12.7292    136.4085     22.8150
   876.3000      8.0194      2.4352      0.1124     13.0211    126.5394     23.6334
   876.4000      8.0194      2.4483      0.1072     12.2257    125.1462     23.9847
   876.5000      7.9637      2.4649      0.1279     11.2167    130.1487     23.8439
   876.6000      7.9637      2.4750      0.0651     10.6069    133.5053     24.0000
   876.7000      7.9637      2.4873      0.0599      9.8612    137.0272     24.4706
   876.8000      7.9575      2.5082      0.0806      8.5947    145.2459     24.8873
   876.9000      7.9575      2.5211      0.1530      7.8126    155.2036     25.4504
   877.0000      7.9646      2.5152      0.0793      8.1723    156.8678     26.0701
   877.1000      7.9646      2.5099      0.0861      8.4921    150.7873     26.3222
   877.2000      7.9646      2.5145      0.1370      8.2092    151.7100     26.2002
   877.3000      7.9415      2.5120      0.0830      8.3616    159.3050     25.9145
   877.4000      7.9415      2.4987      0.0720      9.1726    159.2522     25.7792
   877.5000      7.9160      2.4885      0.0460      9.7884    149.9500     26.3096
   877.6000      7.9160      2.4872      0.0890      9.8637    140.9675     27.4155
   877.7000      7.9160      2.4938      0.0582      9.4645    135.1747     28.4611
   877.8000      7.9347      2.5066      0.1026      8.6938    128.6526     29.0714
   877.9000      7.9347      2.5171      0.0658      8.0547    121.1052     28.9706
   878.0000      7.9321      2.5201      0.0867      7.8702    117.8522     28.4216
   878.1000      7.9321      2.5206      0.0301      7.8399    122.4974     28.0757
   878.2000      7.9321      2.5271      0.0476      7.4481    129.1650     27.8191
   878.3000      7.9269      2.5395      0.0226      6.6976    131.3770     27.5009
   878.4000      7.9269      2.5463      0.0461      6.2823    132.1863     27.6506
   878.5000      7.9180      2.5437      0.0331      6.4432    133.1350     28.1371
   878.6000      7.9180      2.5410      0.0463      6.6080    132.5414     28.2666
   878.7000      7.9180      2.5403      0.0441      6.6507    130.3142     27.8891
   878.8000      7.9178      2.5385      0.0592      6.7587    125.7063     27.4029
   878.9000      7.9178      2.5413      0.0201      6.5853    122.0913     27.3361
   879.0000      7.9194      2.5493      0.0636      6.1010    123.8923     27.5425
   879.1000      7.9194      2.5457      0.0890      6.3197    125.7652     27.2014
   879.2000      7.9194      2.5272      0.0362      7.4446    122.1272     26.1817
   879.3000      7.9275      2.5075      0.0605      8.6347    119.3472     25.0852
   879.4000      7.9275      2.4918      0.0064      9.5902    123.1466     24.1627
   879.5000      7.9355      2.4768      0.0183     10.4960    126.7181     23.4918
   879.6000      7.9355      2.4554      0.0435     11.7954    124.0156     23.0005
   879.7000      7.9355      2.4269     -0.0005     13.5227    122.5284     22.8646
   879.8000      7.9373      2.3964      0.0363     15.3722    130.2583     23.4104
   879.9000      7.9373      2.3619      0.0532     17.4623    140.3566     24.2216
   880.0000      7.9175      2.3299      0.0335     19.4024    139.4523     24.6924
   880.1000      7.9175      2.3219      0.0130     19.8845    129.9817     25.0588
   880.2000      7.9175      2.3531      0.0576     17.9944    126.4911     25.7255
   880.3000      7.8710      2.4260      0.0503     13.5768    131.7496     26.3979
   880.4000      7.8710      2.5375      0.1285      6.8170    138.8774     26.8100
   880.5000      7.8300      2.6659      0.1836     -0.9615    142.5955     26.8919
   880.6000      7.8300      2.7698      0.2707     -7.2630    141.7952     26.3754
   880.7000      7.8300      2.8125      0.3362     -9.8462    140.2810     25.5720
   880.8000      7.8352      2.7889      0.2996     -8.4168    141.1221     25.0580
   880.9000      7.8352      2.7279      0.2063     -4.7233    142.2483     24.6534
   881.0000      7.8245      2.6613      0.0855     -0.6842    139.8449     24.0056
   881.1000      7.8245      2.6000      0.0336      3.0308    134.3741     23.5425
   881.2000      7.8245      2.5443     -0.0492      6.4031    129.1638     23.9827
   881.3000      7.8112      2.5110     -0.0598      8.4268    126.7450     24.8548
   881.4000      7.8112      2.5131     -0.0026      8.2973    126.8803     25.1743
   881.5000      7.9268      2.5393      0.1283      6.7063    128.0667     25.0355
   881.6000      7.9268      2.5646      0.1922      5.1771    130.5942     25.1248
   881.7000      7.9268      2.5706      0.2161      4.8093    135.3029     25.5152
   881.8000      7.9727      2.5598      0.1726      5.4658    141.4122     25.8135
   881.9000      7.9727      2.5422      0.1722      6.5330    146.3440     26.0235
   882.0000      7.9591      2.5236      0.1178      7.6597    148.4668     26.3921
   882.1000      7.9591      2.5048      0.1009      8.8002    146.2687     27.1871
   882.2000      7.9591      2.4841      0.0731     10.0523    138.5199     28.1878
   882.3000      7.9586      2.4639      0.0676     11.2772    128.7726     28.6246
   882.4000      7.9586      2.4483      0.0268     12.2214    122.5871     28.1204
   882.5000      7.9431      2.4396      0.0403     12.7516    121.8557     27.1557
   882.6000      7.9431      2.4345      0.0114     13.0634    125.8846     26.5567
   882.7000      7.9431      2.4322      0.0161     13.2012    129.8212     26.3938
   882.8000      7.9486      2.4401      0.0152     12.7203    131.9095     25.9382
   882.9000      7.9486      2.4570      0.0276     11.6993    133.3248     25.1011
   883.0000      7.9476      2.4611      0.0454     11.4497    130.2337     24.1439
   883.1000      7.9476      2.4419      0.0229     12.6131    122.6599     22.8531
   883.2000      7.9476      2.4205      0.0153     13.9117    120.7458     21.5786
   883.3000      7.9462      2.4148      0.0606     14.2558    127.9015     20.9901
   883.4000      7.9462      2.4175      0.1067     14.0894    131.7573     20.8637
   883.5000      7.9420      2.4168      0.1072     14.1304    125.4634     20.9051
   883.6000      7.9420      2.4143      0.0935     14.2824    120.2026     21.1530
   883.7000      7.9420      2.4185      0.1094     14.0331    128.2836     21.3651
   883.8000      7.8698      2.4336      0.1101     13.1130    145.9932     21.1499
   883.9000      7.8698      2.4608      0.1079     11.4639    160.9126     20.7964
