~Version Information
VERS.                      2.0: CWLS Log ASCII Standard - VERSION 2.0
WRAP.                       NO: One line per depth step
~Well Information Block
STRT.FT                 0.0000: 
STOP.FT              1674.7500: 
STEP.FT                 0.2500: 
NULL.                -999.2500: 
COMP.          Pioneer Natural Resources: COMPANY
WELL.          Culver 14-12 Tr: WELL
FLD.           Purgatorie River: FIELD
LOC.           915' FSL & 1048' FWL: LOCATION
STAT.                 Colorado: Colorado
CNTY.               Las Animas: COUNTY
CTRY. USA : Country
SECT. 12 : Section
TOWN. 32S : Township
RANG. 66W : Range
SRVC.                Patterson: SERVICE COMPANY
DATE.          Mon Oct 03 12:52:29 2005: LOG DATE
API. 05-071-08520                         : UNIQUE WELL ID
~Curve Information Block
DEPT.FT            0 000 00 00: Depth
CCL.                          : Casing Collar Locator
TT3.usec                      : CBL 3' Travel Time
AMP3.mV                       : CBL 3' Amplitude
GR.GAPI                       : Gamma Ray
~Parameter Information Block
~A  Depth       CCL         TT3         AMP3         GR     
     0.0000   -999.2500   1200.0000     -0.2648     59.5694
     0.2500   -999.2500   1200.0000     -0.2371     56.8299
     0.5000   -999.2500   1200.0000     -0.2153     52.9904
     0.7500   -999.2500   1200.0000     -0.2190     47.3965
     1.0000   -999.2500   1200.0000     -0.2511     40.8331
     1.2500   -999.2500   1200.0000     -0.2906     35.0090
     1.5000   -999.2500   1200.0000     -0.3200     31.1505
     1.7500   -999.2500   1200.0000     -0.3302     29.3547
     2.0000   -999.2500   1200.0000     -0.3214     29.0741
     2.2500   -999.2500   1200.0000     -0.3107     29.7864
     2.5000   -999.2500   1200.0000     -0.3156     31.1808
     2.7500   -999.2500   1200.0000     -0.3297     33.0216
     3.0000   -999.2500   1200.0000     -0.3390     35.1039
     3.2500   -999.2500   1200.0000     -0.3454     37.3198
     3.5000   -999.2500   1200.0000     -0.3522     39.5979
     3.7500      0.0000   1200.0000     -0.3506     41.7392
     4.0000      0.0000   1200.0000     -0.3297     43.4983
     4.2500      0.0000   1200.0000     -0.2897     44.9901
     4.5000      0.0000   1200.0000     -0.2518     46.8078
     4.7500      0.0000   1200.0000     -0.2412     49.3959
     5.0000      0.0000   1200.0000     -0.2577     52.3950
     5.2500      0.0000   1200.0000     -0.2782     54.8291
     5.5000      0.0000   1200.0000     -0.2829     55.8427
     5.7500      0.0000   1200.0000     -0.2630     55.1778
     6.0000      0.0000   1200.0000     -0.2214     53.1902
     6.2500      0.0000   1200.0000     -0.1821     50.5875
     6.5000      0.0000   1200.0000     -0.1810     48.0292
     6.7500      0.0000   1200.0000     -0.2278     45.9138
     7.0000      0.0000   1200.0000     -0.2856     44.6003
     7.2500      0.0000   1200.0000     -0.3093     44.5685
     7.5000      0.0000   1200.0000     -0.2997     45.9979
     7.7500      0.0000   1200.0000     -0.2879     48.2697
     8.0000      0.0000   1200.0000     -0.2838     50.3283
     8.2500      0.0000   1200.0000     -0.2719     51.7993
     8.5000      0.0000   1200.0000     -0.2419     53.5048
     8.7500      0.0000   1200.0000     -0.2093     56.4804
     9.0000      0.0000   1200.0000     -0.2063     60.4856
     9.2500      0.0000   1200.0000     -0.2442     63.9370
     9.5000      0.0000   1200.0000     -0.2975     65.6008
     9.7500      0.0000   1200.0000     -0.3325     66.0548
    10.0000      0.0000   1200.0000     -0.3340     67.0457
    10.2500      0.0000   1200.0000     -0.3049     69.5725
    10.5000      0.0000   1200.0000     -0.2634     73.1223
    10.7500      0.0000   1200.0000     -0.2328     76.6373
    11.0000      0.0000   1200.0000     -0.2205     79.5283
    11.2500      0.0000   1200.0000     -0.2228     81.6238
    11.5000      0.0000   1200.0000     -0.2433     82.7781
    11.7500      0.0000   1200.0000     -0.2750     82.9309
    12.0000      0.0000   1199.9587     -0.2881     82.2713
    12.2500      0.0000   1199.4401     -0.2549     80.9774
    12.5000      0.0000   1195.4329     -0.1003     78.9069
    12.7500      0.0000   1175.1509      0.7079     75.8511
    13.0000      0.0000   1107.3961      4.1776     72.1316
    13.2500      0.0000    956.7645     14.3072     68.7487
    13.5000      0.0000    732.2955     33.6529     66.7064
    13.7500      0.0000    507.1524     57.5387     66.1335
    14.0000      0.0000    355.2003     76.5443     66.1833
    14.2500      0.0000    286.5036     86.3303     65.8321
    14.5000      0.0000    265.8409     89.6279     64.6581
    14.7500      0.0000    261.7183     90.3328     62.8201
    15.0000      0.0000    261.1494     90.3790     60.5535
    15.2500      0.0000    261.0746     90.3813     57.8625
    15.5000      0.0000    261.0576     90.4892     54.6098
    15.7500      0.0000    261.0520     90.6680     50.9116
    16.0000      0.0000    261.0467     90.8557     47.5085
    16.2500      0.0000    261.0422     91.0583     45.5543
    16.5000      0.0000    261.0514     91.2546     45.7854
    16.7500      0.0000    261.0789     91.2946     47.8440
    17.0000      0.0000    261.1080     91.0497     50.4330
    17.2500      0.0000    261.1140     90.6465     52.1648
    17.5000      0.0000    261.0928     90.3445     52.4677
    17.7500      0.0000    261.0647     90.2319     51.8820
    18.0000      0.0000    261.0453     90.2572     51.4203
    18.2500      0.0000    261.0385     90.3740     51.5367
    18.5000      0.0000    261.0458     90.5127     51.7743
    18.7500      0.0000    261.0636     90.5946     51.4230
    19.0000      0.0000    261.0841     90.6063     50.3154
    19.2500      0.0000    261.1052     90.5924     48.8290
    19.5000      0.0000    261.1300     90.5986     47.3185
    19.7500      0.0000    261.1619     90.6107     45.8641
    20.0000      0.0000    261.2047     90.5045     44.6043
    20.2500      0.0000    261.2813     89.9716     44.0034
    20.5000      0.0000    261.4808     88.4662     44.5665
    20.7500      0.0000    262.0868     85.4299     46.3633
    21.0000      0.0000    263.9049     80.7481     48.8288
    21.2500      0.0000    268.4491     74.8383     50.9140
    21.5000      0.0000    276.6812     68.1657     51.6608
    21.7500      0.0000    286.8411     60.9792     51.0220
    22.0000      0.0000    295.5807     53.5962     50.0626
    22.2500      0.0000    302.6241     46.4978     49.9370
    22.5000      0.0000    313.9580     40.0757     50.6196
    22.7500      0.0000    343.1133     34.5038     51.0154
    23.0000      0.0000    408.6637     29.7490     50.2856
    23.2500      0.0000    516.8018     25.6336     48.6332
    23.5000      0.0000    640.2726     22.0315     46.7978
    23.7500      0.0000    736.0390     19.0307     45.3754
    24.0000      0.0000    787.5220     16.8321     44.8702
    24.2500      0.0000    808.0268     15.4927     45.8108
    24.5000      0.0000    814.6850     14.8214     48.2701
    24.7500      0.0000    816.6026     14.5408     51.5782
    25.0000      0.0000    817.1696     14.4622     54.8930
    25.2500      0.0000    817.4907     14.4970     57.7748
    25.5000      0.0000    818.2258     14.5956     60.0317
    25.7500      0.0000    820.4355     14.6920     61.5640
    26.0000      0.0000    825.7182     14.7168     62.7279
    26.2500      0.0000    834.7822     14.6750     64.3575
    26.5000      0.0000    845.2980     14.6452     66.9126
    26.7500      0.0000    853.1947     14.6749     69.7177
    27.0000      0.0000    856.8441     14.7325     71.3555
    27.2500      0.0000    857.7358     14.7652     70.8662
    27.5000      0.0000    857.7071     14.7576     68.4550
    27.7500      0.0000    857.5461     14.7359     65.1598
    28.0000      0.0000    857.2902     14.7344     62.0282
    28.2500      0.0000    856.3005     14.7569     59.5541
    28.5000      0.0000    853.3615     14.7856     57.7032
    28.7500      0.0000    848.2911     14.8133     56.3715
    29.0000      0.0000    843.3740     14.8306     55.7106
    29.2500      0.0000    841.4410     14.8103     55.9495
    29.5000      0.0000    843.4898     14.7385     57.0310
    29.7500      0.0000    848.4464     14.6234     58.6592
    30.0000      0.0000    853.5815     14.4723     60.7576
    30.2500      0.0000    856.7214     14.3040     63.7979
    30.5000      0.0000    857.9594     14.1765     68.5432
    30.7500      0.0000    858.3509     14.1510     75.1817
    31.0000      0.0000    858.4902     14.2111     82.6549
    31.2500      0.0000    858.5012     14.2660     89.0723
    31.5000      0.0000    858.4517     14.2532     92.8002
    31.7500      0.0000    858.5246     14.1865     93.1460
    32.0000      0.0000    858.8590     14.1108     90.4169
    32.2500      0.0000    859.3318     14.0517     85.6336
    32.5000      0.0000    859.6207     13.9951     79.8283
    32.7500      0.0000    859.5190     13.9169     73.3598
    33.0000      0.0000    859.1317     13.8279     66.0854
    33.2500      0.0000    858.8010     13.7606     58.1714
