~Version Information
VERS.                      2.0: CWLS Log ASCII Standard - VERSION 2.0
WRAP.                       NO: One line per depth step
~Well Information Block
STRT.FT               309.8000: 
STOP.FT              2184.7000: 
STEP.FT                 0.1000: 
NULL.                -999.2500: 
COMP.          Pioneer Natural Resources: COMPANY
WELL.             AMX 13-13 Tr: WELL
FLD.           Purgatoire River: FIELD
LOC.           2401' FSL & 895' FWL--: LOCATION
PROV.                 Colorado: PROVINCE
CNTY.               Las Animas: COUNTRY
SRVC.                Patterson: SERVICE COMPANY
DATE.          Thu Dec 22 15:57:57 2005: LOG DATE
UWI.           05 071 08631 00: UNIQUE WELL ID
~Curve Information Block
DEPT.FT            0 000 00 00: Depth
DCAL.in                       : CDL Caliper
RHOB.g/cc                     : CDL Bulk Density
RHOC.g/cc                     : CDL Density Correction
DPOR.pu                       : CDL Density Porosity
GR.GAPI                       : Gamma Ray
~Parameter Information Block
~A  Depth       DCAL        RHOB        RHOC        DPOR         GR     
# ...
   321.0000      1.2612      1.7131      0.4539     56.7794    125.8508
   321.1000      1.2612      1.7078      0.4801     57.1050    125.4948
   321.2000      1.2612      1.7004      0.4665     57.5515    125.0034
   321.3000      1.2618      1.6933      0.4514     57.9831    122.3053
   321.4000      1.2618      1.6953      0.4483     57.8611    118.9399
   321.5000      1.2615      1.7053      0.4645     57.2568    115.9659
   321.6000      1.2615      1.7120      0.4572     56.8469    112.5072
   321.7000      1.2615      1.7099      0.4621     56.9740    110.5837
   321.8000      1.2612      1.7021      0.4626     57.4497    114.3506
   321.9000      1.2612      1.6945      0.4507     57.9106    121.8043
   322.0000      1.2606      1.6937      0.4505     57.9606    126.4419
   322.1000      1.2606      1.7013      0.4478     57.4947    124.4133
   322.2000      1.2606      1.7101      0.4643     56.9646    120.4630
   322.3000      1.2578      1.7115      0.4606     56.8813    119.6899
   322.4000      1.2578      1.7091      0.4356     57.0255    121.8755
   322.5000      1.2562      1.7135      0.4404     56.7590    125.5644
   322.6000      1.2562      1.7246      0.4697     56.0868    128.0576
   322.7000      1.2562      1.7330      0.4800     55.5775    128.8031
   322.8000      1.2563      1.7347      0.4760     55.4729    129.2404
   322.9000      1.2563      1.7356      0.4455     55.4169    128.2399
   323.0000      1.2578      1.7422      0.4670     55.0187    127.6921
   323.1000      1.2578      1.7509      0.4659     54.4925    127.6169
   323.2000      1.2578      1.7544      0.4848     54.2816    124.3138
   323.3000      1.2609      1.7496      0.4710     54.5701    117.8354
   323.4000      1.2609      1.7402      0.4564     55.1378    110.7808
   323.5000      1.2630      1.7319      0.4676     55.6397    108.0161
   323.6000      1.2630      1.7261      0.4508     55.9911    109.7644
   323.7000      1.2630      1.7226      0.4558     56.2073    109.2662
   323.8000      1.2630      1.7199      0.4464     56.3691    105.0997
   323.9000      1.2630      1.7162      0.4692     56.5950    101.5337
   324.0000      1.2622      1.7134      0.4485     56.7647     99.8891
   324.1000      1.2622      1.7168      0.4373     56.5559     97.1727
   324.2000      1.2622      1.7251      0.4644     56.0547     91.8524
   324.3000      1.2606      1.7300      0.4688     55.7596     88.4706
   324.4000      1.2606      1.7288      0.4646     55.8285     89.6603
   324.5000      1.2583      1.7256      0.4713     56.0223     92.8297
   324.6000      1.2583      1.7252      0.4445     56.0458     98.3599
   324.7000      1.2583      1.7293      0.4548     55.7987    107.0396
   324.8000      1.2585      1.7338      0.4581     55.5245    110.6105
   324.9000      1.2585      1.7388      0.4465     55.2224    107.6504
   325.0000      1.2614      1.7533      0.4403     54.3457    107.7994
   325.1000      1.2614      1.7800      0.4875     52.7256    112.9921
   325.2000      1.2614      1.8035      0.5123     51.3014    115.9073
   325.3000      1.2639      1.8084      0.4846     51.0065    113.6438
   325.4000      1.2639      1.7994      0.4736     51.5487    112.0999
   325.5000      1.2654      1.7908      0.4625     52.0727    113.9557
   325.6000      1.2654      1.7908      0.4535     52.0751    111.3274
   325.7000      1.2654      1.7979      0.4805     51.6435    101.9954
   325.8000      1.2656      1.8029      0.4810     51.3367     98.9901
   325.9000      1.2656      1.8013      0.4822     51.4391    108.9177
   326.0000      1.2655      1.7959      0.4768     51.7660    119.8360
   326.1000      1.2655      1.7924      0.4692     51.9738    120.8742
   326.2000      1.2655      1.7943      0.4779     51.8602    118.2661
   326.3000      1.2647      1.7971      0.4831     51.6890    121.2142
   326.4000      1.2647      1.7960      0.4822     51.7572    124.7131
   326.5000      1.2638      1.7939      0.4748     51.8839    120.8973
   326.6000      1.2638      1.7923      0.4782     51.9824    114.6428
   326.7000      1.2638      1.7885      0.4613     52.2095    116.0454
   326.8000      1.2638      1.7880      0.4443     52.2407    124.7200
   326.9000      1.2638      1.7970      0.4600     51.6991    126.8365
   327.0000      1.2640      1.8082      0.4712     51.0163    117.3853
   327.1000      1.2640      1.8086      0.4845     50.9964    110.7275
   327.2000      1.2640      1.7979      0.4570     51.6410    115.6119
   327.3000      1.2651      1.7898      0.4533     52.1316    123.7931
   327.4000      1.2651      1.7881      0.4864     52.2382    124.8668
   327.5000      1.2688      1.7845      0.4641     52.4557    117.6030
   327.6000      1.2688      1.7789      0.4523     52.7924    109.5536
   327.7000      1.2688      1.7805      0.4427     52.6975    108.5248
   327.8000      1.2698      1.7913      0.4569     52.0400    114.4605
   327.9000      1.2698      1.8017      0.4791     51.4122    119.6198
   328.0000      1.2672      1.8040      0.4724     51.2755    118.5755
   328.1000      1.2672      1.8049      0.4495     51.2179    117.7233
   328.2000      1.2672      1.8126      0.4794     50.7523    121.6322
   328.3000      1.2650      1.8214      0.4754     50.2182    124.6365
   328.4000      1.2650      1.8248      0.4769     50.0111    124.6816
   328.5000      1.2647      1.8257      0.4702     49.9592    122.4568
   328.6000      1.2647      1.8259      0.4881     49.9451    121.4793
   328.7000      1.2647      1.8248      0.4754     50.0136    127.1855
   328.8000      1.2660      1.8291      0.4570     49.7545    133.6325
   328.9000      1.2660      1.8451      0.4600     48.7832    130.2018
   329.0000      1.2685      1.8626      0.5055     47.7238    119.9811
   329.1000      1.2685      1.8686      0.4644     47.3580    116.1598
   329.2000      1.2685      1.8727      0.4683     47.1107    120.9182
   329.3000      1.2715      1.8905      0.4561     46.0303    123.9510
   329.4000      1.2715      1.9147      0.5315     44.5637    119.6329
   329.5000      1.2742      1.9288      0.4869     43.7111    111.7410
   329.6000      1.2742      1.9351      0.4970     43.3301    107.0492
   329.7000      1.2742      1.9402      0.4851     43.0161    108.3068
   329.8000      1.2743      1.9443      0.4890     42.7726    112.9880
   329.9000      1.2743      1.9462      0.4952     42.6558    116.0389
   330.0000      1.2743      1.9449      0.4833     42.7359    113.7415
   330.1000      1.2743      1.9410      0.4669     42.9694    110.9774
   330.2000      1.2743      1.9341      0.4914     43.3858    116.0849
   330.3000      1.2761      1.9218      0.4454     44.1361    126.5505
   330.4000      1.2761      1.9020      0.4587     45.3346    134.6455
   330.5000      1.2764      1.8761      0.4261     46.9036    137.5485
   330.6000      1.2764      1.8497      0.4280     48.5036    134.2606
   330.7000      1.2764      1.8229      0.4245     50.1257    128.2658
   330.8000      1.2759      1.7961      0.4148     51.7519    129.3425
   330.9000      1.2759      1.7731      0.4010     53.1451    137.5587
   331.0000      1.2745      1.7471      0.4476     54.7216    144.5157
   331.1000      1.2745      1.7108      0.4115     56.9193    147.4563
   331.2000      1.2745      1.6781      0.3905     58.9003    147.8393
   331.3000      1.2708      1.6671      0.3928     59.5675    146.6201
   331.4000      1.2708      1.6786      0.4109     58.8702    142.5041
   331.5000      1.2673      1.7028      0.4222     57.4081    139.0076
   331.6000      1.2673      1.7312      0.4500     55.6855    140.2747
   331.7000      1.2673      1.7633      0.4661     53.7390    142.3772
   331.8000      1.2670      1.8065      0.4915     51.1207    140.8636
   331.9000      1.2670      1.8696      0.4766     47.2997    133.7736
   332.0000      1.2697      1.9498      0.5315     42.4366    130.4507
   332.1000      1.2697      2.0332      0.5667     37.3848    138.7112
