~Version Information
VERS.                      2.0: CWLS Log ASCII Standard - VERSION 2.0
WRAP.                       NO: One line per depth step
~Well Information Block
STRT.FT               420.0000: 
STOP.FT              2888.7000: 
STEP.FT                 0.1000: 
NULL.                -999.2500: 
COMP.          Pioneer Natural Resources: COMPANY
WELL.          Touchstone 11-32: WELL
FLD.           Purgatoire River: FIELD
LOC.           853' FNL & 407' FWL--: LOCATION
CNTY.               Las Animas: COUNTY
SRVC.                Patterson: SERVICE COMPANY
DATE.          Fri Feb 24 11:16:52 2006: LOG DATE
UWI.           05 071 08564 00: UNIQUE WELL ID
STAT.                 Colorado: STATE
~Curve Information Block
DEPT.FT            0 000 00 00: Depth
DCAL.in                       : CDL Caliper
RHOB.g/cc                     : CDL Bulk Density
RHOC.g/cc                     : CDL Density Correction
DPOR.pu                       : CDL Density Porosity
NPOR.pu                       : Neutron Porosity
GR.GAPI                       : Gamma Ray
~Parameter Information Block
~A  Depth       DCAL        RHOB        RHOC        DPOR        NPOR         GR     
# ...
  2368.8000      7.8480      2.3179      0.0039     20.1291      9.8472     32.2416
  2368.9000      7.8480      2.3175      0.0290     20.1503     10.3917     32.5847
  2369.0000      7.8423      2.3286      0.0559     19.4816     10.4694     34.6942
  2369.1000      7.8423      2.3448      0.0255     18.4944     10.5701     36.7105
  2369.2000      7.8423      2.3640      0.0652     17.3335     11.2218     37.4177
  2369.3000      7.8328      2.3739      0.0825     16.7359     12.2282     35.6908
  2369.4000      7.8328      2.3676      0.0678     17.1153     12.9674     33.7212
  2369.5000      7.8214      2.3623      0.0149     17.4354     13.1345     35.4757
  2369.6000      7.8214      2.3739      0.0480     16.7307     12.7863     39.1251
  2369.7000      7.8214      2.3862      0.0845     15.9876     11.9986     40.1653
  2369.8000      7.8141      2.3819      0.0544     16.2463     11.0736     39.5652
  2369.9000      7.8141      2.3743      0.0515     16.7108     10.5378     40.7876
  2370.0000      7.8109      2.3755      0.0482     16.6347     10.4016     42.8992
  2370.1000      7.8109      2.3843      0.0405     16.1022     10.2779     41.7409
  2370.2000      7.8109      2.3970      0.0778     15.3364     10.1617     36.9792
  2370.3000      7.8104      2.4062      0.0868     14.7741     10.3497     32.3187
  2370.4000      7.8104      2.4076      0.0681     14.6917     10.7038     30.6090
  2370.5000      7.8122      2.4022      0.0775     15.0200     10.7221     31.3577
  2370.6000      7.8122      2.3880      0.1005     15.8809     10.3808     31.3087
  2370.7000      7.8122      2.3659      0.0621     17.2196     10.0016     28.5653
  2370.8000      7.8122      2.3524      0.0239     18.0345      9.7529     25.1145
  2370.9000      7.8122      2.3604      0.0695     17.5488      9.6573     23.4726
  2371.0000      7.8116      2.3771      0.0976     16.5368      9.7947     24.1155
  2371.1000      7.8116      2.3857      0.0709     16.0209     10.1272     26.9044
  2371.2000      7.8116      2.3890      0.0511     15.8194     10.3484     31.4900
  2371.3000      7.8136      2.3938      0.0834     15.5261     10.3760     36.1922
  2371.4000      7.8136      2.4011      0.0588     15.0828     10.4031     39.1653
  2371.5000      7.8152      2.4108      0.0946     14.4962     10.5352     38.0129
  2371.6000      7.8152      2.4165      0.0841     14.1507     10.9377     33.1599
  2371.7000      7.8152      2.4145      0.0565     14.2725     11.6368     30.2993
  2371.8000      7.8138      2.4104      0.0661     14.5235     12.4351     32.3419
  2371.9000      7.8138      2.4138      0.0417     14.3140     13.3236     36.3382
  2372.0000      7.8142      2.4289      0.0874     13.3979     14.2802     38.2462
  2372.1000      7.8142      2.4454      0.0937     12.3999     15.0305     37.2718
  2372.2000      7.8142      2.4541      0.0765     11.8730     15.3936     36.6864
  2372.3000      7.8210      2.4580      0.1021     11.6357     15.3711     40.3995
  2372.4000      7.8210      2.4608      0.0945     11.4672     15.0185     48.2446
  2372.5000      7.8306      2.4641      0.0815     11.2671     14.4492     54.8891
  2372.6000      7.8306      2.4682      0.0777     11.0200     14.2347     56.4559
  2372.7000      7.8306      2.4689      0.0902     10.9731     14.6763     56.4409
  2372.8000      7.8372      2.4632      0.0744     11.3241     15.2770     57.5483
  2372.9000      7.8372      2.4529      0.0985     11.9457     15.5575     57.4802
  2373.0000      7.8412      2.4371      0.1117     12.9051     15.3946     56.1785
  2373.1000      7.8412      2.4149      0.0259     14.2514     15.2661     55.4391
  2373.2000      7.8412      2.3925      0.0342     15.6046     15.7323     55.6314
  2373.3000      7.8419      2.3737      0.0492     16.7478     16.3573     54.9995
  2373.4000      7.8419      2.3656      0.0375     17.2363     16.2255     52.3524
  2373.5000      7.8376      2.3760      0.0398     16.6065     15.5716     50.8973
  2373.6000      7.8376      2.3945      0.0835     15.4838     15.3757     51.8807
  2373.7000      7.8376      2.4061      0.0842     14.7808     15.7918     49.8005
  2373.8000      7.8311      2.4110      0.0933     14.4855     16.3909     44.3867
  2373.9000      7.8311      2.4151      0.1100     14.2366     16.7567     41.8929
  2374.0000      7.8271      2.4205      0.0927     13.9074     16.5573     43.7018
  2374.1000      7.8271      2.4218      0.0879     13.8300     16.0747     45.7145
  2374.2000      7.8271      2.4111      0.0690     14.4787     16.0062     46.0223
  2374.3000      7.8219      2.3993      0.0529     15.1917     16.0784     47.3734
  2374.4000      7.8219      2.4072      0.0443     14.7166     15.8317     50.9718
  2374.5000      7.8135      2.4348      0.0658     13.0446     15.7157     53.2031
  2374.6000      7.8135      2.4614      0.0997     11.4278     16.2321     50.8791
  2374.7000      7.8135      2.4745      0.0800     10.6349     17.0013     45.9892
  2374.8000      7.8094      2.4828      0.0732     10.1359     17.1520     44.0285
  2374.9000      7.8094      2.4956      0.0716      9.3599     16.7113     46.3591
  2375.0000      7.8119      2.5077      0.1165      8.6232     16.3990     49.4286
  2375.1000      7.8119      2.5151      0.0894      8.1741     16.1991     51.4935
  2375.2000      7.8119      2.5298      0.0688      7.2820     15.5964     52.6245
  2375.3000      7.8167      2.5503      0.1521      6.0403     14.6144     51.1471
  2375.4000      7.8167      2.5543      0.0992      5.8024     13.7314     47.2130
  2375.5000      7.8180      2.5383      0.1001      6.7692     13.1286     43.3731
  2375.6000      7.8180      2.5187      0.0609      7.9562     12.5181     40.9278
  2375.7000      7.8180      2.5104      0.0872      8.4590     11.5898     39.7399
  2375.8000      7.8139      2.5142      0.0642      8.2282     10.5607     36.8385
  2375.9000      7.8139      2.5228      0.0869      7.7069      9.9568     33.8251
  2376.0000      7.8097      2.5317      0.0911      7.1674      9.8482     34.8843
  2376.1000      7.8097      2.5342      0.1029      7.0186      9.8072     36.8594
  2376.2000      7.8097      2.5301      0.0704      7.2662      9.3998     33.9751
  2376.3000      7.8080      2.5241      0.1086      7.6327      8.7105     27.1870
  2376.4000      7.8080      2.5126      0.1027      8.3268      8.1364     20.9081
  2376.5000      7.8091      2.5029      0.0617      8.9165      7.8804     16.6326
  2376.6000      7.8091      2.5093      0.0580      8.5254      7.7439     13.8351
  2376.7000      7.8091      2.5219      0.0835      7.7662      7.4246     13.2190
  2376.8000      7.8113      2.5188      0.0603      7.9485      7.1256     15.0675
  2376.9000      7.8113      2.5024      0.0280      8.9473      7.2194     17.0938
  2377.0000      7.8112      2.4902      0.0270      9.6820      7.7391     19.2260
  2377.1000      7.8112      2.4900      0.0404      9.6993      8.5138     22.9495
  2377.2000      7.8112      2.4951      0.0343      9.3861      9.2496     26.0941
  2377.3000      7.8116      2.4999      0.0706      9.0988      9.7900     26.6083
  2377.4000      7.8116      2.5003      0.0669      9.0708     10.0756     27.3856
  2377.5000      7.8126      2.4864      0.0974      9.9160     10.1967     31.7452
  2377.6000      7.8126      2.4621      0.0225     11.3871     10.6034     37.3004
  2377.7000      7.8126      2.4516      0.0263     12.0257     11.3549     39.6763
  2377.8000      7.8115      2.4595      0.0354     11.5448     11.6703     39.5696
  2377.9000      7.8115      2.4679      0.0947     11.0348     11.0825     39.9190
  2378.0000      7.8111      2.4643      0.0565     11.2557     10.1404     41.0162
  2378.1000      7.8111      2.4546      0.0248     11.8415      9.4933     41.2533
  2378.2000      7.8111      2.4517      0.0368     12.0166      9.2053     39.8765
  2378.3000      7.8133      2.4613      0.0559     11.4354      8.9602     37.8050
