~Version Information
VERS.                      2.0: CWLS Log ASCII Standard - VERSION 2.0
WRAP.                       NO: One line per depth step
~Well Information Block
STRT.FT               -10.7500: 
STOP.FT              1466.2500: 
STEP.FT                 0.2500: 
NULL.                -999.2500: 
COMP.          Pioneer Natural Resources: COMPANY
WELL.             Andrew 23-15: WELL
FLD.           Purgatorie River: FIELD
LOC.           2137' FSL & 2292' FWL--: LOCATION
PROV.                       CO: PROVINCE
CNTY.               Las Animas: COUNTRY
SRVC.          Patterson Wireline: SERVICE COMPANY
DATE.          Thu Aug 18 11:51:45 2005: LOG DATE
UWI.           05 071 08460 00: UNIQUE WELL ID
~Curve Information Block
DEPT.FT            0 000 00 00: Depth
CCL.                          : Casing Collar Locator
TT3.usec                      : CBL 3' Travel Time
AMP3.mV                       : CBL 3' Amplitude
GR.GAPI                       : Gamma Ray
~Parameter Information Block
~A  Depth       CCL         TT3         AMP3         GR     
# ...
  1329.2500      0.0000    668.1635      6.6345     88.1205
  1329.5000      0.0000    668.0963      6.6128     85.6067
  1329.7500      0.0000    668.1003      6.5700     83.4659
  1330.0000      0.0000    668.2534      6.5156     83.3280
  1330.2500      0.0000    668.7715      6.4586     85.3391
  1330.5000      0.0000    670.1044      6.4070     88.1313
  1330.7500      0.0000    672.6295      6.3711     90.0277
  1331.0000      0.0000    675.6027      6.3597     90.1627
  1331.2500      0.0000    676.0460      6.3703     88.9202
  1331.5000      0.0000    669.5932      6.3858     87.4489
  1331.7500      0.0000    654.4447      6.3868     86.4986
  1332.0000      0.0000    635.6486      6.3682     85.8837
  1332.2500      0.0000    624.2591      6.3381     85.2646
  1332.5000      0.0000    629.6760      6.3050     84.8207
  1332.7500      0.0000    651.5494      6.2696     84.5715
  1333.0000      0.0000    679.8193      6.2305     83.7281
  1333.2500      0.0000    702.8805      6.1919     81.6209
  1333.5000      0.0000    715.0641      6.1648     78.8497
  1333.7500      0.0000    717.3850      6.1589     76.6584
  1334.0000      0.0000    714.1024      6.1762     75.4044
  1334.2500      0.0000    709.6774      6.2127     74.4066
  1334.5000      0.0000    706.9500      6.2626     73.2099
  1334.7500      0.0000    706.0045      6.3178     72.3264
  1335.0000      0.0000    704.8752      6.3675     72.5592
  1335.2500      0.0000    702.2075      6.4018     74.0839
  1335.5000      0.0000    698.7971      6.4171     76.5067
  1335.7500      0.0000    696.1265      6.4173     79.3996
  1336.0000      0.0000    694.7919      6.4128     82.3760
  1336.2500      0.0000    695.4949      6.4145     84.9542
  1336.5000      0.0000    699.7838      6.4268     86.9190
  1336.7500      0.0000    707.5464      6.4467     88.8812
  1337.0000      0.0000    714.5906      6.4702     91.9736
  1337.2500      0.0000    714.7042      6.4972     96.6611
  1337.5000      0.0000    704.0135      6.5284    102.0776
  1337.7500      0.0000    682.7687      6.5595    106.7079
  1338.0000      0.0000    654.3891      6.5792    109.5388
  1338.2500      0.0000    624.8426      6.5743    110.4988
  1338.5000      0.0000    602.5665      6.5417    110.1074
  1338.7500      0.0000    595.8666      6.4937    108.8573
  1339.0000      0.0000    607.6823      6.4502    106.6735
  1339.2500      0.0000    632.3719      6.4226    102.8379
  1339.5000      0.0000    658.0880      6.4067     96.7626
  1339.7500      0.0000    673.0159      6.3902     89.1340
  1340.0000      0.0000    670.7904      6.3677     82.1066
  1340.2500      0.0000    652.3347      6.3478     77.8473
  1340.5000      0.0000    624.7245      6.3453     76.5978
  1340.7500      0.0000    598.0977      6.3693     76.4128
  1341.0000      0.0000    580.6465      6.4223     75.0488
  1341.2500      0.0000    573.9281      6.5131     71.9300
  1341.5000      0.0000    572.6387      6.6661     68.1839
  1341.7500      0.0000    569.4693      6.9169     65.3266
  1342.0000      0.0000    561.3030      7.2930     64.3534
  1342.2500      0.0000    552.6494      7.7995     65.6241
  1342.5000      0.0000    553.4589      8.4107     68.9102
  1342.7500      0.0000    571.2579      9.0610     73.4713
  1343.0000      0.0000    604.0240      9.6339     78.3265
  1343.2500      0.0000    641.6445      9.9791     82.4859
  1343.5000      0.0000    674.5120      9.9808     84.8410
  1343.7500      0.0000    699.9728      9.6377     84.3523
  1344.0000      0.0000    721.5587      9.0706     81.1792
  1344.2500      0.0000    744.4046      8.4360     77.4053
  1344.5000      0.0000    772.1894      7.8333     75.4750
  1344.7500      0.0000    807.0103      7.2962     75.5129
  1345.0000      0.0000    849.7218      6.8356     74.8869
  1345.2500      0.0000    898.5871      6.4514     70.8007
  1345.5000     -2.0000    947.7823      6.1132     62.9198
  1345.7500      2.0000    988.9116      5.7716     53.3138
  1346.0000      0.0000   1014.8275      5.4112     44.4738
  1346.2500      0.0000   1021.0779      5.0916     37.9629
  1346.5000      0.0000   1004.3905      4.9293     34.4703
  1346.7500      0.0000    964.2087      5.0128     34.0129
  1347.0000      0.0000    908.0152      5.3120     35.7519
  1347.2500      0.0000    851.2314      5.6867     38.2850
  1347.5000      0.0000    808.4215      6.0089     40.5269
  1347.7500      0.0000    785.1116      6.2590     42.1817
  1348.0000      0.0000    777.5383      6.4870     43.4452
  1348.2500      0.0000    777.6313      6.7235     44.6611
  1348.5000      0.0000    777.9637      6.9602     46.3982
  1348.7500      0.0000    774.4352      7.1858     49.6033
  1349.0000      0.0000    766.5162      7.3964     55.1867
  1349.2500      0.0000    755.8284      7.5742     63.0239
  1349.5000      0.0000    744.6176      7.6821     71.4771
  1349.7500      0.0000    735.3809      7.6885     78.3463
  1350.0000      0.0000    730.9813      7.5947     82.3938
  1350.2500      0.0000    733.5791      7.4383     83.8388
  1350.5000      0.0000    742.5172      7.2692     83.6826
  1350.7500      0.0000    753.6931      7.1235     82.9994
  1351.0000      0.0000    762.0219      7.0185     82.6539
  1351.2500      0.0000    764.7773      6.9609     83.1461
  1351.5000      0.0000    762.0513      6.9474     84.5366
  1351.7500      0.0000    754.4016      6.9566     86.5105
  1352.0000      0.0000    741.7984      6.9534     88.5267
  1352.2500      0.0000    725.3209      6.9138     90.0718
  1352.5000      0.0000    708.1009      6.8445     90.9607
  1352.7500      0.0000    693.4146      6.7784     91.4344
  1353.0000      0.0000    682.6548      6.7493     92.0036
  1353.2500      0.0000    675.5118      6.7689     93.2554
  1353.5000      0.0000    671.1288      6.8216     95.5959
  1353.7500      0.0000    668.6680      6.8804     98.7469
  1354.0000      0.0000    667.4070      6.9252    101.4872
  1354.2500      0.0000    666.8895      6.9498    102.4427
  1354.5000      0.0000    667.1277      6.9552    101.3861
  1354.7500      0.0000    668.8126      6.9450     99.3580
  1355.0000      0.0000    673.2953      6.9273     97.4208
  1355.2500      0.0000    681.8439      6.9149     95.8301
  1355.5000      0.0000    694.1246      6.9199     94.4836
  1355.7500      0.0000    707.1159      6.9465     93.4778
  1356.0000      0.0000    715.8341      6.9838     92.9519
  1356.2500      0.0000    715.6408      7.0046     92.9077
  1356.5000      0.0000    704.8358      6.9804     93.6642
  1356.7500      0.0000    686.1989      6.9048     96.0818
  1357.0000      0.0000    665.8708      6.8009    100.6064
  1357.2500      0.0000    649.4255      6.7027    106.1450
  1357.5000      0.0000    639.3039      6.6331    110.5936
  1357.7500      0.0000    637.0839      6.5946    112.5424
  1358.0000      0.0000    646.1573      6.5736    111.8291
  1358.2500      0.0000    668.6821      6.5526    108.5950
  1358.5000      0.0000    700.1004      6.5245    102.8793
  1358.7500      0.0000    729.4766      6.4956     95.3797
  1359.0000      0.0000    746.4517      6.4762     87.7640
  1359.2500      0.0000    747.7197      6.4718     81.8077
  1359.5000      0.0000    737.6318      6.4832     78.4914
  1359.7500      0.0000    723.7844      6.5099     77.8933
  1360.0000      0.0000    711.9255      6.5493     79.4878
  1360.2500      0.0000    703.9682      6.5914     82.3715
  1360.5000      0.0000    699.5579      6.6188     85.5000
  1360.7500      0.0000    698.1299      6.6153     88.0524
  1361.0000      0.0000    698.7725      6.5787     89.8647
  1361.2500      0.0000    699.0787      6.5237     91.6633
  1361.5000      0.0000    696.1951      6.4704     94.6652
  1361.7500      0.0000    689.7262      6.4294     99.5660
  1362.0000      0.0000    682.7095      6.3992    105.9211
  1362.2500      0.0000    679.4128      6.3750    112.5956
  1362.5000      0.0000    682.8184      6.3546    118.4418
