~Version Information
VERS.                      2.0: CWLS Log ASCII Standard - VERSION 2.0
WRAP.                       NO: One line per depth step
~Well Information Block
STRT.FT               800.0000: 
STOP.FT              3500.0000: 
STEP.FT                 0.1000: 
NULL.                -999.2500: 
COMP.          Pioneer Natural Resources: COMPANY
WELL.          Cordillera 34-7: WELL
FLD.           Purgatoire River: FIELD
LOC.           598' FSL & 1770' FEL--: LOCATION
PROV.                 Colorado: PROVINCE
CNTY.               Las Animas: COUNTRY
SRVC.                Patterson: SERVICE COMPANY
DATE.          Fri Oct 28 07:22:44 2005: LOG DATE
UWI.           05 071 08552 00: UNIQUE WELL ID
~Curve Information Block
DEPT.FT            0 000 00 00: Depth
DCAL.in                       : CDL Caliper
RHOB.g/cc                     : CDL Bulk Density
RHOC.g/cc                     : CDL Density Correction
DPOR.pu                       : CDL Density Porosity
NPOR.pu                       : Neutron Porosity
GR.GAPI                       : Gamma Ray
~Parameter Information Block
~A  Depth       DCAL        RHOB        RHOC        DPOR        NPOR         GR     
   800.0000      8.0141      2.3129     -0.2043     20.4322     39.7996     49.0585
   800.1000      8.0141      2.3022     -0.2977     21.0777     40.2628     50.6462
   800.2000      8.0141      2.3057     -0.3118     20.8642     40.7595     49.8394
   800.3000      8.0178      2.3220     -0.2904     19.8801     40.8351     47.1597
   800.4000      8.0178      2.3254     -0.2743     19.6753     40.5192     46.6336
   800.5000      8.0244      2.3214     -0.3865     19.9136     40.4107     48.2832
   800.6000      8.0244      2.3378     -0.3026     18.9196     40.6486     46.1295
   800.7000      8.0244      2.3703     -0.2991     16.9523     40.8468     40.2632
   800.8000      8.0302      2.3950     -0.2410     15.4554     40.7689     37.8155
   800.9000      8.0302      2.4003     -0.2718     15.1325     40.5529     40.1410
   801.0000      8.0311      2.3880     -0.2655     15.8765     40.3496     43.5025
   801.1000      8.0311      2.3725     -0.2974     16.8198     40.3396     46.7897
   801.2000      8.0311      2.3736     -0.2986     16.7538     40.6167     47.8828
   801.3000      8.0279      2.3928     -0.2425     15.5849     40.8186     45.0973
   801.4000      8.0279      2.4067     -0.2207     14.7443     40.6504     41.7132
   801.5000      8.0270      2.3997     -0.2613     15.1673     40.3605     40.4157
   801.6000      8.0270      2.3849     -0.2823     16.0696     40.1685     40.7428
   801.7000      8.0270      2.3748     -0.2988     16.6764     40.0170     42.0530
   801.8000      8.0288      2.3620     -0.2608     17.4546     40.0897     43.4998
   801.9000      8.0288      2.3406     -0.3458     18.7499     40.7225     44.1629
   802.0000      8.0309      2.3244     -0.3213     19.7352     41.5552     43.1752
   802.1000      8.0309      2.3224     -0.3017     19.8519     41.7397     40.3911
   802.2000      8.0309      2.3290     -0.3094     19.4542     41.1113     38.8258
   802.3000      8.0336      2.3402     -0.2956     18.7728     40.2341     41.1306
   802.4000      8.0336      2.3552     -0.2852     17.8651     39.7589     44.2570
   802.5000      8.0371      2.3694     -0.2854     17.0079     39.8080     44.6005
   802.6000      8.0371      2.3783     -0.2391     16.4685     40.1506     43.5965
   802.7000      8.0371      2.3821     -0.2698     16.2389     40.4517     43.0501
   802.8000      8.0416      2.3852     -0.3089     16.0488     40.5375     43.0435
   802.9000      8.0416      2.3901     -0.2862     15.7522     40.6556     43.9840
   803.0000      8.0450      2.3952     -0.2876     15.4404     40.8580     44.3880
   803.1000      8.0450      2.3972     -0.2576     15.3222     40.7212     43.9991
   803.2000      8.0450      2.3912     -0.2936     15.6829     40.0423     45.8112
   803.3000      8.0455      2.3743     -0.2322     16.7113     39.2396     50.1007
   803.4000      8.0455      2.3546     -0.3229     17.9039     38.8211     54.0601
   803.5000      8.0446      2.3549     -0.3610     17.8833     38.6990     54.7733
   803.6000      8.0446      2.3766     -0.2470     16.5679     38.8442     53.7846
   803.7000      8.0446      2.3961     -0.2788     15.3865     39.4258     54.9877
   803.8000      8.0441      2.4010     -0.2725     15.0914     40.0505     56.0237
   803.9000      8.0441      2.3930     -0.2907     15.5729     40.4518     53.5309
   804.0000      8.0444      2.3875     -0.3784     15.9104     40.6730     49.8436
   804.1000      8.0444      2.3976     -0.2714     15.2963     40.5364     47.0156
   804.2000      8.0444      2.4118     -0.3006     14.4393     40.1371     44.2005
   804.3000      8.0449      2.4192     -0.2798     13.9894     40.0205     42.4063
   804.4000      8.0449      2.4203     -0.2850     13.9224     40.5357     43.4008
   804.5000      8.0459      2.4153     -0.2561     14.2247     41.3125     45.6873
   804.6000      8.0459      2.4117     -0.3023     14.4412     41.6964     46.8441
   804.7000      8.0459      2.4183     -0.2526     14.0398     41.6554     47.1398
   804.8000      8.0458      2.4319     -0.2821     13.2152     41.8386     47.3999
   804.9000      8.0458      2.4507     -0.2587     12.0777     42.5787     47.8351
   805.0000      8.0433      2.4693     -0.2702     10.9497     43.3234     50.0898
   805.1000      8.0433      2.4744     -0.2627     10.6448     43.6704     53.5327
   805.2000      8.0433      2.4672     -0.2524     11.0792     43.9851     56.9254
   805.3000      8.0406      2.4594     -0.2425     11.5534     44.3824     60.6019
   805.4000      8.0406      2.4547     -0.2397     11.8350     44.6285     62.9673
   805.5000      8.0392      2.4545     -0.2441     11.8487     45.0142     64.5646
   805.6000      8.0392      2.4552     -0.2502     11.8058     45.6080     67.1898
   805.7000      8.0392      2.4488     -0.2741     12.1914     45.9018     69.5352
   805.8000      8.0399      2.4340     -0.2594     13.0912     45.8502     71.4210
   805.9000      8.0399      2.4186     -0.2656     14.0250     45.6428     71.6664
   806.0000      8.0435      2.4121     -0.2866     14.4204     45.3275     70.1208
   806.1000      8.0435      2.4129     -0.2663     14.3678     45.1945     70.7264
   806.2000      8.0435      2.4166     -0.2880     14.1453     45.4427     73.4155
   806.3000      8.0473      2.4280     -0.2450     13.4519     45.6762     73.9929
   806.4000      8.0473      2.4498     -0.2888     12.1335     45.4354     72.1387
   806.5000      8.0475      2.4639     -0.1748     11.2807     44.7374     69.8143
   806.6000      8.0475      2.4369     -0.2179     12.9150     44.0627     68.5734
   806.7000      8.0475      2.3650     -0.2690     17.2736     43.8154     69.0283
   806.8000      8.0433      2.2909     -0.3729     21.7656     43.8920     68.6222
   806.9000      8.0433      2.2584     -0.3463     23.7356     43.9909     66.3185
   807.0000      8.0367      2.2641     -0.3279     23.3868     43.9922     66.3118
   807.1000      8.0367      2.2758     -0.2660     22.6793     44.1501     69.2942
   807.2000      8.0367      2.2803     -0.3006     22.4068     44.4478     70.5381
   807.3000      8.0319      2.2860     -0.2709     22.0585     44.4600     69.5518
   807.4000      8.0319      2.2964     -0.2269     21.4303     44.1178     69.9348
   807.5000      8.0304      2.3104     -0.2091     20.5822     43.6914     72.2555
   807.6000      8.0304      2.3210     -0.1186     19.9368     43.1970     72.0798
   807.7000      8.0304      2.3111     -0.0711     20.5371     42.5835     67.7984
   807.8000      8.0290      2.2864     -0.1808     22.0351     42.1395     63.5696
   807.9000      8.0290      2.2763     -0.1948     22.6491     42.0414     60.8651
   808.0000      8.0257      2.2855     -0.1676     22.0907     41.9929     58.2090
   808.1000      8.0257      2.2910     -0.1316     21.7594     41.7893     56.1471
   808.2000      8.0257      2.2854     -0.1934     22.0995     41.6433     55.9656
   808.3000      8.0213      2.2918     -0.2196     21.7103     41.8229     57.5941
   808.4000      8.0213      2.3241     -0.1766     19.7545     42.0201     59.6193
   808.5000      8.0177      2.3591     -0.1501     17.6321     41.6146     59.1501
   808.6000      8.0177      2.3726     -0.1375     16.8112     40.7902     55.3156
   808.7000      8.0177      2.3740     -0.2014     16.7276     40.3776     49.5352
   808.8000      8.0176      2.3772     -0.1473     16.5317     40.6754     45.6651
   808.9000      8.0176      2.3724     -0.1399     16.8250     41.0980     47.4604
   809.0000      8.0208      2.3541     -0.2042     17.9320     40.9960     52.4727
   809.1000      8.0208      2.3348     -0.1891     19.1029     40.8500     56.4409
   809.2000      8.0208      2.3210     -0.2000     19.9404     41.3288     57.4251
   809.3000      8.0262      2.3101     -0.2203     20.5983     41.8939     53.8977
   809.4000      8.0262      2.2963     -0.2335     21.4391     41.8228     47.9886
   809.5000      8.0307      2.2766     -0.2552     22.6273     41.4037     44.3129
