~Version Information
VERS.                      2.0: CWLS Log ASCII Standard - VERSION 2.0
WRAP.                       NO: One line per depth step
~Well Information Block
STRT.FT                -8.5000: 
STOP.FT              1214.7500: 
STEP.FT                 0.2500: 
NULL.                -999.2500: 
COMP.          Pioneer Natural Resources: COMPANY
WELL.          Rock Island 44-24 Tr: WELL
FLD.           Purgatorie River: FIELD
LOC.           814' FSL & 761' FEL--: LOCATION
CNTY.               Las Animas: COUNTY
SRVC.          Patterson Wireline: SERVICE COMPANY
DATE.          Fri Apr 28 10:23:18 2006: LOG DATE
UWI.           05 071 08680 00: UNIQUE WELL ID
STAT.                       CO: STATE
~Curve Information Block
DEPT.FT            0 000 00 00: Depth
CCL.                          : Casing Collar Locator
TT3.usec                      : CBL 3' Travel Time
AMP3.mV                       : CBL 3' Amplitude
GR.GAPI                       : Gamma Ray
~Parameter Information Block
~A  Depth       CCL         TT3         AMP3         GR     
# ...
   393.5000      0.0000    697.1192      8.0179     82.1230
   393.7500      0.0000    698.9614      8.0468     85.1885
   394.0000      0.0000    702.8198      8.0354     86.0282
   394.2500      0.0000    709.3336      7.9869     83.9328
   394.5000      0.0000    717.8881      7.9187     80.6616
   394.7500      0.0000    726.6708      7.8568     78.8811
   395.0000      0.0000    733.9783      7.8248     79.7231
   395.2500      0.0000    739.1589      7.8338     82.0897
   395.5000      0.0000    741.8530      7.8776     84.0379
   395.7500      0.0000    740.9391      7.9385     84.4495
   396.0000      0.0000    735.4919      7.9976     83.5574
   396.2500      0.0000    727.0222      8.0410     82.5068
   396.5000      0.0000    719.4967      8.0590     82.8285
   396.7500      0.0000    716.1588      8.0476     85.8949
   397.0000      0.0000    716.7642      8.0141     91.7842
   397.2500      0.0000    718.7249      7.9802     98.1873
   397.5000      0.0000    720.6688      7.9707    101.1671
   397.7500      0.0000    723.6180      7.9952     97.9411
   398.0000      0.0000    728.1380      8.0407     89.2142
   398.2500      0.0000    731.9037      8.0835     78.7109
   398.5000      0.0000    731.9029      8.1072     70.3302
   398.7500      0.0000    728.5988      8.1098     65.5571
   399.0000      0.0000    725.9561      8.0974     63.2344
   399.2500      0.0000    726.9649      8.0750     61.3025
   399.5000      0.0000    730.7063      8.0444     58.4968
   399.7500      0.0000    734.5507      8.0074     54.7744
   400.0000      0.0000    737.6736      7.9681     50.8591
   400.2500      0.0000    740.7515      7.9314     47.6737
   400.5000      0.0000    742.9748      7.9004     45.8598
   400.7500      0.0000    741.5093      7.8756     45.4545
   401.0000      0.0000    734.4676      7.8563     45.9502
   401.2500      0.0000    723.3425      7.8444     46.6797
   401.5000      0.0000    711.9066      7.8470     47.1052
   401.7500      0.0000    703.2062      7.8724     46.8290
   402.0000      0.0000    697.9767      7.9219     45.6365
   402.2500      0.0000    695.3303      7.9865     43.7456
   402.5000      0.0000    694.1367      8.0538     41.7962
   402.7500      0.0000    693.7078      8.1195     40.3097
   403.0000      0.0000    693.7396      8.1899     39.2776
   403.2500      0.0000    694.0474      8.2741     38.4472
   403.5000      0.0000    694.4601      8.3711     37.6993
   403.7500      0.0000    694.9915      8.4665     36.9854
   404.0000      0.0000    696.2178      8.5432     36.3004
   404.2500      0.0000    699.4867      8.5956     35.9623
   404.5000      0.0000    706.3914      8.6303     36.5697
   404.7500      0.0000    717.3903      8.6533     38.3562
   405.0000      0.0000    730.5630      8.6603     40.7517
   405.2500      0.0000    741.9827      8.6425     42.8525
   405.5000      0.0000    747.7853      8.5997     44.1519
   405.7500      0.0000    746.2360      8.5462     44.6114
   406.0000      0.0000    738.2740      8.4980     44.3395
   406.2500      0.0000    726.6628      8.4573     43.5616
   406.5000      0.0000    714.6696      8.4091     42.6464
   406.7500      0.0000    704.8581      8.3346     41.7631
   407.0000      0.0000    698.3517      8.2257     40.7330
   407.2500      0.0000    694.8830      8.0876     39.5982
   407.5000      0.0000    693.4817      7.9315     39.0244
   407.7500      0.0000    693.1881      7.7673     39.6585
   408.0000      0.0000    693.3837      7.6050     41.2207
   408.2500      0.0000    693.7992      7.4559     42.6045
   408.5000      0.0000    694.4542      7.3302     42.8610
   408.7500      0.0000    695.6816      7.2315     41.9372
   409.0000      0.0000    698.1046      7.1521     40.5209
   409.2500      0.0000    702.2196      7.0770     39.3438
   409.5000      0.0000    707.6498      6.9970     38.6091
   409.7500      0.0000    712.9695      6.9190     37.9602
   410.0000      0.0000    716.6235      6.8581     36.9403
   410.2500      0.0000    717.8763      6.8192     35.4963
   410.5000      0.0000    716.6598      6.7915     34.0931
   410.7500      0.0000    713.1426      6.7621     33.4224
   411.0000      0.0000    708.1097      6.7325     34.1363
   411.2500      0.0000    703.2958      6.7185     36.9014
   411.5000      0.0000    700.7116      6.7347     42.3410
   411.7500      0.0000    701.7690      6.7798     50.4024
   412.0000      0.0000    707.0733      6.8335     59.8349
   412.2500      0.0000    716.4183      6.8685     68.8645
   412.5000      0.0000    728.4987      6.8655     76.5108
   412.7500      0.0000    740.7678      6.8212     82.9062
   413.0000      0.0000    749.9672      6.7503     88.3353
   413.2500      0.0000    753.4421      6.6800     92.4700
   413.5000      0.0000    750.8170      6.6355     94.8994
   413.7500      0.0000    744.7667      6.6243     96.1758
   414.0000      0.0000    739.6724      6.6320     97.7059
   414.2500      0.0000    738.9068      6.6369    100.3887
   414.5000      0.0000    743.0903      6.6249    103.8145
   414.7500      0.0000    750.4227      6.5951    106.9989
   415.0000      0.0000    758.0060      6.5554    109.2345
   415.2500      0.0000    763.0170      6.5179    109.8228
   415.5000      0.0000    763.6888      6.4950    107.7094
   415.7500      0.0000    760.0577      6.4935    102.3842
   416.0000      0.0000    753.9812      6.5114     95.2328
   416.2500      0.0000    748.2101      6.5393     89.2439
   416.5000      0.0000    745.2006      6.5634     86.6590
   416.7500      0.0000    746.4160      6.5673     87.0450
   417.0000      0.0000    751.9086      6.5382     88.1417
   417.2500      0.0000    759.7552      6.4758     88.3407
   417.5000      0.0000    766.1751      6.3966     87.8786
   417.7500      0.0000    767.3881      6.3239     87.9929
   418.0000      0.0000    762.0526      6.2718     89.4198
   418.2500      0.0000    751.8478      6.2383     91.4699
   418.5000      0.0000    739.9556      6.2132     92.3788
   418.7500      0.0000    729.4698      6.1902     90.8967
   419.0000      0.0000    722.7245      6.1732     87.7217
   419.2500      0.0000    720.6534      6.1699     85.2942
   419.5000      0.0000    721.9791      6.1817     86.2187
   419.7500      0.0000    723.5762      6.1997     91.6129
   420.0000      0.0000    722.4300      6.2106    100.1535
   420.2500      0.0000    717.5895      6.2071    108.3609
   420.5000      0.0000    710.4827      6.1938    112.5813
   420.7500      0.0000    703.5356      6.1852    111.5868
   421.0000      0.0000    698.4388      6.1934    107.3630
   421.2500      0.0000    695.4454      6.2161    103.1646
   421.5000      0.0000    693.8904      6.2356    100.9072
   421.7500      0.0000    693.0378      6.2333    100.2760
   422.0000      0.0000    692.4869      6.2035     99.6551
   422.2500      0.0000    692.1205      6.1546     97.5754
   422.5000      0.0000    691.9169      6.0978     93.5918
   422.7500      0.0000    691.7880      6.0358     88.3797
   423.0000      0.0000    691.5122      5.9633     83.4707
   423.2500      0.0000    690.7857      5.8817     80.7322
   423.5000      0.0000    689.5386      5.8113     81.3694
   423.7500      0.0000    688.4828      5.7756     84.9393
   424.0000      0.0000    689.2822      5.7620     89.5234
   424.2500      0.0000    693.4949      5.7169     93.2126
   424.5000      0.0000    700.9691      5.6028     95.4006
   424.7500      0.0000    709.6608      5.4474     96.6908
   425.0000      0.0000    717.2246      5.3152     98.0898
   425.2500      0.0000    722.3414      5.2434    100.2282
   425.5000      0.0000    724.5859      5.2228    102.4753
   425.7500     -2.0000    723.6454      5.2254    102.6529
   426.0000      0.0000    718.9099      5.2391     98.6479
   426.2500      0.0000    709.9768      5.2829     90.9210
   426.5000      0.0000    697.9602      5.3816     82.7790
   426.7500      0.0000    686.0715      5.5146     77.5608
