~Version Information
VERS.                      2.0: CWLS Log ASCII Standard - VERSION 2.0
WRAP.                       NO: One line per depth step
~Well Information Block
STRT.FT               670.0000: 
STOP.FT              2110.0000: 
STEP.FT                 0.2500: 
NULL.                -999.2500: 
COMP.          Petrogulf Corporation: COMPANY
WELL.           Montoya 12-44R: WELL
FLD.           Purgatorie River: FIELD
LOC.           713' FSL & 798' FEL: LOCATION
PROV.                 Colorado: PROVINCE
CNTY.               Las Animas: COUNTRY
SRVC.                Patterson: SERVICE COMPANY
DATE.          Sun Oct 02 01:06:45 2005: LOG DATE
UWI.           05-071-08538               : UNIQUE WELL ID
~Curve Information Block
DEPT.FT            0 000 00 00: Depth
SP.mV                         : DIL Spontaneous Potential
RILD.Ohm-m                    : DIL Deep Resistivity
RILM.Ohm-m                    : DIL Medium Resistivity
RLL3.Ohm-m                    : DIL Shallow Resistivity
GR.GAPI                       : Gamma Ray
~Parameter Information Block
~A  Depth        SP         RILD        RILM        RLL3         GR     
# ...
  2070.0000    261.7625     13.5111     12.5021     11.0894     73.5937
  2070.2500    261.8927     13.0551     11.8517      9.9652     77.6527
  2070.5000    261.8474     12.6242     11.3812      9.6495     84.0399
  2070.7500    261.6864     12.2262     11.0612      9.7991     88.1452
  2071.0000    261.4629     11.8773     10.8660     10.2510     93.0579
  2071.2500    261.2267     11.5970     10.7749     10.8983     95.1100
  2071.5000    261.0190     11.4053     10.7728     11.6495     95.8717
  2071.7500    260.8653     11.3201     10.8507     12.4073     94.4788
  2072.0000    260.7711     11.3566     11.0066     13.0538     89.4561
  2072.2500    260.7180     11.5269     11.2456     13.4824     84.8181
  2072.5000    260.6640     11.8381     11.5790     13.6990     77.6671
  2072.7500    260.5537     12.2913     12.0237     13.9254     73.4390
  2073.0000    260.3341     12.8792     12.6000     14.6019     68.2427
  2073.2500    259.9637     13.5860     13.3294     16.2730     65.6726
  2073.5000    259.4112     14.3882     14.2326     19.4160     63.3282
  2073.7500    258.6510     15.2592     15.3257     24.2324     62.3976
  2074.0000    257.6663     16.1751     16.6175     30.4165     60.4613
  2074.2500    256.4519     17.1214     18.1050     37.0590     58.1500
  2074.5000    255.0189     18.0946     19.7715     42.9017     53.3707
  2074.7500    253.4013     19.1009     21.5846     46.8649     49.9060
  2075.0000    251.6657     20.1512     23.4987     48.4587     44.8119
  2075.2500    249.9102     21.2542     25.4582     47.8103     41.3012
  2075.5000    248.2445     22.4084     27.4033     45.4427     35.6502
  2075.7500    246.7592     23.5944     29.2744     42.0912     32.1256
  2076.0000    245.5034     24.7713     31.0170     38.6126     28.9081
  2076.2500    244.4763     25.8798     32.5855     35.8326     28.8722
  2076.5000    243.6375     26.8507     33.9442     34.3063     31.6178
  2076.7500    242.9276     27.6173     35.0675     34.1848     34.2570
  2077.0000    242.2926     28.1307     35.9360     35.3043     37.4933
  2077.2500    241.6961     28.3742     36.5329     37.3296     38.6766
  2077.5000    241.1194     28.3707     36.8431     39.7770     39.3896
  2077.7500    240.5567     28.1752     36.8562     42.0032     39.5713
  2078.0000    240.0088     27.8573     36.5741     43.3340     39.4147
  2078.2500    239.4783     27.4836     36.0185     43.2915     38.6672
  2078.5000    238.9683     27.1056     35.2340     41.7576     36.3427
  2078.7500    238.4828     26.7552     34.2835     39.0102     34.4482
  2079.0000    238.0289     26.4460     33.2386     35.6573     32.5225
  2079.2500    237.6199     26.1803     32.1675     32.4699     32.4909
  2079.5000    237.2771     25.9557     31.1264     30.1308     34.2621
  2079.7500    237.0269     25.7672     30.1555     28.9756     35.9689
  2080.0000    236.8916     25.6062     29.2806     28.8487     37.8960
  2080.2500    236.8791     25.4601     28.5168     29.1683     38.3380
  2080.5000    236.9746     25.3166     27.8738     29.2171     38.0071
  2080.7500    237.1372     25.1702     27.3596     28.5349     37.5585
  2081.0000    237.3050     25.0256     26.9804     27.1774     37.0643
  2081.2500    237.4113     24.8963     26.7391     25.6636     36.9099
  2081.5000    237.4063     24.7966     26.6308     24.6783     36.8403
  2081.7500    237.2769     24.7328     26.6389     24.7607     36.8776
  2082.0000    237.0536     24.6989     26.7328     26.1024     37.1486
  2082.2500    236.8016     24.6827     26.8701     28.4332     37.5864
  2082.5000    236.6003     24.6774     27.0032     31.0348     38.8708
  2082.7500    236.5162     24.6885     27.0907     33.0050     40.1906
  2083.0000    236.5789     24.7288     27.1081     33.7160     42.3093
  2083.2500    236.7742     24.8081     27.0540     33.1487     42.9929
  2083.5000    237.0598     24.9254     26.9473     31.8187     41.1595
  2083.7500    237.3942     25.0686     26.8180     30.3589     37.3476
  2084.0000    237.7559     25.2177     26.6958     29.1333     28.0826
  2084.2500    238.1465     25.3500     26.6010     28.1823     20.7300
  2084.5000    238.5802     25.4475     26.5406     27.4396     10.7400
  2084.7500    239.0719     25.5048     26.5090     26.9229      5.9606
  2085.0000    239.6288     25.5287     26.4925     26.7125      1.9260
  2085.2500    240.2472     25.5311     26.4747     26.8032      0.7624
  2085.5000    240.9139     25.5179     26.4426     27.0231      0.1443
  2085.7500    241.6075     25.4858     26.3893     27.1080      0.0390
  2086.0000    242.2960     25.4273     26.3162     26.8760      0.0034
  2086.2500    242.9339     25.3388     26.2314     26.3790      0.0000
  2086.5000    243.4698     25.2271     26.1473     25.9113   -999.2500
  2086.7500    243.8683     25.1086     26.0774     25.8195   -999.2500
  2087.0000    244.1328     25.0035     26.0342     26.2208   -999.2500
  2087.2500    244.3080     24.9280     26.0280     26.8812   -999.2500
  2087.5000    244.4513     24.8850     26.0673     27.4134   -999.2500
  2087.7500    244.5935     24.8579     26.1587     27.6165   -999.2500
  2088.0000    244.7198     24.8113     26.3074     27.6090   -999.2500
  2088.2500    244.7817     24.7068     26.5158     27.6646   -999.2500
  2088.5000    244.7257     24.5276     26.7814     28.0012   -999.2500
  2088.7500    244.5207     24.2943     27.0945     28.7252   -999.2500
  2089.0000    244.1733     24.0560     27.4360     29.8454   -999.2500
  2089.2500    243.7329     23.8634     27.7779     31.2200   -999.2500
  2089.5000    243.2775     23.7439     28.0866     32.5028   -999.2500
  2089.7500    242.8747     23.6930     28.3279     33.2488   -999.2500
  2090.0000    242.5424     23.6821     28.4751     33.1716   -999.2500
  2090.2500    242.2435     23.6754     28.5145     32.3375   -999.2500
  2090.5000    241.9250     23.6465     28.4494     31.1235   -999.2500
  2090.7500    241.5609     23.5875     28.2980     29.9809   -999.2500
  2091.0000    241.1618     23.5064     28.0892     29.2025   -999.2500
  2091.2500    240.7480     23.2695     27.8551     28.8327   -999.2500
  2091.5000    240.3199     23.0527     27.6264     28.7275   -999.2500
  2091.7500    239.8543     23.0226     27.4286     28.6817   -999.2500
  2092.0000    239.3242     23.0469     27.2821     28.5331   -999.2500
  2092.2500    238.7212     23.1308     27.2027     28.2060   -999.2500
  2092.5000    238.0624     23.2623     27.2019     27.7322   -999.2500
  2092.7500    237.3777     23.4144     27.2870     27.2804   -999.2500
  2093.0000    236.6912     23.5574     27.4595     27.1456   -999.2500
  2093.2500    236.0146     23.6723     27.7136     27.6169   -999.2500
  2093.5000    235.3442     23.7655     28.0365     28.7697   -999.2500
  2093.7500    234.6372     23.8799     28.4113     30.3669   -999.2500
  2094.0000    233.6070     24.1091     28.8228     31.9908   -999.2500
  2094.2500    231.1765     24.6188     29.2641     33.2986   -999.2500
  2094.5000    224.6247     25.6756     29.7398     34.1756   -999.2500
  2094.7500    209.3641     27.6812     30.2653     34.7068   -999.2500
  2095.0000    181.0458     31.5423     30.8597     35.0842   -999.2500
  2095.2500    139.9199     37.5695     31.5363     35.5678   -999.2500
  2095.5000     93.3549     47.1429     32.2944     36.4588   -999.2500
  2095.7500     52.2827     61.3378     33.1163     37.9744   -999.2500
  2096.0000     24.0659     80.0460     33.9709     40.0298   -999.2500
  2096.2500      8.9678    100.3629     34.8254     42.1322   -999.2500
  2096.5000      2.6757    117.2741     35.6602     43.5807   -999.2500
  2096.7500      0.6335    127.8173     36.4845     43.8905   -999.2500
  2097.0000      0.1172    133.0827     37.3452     43.0903   -999.2500
  2097.2500      0.0156    135.8188     38.3302     41.6483   -999.2500
  2097.5000   -999.2500    138.2246     39.5655     40.1431   -999.2500
  2097.7500   -999.2500    141.6047     41.2121     38.9822   -999.2500
