~Version Information
VERS.                      2.0: CWLS Log ASCII Standard - VERSION 2.0
WRAP.                       NO: One line per depth step
~Well Information Block
STRT.FT                -9.0000: 
STOP.FT              1841.0000: 
STEP.FT                 0.2500: 
NULL.                -999.2500: 
COMP.          Pioneer Natural Resources: COMPANY
WELL.          Cooper 11-13 Tr: WELL
FLD.           Purgatorie River: FIELD
LOC.           476' FNL & 738' FWL: LOCATION
STAT.                       CO: State
CNTY.               Las Animas: COUNTY
CTRY. USA : Country
SECT. 13 : Section
TOWN. 32S : Township
RANG. 67W : Range
SRVC.          Patterson Wireline: SERVICE COMPANY
DATE.          Thu Sep 29 08:59:13 2005: LOG DATE
API.           05 071 08525 00: UNIQUE WELL ID
~Curve Information Block
DEPT.FT            0 000 00 00: Depth
CCL.                          : Casing Collar Locator
TT3.usec                      : CBL 3' Travel Time
AMP3.mV                       : CBL 3' Amplitude
GR.GAPI                       : Gamma Ray
~Parameter Information Block
~A  Depth       CCL         TT3         AMP3         GR     
# ...
   125.0000      0.0000    747.8716     13.4403     62.6116
   125.2500      0.0000    750.0007     13.3820     58.9127
   125.5000      0.0000    751.0117     13.2913     57.6143
   125.7500      0.0000    751.4893     13.2192     57.9471
   126.0000      0.0000    751.8083     13.1969     58.6680
   126.2500      0.0000    752.0922     13.2139     58.8124
   126.5000      0.0000    752.3395     13.2356     58.1361
   126.7500      0.0000    752.5233     13.2380     56.7726
   127.0000      0.0000    752.6245     13.2220     54.7669
   127.2500      0.0000    752.6389     13.2002     52.1983
   127.5000      0.0000    752.5570     13.1782     49.5390
   127.7500      0.0000    752.2959     13.1565     47.5373
   128.0000      0.0000    751.6144     13.1464     46.7583
   128.2500      0.0000    750.1950     13.1697     47.3761
   128.5000      0.0000    748.0482     13.2357     49.3062
   128.7500      0.0000    745.9322     13.3241     52.2891
   129.0000      0.0000    745.0684     13.3995     55.7908
   129.2500      0.0000    746.0995     13.4400     59.0268
   129.5000      0.0000    748.4418     13.4470     61.2931
   129.7500      0.0000    750.8771     13.4353     62.1654
   130.0000      0.0000    752.5977     13.4250     61.2655
   130.2500      0.0000    753.5339     13.4408     58.2730
   130.5000      0.0000    753.9700     13.5073     53.6635
   130.7500      0.0000    754.1509     13.6374     49.1101
   131.0000      0.0000    754.1933     13.8247     46.4691
   131.2500      0.0000    754.1528     14.0384     46.3517
   131.5000      0.0000    754.0715     14.2253     48.0042
   131.7500      0.0000    753.9811     14.3310     50.3171
   132.0000      0.0000    753.8865     14.3355     52.5326
   132.2500      0.0000    753.7733     14.2763     54.2095
   132.5000      0.0000    753.6000     14.2328     54.9978
   132.7500      0.0000    753.3137     14.2751     54.5645
   133.0000      0.0000    752.8622     14.4018     52.7272
   133.2500      0.0000    752.2983     14.5080     49.6854
   133.5000      0.0000    751.7833     14.4076     46.1065
   133.7500      0.0000    751.3482     13.9374     42.9179
   134.0000      0.0000    750.9796     13.1198     41.0065
   134.2500      0.0000    752.3837     12.2320     40.9853
   134.5000      0.0000    761.2236     11.6230     42.8705
   134.7500      0.0000    784.7722     11.4272     45.7745
   135.0000      0.0000    824.0944     11.5102     48.1899
   135.2500      0.0000    870.1389     11.6733     48.9667
   135.5000      0.0000    910.5970     11.8138     48.1664
   135.7500      2.0000    938.8991     11.9053     46.9684
   136.0000      0.0000    953.5313     11.9428     46.7093
   136.2500      0.0000    951.8022     11.9413     47.9463
   136.5000      0.0000    928.6602     11.9489     50.3094
   136.7500      0.0000    881.5694     12.0338     52.9830
   137.0000      0.0000    816.4651     12.2511     55.1938
   137.2500      0.0000    750.0235     12.5975     56.3960
   137.5000      0.0000    702.9084     12.9891     56.4927
   137.7500      0.0000    685.9656     13.3121     56.1280
   138.0000      0.0000    692.9111     13.4951     56.3066
   138.2500      0.0000    708.2599     13.5193     57.2765
   138.5000      0.0000    720.7753     13.3954     58.2569
   138.7500      0.0000    728.4259     13.1686     58.6867
   139.0000      0.0000    733.9988     12.9258     58.9900
   139.2500      0.0000    739.5580     12.7632     59.4480
   139.5000      0.0000    744.8357     12.7339     59.2105
   139.7500      0.0000    748.7615     12.8188     57.4450
   140.0000      0.0000    750.9219     12.9457     54.8930
   140.2500      0.0000    751.6428     13.0386     53.3036
   140.5000      0.0000    751.2635     13.0595     53.4676
   140.7500      0.0000    749.8392     13.0125     54.4824
   141.0000      0.0000    747.5437     12.9222     55.0182
   141.2500      0.0000    745.1764     12.8049     54.8174
   141.5000      0.0000    743.8484     12.6530     54.7832
   141.7500      0.0000    743.8029     12.4502     55.8773
   142.0000      0.0000    743.7916     12.2115     58.2090
   142.2500      0.0000    742.1912     11.9978     61.0324
   142.5000      0.0000    738.8409     11.8712     63.3133
   142.7500      0.0000    735.4396     11.8360     64.2670
   143.0000      0.0000    733.9276     11.8404     63.6593
   143.2500      0.0000    734.9328     11.8379     61.7948
   143.5000      0.0000    738.1185     11.8314     59.2019
   143.7500      0.0000    743.0120     11.8463     56.2620
   144.0000      0.0000    748.2155     11.8800     53.1403
   144.2500      0.0000    750.8646     11.8995     50.0392
   144.5000      0.0000    749.0621     11.8903     47.4136
   144.7500      0.0000    744.6435     11.8838     45.8990
   145.0000      0.0000    741.7130     11.9281     45.9855
   145.2500      0.0000    742.4984     12.0401     47.6992
   145.5000      0.0000    745.8420     12.1914     50.4996
   145.7500      0.0000    749.3243     12.3295     53.4301
   146.0000      0.0000    751.5720     12.4109     55.5517
   146.2500      0.0000    752.5771     12.4252     56.5023
   146.5000      0.0000    752.8583     12.3951     56.7162
   146.7500      0.0000    752.7952     12.3579     56.9322
   147.0000      0.0000    752.4013     12.3419     57.2844
   147.2500      0.0000    751.2715     12.3483     56.9364
   147.5000      0.0000    748.6506     12.3462     54.9220
   147.7500      0.0000    743.9342     12.2896     51.4096
   148.0000      0.0000    737.5874     12.1543     47.9061
   148.2500      0.0000    731.5983     11.9621     46.2018
   148.5000      0.0000    728.3864     11.7657     47.3864
   148.7500      0.0000    728.7335     11.6098     51.7595
   149.0000      0.0000    730.9183     11.5067     59.0026
   149.2500      0.0000    732.1578     11.4446     68.0037
   149.5000      0.0000    730.7457     11.4150     76.8866
   149.7500      0.0000    726.8078     11.4273     83.7911
   150.0000      0.0000    721.6652     11.4914     87.7409
   150.2500      0.0000    716.9415     11.5822     88.8384
   150.5000      0.0000    713.9093     11.6376     88.0547
   150.7500      0.0000    713.2327     11.6066     86.9375
   151.0000      0.0000    715.2059     11.4958     86.8223
   151.2500      0.0000    719.9365     11.3617     87.6680
   151.5000      0.0000    726.8595     11.2661     87.8281
   151.7500      0.0000    734.1243     11.2476     85.6311
   152.0000      0.0000    739.0635     11.3195     81.4529
   152.2500      0.0000    739.8282     11.4705     77.8212
   152.5000      0.0000    736.7143     11.6654     77.0683
   152.7500      0.0000    731.7839     11.8579     79.0374
   153.0000      0.0000    727.0355     12.0114     81.5141
   153.2500      0.0000    723.0452     12.1124     82.8066
   153.5000      0.0000    719.4377     12.1677     83.4009
   153.7500      0.0000    716.1332     12.1963     84.9675
   154.0000      0.0000    713.5732     12.2186     88.1610
   154.2500      0.0000    712.0280     12.2527     91.6941
   154.5000      0.0000    711.2488     12.3226     93.4345
   154.7500      0.0000    710.7949     12.4619     92.0897
   155.0000      0.0000    710.4137     12.6924     87.8907
   155.2500      0.0000    710.0902     12.9948     82.2540
   155.5000      0.0000    709.8960     13.3134     77.1441
   155.7500      0.0000    709.9026     13.5949     74.2726
   156.0000      0.0000    710.2646     13.8179     74.1938
   156.2500      0.0000    711.3813     13.9924     76.0024
   156.5000      0.0000    713.8554     14.1448     78.0914
   156.7500      0.0000    717.9645     14.3020     79.3912
   157.0000      0.0000    722.8755     14.4818     79.8940
   157.2500      0.0000    726.3667     14.6966     80.0572
   157.5000      0.0000    725.3177     14.9652     79.9673
   157.7500      0.0000    715.5364     15.3069     79.1451
   158.0000      0.0000    690.5868     15.7170     76.9786
   158.2500      0.0000    643.4103     16.1579     73.4379
