~Version Information
VERS.                      2.0: CWLS Log ASCII Standard - VERSION 2.0
WRAP.                       NO: One line per depth step
~Well Information Block
STRT.FT               335.0000: 
STOP.FT              1013.5000: 
STEP.FT                 0.1000: 
NULL.                -999.2500: 
COMP.          Pioneer Natural Resources: COMPANY
WELL.             Giggle 21-22: WELL
FLD.           Purgatoire River: FIELD
LOC.           950' FNL & 2094' FWL: LOCATION
CNTY.               Las Animas: COUNTY
SRVC.                Patterson: SERVICE COMPANY
DATE.          Thu Apr 13 09:31:38 2006: LOG DATE
UWI.           05 071 08726 00: UNIQUE WELL ID
STAT.                 Colorado: STATE
~Curve Information Block
DEPT.FT            0 000 00 00: Depth
DCAL.in                       : CDL Caliper
RHOB.g/cc                     : CDL Bulk Density
RHOC.g/cc                     : CDL Density Correction
DPOR.pu                       : CDL Density Porosity
GR.GAPI                       : Gamma Ray
NPOR.pu                       : Neutron Porosity
~Parameter Information Block
~A  Depth       DCAL        RHOB        RHOC        DPOR         GR         NPOR    
   335.0000     -0.6948      0.4411     -0.0370    133.8711     67.8581     21.8803
   335.1000     -0.6948      0.4562      0.0429    132.9596     61.8089     21.4069
   335.2000     -0.6948      0.4530      0.0087    133.1539     57.3832     20.9978
   335.3000     -0.7473      0.4392     -0.0153    133.9866     54.6853     20.8173
   335.4000     -0.7473      0.4344     -0.0259    134.2786     54.9187     20.8384
   335.5000     -0.7875      0.4377      0.0080    134.0812     58.0685     20.5972
   335.6000     -0.7875      0.4317     -0.0124    134.4397     60.2482     20.3904
   335.7000     -0.7875      0.4107     -0.0435    135.7135     59.5535     21.1039
   335.8000     -0.8386      0.3866     -0.0789    137.1729     57.9073     22.1521
   335.9000     -0.8386      0.3769     -0.1189    137.7645     56.6266     22.2904
   336.0000     -0.8994      0.3839     -0.0603    137.3383     55.8768     21.6322
   336.1000     -0.8994      0.3874     -0.0245    137.1301     55.4374     20.9737
   336.2000     -0.8994      0.3756     -0.0932    137.8438     55.2197     20.4683
   336.3000     -0.9637      0.3643     -0.0993    138.5287     55.2595     20.0892
   336.4000     -0.9637      0.3687     -0.0871    138.2589     56.0745     19.8520
   336.5000     -1.0295      0.3838     -0.0384    137.3464     59.2569     19.4889
   336.6000     -1.0295      0.3950     -0.0279    136.6650     62.0505     18.7832
   336.7000     -1.0295      0.3971     -0.0898    136.5382     58.7037     18.2261
   336.8000     -1.1109      0.3892     -0.0242    137.0180     50.2280     18.1406
   336.9000     -1.1109      0.3677     -0.0908    138.3188     43.4425     18.3435
   337.0000     -1.1554      0.3415     -0.1120    139.9111     41.8680     18.8501
   337.1000     -1.1554      0.3265     -0.1372    140.8210     43.9264     19.3886
   337.2000     -1.1554      0.3282     -0.0845    140.7154     48.9305     19.6425
   337.3000     -1.2270      0.3428     -0.1136    139.8323     56.8987     19.6251
   337.4000     -1.2270      0.3631     -0.0511    138.6006     63.4485     19.6095
   337.5000     -1.3131      0.3784     -0.0685    137.6743     64.3399     19.8578
   337.6000     -1.3131      0.3863     -0.0829    137.1911     61.3184     20.2183
   337.7000     -1.3131      0.3960     -0.0987    136.6087     58.4185     20.7224
   337.8000     -1.3792      0.4104     -0.0577    135.7335     57.9944     21.0085
   337.9000     -1.3792      0.4238     -0.0507    134.9214     59.9117     20.2238
   338.0000     -1.4526      0.4304     -0.0136    134.5195     62.0134     18.5435
   338.1000     -1.4526      0.4302     -0.0467    134.5344     62.2344     17.3393
   338.2000     -1.4526      0.4298     -0.0279    134.5573     60.6286     17.3291
   338.3000     -1.5260      0.4297      0.0173    134.5611     58.9538     17.7343
   338.4000     -1.5260      0.4251     -0.0288    134.8441     57.7092     17.7336
   338.5000     -1.6122      0.4185     -0.0266    135.2432     57.4746     17.2400
   338.6000     -1.6122      0.4121     -0.0418    135.6316     59.2428     16.4809
   338.7000     -1.6122      0.4014     -0.0458    136.2767     61.8556     16.0282
   338.8000     -1.6983      0.3864     -0.0350    137.1882     65.0400     16.0080
   338.9000     -1.6983      0.3794     -0.0988    137.6150     68.7958     16.2967
   339.0000     -1.7910      0.3901     -0.0479    136.9657     72.1368     16.8761
   339.1000     -1.7910      0.4126     -0.0671    135.6004     74.2645     17.2951
   339.2000     -1.7910      0.4379     -0.0193    134.0639     76.8715     17.7200
   339.3000     -1.8803      0.4609     -0.0142    132.6728     80.4262     18.7252
   339.4000     -1.8803      0.4853     -0.0370    131.1923     82.5645     19.9737
   339.5000     -1.9737      0.5207     -0.0167    129.0513     85.2666     20.5876
   339.6000     -1.9737      0.5614      0.0277    126.5826     90.9835     20.4578
   339.7000     -1.9737      0.5915      0.0341    124.7605     97.2483     20.1321
   339.8000     -2.0695      0.6057      0.0283    123.8952    100.2360     20.1026
   339.9000     -2.0695      0.6099      0.0335    123.6417     97.9557     20.2518
   340.0000     -2.1648      0.6090      0.0627    123.6955     93.4308     20.1004
   340.1000     -2.1648      0.6019      0.1017    124.1259     90.3741     19.9424
   340.2000     -2.1648      0.5856      0.0923    125.1158     86.0895     20.2201
   340.3000     -2.2735      0.5615      0.0949    126.5783     78.9749     20.4469
   340.4000     -2.2735      0.5313      0.1056    128.4076     74.3662     20.3010
   340.5000     -2.3778      0.4957      0.0812    130.5651     73.7516     19.8291
   340.6000     -2.3778      0.4578      0.0466    132.8578     73.0122     19.0940
   340.7000     -2.3778      0.4189      0.0304    135.2186     71.6716     18.8165
   340.8000     -2.4861      0.3761     -0.0038    137.8141     71.6294     19.2107
   340.9000     -2.4861      0.3332     -0.0586    140.4122     70.4015     19.3055
   341.0000     -2.6016      0.2974     -0.0851    142.5796     67.0569     18.6835
   341.1000     -2.6016      0.2647     -0.0659    144.5613     64.6842     17.9000
   341.2000     -2.6016      0.2303     -0.1372    146.6474     62.7378     17.5274
   341.3000     -2.7195      0.2025     -0.1759    148.3315     59.0011     17.9751
   341.4000     -2.7195      0.1862     -0.1587    149.3187     56.0696     18.9275
   341.5000     -2.8365      0.1776     -0.1921    149.8428     58.4122     19.1432
   341.6000     -2.8365      0.1784     -0.2192    149.7914     64.5110     18.2955
   341.7000     -2.8365      0.1921     -0.2112    148.9606     69.2833     17.4067
   341.8000     -2.9742      0.2126     -0.2053    147.7236     71.1103     17.1561
   341.9000     -2.9742      0.2292     -0.1966    146.7144     68.4935     17.2041
   342.0000     -3.0915      0.2420     -0.2136    145.9423     61.6054     17.1232
   342.1000     -3.0915      0.2605     -0.2198    144.8170     56.1033     17.0788
   342.2000     -3.0915      0.2813     -0.0946    143.5564     56.3748     17.1229
   342.3000     -3.2201      0.2873     -0.0941    143.1916     60.6461     17.3551
   342.4000     -3.2201      0.2810     -0.1263    143.5760     65.0548     17.7421
   342.5000     -3.3623      0.2780     -0.1091    143.7552     68.0929     17.5127
   342.6000     -3.3623      0.2751     -0.0580    143.9303     70.1148     16.4766
   342.7000     -3.3623      0.2563     -0.0815    145.0739     69.0973     15.7037
   342.8000     -3.4996      0.2126     -0.0839    147.7215     64.3630     15.6015
   342.9000     -3.4996      0.1499     -0.1897    151.5240     61.8503     15.7457
   343.0000     -3.6374      0.0897     -0.2492    155.1717     64.7134     15.6317
   343.1000     -3.6374      0.0473     -0.2557    157.7393     69.0710     14.9809
   343.2000     -3.6374      0.0150     -0.2398    159.6953     71.5762     14.2552
   343.3000     -3.8011     -0.0159     -0.3013    161.5701     71.6201     14.0927
   343.4000     -3.8011     -0.0406     -0.2982    163.0691     69.9609     14.6277
   343.5000     -3.9612     -0.0648     -0.2569    164.5350     68.1231     15.2197
   343.6000     -3.9612     -0.1023     -0.3180    166.8082     66.7321     15.2236
   343.7000     -3.9612     -0.1448     -0.4178    169.3800     65.1269     15.0171
   343.8000     -4.1218     -0.1782     -0.3979    171.4073     63.7665     15.0580
   343.9000     -4.1218     -0.2117     -0.4213    173.4388     65.6637     15.1363
   344.0000     -4.2801     -0.2513     -0.5300    175.8384     73.0228     15.2043
   344.1000     -4.2801     -0.2824     -0.5365    177.7186     81.3743     15.7656
   344.2000     -4.2801     -0.2954     -0.5278    178.5115     85.9052     16.9847
   344.3000     -4.4499     -0.2929     -0.5311    178.3585     88.4667     18.2022
   344.4000     -4.4499     -0.2795     -0.5177    177.5431     90.6315     19.0021
   344.5000     -4.6355     -0.2690     -0.4522    176.9097     90.4903     19.4090
