~Version Information
VERS.                      2.0: CWLS Log ASCII Standard - VERSION 2.0
WRAP.                       NO: One line per depth step
~Well Information Block
STRT.FT                -8.2500: 
STOP.FT              1729.7500: 
STEP.FT                 0.2500: 
NULL.                -999.2500: 
COMP.          Pioneer Natural Resources: COMPANY
WELL.            Dude 43-34 Tr: WELL
FLD.           Purgatorie River: FIELD
LOC.           2083' FSL & 1042' FEL--: LOCATION
PROV.                       CO: PROVINCE
CNTY.               Las Animas: COUNTRY
SRVC.          Patterson Wireline: SERVICE COMPANY
DATE.          Tue Jan 31 09:23:54 2006: LOG DATE
UWI.           05 071 08676 00: UNIQUE WELL ID
~Curve Information Block
DEPT.FT            0 000 00 00: Depth
CCL.                          : Casing Collar Locator
TT3.usec                      : CBL 3' Travel Time
AMP3.mV                       : CBL 3' Amplitude
GR.GAPI                       : Gamma Ray
~Parameter Information Block
~A  Depth       CCL         TT3         AMP3         GR     
# ...
  1130.7500      0.0000    786.5100      6.1527    143.0815
  1131.0000      0.0000    781.1671      6.1201    145.2534
  1131.2500      0.0000    774.4196      6.0697    146.0862
  1131.5000      0.0000    767.9263      5.9918    146.1114
  1131.7500      0.0000    763.4966      5.8920    146.4280
  1132.0000      0.0000    761.7670      5.7888    147.8578
  1132.2500      0.0000    761.9910      5.7017    150.4642
  1132.5000      0.0000    763.5848      5.6386    153.3997
  1132.7500      0.0000    766.4618      5.5956    154.9394
  1133.0000      0.0000    769.7134      5.5704    153.1096
  1133.2500      0.0000    771.8469      5.5721    146.9103
  1133.5000      0.0000    773.0126      5.6120    137.2808
  1133.7500      0.0000    775.5230      5.6858    126.8602
  1134.0000      0.0000    781.0758      5.7695    118.5312
  1134.2500      0.0000    788.1865      5.8352    113.8751
  1134.5000      0.0000    793.0382      5.8667    112.8846
  1134.7500      0.0000    791.9932      5.8613    114.7698
  1135.0000      0.0000    782.9332      5.8246    118.5408
  1135.2500      0.0000    765.7905      5.7712    123.0224
  1135.5000      0.0000    743.2518      5.7220    127.0532
  1135.7500      0.0000    720.3774      5.6950    129.9331
  1136.0000      0.0000    702.0745      5.6989    131.4485
  1136.2500      0.0000    690.4404      5.7357    131.5091
  1136.5000      0.0000    684.5347      5.8056    130.0194
  1136.7500      0.0000    682.2292      5.9057    127.0910
  1137.0000      0.0000    681.9457      6.0224    123.4078
  1137.2500      0.0000    683.1570      6.1290    120.4450
  1137.5000      0.0000    685.9551      6.1975    119.7982
  1137.7500      0.0000    690.1219      6.2188    121.6290
  1138.0000      0.0000    694.3871      6.2110    124.0529
  1138.2500      0.0000    697.0176      6.2070    124.6761
  1138.5000      0.0000    697.7646      6.2297    122.7224
  1138.7500      0.0000    698.7797      6.2826    119.4511
  1139.0000      0.0000    702.6546      6.3597    116.7567
  1139.2500      0.0000    709.7477      6.4594    115.5296
  1139.5000      0.0000    718.4574      6.5815    115.1663
  1139.7500      0.0000    727.7217      6.7135    114.5720
  1140.0000      0.0000    737.4290      6.8287    113.6242
  1140.2500      0.0000    746.3152      6.9011    113.4196
  1140.5000      0.0000    751.8676      6.9226    115.1702
  1140.7500      0.0000    753.1813      6.9037    119.1759
  1141.0000      0.0000    752.1396      6.8616    124.5407
  1141.2500      0.0000    751.2428      6.8071    129.5386
  1141.5000      0.0000    751.7144      6.7429    132.6937
  1141.7500      0.0000    754.1110      6.6713    133.8584
  1142.0000      0.0000    759.4510      6.6006    133.9406
  1142.2500      0.0000    768.5900      6.5440    133.6993
  1142.5000      0.0000    780.3882      6.5116    133.2430
  1142.7500      0.0000    791.6708      6.5020    132.3955
  1143.0000      0.0000    800.3178      6.5024    131.0503
  1143.2500      0.0000    807.8193      6.4984    129.4646
  1143.5000      0.0000    816.8577      6.4854    128.4366
  1143.7500      0.0000    826.4116      6.4691    128.6130
  1144.0000      0.0000    831.0906      6.4516    129.4080
  1144.2500      0.0000    825.8150      6.4207    129.2413
  1144.5000      0.0000    810.5863      6.3595    127.2376
  1144.7500      0.0000    790.7804      6.2658    124.3040
  1145.0000      0.0000    773.1459      6.1559    122.3469
  1145.2500      0.0000    761.4869      6.0503    122.7832
  1145.5000      0.0000    755.6494      5.9601    125.8360
  1145.7500      0.0000    753.4844      5.8898    130.6353
  1146.0000      0.0000    752.9565      5.8468    135.5603
  1146.2500      0.0000    752.8572      5.8434    138.9492
  1146.5000      0.0000    752.3783      5.8915    140.1552
  1146.7500      0.0000    750.1917      5.9978    139.8920
  1147.0000      0.0000    743.4075      6.1578    139.2375
  1147.2500      0.0000    727.6922      6.3528    138.4471
  1147.5000      0.0000    700.3949      6.5542    136.9046
  1147.7500      0.0000    665.7659      6.7344    133.9096
  1148.0000      0.0000    636.0578      6.8812    129.3139
  1148.2500      0.0000    623.6852      7.0066    123.7968
  1148.5000      0.0000    630.8409      7.1409    118.9994
  1148.7500      0.0000    648.5168      7.3093    117.0576
  1149.0000      0.0000    665.6049      7.5115    119.2614
  1149.2500      0.0000    676.9390      7.7240    124.9571
  1149.5000      0.0000    683.4278      7.9166    131.8786
  1149.7500      0.0000    687.8460      8.0625    137.6004
  1150.0000      0.0000    691.9594      8.1384    140.9051
  1150.2500      0.0000    696.3764      8.1274    142.1402
  1150.5000      0.0000    701.4531      8.0289    142.4060
  1150.7500      0.0000    707.5755      7.8647    142.3367
  1151.0000      0.0000    714.7274      7.6697    141.5836
  1151.2500      0.0000    722.3549      7.4762    139.1600
  1151.5000      0.0000    729.9335      7.3038    134.1383
  1151.7500      0.0000    737.6202      7.1581    126.6221
  1152.0000      0.0000    746.2665      7.0341    118.4061
  1152.2500      0.0000    756.5643      6.9222    112.0655
  1152.5000      0.0000    768.2960      6.8137    108.8567
  1152.7500      0.0000    780.5309      6.7071    107.9258
  1153.0000      0.0000    791.9521      6.6098    107.9911
  1153.2500      0.0000    800.6601      6.5306    109.3228
  1153.5000      0.0000    804.3667      6.4703    113.2061
  1153.7500      0.0000    801.6633      6.4201    119.3217
  1154.0000      0.0000    793.6346      6.3674    124.5327
  1154.2500      0.0000    784.3541      6.3025    125.3275
  1154.5000      0.0000    778.7679      6.2226    121.3890
  1154.7500      0.0000    778.5414      6.1291    115.9396
  1155.0000      0.0000    779.9007      6.0223    112.5812
  1155.2500      0.0000    776.4641      5.8934    112.3905
  1155.5000      0.0000    764.5736      5.7253    113.7930
  1155.7500      0.0000    746.4129      5.5121    114.3997
  1156.0000      0.0000    728.7750      5.2728    112.8717
  1156.2500      0.0000    718.8973      5.0303    109.5901
  1156.5000      0.0000    720.6513      4.7899    105.9324
  1156.7500      0.0000    733.7546      4.5720    103.0544
  1157.0000      0.0000    755.0452      4.4427    101.2408
  1157.2500      0.0000    779.1838      4.4664    100.0120
  1157.5000      0.0000    799.7181      4.6386     98.5713
  1157.7500      2.0000    813.3788      4.8995     96.5421
  1158.0000      0.0000    823.4830      5.2008     94.8681
  1158.2500      0.0000    834.3453      5.5448     95.7665
  1158.5000      0.0000    841.4395      5.9655    100.9525
  1158.7500      0.0000    833.3913      6.4660    109.7470
  1159.0000      0.0000    806.6781      6.9599    119.4884
  1159.2500      0.0000    773.1786      7.3074    127.8132
  1159.5000      0.0000    749.5505      7.4493    133.9743
  1159.7500      0.0000    741.7936      7.4763    138.1776
  1160.0000      0.0000    741.4774      7.5275    140.4297
  1160.2500      0.0000    734.1889      7.6529    140.2979
  1160.5000      0.0000    711.2638      7.7976    137.6686
  1160.7500      0.0000    677.2579      7.8821    133.6379
  1161.0000      0.0000    647.7873      7.8722    130.2435
  1161.2500      0.0000    637.8262      7.7918    128.9337
  1161.5000      0.0000    650.3585      7.6947    129.4811
  1161.7500      0.0000    676.4391      7.6267    130.4592
  1162.0000      0.0000    704.8240      7.6044    130.3920
  1162.2500      0.0000    729.6435      7.6174    128.6219
  1162.5000      0.0000    750.1033      7.6457    125.7965
  1162.7500      0.0000    766.4008      7.6766    123.5613
  1163.0000      0.0000    777.1011      7.7095    123.3302
  1163.2500      0.0000    778.8972      7.7476    125.2898
  1163.5000      0.0000    768.3020      7.7887    128.5944
  1163.7500      0.0000    744.6646      7.8215    132.1745
  1164.0000      0.0000    711.9402      7.8288    135.0058
