~Version Information
 VERS.                                  2.0 : CWLS LAS VERSION
 WRAP.                                   NO : WRAPING MODE
 SWARE .                 MController 2.5.0J : SOFTWARE VERSION
~Well Information
 WELL.                       Cooper 11-13Tr : WELL
 COMP.    Pioneer Natural Resources USA Inc : COMPANY
 FLD.                      Purgatoire River : FIELD
 LOC.                 NW/NW SEC13 T32S R67W : LOCATION
 DATE.                             09/24/05 : DATE(S) LOGGED
 SRVC.       Blanco Geological Services LLC : SERVICE COMPANY
 STAT.                             Colorado : STATE
 CNTY.                           Las Animas : COUNTY
 CTRY.                                  USA : COUNTRY
 API.                       05-071-08525-00 : API NUMBER
 STRT.FT                             327.00 : START DEPTH
 STOP.FT                            1876.00 : STOP DEPTH
 STEP.FT                               1.00 : DEPTH INCREMENT
 NULL.                                -9999 : NULL VALUE
~Curve information
 DEPTH.FT                                   :
 ROP.MIN/FT                                 :
 GAS.UNITS                                  :
~ASCII Log data
# ...
      1527.0         0.70         85.0 
      1528.0         0.33         67.7 
      1529.0         0.37         63.0 
      1530.0         0.40         60.9 
      1531.0         0.33         55.3 
      1532.0         0.28         54.6 
      1533.0         0.37         49.5 
      1534.0         0.37         46.8 
      1535.0         0.40         45.3 
      1536.0         0.33         44.2 
      1537.0         0.37         42.3 
      1538.0         0.33         41.3 
      1539.0         0.30         41.1 
      1540.0         0.47         41.2 
      1541.0         0.72         43.1 
      1542.0         0.73         41.6 
      1543.0         0.67         40.9 
      1544.0         0.53         40.8 
      1545.0         0.67         40.2 
      1546.0         0.45         38.8 
      1547.0         0.23         36.8 
      1548.0         0.20         36.5 
      1549.0         0.17         37.5 
      1550.0         0.23         37.5 
      1551.0         0.40         39.1 
      1552.0         0.33         37.5 
      1553.0         0.23         34.6 
      1554.0         0.23         32.1 
      1555.0         0.27         31.0 
      1556.0         2.85        143.0 
      1557.0         0.10        132.1 
      1558.0         0.43        129.9 
      1559.0         0.33        102.0 
      1560.0         0.23         82.5 
      1561.0         0.28         69.9 
      1562.0         0.17         62.3 
      1563.0         0.40         57.8 
      1564.0         0.27         52.0 
      1565.0         0.20         54.3 
      1566.0         0.20         65.7 
      1567.0         0.17         65.7 
      1568.0         0.17         70.5 
      1569.0         0.23         69.3 
      1570.0         0.27         69.0 
      1571.0         0.27         64.9 
      1572.0         0.40         60.8 
      1573.0         0.40         56.2 
      1574.0         0.32         53.7 
      1575.0         0.30         50.2 
      1576.0         0.33         48.9 
      1577.0         0.37         46.3 
      1578.0         0.43         43.0 
      1579.0         0.50         41.5 
      1580.0         0.40         41.9 
      1581.0         0.33         41.8 
      1582.0         0.40         41.6 
      1583.0         0.32         41.4 
      1584.0         0.27         40.3 
      1585.0         0.33         40.5 
      1586.0         3.48        146.1 
      1587.0         0.63        101.9 
      1588.0         0.33         78.8 
      1589.0         0.33         72.6 
      1590.0         0.33         64.6 
      1591.0         0.33         54.4 
      1592.0         0.33         49.0 
      1593.0         0.38         46.2 
      1594.0         0.43         43.0 
      1595.0         0.47         41.7 
      1596.0         0.50         40.5 
      1597.0         0.50         40.2 
      1598.0         0.57         38.7 
      1599.0         0.43         39.6 
      1600.0         0.32         39.4 
      1601.0         0.27         39.1 
      1602.0         0.20         39.6 
      1603.0         0.23         38.9 
      1604.0         0.27         38.8 
      1605.0         0.30         38.3 
      1606.0         0.23         37.9 
      1607.0         0.23         37.2 
      1608.0         0.23         37.5 
      1609.0         0.23         37.2 
      1610.0         0.27         38.1 
      1611.0         0.30         37.8 
      1612.0         0.23         37.2 
      1613.0         0.28         36.3 
      1614.0         0.30         33.7 
      1615.0         0.27         32.3 
      1616.0         2.67        108.9 
      1617.0         0.15        105.9 
      1618.0         0.60        103.5 
      1619.0         0.43         83.2 
      1620.0         0.43         73.7 
      1621.0         0.43         57.2 
      1622.0         0.33         48.3 
      1623.0         0.33         47.4 
      1624.0         0.23         47.6 
      1625.0         0.20         57.8 
      1626.0         0.32         64.7 
      1627.0         0.27         65.4 
      1628.0         0.33         63.4 
      1629.0         0.30         62.6 
      1630.0         0.30         58.2 
      1631.0         0.33         55.1 
      1632.0         0.30         53.4 
      1633.0         0.27         50.9 
      1634.0         0.37         50.9 
      1635.0         0.23         49.8 
      1636.0         0.27         47.9 
      1637.0         0.38         46.8 
      1638.0         0.27         42.2 
      1639.0         0.33         42.1 
      1640.0         0.30         44.1 
      1641.0         0.43         46.0 
      1642.0         0.33         46.0 
      1643.0         0.33         45.8 
      1644.0         0.33         45.7 
      1645.0         0.33         46.5 
      1646.0         2.65         78.6 
      1647.0         0.97        141.0 
      1648.0         0.23        128.7 
      1649.0         0.48        113.0 
      1650.0         0.40        102.1 
      1651.0         0.20         84.7 
      1652.0         0.23         82.5 
      1653.0         0.33         74.0 
      1654.0         0.33         65.2 
      1655.0         0.33         60.0 
      1656.0         0.27         53.4 
      1657.0         0.27         49.3 
      1658.0         0.27         48.3 
      1659.0         0.33         46.9 
      1660.0         0.28         45.8 
      1661.0         0.23         45.8 
      1662.0         0.23         45.3 
      1663.0         0.27         44.5 
      1664.0         0.17         44.5 
      1665.0         0.27         43.8 
      1666.0         0.23         44.0 
      1667.0         0.23         43.6 
      1668.0         0.30         45.0 
      1669.0         0.23         46.5 
      1670.0         0.20         46.5 
      1671.0         0.27         46.9 
      1672.0         0.27         47.0 
      1673.0         0.22         45.9 
      1674.0         0.23         45.1 
      1675.0         0.23         44.4 
      1676.0         3.08        113.9 
      1677.0         0.57        124.4 
      1678.0         0.27        116.3 
      1679.0         0.30        107.4 
      1680.0         0.43         99.5 
      1681.0         0.27         89.3 
      1682.0         0.23         77.6 
      1683.0         0.33         68.5 
      1684.0         0.30         61.2 
      1685.0         0.30         56.8 
      1686.0         0.35         52.3 
      1687.0         0.33         52.5 
      1688.0         0.30         49.1 
      1689.0         0.30         45.9 
      1690.0         0.27         45.7 
      1691.0         0.27         45.0 
      1692.0         0.30         43.9 
      1693.0         0.30         43.6 
      1694.0         0.23         42.2 
      1695.0         0.27         43.0 
      1696.0         0.27         41.8 
      1697.0         0.23         41.9 
      1698.0         0.28         40.8 
      1699.0         0.23         40.0 
      1700.0         0.27         40.4 
      1701.0         0.27         40.4 
      1702.0         0.23         40.8 
      1703.0         0.30         40.4 
      1704.0         0.23         40.0 
      1705.0         0.23         39.9 
      1706.0         2.18         76.8 
      1707.0         1.20        111.7 
      1708.0         0.53        118.8 
      1709.0         0.40        110.6 
      1710.0         0.33         93.1 
      1711.0         0.38         75.3 
      1712.0         0.33         65.0 
      1713.0         0.27         60.5 
      1714.0         0.30         56.2 
      1715.0         0.30         52.6 
      1716.0         0.37         48.2 
      1717.0         0.30         46.6 
      1718.0         0.30         44.9 
      1719.0         0.30         43.8 
      1720.0         0.30         42.2 
      1721.0         0.25         40.8 
      1722.0         0.23         41.3 
      1723.0         0.33         43.7 
      1724.0         0.30         46.2 
      1725.0         0.20         48.0 
      1726.0         0.20         47.6 
