~Version Information
VERS.                      2.0: CWLS Log ASCII Standard - VERSION 2.0
WRAP.                       NO: One line per depth step
~Well Information Block
STRT.FT                 0.0000: 
STOP.FT               988.7500: 
STEP.FT                 0.2500: 
NULL.                -999.2500: 
COMP.          Pioneer Natural Resources: COMPANY
WELL.             Quartz 13-22: WELL
FLD.           Purgatoire River: FIELD
LOC.           1933' FSL & 675' FWL --------: LOCATION
PROV.                 Colorado: PROVINCE
CNTY.               Las Animas: COUNTRY
SRVC.                         : SERVICE COMPANY
DATE.          Thu Dec 22 09:29:32 2005: LOG DATE
UWI.                          : UNIQUE WELL ID
~Curve Information Block
DEPT.FT            0 000 00 00: Depth
CCL.                          : Casing Collar Locator
TT3.usec                      : CBL 3' Travel Time
AMP3.mV                       : CBL 3' Amplitude
AMP5.mV                       : CBL 5' Amplitude
GR.GAPI                       : Gamma Ray
~Parameter Information Block
~A  Depth       CCL         TT3         AMP3        AMP5         GR     
# ...
   952.0000      0.0000    569.7666      6.4919      1.3298     84.5626
   952.2500      0.0000    568.8552      6.3361      1.3550     88.4907
   952.5000      0.0000    577.2422      6.1260      1.3724     90.7218
   952.7500      0.0000    593.6363      5.8322      1.3656     90.4307
   953.0000      0.0000    616.2293      5.4465      1.3368     87.8114
   953.2500      0.0000    644.0629      4.9909      1.2974     84.0049
   953.5000      0.0000    675.4263      4.5337      1.2615     80.6542
   953.7500      0.0000    705.0193      4.1931      1.2483     78.8280
   954.0000      0.0000    724.7083      4.0755      1.2750     78.2990
   954.2500      0.0000    728.5983      4.1793      1.3359     78.2713
   954.5000      0.0000    718.0685      4.3774      1.3968     78.5468
   954.7500      0.0000    702.0323      4.5171      1.4168     79.5059
   955.0000      0.0000    690.9637      4.5333      1.3805     81.1573
   955.2500      0.0000    688.9304      4.4889      1.3122     82.7559
   955.5000      0.0000    691.5620      4.5377      1.2577     83.5851
   955.7500      0.0000    692.2966      4.8224      1.2463     84.0657
   956.0000      0.0000    688.9229      5.3383      1.2755     85.7601
   956.2500      0.0000    682.4809      5.8933      1.3314     89.7918
   956.5000      0.0000    672.3536      6.2578      1.4054     95.2207
   956.7500      0.0000    656.4183      6.3596      1.4828     99.4265
   957.0000      0.0000    635.6664      6.3011      1.5334    100.3369
   957.2500      0.0000    615.2625      6.2190      1.5269     98.1405
   957.5000      0.0000    600.1898      6.1754      1.4603     94.8676
   957.7500      0.0000    591.4894      6.1615      1.3653     92.5190
   958.0000      0.0000    586.7629      6.1495      1.2876     91.5697
   958.2500      0.0000    582.7518      6.1203      1.2538     91.0165
   958.5000      0.0000    577.2299      6.0658      1.2573     89.5483
   958.7500      0.0000    569.8749      5.9878      1.2806     86.6695
   959.0000      0.0000    562.4971      5.9026      1.3288     83.0304
   959.2500      0.0000    558.3387      5.8415      1.4277     79.9304
   959.5000      0.0000    560.4953      5.8355      1.5839     78.4272
   959.7500      0.0000    570.1021      5.8964      1.7529     78.6905
   960.0000      0.0000    585.0470      6.0072      1.8603     80.0340
   960.2500      0.0000    600.3823      6.1345      1.8623     81.5234
   960.5000      0.0000    611.5291      6.2524      1.7799     82.6525
   960.7500      0.0000    618.5753      6.3556      1.6716     83.5500
   961.0000      0.0000    626.7819      6.4534      1.5783     84.5236
   961.2500      0.0000    641.3790      6.5534      1.5015     85.2795
   961.5000      0.0000    662.0474      6.6530      1.4199     84.7554
   961.7500      0.0000    683.3974      6.7414      1.3167     82.1066
   962.0000      0.0000    699.9775      6.8075      1.1973     77.9832
   962.2500      0.0000    709.4255      6.8431      1.0882     74.4612
   962.5000      0.0000    711.8143      6.8423      1.0139     73.4502
   962.7500      0.0000    708.4210      6.8064      0.9729     75.3832
   963.0000      0.0000    701.3834      6.7487      0.9421     79.4133
   963.2500      0.0000    692.9481      6.6898      0.9007     84.2403
   963.5000      0.0000    684.4388      6.6503      0.8497     88.5613
   963.7500      0.0000    676.2555      6.6476      0.8057     91.3846
   964.0000      0.0000    668.7508      6.6895      0.7770     92.4022
   964.2500      0.0000    662.5518      6.7614      0.7530     92.0401
   964.5000      0.0000    657.6440      6.8279      0.7231     91.2241
   964.7500      0.0000    652.6050      6.8575      0.7010     91.0635
   965.0000      0.0000    645.9077      6.8480      0.7204     92.3103
   965.2500      0.0000    638.2444      6.8260      0.8011     94.8857
   965.5000      0.0000    632.6348      6.8211      0.9216     98.1493
   965.7500      0.0000    632.0624      6.8370      1.0337    101.4711
   966.0000      0.0000    637.3893      6.8503      1.1042    104.2090
   966.2500      0.0000    646.9821      6.8344      1.1448    105.5125
   966.5000      0.0000    657.7565      6.7805      1.2013    104.8450
   966.7500      0.0000    666.7308      6.6927      1.3138    102.6903
   967.0000      0.0000    671.7127      6.5734      1.4837    100.2851
   967.2500      0.0000    671.2407      6.4276      1.6633     98.4803
   967.5000      0.0000    665.4586      6.2763      1.7697     97.0437
   967.7500      0.0000    657.0814      6.1559      1.7232     95.1899
   968.0000      0.0000    649.3932      6.0944      1.4977     92.5800
   968.2500      0.0000    642.9605      6.0910      1.1522     89.6247
   968.5000      0.0000    636.7531      6.1185      0.8077     86.9843
   968.7500      0.0000    632.7291      6.1465      0.5791     85.0247
   969.0000      0.0000    636.0400      6.1620      0.5129     83.7196
   969.2500      0.0000    648.8401      6.1688      0.5776     82.7978
   969.5000      0.0000    665.7012      6.1722      0.7014     81.9384
   969.7500      0.0000    677.5363      6.1661      0.8178     81.0390
   970.0000      0.0000    680.2496      6.1385      0.8972     80.3708
   970.2500      0.0000    678.1438      6.0862      0.9557     80.2581
   970.5000      0.0000    678.5734      6.0240      1.0277     80.5895
   970.7500      0.0000    684.7395      5.9767      1.1252     80.9193
   971.0000      0.0000    694.2736      5.9595      1.2268     81.1023
   971.2500      0.0000    703.0564      5.9672      1.3038     81.5913
   971.5000      0.0000    708.8010      5.9806      1.3462     82.9271
   971.7500      0.0000    711.5941      5.9853      1.3638     85.0299
   972.0000      0.0000    712.6005      5.9814      1.3693     87.2729
   972.2500      0.0000    712.9439      5.9775      1.3680     89.1647
   972.5000      0.0000    713.4495      5.9799      1.3607     90.5381
   972.7500      0.0000    714.8578      5.9921      1.3529     91.1887
   973.0000      0.0000    717.8204      6.0219      1.3593     90.8708
   973.2500      0.0000    722.2543      6.0787      1.3945     89.6192
   973.5000      0.0000    726.7169      6.1617      1.4572     87.5167
   973.7500      0.0000    729.2094      6.2544      1.5232     84.0091
   974.0000      0.0000    729.4762      6.3304      1.5526     77.8932
   974.2500      0.0000    730.2493      6.3650      1.5140     68.1920
   974.5000      0.0000    735.3368      6.3473      1.4144     55.0072
   974.7500      0.0000    746.1714      6.2844      1.3017     39.8186
   975.0000      0.0000    760.3833      6.1950      1.2288     25.1534
   975.2500      0.0000    773.7508      6.1047      1.2204     13.5009
   975.5000      0.0000    783.3216      6.0448      1.2749      6.0199
   975.7500      0.0000    788.7179      6.0418      1.3803      2.1911
   976.0000      0.0000    790.9310      6.0989      1.5146      0.6421
   976.2500      0.0000    790.4186      6.1893      1.6382      0.1499
   976.5000      0.0000    786.5200      6.2733      1.7037      0.0273
   976.7500      0.0000    778.6416      6.3217      1.6810      0.0035
   977.0000      0.0000    767.8613      6.3256      1.5802      0.0000
   977.2500      0.0000    757.1348      6.2923      1.4563   -999.2500
   977.5000      0.0000    749.8535      6.2347      1.3817   -999.2500
   977.7500      0.0000    748.0954      6.1628      1.3985   -999.2500
   978.0000      0.0000    751.8868      6.0860      1.4903   -999.2500
   978.2500      0.0000    759.6819      6.0235      1.5991   -999.2500
   978.5000      0.0000    769.2365      6.0003      1.6561   -999.2500
   978.7500      0.0000    778.2071      6.0257      1.5955   -999.2500
   979.0000      0.0000    783.9767      6.0747      1.3695   -999.2500
   979.2500      0.0000    781.8721      6.0751      0.9885   -999.2500
   979.5000      0.0000    761.8724      5.8843      0.5406   -999.2500
   979.7500      0.0000    708.1943      5.2819      0.1461   -999.2500
