~Version Information
VERS.                      2.0: CWLS Log ASCII Standard - VERSION 2.0
WRAP.                       NO: One line per depth step
~Well Information Block
STRT.FT               673.2000: 
STOP.FT              1510.5000: 
STEP.FT                 0.1000: 
NULL.                -999.2500: 
COMP.          Pioneer Natural Resources: COMPANY
WELL.          Hammerhead 24-24 Tr: WELL
FLD.           Purgatoire River: FIELD
LOC.           953' FSL & 1922' FWL: LOCATION
PROV.                 Colorado: PROVINCE
CNTY.               Las Animas: COUNTRY
SRVC.                Patterson: SERVICE COMPANY
DATE.          Mon Jan 30 07:27:57 2006: LOG DATE
UWI.           05 071 08669 00: UNIQUE WELL ID
~Curve Information Block
DEPT.FT            0 000 00 00: Depth
DCAL.in                       : CDL Caliper
RHOB.g/cc                     : CDL Bulk Density
RHOC.g/cc                     : CDL Density Correction
DPOR.pu                       : CDL Density Porosity
GR.GAPI                       : Gamma Ray
~Parameter Information Block
~A  Depth       DCAL        RHOB        RHOC        DPOR         GR     
# ...
  1502.0000      7.8380      2.5475      0.0586      6.2109   -999.2500
  1502.1000      7.8380      2.5673      0.0786      5.0125   -999.2500
  1502.2000      7.8380      2.5692      0.0655      4.8952   -999.2500
  1502.3000      7.8378      2.5651      0.0035      5.1474   -999.2500
  1502.4000      7.8378      2.5745      0.0511      4.5784   -999.2500
  1502.5000      7.8282      2.5900      0.0845      3.6367   -999.2500
  1502.6000      7.8282      2.5960      0.0700      3.2741   -999.2500
  1502.7000      7.8282      2.5861      0.0862      3.8708   -999.2500
  1502.8000      7.8221      2.5635      0.0715      5.2443   -999.2500
  1502.9000      7.8221      2.5468      0.0274      6.2538   -999.2500
  1503.0000      7.8264      2.5521      0.0471      5.9340   -999.2500
  1503.1000      7.8264      2.5761      0.0556      4.4780   -999.2500
  1503.2000      7.8264      2.6070      0.0821      2.6058   -999.2500
  1503.3000      7.8367      2.6306      0.0679      1.1736   -999.2500
  1503.4000      7.8367      2.6379      0.0643      0.7357   -999.2500
  1503.5000      7.8414      2.6292      0.0535      1.2589   -999.2500
  1503.6000      7.8414      2.6128      0.0582      2.2576   -999.2500
  1503.7000      7.8414      2.5957      0.0875      3.2906   -999.2500
  1503.8000      7.8413      2.5803      0.0666      4.2262   -999.2500
  1503.9000      7.8413      2.5715      0.0316      4.7584   -999.2500
  1504.0000      7.8430      2.5733      0.0197      4.6496   -999.2500
  1504.1000      7.8430      2.5771      0.0617      4.4210   -999.2500
  1504.2000      7.8430      2.5739      0.0372      4.6113   -999.2500
  1504.3000      7.8478      2.5767      0.0188      4.4422   -999.2500
  1504.4000      7.8478      2.5958      0.0765      3.2829   -999.2500
  1504.5000      7.8511      2.6120      0.1159      2.3032   -999.2500
  1504.6000      7.8511      2.6130      0.0456      2.2431   -999.2500
  1504.7000      7.8511      2.6101      0.0691      2.4197   -999.2500
  1504.8000      7.8520      2.6013      0.0617      2.9536   -999.2500
  1504.9000      7.8520      2.5780      0.0475      4.3639   -999.2500
  1505.0000      7.8504      2.5489      0.0237      6.1243   -999.2500
  1505.1000      7.8504      2.5298      0.0291      7.2873   -999.2500
  1505.2000      7.8504      2.5205      0.0430      7.8500   -999.2500
  1505.3000      7.8483      2.5091      0.0249      8.5396   -999.2500
  1505.4000      7.8483      2.5011     -0.0246      9.0261   -999.2500
  1505.5000      7.8463      2.5097      0.0128      8.5040   -999.2500
  1505.6000      7.8463      2.5327      0.0576      7.1098   -999.2500
  1505.7000      7.8463      2.5628      0.0352      5.2830   -999.2500
  1505.8000      7.8428      2.5886      0.0891      3.7184   -999.2500
  1505.9000      7.8428      2.5913      0.0985      3.5577   -999.2500
  1506.0000      7.8435      2.5700      0.0108      4.8510   -999.2500
  1506.1000      7.8435      2.5488      0.0079      6.1305   -999.2500
  1506.2000      7.8435      2.5434      0.0069      6.4616   -999.2500
  1506.3000      7.8503      2.5435      0.0600      6.4533   -999.2500
  1506.4000      7.8503      2.5391      0.0037      6.7236   -999.2500
  1506.5000      7.8558      2.5365      0.0093      6.8763   -999.2500
  1506.6000      7.8558      2.5386      0.0376      6.7530   -999.2500
  1506.7000      7.8558      2.5397      0.0260      6.6872   -999.2500
  1506.8000      7.8523      2.5439      0.0270      6.4276   -999.2500
  1506.9000      7.8523      2.5535      0.0559      5.8480   -999.2500
  1507.0000      7.8469      2.5557      0.0803      5.7128   -999.2500
  1507.1000      7.8469      2.5418      0.0697      6.5568   -999.2500
  1507.2000      7.8469      2.5180      0.0318      8.0010   -999.2500
  1507.3000      7.8296      2.4979      0.0418      9.2153   -999.2500
  1507.4000      7.8296      2.4884      0.0110      9.7933   -999.2500
  1507.5000      7.7701      2.5064      0.0308      8.7049   -999.2500
  1507.6000      7.7701      2.6007      0.0045      2.9872   -999.2500
  1507.7000      7.7701      2.6644      0.0619     -0.8714   -999.2500
  1507.8000      7.4753      2.2555      0.5800     23.9121   -999.2500
  1507.9000      7.4753      1.2892      0.0000     82.4731   -999.2500
  1508.0000      6.3014      0.4385      0.0000    134.0302   -999.2500
  1508.1000      6.3014      0.0834   -999.2500    155.5525   -999.2500
  1508.2000      6.3014      0.0086   -999.2500    160.0848   -999.2500
  1508.3000      4.3936      0.0005   -999.2500    160.5777   -999.2500
  1508.4000      4.3936      0.0000   -999.2500    160.6061   -999.2500
  1508.5000      3.2397      0.0000   -999.2500    160.6061   -999.2500
  1508.6000      3.2397   -999.2500   -999.2500   -999.2500   -999.2500
  1508.7000      3.2397   -999.2500   -999.2500   -999.2500   -999.2500
  1508.8000      2.9825   -999.2500   -999.2500   -999.2500   -999.2500
  1508.9000      2.9825   -999.2500   -999.2500   -999.2500   -999.2500
  1509.0000      2.9614   -999.2500   -999.2500   -999.2500   -999.2500
  1509.1000      2.9614   -999.2500   -999.2500   -999.2500   -999.2500
  1509.2000      2.9614   -999.2500   -999.2500   -999.2500   -999.2500
  1509.3000   -999.2500   -999.2500   -999.2500   -999.2500   -999.2500
  1509.4000   -999.2500   -999.2500   -999.2500   -999.2500   -999.2500
  1509.5000   -999.2500   -999.2500   -999.2500   -999.2500   -999.2500
  1509.6000   -999.2500   -999.2500   -999.2500   -999.2500   -999.2500
  1509.7000   -999.2500   -999.2500   -999.2500   -999.2500   -999.2500
  1509.8000   -999.2500   -999.2500   -999.2500   -999.2500   -999.2500
  1509.9000   -999.2500   -999.2500   -999.2500   -999.2500   -999.2500
  1510.0000   -999.2500   -999.2500   -999.2500   -999.2500   -999.2500
  1510.1000   -999.2500   -999.2500   -999.2500   -999.2500   -999.2500
  1510.2000   -999.2500   -999.2500   -999.2500   -999.2500   -999.2500
  1510.3000   -999.2500   -999.2500   -999.2500   -999.2500   -999.2500
  1510.4000   -999.2500   -999.2500   -999.2500   -999.2500   -999.2500
  1510.5000   -999.2500   -999.2500   -999.2500   -999.2500   -999.2500
