~Version Information
VERS.                      2.0: CWLS Log ASCII Standard - VERSION 2.0
WRAP.                       NO: One line per depth step
~Well Information Block
STRT.FT                10.0000: 
STOP.FT              1187.0000: 
STEP.FT                 0.1000: 
NULL.                -999.2500: 
COMP.          Pioneer Natural Resources: COMPANY
WELL.          Whitecoat 14-36: WELL
FLD.           Purgatorie River: FIELD
LOC.           606' FSL & 260' FWL: LOCATION
PROV.                 Colorado: PROVINCE
CNTY.               Las Animas: COUNTRY
SRVC.                Patterson: SERVICE COMPANY
DATE.          Tue Dec 06 07:14:37 2005: LOG DATE
UWI.                          : UNIQUE WELL ID
~Curve Information Block
DEPT.FT            0 000 00 00: Depth
DCAL.in                       : CDL Caliper
RHOB.g/cc                     : CDL Bulk Density
RHOC.g/cc                     : CDL Density Correction
DPOR.pu                       : CDL Density Porosity
GR.GAPI                       : Gamma Ray
NPOR.pu                       : Neutron Porosity
~Parameter Information Block
~A  Depth       DCAL        RHOB        RHOC        DPOR         GR         NPOR    
# ...
   547.6000      8.0287      2.5405      0.0068      6.6385    115.3454     23.3457
   547.7000      8.0287      2.5247      0.0188      7.5938    114.7842     23.1798
   547.8000      8.0259      2.5148      0.0120      8.1923    112.0238     23.2927
   547.9000      8.0259      2.5114      0.0279      8.4006    106.0424     23.4298
   548.0000      7.9826      2.5060      0.0397      8.7291     99.9283     23.5385
   548.1000      7.9826      2.4954      0.0323      9.3696     97.3196     23.8711
   548.2000      7.9826      2.4852     -0.0044      9.9862     96.2342     24.1912
   548.3000      7.9841      2.4819      0.0142     10.1901     93.6422     24.0552
   548.4000      7.9841      2.4854      0.0117      9.9755     91.0933     23.4872
   548.5000      7.9816      2.4946     -0.0167      9.4200     90.4755     22.8850
   548.6000      7.9816      2.5064      0.0539      8.7008     91.3866     22.5277
   548.7000      7.9816      2.5115      0.0292      8.3938     92.3037     22.3495
   548.8000      7.9778      2.5121     -0.0330      8.3546     92.5297     22.0020
   548.9000      7.9778      2.5205      0.0257      7.8507     92.6581     21.4226
   549.0000      7.9997      2.5394      0.0192      6.7054     93.7337     21.1082
   549.1000      7.9997      2.5629      0.0438      5.2791     96.1672     21.3814
   549.2000      7.9997      2.5789      0.0928      4.3100     99.3075     21.9863
   549.3000      7.9950      2.5804      0.0556      4.2211    102.9614     22.4562
   549.4000      7.9950      2.5731      0.0327      4.6593    107.5097     22.5352
   549.5000      7.9970      2.5577      0.0442      5.5929    113.7674     22.3963
   549.6000      7.9970      2.5307     -0.0237      7.2322    120.5595     22.3845
   549.7000      7.9970      2.5065     -0.0093      8.6968    126.0291     22.6346
   549.8000      8.0237      2.5028     -0.0395      8.9237    132.3886     22.9950
   549.9000      8.0237      2.5155      0.0232      8.1527    141.4498     23.2633
   550.0000      8.0533      2.5234      0.0318      7.6744    148.5780     23.5375
   550.1000      8.0533      2.5196      0.0146      7.9008    150.7881     24.0415
   550.2000      8.0533      2.5222      0.0235      7.7482    153.7923     24.6484
   550.3000      8.0322      2.5395      0.0205      6.6962    160.7813     24.9829
   550.4000      8.0322      2.5518      0.0682      5.9489    166.5053     25.0131
   550.5000      8.0537      2.5486      0.0295      6.1460    167.1667     25.2493
   550.6000      8.0537      2.5535     -0.0139      5.8496    164.2897     25.9746
   550.7000      8.0537      2.5810      0.0910      4.1832    160.6462     26.7344
   550.8000      8.0307      2.6130      0.1000      2.2402    157.9662     26.9973
   550.9000      8.0307      2.6294      0.1033      1.2504    154.6069     26.7228
   551.0000      8.0343      2.6267      0.0846      1.4137    148.6647     26.2352
   551.1000      8.0343      2.6170      0.0701      2.0001    142.3293     25.8946
   551.2000      8.0343      2.6170      0.0336      1.9979    138.5333     25.8796
   551.3000      8.0399      2.6324      0.0700      1.0690    137.8888     26.1963
   551.4000      8.0399      2.6496      0.0892      0.0222    137.8846     26.6467
   551.5000      8.0365      2.6536      0.1019     -0.2195    136.3667     26.8794
   551.6000      8.0365      2.6432      0.0820      0.4120    135.3373     26.7911
   551.7000      8.0365      2.6241      0.0775      1.5672    137.2628     26.5495
   551.8000      8.0343      2.6022      0.0340      2.8987    138.8775     26.4014
   551.9000      8.0343      2.5843      0.0632      3.9843    137.2995     26.4989
   552.0000      8.0321      2.5752      0.0083      4.5361    137.8576     26.7197
   552.1000      8.0321      2.5755      0.0033      4.5144    142.5719     26.7128
   552.2000      8.0321      2.5769      0.0467      4.4331    147.3462     26.2935
   552.3000      8.0360      2.5704      0.0397      4.8259    149.7078     25.8493
   552.4000      8.0360      2.5649      0.0201      5.1564    149.7975     25.8284
   552.5000      8.0297      2.5745      0.0231      4.5778    150.3531     25.9725
   552.6000      8.0297      2.5956      0.0657      3.2971    154.3735     25.8182
   552.7000      8.0297      2.6118      0.0593      2.3160    160.0362     25.4821
   552.8000      8.0350      2.6127      0.0693      2.2610    162.1111     25.3684
   552.9000      8.0350      2.5950      0.0652      3.3334    159.3987     25.4048
   553.0000      8.0339      2.5649     -0.0010      5.1560    154.5443     25.2707
   553.1000      8.0339      2.5392      0.0196      6.7157    150.3371     24.9313
   553.2000      8.0339      2.5273      0.0108      7.4363    149.4480     24.5690
   553.3000      8.0295      2.5272      0.0163      7.4417    151.9254     24.3794
   553.4000      8.0295      2.5346      0.0359      6.9955    155.6880     24.3490
   553.5000      8.0378      2.5470      0.0266      6.2398    158.3932     24.3632
   553.6000      8.0378      2.5622      0.0278      5.3188    157.5389     24.4868
   553.7000      8.0378      2.5746      0.0818      4.5703    157.6544     24.7238
   553.8000      8.0523      2.5819      0.0834      4.1264    165.9690     25.1005
   553.9000      8.0523      2.5862      0.0755      3.8646    177.4620     25.7182
   554.0000      8.0996      2.5809      0.1073      4.1892    183.2870     26.3162
   554.1000      8.0996      2.5582      0.0384      5.5646    183.4457     26.6327
   554.2000      8.0996      2.5349      0.0200      6.9783    180.7257     26.7232
   554.3000      8.1465      2.5307      0.0308      7.2306    178.2569     26.6827
   554.4000      8.1465      2.5353      0.0398      6.9511    177.9465     26.5373
   554.5000      8.1010      2.5273      0.0494      7.4347    177.4649     26.4039
   554.6000      8.1010      2.5051      0.0011      8.7793    175.2100     26.3769
   554.7000      8.1010      2.4850      0.0044      9.9972    171.5023     26.4278
   554.8000      8.0542      2.4806     -0.0211     10.2676    167.7072     26.5967
   554.9000      8.0542      2.4919      0.0286      9.5839    166.7942     26.9258
   555.0000      8.0520      2.5014      0.0440      9.0063    169.3250     27.3033
   555.1000      8.0520      2.4946      0.0272      9.4181    169.3649     27.3667
   555.2000      8.0520      2.4854     -0.0184      9.9783    162.7758     26.8944
   555.3000      8.0377      2.4974      0.0243      9.2509    153.8354     26.2920
   555.4000      8.0377      2.5332      0.0494      7.0815    148.6050     25.9921
   555.5000      8.0279      2.5779      0.0970      4.3708    147.5038     25.8904
   555.6000      8.0279      2.6167      0.1418      2.0167    146.9693     25.7550
   555.7000      8.0279      2.6415      0.1626      0.5154    145.5784     25.4516
   555.8000      7.9914      2.6521      0.1471     -0.1249    143.2126     25.0718
   555.9000      7.9914      2.6532      0.1650     -0.1957    139.9038     24.8709
   556.0000      8.0036      2.6451      0.1966      0.2954    135.9818     24.8979
   556.1000      8.0036      2.6235      0.1461      1.6059    130.8014     25.0986
   556.2000      8.0036      2.5936      0.0896      3.4155    123.4488     25.2792
   556.3000      8.0058      2.5680      0.0635      4.9695    114.4055     25.1492
   556.4000      8.0058      2.5558      0.0153      5.7085    106.7140     24.8636
   556.5000      7.9941      2.5574      0.0162      5.6109    102.4661     24.7623
   556.6000      7.9941      2.5652      0.0487      5.1405    100.7909     24.6404
   556.7000      7.9941      2.5705      0.0502      4.8158    100.3268     24.1163
   556.8000      7.9828      2.5668      0.0338      5.0431    101.0817     23.4124
   556.9000      7.9828      2.5542      0.0402      5.8085    102.2217     23.0724
   557.0000      7.9774      2.5456      0.0075      6.3279    103.1235     23.2086
   557.1000      7.9774      2.5563     -0.0006      5.6762    106.3543     23.5158
