~Version Information
VERS.                      2.0: CWLS Log ASCII Standard - VERSION 2.0
WRAP.                       NO: One line per depth step
~Well Information Block
STRT.FT               -12.0000: 
STOP.FT              1266.5000: 
STEP.FT                 0.2500: 
NULL.                -999.2500: 
COMP.          Pioneer Natural Resources: COMPANY
WELL.          Hot Tomatoes 22-20: WELL
FLD.           Purgatorie River: FIELD
LOC.           2120' FNL & 2585' FWL: LOCATION
CNTY.               Las Animas: COUNTY
SRVC.                Patterson: SERVICE COMPANY
DATE.          Thu Mar 02 13:59:39 2006: LOG DATE
UWI.           05 071 08701 00: UNIQUE WELL ID
STAT.                       CO: STATE
~Curve Information Block
DEPT.FT            0 000 00 00: Depth
GR.GAPI                       : Gamma Ray
CCL.                          : Casing Collar Locator
TT3.usec                      : CBL 3' Travel Time
AMP3.mV                       : CBL 3' Amplitude
~Parameter Information Block
~A  Depth        GR         CCL         TT3         AMP3    
# ...
   825.5000    108.3003      0.0000    783.6482      7.3882
   825.7500    111.5821      0.0000    782.9979      7.6489
   826.0000    113.9505      0.0000    781.1472      7.9126
   826.2500    116.0020      0.0000    778.3263      8.1415
   826.5000    118.5259      0.0000    774.4714      8.2922
   826.7500    121.2444      0.0000    770.1389      8.3468
   827.0000    122.9959      0.0000    766.4697      8.3371
   827.2500    123.0500      0.0000    763.5845      8.3316
   827.5000    121.9853      0.0000    758.7536      8.3865
   827.7500    121.4052      0.0000    747.3131      8.5100
   828.0000    122.9361      0.0000    727.3519      8.6713
   828.2500    127.2007      0.0000    703.8447      8.8356
   828.5000    133.3094      0.0000    685.8880      8.9856
   828.7500    139.2733      0.0000    677.7101      9.1208
   829.0000    143.0672      0.0000    673.5477      9.2486
   829.2500    143.6443      0.0000    663.9695      9.3761
   829.5000    141.3425      0.0000    647.7983      9.5082
   829.7500    137.3796      0.0000    635.9569      9.6473
   830.0000    132.6934      0.0000    641.2133      9.7870
   830.2500    127.3172      0.0000    663.9719      9.9006
   830.5000    121.1684      0.0000    690.5444      9.9463
   830.7500    115.0805      0.0000    705.8058      9.8975
   831.0000    110.4094      0.0000    705.7556      9.7711
   831.2500    107.7974      0.0000    698.2789      9.6234
   831.5000    106.8653      0.0000    694.2317      9.5176
   831.7500    106.9893      0.0000    697.9369      9.4895
   832.0000    107.9210      0.0000    704.6525      9.5349
   832.2500    109.6166      0.0000    707.0812      9.6196
   832.5000    111.8005      0.0000    704.7151      9.6977
   832.7500    114.0449      0.0000    705.1492      9.7273
   833.0000    116.3827      0.0000    715.1581      9.6839
   833.2500    119.4463      0.0000    732.8561      9.5739
   833.5000    123.4810      0.0000    750.1324      9.4402
   833.7500    127.3604      0.0000    760.3905      9.3413
   834.0000    129.1393      0.0000    762.4596      9.3105
   834.2500    127.7917      0.0000    759.3582      9.3324
   834.5000    124.1358      0.0000    755.3976      9.3628
   834.7500    119.9948      0.0000    753.7040      9.3679
   835.0000    116.7484      0.0000    755.0760      9.3426
   835.2500    114.7866      0.0000    758.3935      9.3026
   835.5000    114.0051      0.0000    761.6472      9.2706
   835.7500    114.5426      0.0000    762.6264      9.2662
   836.0000    117.0633      0.0000    759.7630      9.2976
   836.2500    122.2888      0.0000    753.2263      9.3562
   836.5000    129.9627      0.0000    745.0096      9.4169
   836.7500    138.1698      0.0000    737.3354      9.4431
   837.0000    144.0834      0.0000    731.1119      9.3985
   837.2500    145.9349      0.0000    726.2020      9.2712
   837.5000    144.2950      0.0000    722.6315      9.0897
   837.7500    141.0510      0.0000    720.8456      8.9099
   838.0000    137.2963      0.0000    720.6605      8.7833
   838.2500    132.7714      0.0000    720.4865      8.7340
   838.5000    127.1124      0.0000    718.4228      8.7534
   838.7500    120.7720      0.0000    714.4160      8.8048
   839.0000    114.6367      0.0000    710.8985      8.8398
   839.2500    109.5272      0.0000    711.1002      8.8280
   839.5000    106.3356      0.0000    716.6396      8.7799
   839.7500    106.0374      0.0000    725.9811      8.7393
   840.0000    109.0660      0.0000    734.8722      8.7467
   840.2500    114.8804      0.0000    739.3907      8.8041
   840.5000    122.3624      0.0000    739.5748      8.8753
   840.7500    130.2107      0.0000    739.5281      8.9206
   841.0000    136.5768      0.0000    743.3693      8.9293
   841.2500    138.9340      0.0000    751.5125      8.9205
   841.5000    135.4572      0.0000    760.9846      8.9166
   841.7500    126.7736      0.0000    768.3472      8.9219
   842.0000    115.6314      0.0000    771.8185      8.9223
   842.2500    104.7566      0.0000    771.4758      8.9026
   842.5000     95.6334      0.0000    768.5469      8.8675
   842.7500     88.8117      0.0000    764.6620      8.8424
   843.0000     84.2085      0.0000    761.2618      8.8539
   843.2500     81.1589      0.0000    759.1223      8.9070
   843.5000     78.9890      0.0000    758.0699      8.9684
   843.7500     77.7510      0.0000    757.2488      8.9647
   844.0000     78.3413      0.0000    756.0001      8.8084
   844.2500     82.1268      0.0000    754.2690      8.4521
   844.5000     90.3460      0.0000    751.8480      7.9287
   844.7500    103.0892      0.0000    747.9320      7.3340
   845.0000    118.2269      0.0000    742.2518      6.7564
   845.2500    131.5683      0.0000    736.4019      6.2148
   845.5000    138.7362      0.0000    733.5533      5.6648
   845.7500    137.3296      0.0000    736.5318      5.0594
   846.0000    127.7222      0.0000    745.7010      4.3938
   846.2500    112.4572      0.0000    758.5060      3.6963
   846.5000     95.2598      0.0000    770.8317      2.9919
   846.7500     80.0182      0.0000    778.2555      2.2878
   847.0000     69.5632      0.0000    776.7802      1.5898
   847.2500     64.5672      0.0000    764.7700      0.9272
   847.5000     63.4464      0.0000    745.3290      0.3602
   847.7500     63.5981      0.0000    725.1656     -0.0407
   848.0000     63.1366      0.0000    709.5267     -0.2371
   848.2500     61.8120      0.0000    698.6152     -0.2624
   848.5000     60.4975      0.0000    689.5417     -0.2211
   848.7500     59.8631      0.0000    681.1561     -0.2244
   849.0000     59.5048      0.0000    676.0527     -0.3119
   849.2500     58.3499      0.0000    678.0049     -0.4381
   849.5000     55.9482      0.0000    688.2890     -0.5323
   849.7500     53.3288      0.0000    704.5679     -0.5610
   850.0000     52.4130      0.0000    722.4665     -0.5314
   850.2500     54.5145      0.0000    738.1882     -0.4541
   850.5000     59.4961      0.0000    750.8361     -0.3235
   850.7500     66.2532      0.0000    762.6726     -0.1478
   851.0000     73.7808      0.0000    775.8212      0.0114
   851.2500     81.7305      0.0000    788.0263      0.0718
   851.5000     90.0005      0.0000    793.1217      0.0235
   851.7500     97.8720      0.0000    786.6095     -0.0368
   852.0000    103.8148      0.0000    769.7273      0.0073
   852.2500    106.3999      0.0000    747.9713      0.1967
   852.5000    105.3924      0.0000    727.3185      0.4946
   852.7500    101.8237      0.0000    711.9183      0.8415
   853.0000     97.0441      0.0000    703.3040      1.1785
   853.2500     91.9518      0.0000    700.3268      1.4312
   853.5000     87.2205      0.0000    699.9891      1.5113
   853.7500     83.7742      0.0000    699.3763      1.3704
   854.0000     82.4486      0.0000    697.8639      1.0557
   854.2500     83.2305      0.0000    697.7298      0.6941
   854.5000     85.1329      0.0000    701.9681      0.4060
   854.7500     86.8251      0.0000    710.9640      0.2318
   855.0000     87.4089      0.0000    721.4935      0.1381
   855.2500     86.8387      0.0000    729.1294      0.0777
   855.5000     85.8254      0.0000    731.1223      0.0316
   855.7500     85.4492      0.0000    726.7200     -0.0012
   856.0000     86.6615      0.0000    716.0623     -0.0324
   856.2500     89.5821      0.0000    700.5045     -0.0846
   856.5000     93.0407      0.0000    683.9153     -0.1555
   856.7500     95.3740      0.0000    672.3640     -0.1876
   857.0000     96.1505      0.0000    671.5121     -0.0839
   857.2500     96.8932      0.0000    683.2611      0.2305
   857.5000     99.8360      0.0000    703.7502      0.7459
   857.7500    105.9315      0.0000    724.5031      1.3658
   858.0000    113.8840      0.0000    736.8481      1.9713
   858.2500    120.8233      0.0000    736.7965      2.4926
   858.5000    124.0099      0.0000    726.6213      2.9171
   858.7500    122.3721      0.0000    712.2000      3.2400
