~Version Information
VERS.                      2.0: CWLS Log ASCII Standard - VERSION 2.0
WRAP.                       NO: One line per depth step
~Well Information Block
STRT.FT               892.0000: 
STOP.FT              2094.0000: 
STEP.FT                 0.1000: 
NULL.                -999.2500: 
COMP.          Pioneer Natural Resources: COMPANY
WELL.          Greenwood 43-29 Tr: WELL
FLD.           Purgatoire River: FIELD
LOC.           1478' FSL & 744' FEL: LOCATION
STAT.                 Colorado: State
CNTY.               Las Animas: COUNTY
CTRY. USA : Country
SECT. 29 : Section
TOWN. 32S : Township
RANG. 67W : Range
SRVC.                Patterson: SERVICE COMPANY
DATE.          Wed Aug 31 10:39:20 2005: LOG DATE
API.           05 071 08478 00: UNIQUE WELL ID
~Curve Information Block
DEPT.FT            0 000 00 00: Depth
DCAL.in                       : CDL Caliper
RHOB.g/cc                     : CDL Bulk Density
RHOC.g/cc                     : CDL Density Correction
DPOR.pu                       : CDL Density Porosity
GR.GAPI                       : Gamma Ray
NPOR.pu                       : Neutron Porosity
~Parameter Information Block
~A  Depth       DCAL        RHOB        RHOC        DPOR         GR         NPOR    
# ...
  1765.6000      8.8613      2.3974      0.3972     15.3070    130.4875     29.6094
  1765.7000      8.8613      2.3462      0.2446     18.4107    128.0233     29.9799
  1765.8000      9.1928      2.2620      0.1996     23.5138    128.9746     30.8265
  1765.9000      9.1928      2.1794      0.2086     28.5219    128.1066     31.4073
  1766.0000      9.2309      2.1130      0.1896     32.5442    124.5813     31.1346
  1766.1000      9.2309      2.0676      0.2270     35.2948    122.4729     30.3215
  1766.2000      9.2309      2.0468      0.1614     36.5588    125.0475     30.0847
  1766.3000      9.2784      2.0537      0.1830     36.1385    130.1684     31.0502
  1766.4000      9.2784      2.0785      0.2310     34.6373    135.5789     32.0562
  1766.5000      9.3416      2.1000      0.2415     33.3356    139.5897     31.8430
  1766.6000      9.3416      2.0960      0.3503     33.5786    140.0110     31.1083
  1766.7000      9.3416      2.0459      0.3175     36.6140    133.6075     31.0851
  1766.8000      9.3719      1.9508      0.2614     42.3728    121.3684     31.7390
  1766.9000      9.3719      1.8288      0.2153     49.7686    111.7229     32.2649
  1767.0000      9.4905      1.7019      0.1296     57.4632    107.8443     32.2819
  1767.1000      9.4905      1.5977      0.0599     63.7787    103.9166     32.0118
  1767.2000      9.4905      1.5318      0.0269     67.7703     97.1391     31.7152
  1767.3000      9.3932      1.5030      0.0114     69.5151     89.4749     31.7016
  1767.4000      9.3932      1.5089     -0.0072     69.1573     84.6308     32.3103
  1767.5000      8.7475      1.5409      0.0840     67.2156     84.6714     33.3761
  1767.6000      8.7475      1.5786      0.0998     64.9319     85.4689     34.3370
  1767.7000      8.7475      1.6098      0.1286     63.0452     83.9522     34.8841
  1767.8000      8.5385      1.6381      0.1599     61.3269     83.3871     35.1086
  1767.9000      8.5385      1.6758      0.0902     59.0454     87.6976     34.9493
  1768.0000      8.6499      1.7268      0.1019     55.9526     95.7993     34.1520
  1768.1000      8.6499      1.7795      0.1151     52.7569    104.4025     33.0781
  1768.2000      8.6499      1.8297      0.1132     49.7142    109.0706     32.4907
  1768.3000      8.6806      1.8876      0.1287     46.2079    106.5758     32.5125
  1768.4000      8.6806      1.9631      0.1159     41.6299    102.8932     32.7624
  1768.5000      8.3110      2.0579      0.1674     35.8827    103.7543     33.0792
  1768.6000      8.3110      2.1598      0.2330     29.7092    104.1927     33.6383
  1768.7000      8.3110      2.2561      0.2568     23.8708    102.4807     33.7702
  1768.8000      8.2488      2.3459      0.2589     18.4276    100.8993     32.8410
  1768.9000      8.2488      2.4151      0.2472     14.2386     99.4587     31.7965
  1769.0000      8.2701      2.4389      0.2001     12.7947    101.4364     31.5596
  1769.1000      8.2701      2.4142      0.2123     14.2921    110.0859     31.5877
  1769.2000      8.2701      2.3525      0.1639     18.0288    119.0269     31.0407
  1769.3000      8.3751      2.2657      0.1819     23.2892    122.2112     30.1683
  1769.4000      8.3751      2.1626      0.1068     29.5392    121.1172     29.8153
  1769.5000      8.4965      2.0486      0.0074     36.4479    118.6975     30.0966
  1769.6000      8.4965      1.9276     -0.0280     43.7827    118.8669     30.3883
  1769.7000      8.4965      1.8087      0.0030     50.9864    123.0981     30.7138
  1769.8000      8.6113      1.7170     -0.0044     56.5443    126.0732     31.2824
  1769.9000      8.6113      1.6873      0.0970     58.3442    126.9856     31.7033
  1770.0000      8.6449      1.7383      0.1547     55.2541    128.2786     31.6129
  1770.1000      8.6449      1.8629      0.2363     47.7041    125.1084     30.9458
  1770.2000      8.6449      2.0239      0.3152     37.9434    119.6623     30.2902
  1770.3000      8.6702      2.1662      0.3759     29.3186    119.4858     30.2056
  1770.4000      8.6702      2.2674      0.3725     23.1862    123.1741     30.4460
  1770.5000      8.7173      2.3568      0.3720     17.7684    123.8271     30.7431
  1770.6000      8.7173      2.4490      0.4286     12.1819    119.7654     31.2850
  1770.7000      8.7173      2.5055      0.4464      8.7547    117.3383     32.1773
  1770.8000      8.9212      2.5086      0.3059      8.5727    119.9660     33.0165
  1770.9000      8.9212      2.5034      0.2022      8.8825    124.4048     33.1425
  1771.0000      9.0709      2.5248      0.2451      7.5872    125.3180     32.3185
  1771.1000      9.0709      2.5465      0.2049      6.2748    118.3565     30.9418
  1771.2000      9.0709      2.5359      0.1168      6.9150    108.5828     29.7210
  1771.3000      8.8899      2.5054      0.0353      8.7641    106.8857     29.0609
  1771.4000      8.8899      2.4887      0.0205      9.7758    113.6620     28.8360
  1771.5000      8.4726      2.4955      0.1051      9.3648    122.1513     29.1990
  1771.6000      8.4726      2.5082      0.0653      8.5914    125.8999     30.0024
  1771.7000      8.4726      2.5174      0.0943      8.0391    122.5771     30.2968
  1771.8000      8.2881      2.5253      0.1685      7.5548    120.0278     29.5584
  1771.9000      8.2881      2.5300      0.1884      7.2739    122.1515     28.1013
  1772.0000      8.1906      2.5277      0.1614      7.4127    124.4329     26.9786
  1772.1000      8.1906      2.5254      0.1251      7.5531    127.2001     27.2361
  1772.2000      8.1906      2.5370      0.1065      6.8505    130.3232     28.4590
  1772.3000      8.1250      2.5585      0.1810      5.5438    129.7261     29.3557
  1772.4000      8.1250      2.5691      0.1477      4.9001    126.2957     29.4267
  1772.5000      8.0971      2.5629      0.1507      5.2801    121.7558     29.0433
  1772.6000      8.0971      2.5512      0.1211      5.9898    116.6527     28.8548
  1772.7000      8.0971      2.5406      0.1455      6.6315    114.7740     28.8893
  1772.8000      8.1263      2.5311      0.0681      7.2042    119.2505     28.5297
  1772.9000      8.1263      2.5263      0.1035      7.4941    129.4965     27.8124
  1773.0000      8.0811      2.5181      0.1340      7.9932    140.7527     27.3127
  1773.1000      8.0811      2.4996      0.0913      9.1156    144.7584     27.2322
  1773.2000      8.0811      2.4875      0.0481      9.8471    136.8445     27.5865
  1773.3000      8.1185      2.4943      0.1120      9.4365    125.3399     28.4632
  1773.4000      8.1185      2.5079      0.1276      8.6135    120.0700     29.2538
  1773.5000      8.1656      2.5137      0.1275      8.2634    122.7458     29.0327
  1773.6000      8.1656      2.5088      0.1043      8.5555    129.8893     28.5731
  1773.7000      8.1656      2.4942      0.1288      9.4433    134.7823     28.9359
  1773.8000      8.1164      2.4742      0.0864     10.6548    135.1214     29.0374
  1773.9000      8.1164      2.4653      0.0912     11.1938    132.7934     28.1388
  1774.0000      8.0211      2.4751      0.1165     10.5970    127.8870     27.7119
  1774.1000      8.0211      2.4876      0.1376      9.8404    121.7190     28.6523
  1774.2000      8.0211      2.4923      0.0810      9.5556    116.5786     29.8657
  1774.3000      7.9862      2.4921      0.1332      9.5720    113.6507     30.0333
  1774.4000      7.9862      2.4824      0.0883     10.1562    116.2459     29.0616
  1774.5000      8.0257      2.4614      0.0616     11.4300    123.4830     27.9192
  1774.6000      8.0257      2.4370      0.0436     12.9084    127.2383     27.3610
  1774.7000      8.0257      2.4155      0.0802     14.2100    123.7646     27.5561
  1774.8000      8.0500      2.4024      0.0271     15.0038    117.7086     28.0722
  1774.9000      8.0500      2.4081      0.0210     14.6600    118.0591     28.3492
  1775.0000      8.1201      2.4348      0.0399     13.0447    126.6380     28.0805
  1775.1000      8.1201      2.4693      0.1071     10.9534    134.9285     27.2355
