~Version Information
 VERS.                                  2.0 : CWLS LAS VERSION
 WRAP.                                   NO : WRAPING MODE
 SWARE .                 MController 2.5.0J : SOFTWARE VERSION
~Well Information
 WELL.                     McDonald 33-31 R : WELL
 COMP.  Pioneer Natural Resources USA, Inc. : COMPANY
 FLD.                      Purgatoire River : FIELD
 LOC.                NW/SE Sec 31 T32S R66W : LOCATION
 DATE.                             09/22/05 : DATE(S) LOGGED
 SRVC.       BLANCO Geological Services LLC : SERVICE COMPANY
 STAT.                                   CO : STATE
 CNTY.                           Las Animas : COUNTY
 CTRY.                                  USA : COUNTRY
 API.                       05-071-08533-00 : API NUMBER
 STRT.FT                             377.00 : START DEPTH
 STOP.FT                            2310.00 : STOP DEPTH
 STEP.FT                               1.00 : DEPTH INCREMENT
 NULL.                                -9999 : NULL VALUE
~Curve information
 DEPTH.FT                                   :
 ROP.MIN/FT                                 :
 GAS.UNITS                                  :
~ASCII Log data
# ...
      1977.0         0.23         12.4 
      1978.0         0.30         11.1 
      1979.0         0.30         10.3 
      1980.0         3.65        422.2 
      1981.0         0.33        360.6 
      1982.0         0.40        333.8 
      1983.0         0.37        315.1 
      1984.0         0.23        279.5 
      1985.0         0.23        258.4 
      1986.0         0.28        240.2 
      1987.0         0.27        211.7 
      1988.0         0.27        168.1 
      1989.0         0.30        122.5 
      1990.0         0.40         81.0 
      1991.0         0.40         47.3 
      1992.0         0.37         29.5 
      1993.0         0.33         21.0 
      1994.0         0.43         16.1 
      1995.0         0.30         11.9 
      1996.0         0.38         10.0 
      1997.0         0.37          9.3 
      1998.0         0.37          8.6 
      1999.0         0.27          8.0 
      2000.0         0.40          8.4 
      2001.0         0.33          8.2 
      2002.0         0.27          8.2 
      2003.0         0.33          8.5 
      2004.0         0.37          8.1 
      2005.0         0.58          8.4 
      2006.0         0.43          8.3 
      2007.0         0.30          8.2 
      2008.0         0.33          8.3 
      2009.0         0.27          8.3 
      2010.0         3.92          9.6 
      2011.0         0.33          9.3 
      2012.0         0.40          9.5 
      2013.0         0.52          7.6 
      2014.0         0.37         31.6 
      2015.0         0.40         76.0 
      2016.0         0.47        114.4 
      2017.0         0.43        127.9 
      2018.0         0.20        136.7 
      2019.0         0.17        143.9 
      2020.0         0.20        150.1 
      2021.0         0.27        153.8 
      2022.0         0.28        154.0 
      2023.0         0.27        151.5 
      2024.0         0.27        147.5 
      2025.0         0.30        143.2 
      2026.0         0.27        139.2 
      2027.0         0.23        137.2 
      2028.0         0.30        135.3 
      2029.0         0.23        133.0 
      2030.0         0.20        130.0 
      2031.0         0.20        133.7 
      2032.0         0.13        141.3 
      2033.0         0.20        151.4 
      2034.0         0.25        157.4 
      2035.0         0.27        157.6 
      2036.0         0.33        156.1 
      2037.0         0.23        151.5 
      2038.0         0.23        128.6 
      2039.0         0.23         95.6 
      2040.0         4.25       1395.7 
      2041.0         0.33        902.5 
      2042.0         0.23        767.3 
      2043.0         0.23        687.6 
      2044.0         0.22        623.8 
      2045.0         0.50        555.6 
      2046.0         0.57        440.0 
      2047.0         0.53        197.2 
      2048.0         0.43        177.2 
      2049.0         0.40        165.6 
      2050.0         0.33        157.2 
      2051.0         0.23        155.3 
      2052.0         0.28        154.0 
      2053.0         0.33        148.2 
      2054.0         0.27        142.8 
      2055.0         0.23        140.4 
      2056.0         0.30        139.1 
      2057.0         0.33        135.8 
      2058.0         0.33        132.0 
      2059.0         0.33        130.7 
      2060.0         0.30        130.3 
      2061.0         0.30        130.0 
      2062.0         0.27        130.2 
      2063.0         0.32        130.5 
      2064.0         0.30        130.3 
      2065.0         0.33        129.0 
      2066.0         0.17        120.9 
      2067.0         0.27        111.5 
      2068.0         0.37         92.8 
      2069.0         0.33         64.5 
      2070.0         4.18        315.6 
      2071.0         0.40        275.3 
      2072.0         0.35        275.5 
      2073.0         0.23        264.8 
      2074.0         0.30        253.1 
      2075.0         0.33        233.0 
      2076.0         0.33        212.2 
      2077.0         0.27        196.7 
      2078.0         0.23        188.2 
      2079.0         0.27        181.6 
      2080.0         0.33        171.6 
      2081.0         0.40        158.4 
      2082.0         0.38        147.6 
      2083.0         0.30        143.6 
      2084.0         0.37        141.7 
      2085.0         0.33        139.0 
      2086.0         0.30        137.6 
      2087.0         0.30        133.9 
      2088.0         9.95        140.4 
      2089.0         0.43        159.2 
      2090.0         0.47        179.3 
      2091.0         0.58        181.3 
      2092.0         0.57        167.0 
      2093.0         0.60        144.5 
      2094.0         0.57        137.6 
      2095.0         0.43        140.4 
      2096.0         0.37        141.1 
      2097.0         0.33        139.2 
      2098.0         0.37        130.4 
      2099.0         0.35         82.3 
      2100.0         4.32        293.2 
      2101.0         0.40        283.9 
      2102.0         0.57        277.9 
      2103.0         0.47        267.9 
      2104.0         0.45        238.3 
      2105.0         0.47        207.3 
      2106.0         0.37        177.4 
      2107.0         0.37        159.1 
      2108.0         0.30        149.9 
      2109.0         0.50        168.1 
      2110.0         1.25        197.6 
      2111.0         0.63        170.6 
      2112.0         0.47        170.8 
      2113.0         0.20        152.0 
      2114.0         0.23        141.5 
      2115.0         0.23        136.7 
      2116.0         0.23        134.7 
      2117.0         0.27        139.1 
      2118.0         0.47        152.7 
      2119.0         0.38        161.1 
      2120.0         0.43        165.7 
      2121.0         0.37        165.0 
      2122.0         0.30        158.0 
      2123.0         0.40        155.5 
      2124.0         0.20        150.6 
      2125.0         0.23        145.4 
      2126.0         0.13        142.8 
      2127.0         0.27        149.6 
      2128.0         0.43        161.6 
      2129.0         0.45        162.4 
      2130.0         5.05        315.6 
      2131.0         0.68        295.7 
      2132.0         0.57        287.3 
      2133.0         0.43        254.9 
      2134.0         0.43        246.3 
      2135.0         0.37        245.9 
      2136.0         0.27        235.3 
      2137.0         0.30        218.7 
      2138.0         0.50        203.3 
      2139.0         0.48        184.2 
      2140.0         0.47        163.0 
      2141.0         0.33        152.9 
      2142.0         0.33        147.7 
      2143.0         0.33        144.8 
      2144.0         0.33        144.6 
      2145.0         0.33        144.2 
      2146.0         0.27        142.4 
      2147.0         0.30        140.7 
      2148.0         0.25        139.0 
      2149.0         0.27        136.9 
      2150.0         0.27        133.7 
      2151.0         0.20        129.2 
      2152.0         0.53        139.2 
      2153.0         0.40        147.6 
      2154.0         0.37        150.9 
      2155.0         0.43        151.1 
      2156.0         0.40        149.9 
      2157.0         0.42        147.9 
      2158.0         0.43        145.3 
      2159.0         0.47        143.2 
      2160.0         4.12        875.8 
      2161.0         0.43        703.5 
      2162.0         0.37        582.2 
      2163.0         0.37        503.8 
      2164.0         0.30        440.0 
      2165.0         0.35        228.3 
      2166.0         0.37        210.3 
      2167.0         0.40        202.5 
      2168.0         0.43        194.3 
      2169.0         0.33        178.4 
      2170.0         0.43        172.3 
      2171.0         0.43        163.6 
      2172.0         0.53        155.9 
      2173.0         0.42        148.2 
      2174.0         0.40        143.7 
      2175.0         0.40        143.7 
      2176.0         0.43        143.6 
