~Version Information
VERS.                      2.0: CWLS Log ASCII Standard - VERSION 2.0
WRAP.                       NO: One line per depth step
~Well Information Block
STRT.FT               545.0000: 
STOP.FT              2200.7000: 
STEP.FT                 0.1000: 
NULL.                -999.2500: 
COMP.          Pioneer Natural Resources: COMPANY
WELL.               Erin 21-15: WELL
FLD.           Purgatoire River: FIELD
LOC.           1217' FNL & 2284' FWL--: LOCATION
CNTY.               Las Animas: COUNTY
SRVC.                Patterson: SERVICE COMPANY
DATE.          Thu Mar 02 09:55:43 2006: LOG DATE
UWI.           05 071 08713 00: UNIQUE WELL ID
STAT.                 Colorado: STATE
~Curve Information Block
DEPT.FT            0 000 00 00: Depth
DCAL.in                       : CDL Caliper
RHOB.g/cc                     : CDL Bulk Density
RHOC.g/cc                     : CDL Density Correction
DPOR.pu                       : CDL Density Porosity
NPOR.pu                       : Neutron Porosity
GR.GAPI                       : Gamma Ray
~Parameter Information Block
~A  Depth       DCAL        RHOB        RHOC        DPOR        NPOR         GR     
# ...
  2061.8000      8.0264      2.3279     -0.0502     19.5214     27.4368    115.8175
  2061.9000      8.0264      2.3094     -0.0597     20.6434     27.6950    126.8339
  2062.0000      8.0379      2.3189     -0.0230     20.0642     27.7922    130.3857
  2062.1000      8.0379      2.3470      0.0275     18.3652     27.9629    126.9327
  2062.2000      8.0379      2.3638      0.0533     17.3484     28.4086    123.8208
  2062.3000      8.0577      2.3516      0.0503     18.0866     28.9994    124.4063
  2062.4000      8.0577      2.3272      0.0121     19.5615     29.5851    122.2144
  2062.5000      8.0723      2.3012      0.1477     21.1398     30.0019    112.7988
  2062.6000      8.0723      2.2427      0.1614     24.6872     30.1432    105.3683
  2062.7000      8.0723      2.1364      0.1105     31.1292     30.4753    105.9023
  2062.8000      8.0862      2.0153      0.0518     38.4695     31.2614    107.2014
  2062.9000      8.0862      1.9052      0.0719     45.1404     32.1447    101.7518
  2063.0000      8.1058      1.7920     -0.0490     52.0013     33.0875     89.5222
  2063.1000      8.1058      1.6631     -0.0834     59.8144     34.0907     75.6012
  2063.2000      8.1058      1.5447     -0.1744     66.9881     34.5140     67.4745
  2063.3000      8.1215      1.4750     -0.1465     71.2109     34.0761     64.7644
  2063.4000      8.1215      1.4453     -0.0426     73.0115     33.3975     59.5238
  2063.5000      8.1588      1.4221     -0.0267     74.4179     33.0832     51.9044
  2063.6000      8.1588      1.4067     -0.0157     75.3499     33.0874     47.6269
  2063.7000      8.1588      1.4137      0.0310     74.9299     33.2159     49.8096
  2063.8000      8.2882      1.4342      0.0693     73.6844     33.4103     53.8727
  2063.9000      8.2882      1.4543      0.0877     72.4665     33.5259     53.5192
  2064.0000      8.5253      1.4744      0.0684     71.2461     33.2841     53.6924
  2064.1000      8.5253      1.4982      0.0924     69.8070     32.6981     58.5975
  2064.2000      8.5253      1.5230      0.0792     68.3010     32.2490     61.9641
  2064.3000      8.7146      1.5521      0.0951     66.5408     32.1706     59.4464
  2064.4000      8.7146      1.5987      0.0754     63.7170     32.2376     54.7795
  2064.5000      8.6428      1.6692      0.1153     59.4425     32.3014     54.1366
  2064.6000      8.6428      1.7472      0.1666     54.7150     32.3956     59.5153
  2064.7000      8.6428      1.8205      0.1712     50.2717     32.5380     66.3319
  2064.8000      8.3932      1.9082      0.1652     44.9574     32.5434     71.4820
  2064.9000      8.3932      2.0166      0.2186     38.3879     32.2059     78.6016
  2065.0000      8.2933      2.1025      0.2302     33.1846     31.6261     90.3304
  2065.1000      8.2933      2.1325      0.1871     31.3647     31.2232    104.3590
  2065.2000      8.2933      2.1355      0.1301     31.1846     31.3256    115.1514
  2065.3000      8.3911      2.1576      0.1390     29.8408     31.6236    120.2409
  2065.4000      8.3911      2.2066      0.1631     26.8710     31.4578    120.4927
  2065.5000      8.5221      2.2583      0.1727     23.7411     31.0282    117.0612
  2065.6000      8.5221      2.2903      0.2074     21.7983     30.9653    116.4149
  2065.7000      8.5221      2.2985      0.2228     21.3053     30.9043    122.4698
  2065.8000      8.5700      2.2910      0.2174     21.7595     30.3621    130.0731
  2065.9000      8.5700      2.2772      0.1976     22.5955     29.9103    134.1454
  2066.0000      8.5061      2.2647      0.2297     23.3486     30.1751    134.1812
  2066.1000      8.5061      2.2659      0.2032     23.2784     30.7778    129.8140
  2066.2000      8.5061      2.2924      0.2113     21.6703     31.0468    123.6862
  2066.3000      8.4251      2.3283      0.2555     19.4967     30.9351    120.1671
  2066.4000      8.4251      2.3436      0.1932     18.5718     30.7168    118.5445
  2066.5000      8.3753      2.3407      0.1660     18.7449     30.4789    115.3545
  2066.6000      8.3753      2.3434      0.1913     18.5806     30.1025    109.9530
  2066.7000      8.3753      2.3630      0.1905     17.3927     29.5696    107.7645
  2066.8000      8.3089      2.3963      0.2466     15.3785     29.2066    110.4194
  2066.9000      8.3089      2.4319      0.2782     13.2178     29.2108    112.8093
  2067.0000      8.1982      2.4600      0.2564     11.5162     29.3114    114.3377
  2067.1000      8.1982      2.4729      0.2659     10.7313     29.2435    118.0366
  2067.2000      8.1982      2.4689      0.1973     10.9782     28.9011    122.2673
  2067.3000      8.0884      2.4656      0.1046     11.1760     28.2513    124.3625
  2067.4000      8.0884      2.4788      0.0951     10.3736     27.6282    125.1693
  2067.5000      8.0252      2.4972      0.1214      9.2622     27.3486    126.6635
  2067.6000      8.0252      2.5085      0.0838      8.5770     27.3068    130.4083
  2067.7000      8.0252      2.5203      0.0832      7.8609     27.2979    135.4917
  2067.8000      8.0043      2.5375      0.0694      6.8162     27.1074    135.1206
  2067.9000      8.0043      2.5517      0.0942      5.9589     26.7033    127.1082
  2068.0000      8.0002      2.5607      0.0526      5.4138     26.5473    118.8348
  2068.1000      8.0002      2.5734      0.0759      4.6427     26.8711    115.9938
  2068.2000      8.0002      2.5810      0.0799      4.1790     27.0874    116.8989
  2068.3000      7.9986      2.5657      0.0697      5.1114     27.0464    115.4217
  2068.4000      7.9986      2.5340      0.0160      7.0328     27.0598    110.7058
  2068.5000      7.9989      2.5094      0.0298      8.5234     27.0352    107.7827
  2068.6000      7.9989      2.5051     -0.0266      8.7795     26.8517    107.5628
  2068.7000      7.9989      2.5195      0.0206      7.9080     26.4901    109.9081
  2068.8000      8.0006      2.5338      0.0640      7.0402     25.9857    113.0165
  2068.9000      8.0006      2.5343     -0.0005      7.0097     25.7129    114.6507
  2069.0000      8.0012      2.5223      0.0425      7.7413     26.0818    116.8587
  2069.1000      8.0012      2.4973      0.0163      9.2533     26.7077    119.1529
  2069.2000      8.0012      2.4701     -0.0171     10.9008     26.9238    119.4600
  2069.3000      8.0006      2.4666     -0.0582     11.1151     26.9299    116.0754
  2069.4000      8.0006      2.4972      0.0272      9.2613     27.0670    112.9510
  2069.5000      8.0011      2.5361      0.0546      6.9026     27.2285    117.1714
  2069.6000      8.0011      2.5477      0.0754      6.2011     27.3706    123.3737
  2069.7000      8.0011      2.5263      0.0474      7.4977     27.5501    120.6177
  2069.8000      8.0035      2.4988     -0.0139      9.1640     27.6936    113.8578
  2069.9000      8.0035      2.4843      0.0165     10.0439     27.9589    112.9986
  2070.0000      8.0051      2.4762      0.0399     10.5341     28.6431    115.6732
  2070.1000      8.0051      2.4694      0.0157     10.9432     29.3595    117.3632
  2070.2000      8.0051      2.4685      0.0476     11.0012     29.3994    119.9729
  2070.3000      8.0037      2.4721      0.0356     10.7826     28.9993    121.1768
  2070.4000      8.0037      2.4769      0.0407     10.4937     28.7646    118.8031
  2070.5000      8.0015      2.4854      0.0364      9.9773     28.8313    119.6034
  2070.6000      8.0015      2.5015      0.0275      8.9976     29.0534    120.8811
  2070.7000      8.0015      2.5218      0.0538      7.7685     29.1736    114.7962
  2070.8000      7.9976      2.5321      0.1134      7.1459     28.9992    102.9330
  2070.9000      7.9976      2.5243      0.0693      7.6184     28.7338     91.3404
  2071.0000      7.9885      2.5103      0.0088      8.4672     28.6884     86.5388
  2071.1000      7.9885      2.4959      0.0527      9.3410     28.8169     90.6763
  2071.2000      7.9885      2.4815     -0.0096     10.2140     28.9915     98.6517
  2071.3000      7.9810      2.4765      0.0036     10.5137     29.2805    106.3149
