~Version Information
VERS.                      2.0: CWLS Log ASCII Standard - VERSION 2.0
WRAP.                       NO: One line per depth step
~Well Information Block
STRT.FT               588.7000: 
STOP.FT              1820.2000: 
STEP.FT                 0.1000: 
NULL.                -999.2500: 
COMP.          Pioneer Natural Resources: COMPANY
WELL.           Loews 41-32 Tr: WELL
FLD.           Purgatoire River: FIELD
LOC.           706' FNL & 224' FEL--: LOCATION
CNTY.               Las Animas: COUNTY
SRVC.                Patterson: SERVICE COMPANY
DATE.          Tue Feb 21 10:23:46 2006: LOG DATE
UWI.           05 071 08690 00: UNIQUE WELL ID
STAT.                 Colorado: STATE
~Curve Information Block
DEPT.FT            0 000 00 00: Depth
DCAL.in                       : CDL Caliper
RHOB.g/cc                     : CDL Bulk Density
RHOC.g/cc                     : CDL Density Correction
DPOR.pu                       : CDL Density Porosity
GR.GAPI                       : Gamma Ray
~Parameter Information Block
~A  Depth       DCAL        RHOB        RHOC        DPOR         GR     
# ...
  1316.7000      7.9607      2.4616      0.0140     11.4192     51.8057
  1316.8000      7.9637      2.4726      0.0335     10.7536     52.6125
  1316.9000      7.9637      2.4704      0.0824     10.8873     52.9450
  1317.0000      7.9627      2.4525     -0.0025     11.9691     54.8408
  1317.1000      7.9627      2.4316      0.0569     13.2361     55.2041
  1317.2000      7.9627      2.4120      0.0569     14.4251     52.5413
  1317.3000      7.9559      2.4068      0.0097     14.7403     50.1314
  1317.4000      7.9559      2.4299      0.0747     13.3401     50.8532
  1317.5000      7.9484      2.4663      0.1063     11.1361     53.6912
  1317.6000      7.9484      2.4916      0.1437      9.5997     54.9480
  1317.7000      7.9484      2.5023      0.1187      8.9496     53.8895
  1317.8000      7.9452      2.5152      0.1081      8.1683     52.3997
  1317.9000      7.9452      2.5351      0.1439      6.9638     51.8072
  1318.0000      7.9454      2.5378      0.1562      6.7973     53.7624
  1318.1000      7.9454      2.5173      0.0509      8.0454     57.9161
  1318.2000      7.9454      2.5026      0.0762      8.9354     60.4567
  1318.3000      7.9450      2.5046      0.0635      8.8107     58.0698
  1318.4000      7.9450      2.5057      0.0800      8.7473     52.5121
  1318.5000      7.9422      2.4942      0.0556      9.4398     49.0628
  1318.6000      7.9422      2.4785      0.0460     10.3944     48.9941
  1318.7000      7.9422      2.4682      0.0297     11.0185     50.4422
  1318.8000      7.9390      2.4621      0.0278     11.3892     53.2279
  1318.9000      7.9390      2.4503      0.0336     12.1057     57.1493
  1319.0000      7.9353      2.4319      0.0439     13.2188     59.8829
  1319.1000      7.9353      2.4283      0.0237     13.4387     59.0648
  1319.2000      7.9353      2.4549      0.0735     11.8267     55.5010
  1319.3000      7.9342      2.4967      0.1246      9.2914     51.6525
  1319.4000      7.9342      2.5326      0.1561      7.1179     49.1907
  1319.5000      7.9392      2.5570      0.1699      5.6379     49.0760
  1319.6000      7.9392      2.5741      0.1481      4.5998     50.0126
  1319.7000      7.9392      2.5818      0.1717      4.1352     51.4678
  1319.8000      7.9478      2.5723      0.1501      4.7083     54.5361
  1319.9000      7.9478      2.5552      0.0907      5.7465     57.7515
  1320.0000      7.9543      2.5477      0.0902      6.2016     58.0801
  1320.1000      7.9543      2.5431      0.1399      6.4793     55.2388
  1320.2000      7.9543      2.5301      0.0579      7.2679     52.4243
  1320.3000      7.9575      2.5221      0.0534      7.7545     51.8587
  1320.4000      7.9575      2.5319      0.0649      7.1546     53.0841
  1320.5000      7.9580      2.5557      0.0595      5.7172     54.8416
  1320.6000      7.9580      2.5768      0.0802      4.4368     54.5995
  1320.7000      7.9580      2.5731      0.0860      4.6626     50.4883
  1320.8000      7.9576      2.5451      0.0158      6.3564     44.9261
  1320.9000      7.9576      2.5207      0.0297      7.8381     42.0308
  1321.0000      7.9587      2.5132      0.0390      8.2884     42.5340
  1321.1000      7.9587      2.5107      0.0516      8.4415     44.6094
  1321.2000      7.9587      2.5037      0.0372      8.8690     47.9754
  1321.3000      7.9592      2.4954      0.0299      9.3693     52.2083
  1321.4000      7.9592      2.4904      0.0429      9.6735     56.3221
  1321.5000      7.9589      2.4927      0.0396      9.5325     60.5360
  1321.6000      7.9589      2.5083      0.0200      8.5865     64.6582
  1321.7000      7.9589      2.5327      0.0618      7.1070     68.3811
  1321.8000      7.9577      2.5477      0.0928      6.1984     72.7751
  1321.9000      7.9577      2.5444      0.0705      6.3993     76.8272
  1322.0000      7.9555      2.5316      0.0913      7.1734     76.3309
  1322.1000      7.9555      2.5211      0.0466      7.8151     70.9097
  1322.2000      7.9555      2.5168      0.0661      8.0744     66.3880
  1322.3000      7.9550      2.5110      0.0434      8.4262     65.5402
  1322.4000      7.9550      2.4972      0.1069      9.2628     66.3319
  1322.5000      7.9561      2.4767      0.0593     10.5029     66.3006
  1322.6000      7.9561      2.4613      0.0452     11.4384     63.7691
  1322.7000      7.9561      2.4626      0.0284     11.3604     61.4071
  1322.8000      7.9586      2.4727      0.0837     10.7482     62.3163
  1322.9000      7.9586      2.4789      0.0485     10.3691     63.2664
  1323.0000      7.9604      2.4846      0.0643     10.0263     61.0548
  1323.1000      7.9604      2.4894      0.0948      9.7311     59.3182
  1323.2000      7.9604      2.4912      0.0773      9.6217     62.0270
  1323.3000      7.9618      2.5005      0.0762      9.0623     66.2993
  1323.4000      7.9618      2.5221      0.0816      7.7503     65.3101
  1323.5000      7.9664      2.5422      0.1131      6.5335     60.0170
  1323.6000      7.9664      2.5452      0.0920      6.3539     56.7797
  1323.7000      7.9664      2.5338      0.0616      7.0418     55.4579
  1323.8000      7.9736      2.5215      0.0568      7.7906     53.3188
  1323.9000      7.9736      2.5156      0.0473      8.1465     52.6694
  1324.0000      7.9776      2.5208      0.0332      7.8308     55.8759
  1324.1000      7.9776      2.5343      0.0893      7.0142     60.4564
  1324.2000      7.9776      2.5400      0.0906      6.6690     63.8036
  1324.3000      7.9762      2.5378      0.0684      6.8000     64.0516
  1324.4000      7.9762      2.5508      0.0416      6.0120     60.7336
  1324.5000      7.9730      2.5879      0.0776      3.7629     57.5448
  1324.6000      7.9730      2.6309      0.0883      1.1567     57.2413
  1324.7000      7.9730      2.6571      0.1489     -0.4297     58.7628
  1324.8000      7.9726      2.6557      0.1356     -0.3428     60.6816
  1324.9000      7.9726      2.6403      0.0310      0.5858     61.9583
  1325.0000      7.9749      2.6308      0.0958      1.1665     59.9095
  1325.1000      7.9749      2.6224      0.0825      1.6703     54.1525
  1325.2000      7.9749      2.6087      0.0885      2.5049     50.1929
  1325.3000      7.9757      2.5930      0.0601      3.4540     51.5004
  1325.4000      7.9757      2.5780      0.0508      4.3661     56.2458
  1325.5000      7.9748      2.5676      0.0190      4.9925     60.6254
  1325.6000      7.9748      2.5642      0.0081      5.2003     62.9376
  1325.7000      7.9748      2.5581      0.0520      5.5694     64.9922
  1325.8000      7.9719      2.5429      0.0364      6.4916     67.5987
  1325.9000      7.9719      2.5311      0.0527      7.2061     70.6362
  1326.0000      7.9679      2.5388      0.0068      6.7383     73.7987
  1326.1000      7.9679      2.5669      0.0420      5.0373     75.8930
  1326.2000      7.9679      2.5987      0.0701      3.1064     75.3746
  1326.3000      7.9675      2.6199      0.0847      1.8233     72.9841
  1326.4000      7.9675      2.6246      0.1456      1.5378     73.3498
  1326.5000      7.9679      2.6087      0.1095      2.5031     78.4049
  1326.6000      7.9679      2.5786      0.0677      4.3301     86.4667
  1326.7000      7.9679      2.5472      0.0797      6.2314     95.9941
  1326.8000      7.9687      2.5177      0.0584      8.0190    104.2291
  1326.9000      7.9687      2.4838      0.0575     10.0708    108.8533
  1327.0000      7.9709      2.4507     -0.0429     12.0800    110.0450
  1327.1000      7.9709      2.4357     -0.0300     12.9866    112.3970
  1327.2000      7.9709      2.4413     -0.0025     12.6482    120.0186
  1327.3000      7.9749      2.4605      0.0076     11.4849    128.8878
  1327.4000      7.9749      2.4868      0.0462      9.8895    133.8986
  1327.5000      7.9865      2.4992      0.1123      9.1391    136.1104
  1327.6000      7.9865      2.4816      0.0664     10.2038    142.5434
  1327.7000      7.9865      2.4578      0.0269     11.6465    156.0195
  1327.8000      7.9996      2.4657      0.0281     11.1713    168.7905
