~Version Information
VERS.                      2.0: CWLS Log ASCII Standard - VERSION 2.0
WRAP.                       NO: One line per depth step
~Well Information Block
STRT.FT                -6.0000: 
STOP.FT              1295.2500: 
STEP.FT                 0.2500: 
NULL.                -999.2500: 
COMP.          Pioneer Natural Resources: COMPANY
WELL.            Erin 21-15 Tr: WELL
FLD.           Purgatoire River: FIELD
LOC.           1217' FNL & 2284' FWL--: LOCATION
CNTY.               Las Animas: COUNTY
SRVC.                         : SERVICE COMPANY
DATE.          Fri Mar 10 09:14:17 2006: LOG DATE
UWI.           05 071 08712 00: UNIQUE WELL ID
STAT.                       CO: STATE
~Curve Information Block
DEPT.FT            0 000 00 00: Depth
GR.GAPI                       : Gamma Ray
CCL.                          : Casing Collar Locator
TT3.usec                      : CBL 3' Travel Time
AMP3.mV                       : CBL 3' Amplitude
~Parameter Information Block
~A  Depth        GR         CCL         TT3         AMP3    
# ...
  1166.5000    125.1935      0.0000    713.5961      6.8720
  1166.7500    127.6840      0.0000    710.2068      6.9165
  1167.0000    131.9697      0.0000    708.3867      6.9398
  1167.2500    137.7610      0.0000    708.3760      6.9305
  1167.5000    142.8116      0.0000    709.4474      6.8898
  1167.7500    144.7560      0.0000    710.6366      6.8315
  1168.0000    143.3602      0.0000    711.4050      6.7742
  1168.2500    140.3576      0.0000    711.4127      6.7292
  1168.5000    137.2268      0.0000    710.1909      6.6935
  1168.7500    133.6386      0.0000    707.8411      6.6546
  1169.0000    127.9992      0.0000    705.8069      6.5975
  1169.2500    119.1089      0.0000    705.9617      6.5093
  1169.5000    107.3694      0.0000    708.7319      6.3813
  1169.7500     94.8412      0.0000    712.6674      6.2109
  1170.0000     84.1538      0.0000    715.9288      6.0023
  1170.2500     76.9440      0.0000    717.7263      5.7716
  1170.5000     72.9775      0.0000    718.4443      5.5495
  1170.7500     70.6398      0.0000    719.1013      5.3713
  1171.0000     68.2970      0.0000    721.1149      5.2556
  1171.2500     65.2299      0.0000    726.2604      5.1964
  1171.5000     61.4557      0.0000    735.9880      5.1752
  1171.7500     57.2274      0.0000    749.9796      5.1764
  1172.0000     53.1775      0.0000    765.3192      5.1915
  1172.2500     50.6039      0.0000    777.6394      5.2153
  1172.5000     50.8346      0.0000    783.3807      5.2428
  1172.7500     54.0910      0.0000    781.2311      5.2711
  1173.0000     59.3493      0.0000    772.5500      5.2983
  1173.2500     65.5013      0.0000    761.5806      5.3175
  1173.5000     72.4912      0.0000    754.6202      5.3148
  1173.7500     81.1833      0.0000    756.6434      5.2787
  1174.0000     92.1619      0.0000    766.9792      5.2095
  1174.2500    104.8091      0.0000    778.5654      5.1136
  1174.5000    117.4974      0.0000    782.7495      4.9965
  1174.7500    128.4458      0.0000    775.3733      4.8666
  1175.0000    136.2629      0.0000    758.7474      4.7443
  1175.2500    140.0182      0.0000    739.4279      4.6574
  1175.5000    139.4549      0.0000    724.8521      4.6253
  1175.7500    135.2859      0.0000    719.9459      4.6486
  1176.0000    128.6812      0.0000    724.4631      4.7147
  1176.2500    120.2584      0.0000    733.5775      4.8088
  1176.5000    110.1884      1.7221    742.3438      4.9217
  1176.7500     99.4202      0.0000    749.5369      5.0596
  1177.0000     89.8973      0.0000    755.9185      5.2447
  1177.2500     82.9961      0.0000    759.6236      5.4850
  1177.5000     78.3139      0.0000    756.4454      5.7280
  1177.7500     74.5227      0.0000    745.3058      5.8717
  1178.0000     70.9768      0.0000    730.7463      5.8510
  1178.2500     67.9055      0.0000    718.8312      5.6998
  1178.5000     65.3707      0.0000    712.1488      5.5118
  1178.7500     62.9068      0.0000    709.4210      5.3614
  1179.0000     60.2045      0.0000    708.5665      5.2735
  1179.2500     57.5399      0.0000    708.8029      5.2422
  1179.5000     55.4614      0.0000    710.0936      5.2515
  1179.7500     54.4660      0.0000    711.8293      5.2813
  1180.0000     54.9119      0.0000    712.9343      5.3092
  1180.2500     57.0006      0.0000    713.2681      5.3174
  1180.5000     60.9714      0.0000    714.7635      5.2996
  1180.7500     67.3284      0.0000    720.9803      5.2624
  1181.0000     76.3534      0.0000    734.6851      5.2205
  1181.2500     87.0077      0.0000    754.5396      5.1938
  1181.5000     96.5500      0.0000    773.6703      5.2101
  1181.7500    101.8479      0.0000    782.8245      5.3064
  1182.0000    101.3970      0.0000    777.1405      5.5197
  1182.2500     96.0002      0.0000    760.6351      5.8702
  1182.5000     87.6798      0.0000    743.1052      6.3448
  1182.7500     78.4789      0.0000    732.1066      6.8981
  1183.0000     70.2266      0.0000    728.4303      7.4721
  1183.2500     64.6184      0.0000    728.6923      8.0228
  1183.5000     62.9160      0.0000    730.0545      8.5318
  1183.7500     65.6156      0.0000    731.3828      8.9956
  1184.0000     72.3860      0.0000    731.6624      9.4042
  1184.2500     82.0002      0.0000    729.6696      9.7301
  1184.5000     92.2536      0.0000    725.3278      9.9362
  1184.7500    100.4202      0.0000    720.1630      9.9894
  1185.0000    104.4792      0.0000    715.9842      9.8661
  1185.2500    104.2946      0.0000    713.3880      9.5564
  1185.5000    101.5476      0.0000    711.7343      9.0785
  1185.7500     98.4387      0.0000    710.4503      8.4866
  1186.0000     96.3605      0.0000    709.8648      7.8571
  1186.2500     95.5089      0.0000    710.5320      7.2595
  1186.5000     95.3587      0.0000    712.2440      6.7386
  1186.7500     95.4909      0.0000    714.1981      6.3146
  1187.0000     96.1460      0.0000    715.8804      5.9912
  1187.2500     97.9609      0.0000    717.4421      5.7619
  1187.5000    101.3034      0.0000    719.4091      5.6158
  1187.7500    106.2632      0.0000    722.1494      5.5416
  1188.0000    113.0819      0.0000    725.2845      5.5297
  1188.2500    121.8455      0.0000    727.3567      5.5682
  1188.5000    131.6799      0.0000    726.4265      5.6379
  1188.7500    140.8577      0.0000    721.7368      5.7136
  1189.0000    147.9245      0.0000    715.0673      5.7793
  1189.2500    152.5512      0.0000    710.0288      5.8379
  1189.5000    155.3892      0.0000    709.4202      5.8995
  1189.7500    157.4364      0.0000    713.0786      5.9598
  1190.0000    159.5021      0.0000    718.3719      5.9969
  1190.2500    161.7539      0.0000    722.5954      5.9909
  1190.5000    163.4601      0.0000    724.6845      5.9435
  1190.7500    163.5170      0.0000    725.0408      5.8799
  1191.0000    161.5249      0.0000    724.5138      5.8306
  1191.2500    158.2723      0.0000    723.8156      5.8093
  1191.5000    155.0075      0.0000    723.5273      5.8058
  1191.7500    152.1195      0.0000    724.0590      5.8011
  1192.0000    148.6231      0.0000    725.1156      5.7911
  1192.2500    143.1574      0.0000    725.1619      5.7927
  1192.5000    135.4610      0.0000    722.0787      5.8285
  1192.7500    126.7187      0.0000    715.1595      5.9084
  1193.0000    118.4312      0.0000    706.3844      6.0247
  1193.2500    111.0383      0.0000    699.0792      6.1564
  1193.5000    103.9501      0.0000    695.3127      6.2733
  1193.7500     96.9916      0.0000    695.0557      6.3417
  1194.0000     91.2397      0.0000    697.4974      6.3358
  1194.2500     88.0097      0.0000    702.0195      6.2498
  1194.5000     87.4439      0.0000    707.5920      6.0996
  1194.7500     88.3913      0.0000    712.1742      5.9142
  1195.0000     89.1819      0.0000    713.4766      5.7235
  1195.2500     88.3254      0.0000    710.3326      5.5444
  1195.5000     85.0516      0.0000    703.5168      5.3744
  1195.7500     79.7289      0.0000    695.6064      5.1996
  1196.0000     73.6942      0.0000    689.8039      5.0099
  1196.2500     68.3572      0.0000    688.0749      4.8092
  1196.5000     64.3825      0.0000    689.7726      4.6171
  1196.7500     61.7595      0.0000    692.0735      4.4669
  1197.0000     60.4270      0.0000    692.2261      4.3925
  1197.2500     60.6089      0.0000    689.6718      4.4044
  1197.5000     62.7998      0.0000    685.9542      4.4788
  1197.7500     67.7773      0.0000    682.9220      4.5780
  1198.0000     76.6098      0.0000    681.6294      4.6848
  1198.2500     90.1073      0.0000    682.7252      4.8200
  1198.5000    107.6591      0.0000    686.8345      5.0281
  1198.7500    126.4010      0.0000    693.8627      5.3473
  1199.0000    141.7893      0.0000    702.2271      5.7847
  1199.2500    149.5465      0.0000    709.4044      6.3170
  1199.5000    147.8419      0.0000    713.4456      6.9097
  1199.7500    138.3719      0.0000    714.0417      7.5313
