~Version Information
 VERS.                                  2.0 : CWLS LAS VERSION
 WRAP.                                   NO : WRAPING MODE
 SWARE .                 MController 2.5.0N : SOFTWARE VERSION
~Well Information
 WELL.                        Hamburg 43-35 : WELL
 COMP.    Pioneer Natural Resouces USA Inc. : COMPANY
 FLD.                      Purgatoire River : FIELD
 LOC.            NE/SE Sec 35 , T34S, R65W  : LOCATION
 DATE.                             12/02/05 : DATE(S) LOGGED
 SRVC.       BLANCO Geological Services LLC : SERVICE COMPANY
 STAT.                                   CO : STATE
 CNTY.                           Las Animas : COUNTY
 CTRY.                                  USA : COUNTRY
 API.                       05-071-08607-00 : API NUMBER
 STRT.FT                             188.00 : START DEPTH
 STOP.FT                            1330.00 : STOP DEPTH
 STEP.FT                               1.00 : DEPTH INCREMENT
 NULL.                                -9999 : NULL VALUE
~Curve information
 DEPTH.FT                                   :
 ROP.MIN/FT                                 :
 GAS.UNITS                                  :
~ASCII Log data
       188.0     -9999.00          5.1 
       189.0         0.27          5.5 
       190.0         0.30          5.5 
       191.0         0.30         13.7 
       192.0         0.23         13.9 
       193.0         0.07         13.9 
       194.0         0.20         14.4 
       195.0         0.10         14.8 
       196.0         0.20         14.8 
       197.0         0.30         14.7 
       198.0         0.33         14.4 
       199.0         0.37         14.9 
       200.0         0.35         14.1 
       201.0         0.97         14.1 
       202.0         2.95         15.2 
       203.0         0.30         14.4 
       204.0         0.27         14.3 
       205.0         0.07         14.3 
       206.0         0.27         15.1 
       207.0         0.07         14.3 
       208.0         0.30         14.7 
       209.0         0.27         15.5 
       210.0         0.07         14.4 
       211.0         0.27         15.2 
       212.0         0.03         14.0 
       213.0         0.27         15.0 
       214.0         0.10         15.0 
       215.0         0.27         15.0 
       216.0         0.03         14.1 
       217.0         0.28         14.8 
       218.0         0.07         15.3 
       219.0         0.33         15.1 
       220.0         0.27         14.9 
       221.0         0.07         14.9 
       222.0         0.27         14.7 
       223.0         0.07         14.7 
       224.0         0.27         15.3 
       225.0         0.03         14.8 
       226.0         0.27         15.9 
       227.0         0.10         15.9 
       228.0         0.27         15.1 
       229.0         0.20         14.7 
       230.0         0.27         15.7 
       231.0         2.28         15.7 
       232.0         0.63         15.4 
       233.0         0.27         15.0 
       234.0         0.07         14.9 
       235.0         0.30         16.0 
       236.0         0.27         15.3 
       237.0         0.03         14.6 
       238.0         0.32         15.7 
       239.0         0.27         16.2 
       240.0         0.03         14.7 
       241.0         0.27         15.2 
       242.0         0.03         15.2 
       243.0         0.27         15.2 
       244.0         0.07         15.0 
       245.0         0.27         15.1 
       246.0         0.03         15.1 
       247.0         0.30         15.2 
       248.0         0.30         15.1 
       249.0         0.27         15.3 
       250.0         0.07         15.3 
       251.0         0.27         15.3 
       252.0         0.03         15.9 
       253.0         0.27         15.7 
       254.0         0.07         15.7 
       255.0         0.27         15.8 
       256.0         0.12         15.8 
       257.0         0.27         16.1 
       258.0         0.27         16.7 
       259.0         0.27         17.2 
       260.0         0.67         16.2 
       261.0         8.33         17.4 
       262.0         0.42         17.9 
       263.0         0.33         17.3 
       264.0         0.30         17.4 
       265.0         0.27         17.3 
       266.0         0.27         17.8 
       267.0         0.20         16.9 
       268.0         0.17         17.5 
       269.0         0.17         18.2 
       270.0         0.20         18.2 
       271.0         0.23         17.9 
       272.0         0.30         18.1 
       273.0         0.30         17.2 
       274.0         0.27         18.1 
       275.0         0.22         17.7 
       276.0         0.23         18.4 
       277.0         0.20         17.2 
       278.0         0.23         17.2 
       279.0         0.23         18.2 
       280.0         0.23         16.9 
       281.0         0.23         18.2 
       282.0         0.27         17.8 
       283.0         0.23         17.8 
       284.0         0.23         17.1 
       285.0         0.23         18.4 
       286.0         0.57         18.4 
       287.0         0.65         18.2 
       288.0         0.27         17.3 
       289.0         0.67         19.3 
       290.0         0.53         17.8 
       291.0         1.68         18.0 
       292.0         0.53         17.1 
       293.0         0.43         17.2 
       294.0         0.43         17.5 
       295.0         0.33         16.7 
       296.0         0.27         17.8 
       297.0         0.30         17.7 
       298.0         0.27         16.9 
       299.0         0.27         17.9 
       300.0         0.27         16.9 
       301.0         0.32         17.3 
       302.0         0.27         15.9 
       303.0         0.30         16.6 
       304.0         0.23         16.5 
       305.0         0.27         15.7 
       306.0         0.23         16.2 
       307.0         0.27         16.0 
       308.0         0.27         16.6 
       309.0         0.30         16.9 
       310.0         0.27         16.6 
       311.0         0.30         16.2 
       312.0         0.30         16.4 
       313.0         0.32         16.5 
       314.0         0.30         17.3 
       315.0         0.33         16.0 
       316.0         0.33         17.2 
       317.0         0.33         15.7 
       318.0         0.33         16.9 
       319.0         0.33         17.3 
       320.0         0.37         16.2 
       321.0         3.45         18.4 
       322.0         0.43         16.8 
       323.0         0.35         18.0 
       324.0         0.37         17.8 
       325.0         0.37         18.2 
       326.0         0.37         16.9 
       327.0         0.30         16.7 
       328.0         0.27         17.3 
       329.0         0.20         16.1 
       330.0         0.23         17.0 
       331.0         0.23         18.6 
       332.0         0.27         19.4 
       333.0         0.23         18.2 
       334.0         0.23         18.3 
       335.0         0.28         17.9 
       336.0         0.23         17.6 
       337.0         0.27         17.9 
       338.0         0.17         17.6 
       339.0         0.23         18.0 
       340.0         0.27         17.9 
       341.0         0.30         16.8 
       342.0         0.23         17.5 
       343.0         0.27         16.9 
       344.0         0.23         17.2 
       345.0         0.23         16.6 
       346.0         0.27         16.7 
       347.0         0.23         16.6 
       348.0         0.23         17.8 
       349.0         0.28         17.2 
       350.0         0.53         18.2 
       351.0         3.22         22.7 
       352.0         0.53         17.7 
       353.0         0.57         17.5 
       354.0         0.40         18.0 
       355.0         0.33         18.2 
       356.0         0.33         17.3 
       357.0         0.27         17.4 
       358.0         0.25         17.2 
       359.0         0.27         17.4 
       360.0         0.23         17.5 
       361.0         0.23         17.3 
       362.0         0.23         17.7 
       363.0         0.23         17.9 
       364.0         0.23         17.7 
       365.0         0.27         16.8 
       366.0         0.27         20.9 
       367.0         0.27         21.7 
       368.0         0.27         20.3 
       369.0         0.20         19.4 
       370.0         0.23         18.0 
       371.0         0.23         17.7 
       372.0         0.18         17.6 
       373.0         0.13         17.4 
       374.0         0.20         17.3 
       375.0         0.30         17.9 
       376.0         0.23         17.9 
       377.0         0.23         18.1 
       378.0         0.20         17.6 
       379.0         0.27         18.5 
       380.0         0.40         17.4 
       381.0         3.18         23.8 
       382.0         0.47         18.1 
       383.0         0.40         18.0 
       384.0         0.27         17.5 
       385.0         0.38         18.6 
       386.0         0.47         17.4 
       387.0         0.37         19.1 
