~Version Information
VERS.                      2.0: CWLS Log ASCII Standard - VERSION 2.0
WRAP.                       NO: One line per depth step
~Well Information Block
STRT.FT               460.0000: 
STOP.FT              1509.0000: 
STEP.FT                 0.2500: 
NULL.                -999.2500: 
COMP.          Pioneer Natural Resources: COMPANY
WELL.           Amore 32-09 Tr: WELL
FLD.           Purgatoire River: FIELD
LOC.           1941' FNL & 2297' FEL: LOCATION
PROV.                 Colorado: PROVINCE
CNTY.               Las Animas: COUNTRY
SRVC.                Patterson: SERVICE COMPANY
DATE.          Mon Nov 14 11:07:52 2005: LOG DATE
UWI.           05 071 08584 00: UNIQUE WELL ID
~Curve Information Block
DEPT.FT            0 000 00 00: Depth
SN.Ohm-m                      : IEL Short Normal
SP.mV                         : IEL Spontaneous Potential
DIR.Ohm-m                     : IEL Induction Resistivity
GR.GAPI                       : Gamma Ray
~Parameter Information Block
~A  Depth        SN          SP         DIR          GR     
# ...
  1063.0000     16.6920    108.8947     15.0828    145.3010
  1063.2500     16.9996    108.9473     15.2986    142.7421
  1063.5000     17.3276    109.0367     15.4673    134.4812
  1063.7500     17.7361    109.1766     15.5742    126.6347
  1064.0000     18.3034    109.3751     15.6227    113.3196
  1064.2500     19.1136    109.6361     15.6332    105.3737
  1064.5000     20.1532    109.9619     15.6346     98.7731
  1064.7500     21.1717    110.3530     15.6559     99.1780
  1065.0000     21.7200    110.8017     15.7184    105.9561
  1065.2500     21.4341    111.2858     15.8292    112.8688
  1065.5000     20.3716    111.7685     15.9785    124.2151
  1065.7500     19.0262    112.2075     16.1415    131.4039
  1066.0000     17.9223    112.5692     16.2861    139.9669
  1066.2500     17.2215    112.8399     16.3815    143.3012
  1066.5000     16.7893    113.0267     16.4046    144.1992
  1066.7500     16.5467    113.1505     16.3435    142.4504
  1067.0000     16.5224    113.2354     16.1988    137.2730
  1067.2500     16.6715    113.3008     15.9823    132.4539
  1067.5000     16.8986    113.3561     15.7136    123.7653
  1067.7500     17.1617    113.4019     15.4168    117.8610
  1068.0000     17.4402    113.4331     15.1197    111.2981
  1068.2500     17.6790    113.4425     14.8515    109.7623
  1068.5000     17.8286    113.4246     14.6385    112.1048
  1068.7500     17.8830    113.3781     14.4982    115.7896
  1069.0000     17.8258    113.3062     14.4357    122.2043
  1069.2500     17.6026    113.2155     14.4439    126.1158
  1069.5000     17.1925    113.1178     14.5077    130.6570
  1069.7500     16.6715    113.0346     14.6090    132.7178
  1070.0000     16.1853    112.9969     14.7305    134.9013
  1070.2500     15.8437    113.0332     14.8544    136.3070
  1070.5000     15.6490    113.1503     14.9601    138.8214
  1070.7500     15.5383    113.3207     15.0246    140.4000
  1071.0000     15.4861    113.4922     15.0304    141.1348
  1071.2500     15.5450    113.6156     14.9755    139.6220
  1071.5000     15.7796    113.6693     14.8767    133.5524
  1071.7500     16.2061    113.6643     14.7613    127.2956
  1072.0000     16.7664    113.6302     14.6493    116.6204
  1072.2500     17.3406    113.5960     14.5414    110.3222
  1072.5000     17.8359    113.5778     14.4251    104.6479
  1072.7500     18.2020    113.5754     14.2953    104.1704
  1073.0000     18.3585    113.5746     14.1672    108.3610
  1073.2500     18.2107    113.5571     14.0670    113.7630
  1073.5000     17.7296    113.5152     14.0096    124.0072
  1073.7500     16.9900    113.4583     13.9838    130.9906
  1074.0000     16.1561    113.4037     13.9595    139.4048
  1074.2500     15.4287    113.3642     13.9059    142.6740
  1074.5000     14.9551    113.3460     13.8071    143.8840
  1074.7500     14.7622    113.3545     13.6639    142.9442
  1075.0000     14.7631    113.3928     13.4858    140.5536
  1075.2500     14.7897    113.4535     13.2841    139.0104
  1075.5000     14.6242    113.5177     13.0703    137.2974
  1075.7500     14.1384    113.5708     12.8583    136.5280
  1076.0000     13.4563    113.6148     12.6639    135.4981
  1076.2500     12.8701    113.6645     12.4998    134.6955
  1076.5000     12.6391    113.7318     12.3713    133.6694
  1076.7500     12.8851    113.8165     12.2779    133.5514
  1077.0000     13.5096    113.9086     12.2177    134.2184
  1077.2500     14.1834    113.9959     12.1908    134.5592
  1077.5000     14.5484    114.0710     12.1966    134.0128
  1077.7500     14.4908    114.1307     12.2303    133.3545
  1078.0000     14.1669    114.1699     12.2807    133.6895
  1078.2500     13.8146    114.1768     12.3343    135.3511
  1078.5000     13.6405    114.1327     12.3803    139.0227
  1078.7500     13.7438    114.0201     12.4142    140.9915
  1079.0000     14.0213    113.8311     12.4366    141.5292
  1079.2500     14.2473    113.5725     12.4493    140.0694
  1079.5000     14.3037    113.2635     12.4502    135.7795
  1079.7500     14.2660    112.9310     12.4360    132.0417
  1080.0000     14.2341    112.6057     12.4087    126.1801
  1080.2500     14.1795    112.3183     12.3836    122.9830
  1080.5000     14.0227    112.0974     12.3875    120.9353
  1080.7500     13.7784    111.9687     12.4480    121.9368
  1081.0000     13.5638    111.9564     12.5824    126.3514
  1081.2500     13.4919    112.0805     12.7947    130.1779
  1081.5000     13.5934    112.3457     13.0799    135.6259
  1081.7500     13.8412    112.7267     13.4319    138.7708
  1082.0000     14.1748    113.1671     13.8456    142.8730
  1082.2500     14.4941    113.5975     14.3133    144.9660
  1082.5000     14.7400    113.9613     14.8213    146.0550
  1082.7500     15.0227    114.2307     15.3532    144.9995
  1083.0000     15.6143    114.4058     15.8995    141.4020
  1083.2500     16.7213    114.5046     16.4650    138.6909
  1083.5000     18.2801    114.5507     17.0682    135.8271
  1083.7500     20.0854    114.5638     17.7331    134.9698
  1084.0000     22.0453    114.5565     18.4846    134.1145
  1084.2500     24.1533    114.5348     19.3492    132.8214
  1084.5000     26.2957    114.4986     20.3555    129.0829
  1084.7500     28.2239    114.4443     21.5276    125.8538
  1085.0000     29.7326    114.3729     22.8724    121.2818
  1085.2500     30.8501    114.2983     24.3676    118.9334
  1085.5000     31.8132    114.2443     25.9606    116.6148
  1085.7500     32.8166    114.2253     27.5843    115.7528
  1086.0000     33.8750    114.2327     29.1835    115.2063
  1086.2500     34.9239    114.2449     30.7393    115.1140
  1086.5000     35.9200    114.2488     32.2618    114.9391
  1086.7500     36.8759    114.2458     33.7497    114.5682
  1087.0000     37.8578    114.2411     35.1530    113.3046
  1087.2500     38.8913    114.2312     36.3907    111.8992
  1087.5000     39.9272    114.2015     37.4233    109.2738
  1087.7500     40.9540    114.1349     38.3115    107.6699
  1088.0000     42.0132    114.0267     39.1891    106.1983
  1088.2500     43.0857    113.8920     40.1789    105.8018
  1088.5000     44.0839    113.7573     41.3271    105.1955
  1088.7500     44.9470    113.6445     42.6068    104.1274
  1089.0000     45.7149    113.5609     43.9671    100.9821
  1089.2500     46.5338    113.4988     45.3757     98.0549
  1089.5000     47.5854    113.4398     46.8218     93.2628
  1089.7500     48.9457    113.3636     48.2945     90.2590
  1090.0000     50.4558    113.2564     49.7739     86.4184
  1090.2500     51.8243    113.1163     51.2461     84.2528
  1090.5000     52.8912    112.9529     52.7099     81.2347
  1090.7500     53.7230    112.7819     54.1586     79.2437
  1091.0000     54.4621    112.6177     55.5513     76.3675
  1091.2500     55.1129    112.4680     56.8195     74.5731
  1091.5000     55.5417    112.3319     57.8770     72.0201
  1091.7500     55.7113    112.2027     58.5960     70.5112
  1092.0000     55.7345    112.0740     58.7912     69.1014
  1092.2500     55.6757    111.9400     58.3219     69.0094
  1092.5000     55.5122    111.7928     57.2830     69.9612
  1092.7500     55.2693    111.6215     56.0567     70.8884
  1093.0000     54.9997    111.4176     55.1048     72.0977
  1093.2500     54.7007    111.1811     54.6993     72.7697
  1093.5000     54.3663    110.9214     54.8131     73.8908
  1093.7500     53.9988    110.6517     55.2035     74.6963
  1094.0000     53.5665    110.3822     55.5909     75.4033
  1094.2500     53.0870    110.1144     55.8153     75.1533
  1094.5000     52.6603    109.8396     55.8726     73.5523
  1094.7500     52.3625    109.5421     55.8427     71.8974
  1095.0000     52.2057    109.2060     55.7913     69.1092
  1095.2500     52.1733    108.8226     55.7215     67.3354
  1095.5000     52.2750    108.3951     55.5883     65.1842
  1095.7500     52.5706    107.9403     55.3471     64.2180
  1096.0000     53.0697    107.4835     54.9911     63.4376
  1096.2500     53.6907    107.0512     54.5533     63.3032
