~Version Information
VERS.                      2.0: CWLS Log ASCII Standard - VERSION 2.0
WRAP.                       NO: One line per depth step
~Well Information Block
STRT.FT               555.0000: 
STOP.FT              2286.5000: 
STEP.FT                 0.1000: 
NULL.                -999.2500: 
COMP.          Pioneer Natural Resources: COMPANY
WELL.          Roadster 41-33 Kv: WELL
FLD.           Purgatoire River: FIELD
LOC.           903' FNL & 248' FEL: LOCATION
PROV.                 Colorado: PROVINCE
CNTY.               Las Animas: COUNTRY
SRVC.                Patterson: SERVICE COMPANY
DATE.          Thu Dec 15 10:28:25 2005: LOG DATE
UWI.           05 071 08615 00: UNIQUE WELL ID
~Curve Information Block
DEPT.FT            0 000 00 00: Depth
DCAL.in                       : CDL Caliper
RHOB.g/cc                     : CDL Bulk Density
RHOC.g/cc                     : CDL Density Correction
DPOR.pu                       : CDL Density Porosity
GR.GAPI                       : Gamma Ray
NPOR.pu                       : Neutron Porosity
~Parameter Information Block
~A  Depth       DCAL        RHOB        RHOC        DPOR         GR         NPOR    
# ...
  1246.2000      7.9939      2.3968      0.0880     15.3457     45.8513     25.8656
  1246.3000      7.9536      2.3683      0.0894     17.0747     43.8823     25.2464
  1246.4000      7.9536      2.3101      0.1104     20.5998     37.7732     25.2618
  1246.5000      7.9089      2.2232      0.0451     25.8661     31.2643     25.7210
  1246.6000      7.9089      2.1387      0.0082     30.9890     29.3762     25.8425
  1246.7000      7.9089      2.0809      0.0214     34.4925     30.2196     25.6257
  1246.8000      7.9066      2.0412      0.0874     36.8943     29.5284     25.4301
  1246.9000      7.9066      2.0085      0.0851     38.8809     26.7961     25.3697
  1247.0000      7.9206      1.9913      0.0569     39.9238     23.7585     25.2890
  1247.1000      7.9206      1.9981      0.0988     39.5080     23.1791     24.7190
  1247.2000      7.9206      2.0178      0.1355     38.3143     24.7281     24.2637
  1247.3000      7.9373      2.0327      0.1135     37.4118     25.1579     25.0518
  1247.4000      7.9373      2.0356      0.0867     37.2358     23.2552     26.4254
  1247.5000      7.9584      2.0253      0.1134     37.8626     19.5035     26.8952
  1247.6000      7.9584      2.0035      0.0701     39.1799     16.2723     26.3836
  1247.7000      7.9584      1.9783      0.0667     40.7113     16.4483     26.0126
  1247.8000      7.9767      1.9576      0.0514     41.9622     18.8741     26.1283
  1247.9000      7.9767      1.9464      0.0373     42.6427     20.2270     26.1852
  1248.0000      7.9899      1.9524      0.0018     42.2777     21.7600     26.5379
  1248.1000      7.9899      1.9966     -0.0150     39.6002     26.7507     27.7866
  1248.2000      7.9899      2.0936      0.0577     33.7213     32.5702     28.8476
  1248.3000      7.9873      2.2189      0.1345     26.1251     33.4077     28.2480
  1248.4000      7.9873      2.3252      0.1763     19.6845     29.5987     26.9326
  1248.5000      7.9591      2.3872      0.1876     15.9268     26.7192     26.6805
  1248.6000      7.9591      2.4109      0.2078     14.4925     27.7381     26.8566
  1248.7000      7.9591      2.4061      0.1955     14.7797     30.3009     25.9567
  1248.8000      7.9623      2.3735      0.1711     16.7604     30.9100     24.6714
  1248.9000      7.9623      2.3189      0.0818     20.0670     31.1961     24.1333
  1249.0000      7.9861      2.2591      0.0423     23.6911     34.5091     24.2112
  1249.1000      7.9861      2.2011      0.0315     27.2086     38.7572     24.8176
  1249.2000      7.9861      2.1452     -0.0053     30.5944     40.6602     25.7571
  1249.3000      7.9584      2.1107     -0.0354     32.6870     42.1087     26.6638
  1249.4000      7.9584      2.1166      0.0395     32.3258     45.4738     27.4600
  1249.5000      7.9344      2.1493      0.0933     30.3435     50.3337     27.8734
  1249.6000      7.9344      2.1857      0.1193     28.1402     57.6895     27.8026
  1249.7000      7.9344      2.2194      0.1405     26.0968     65.2822     27.4757
  1249.8000      7.9627      2.2472      0.1203     24.4095     67.5764     27.1416
  1249.9000      7.9627      2.2630      0.0930     23.4565     65.6306     27.4519
  1250.0000      8.0409      2.2630      0.0749     23.4544     63.7360     28.3765
  1250.1000      8.0409      2.2513     -0.0138     24.1664     64.5366     28.9878
  1250.2000      8.0409      2.2360      0.0295     25.0903     68.9082     29.0855
  1250.3000      8.0728      2.2230      0.0156     25.8765     74.9847     29.1929
  1250.4000      8.0728      2.2197     -0.0018     26.0784     80.5135     29.6753
  1250.5000      8.0757      2.2237      0.0269     25.8367     86.3673     30.2035
  1250.6000      8.0757      2.2295     -0.0387     25.4870     94.5345     30.2780
  1250.7000      8.0757      2.2464     -0.0391     24.4635    103.4524     29.7663
  1250.8000      8.0632      2.2757      0.0236     22.6851    112.4486     28.7674
  1250.9000      8.0632      2.3058      0.0987     20.8621    121.6157     28.3036
  1251.0000      8.0563      2.3340      0.1074     19.1545    126.2054     28.8969
  1251.1000      8.0563      2.3652      0.0838     17.2610    125.4596     29.4827
  1251.2000      8.0563      2.3968      0.0752     15.3481    125.1125     29.7016
  1251.3000      8.0574      2.4212      0.0681     13.8656    127.2896     29.9340
  1251.4000      8.0574      2.4436      0.0797     12.5095    129.5593     29.3054
  1251.5000      8.0418      2.4776      0.0637     10.4458    131.9713     27.4393
  1251.6000      8.0418      2.5196      0.0904      7.9044    136.9344     25.8113
  1251.7000      8.0418      2.5501      0.0433      6.0567    144.6244     25.8082
  1251.8000      8.0098      2.5637      0.0854      5.2276    151.9683     27.0857
  1251.9000      8.0098      2.5663      0.0746      5.0748    151.8507     28.2993
  1252.0000      7.9919      2.5575      0.0996      5.6031    144.2990     28.4035
  1252.1000      7.9919      2.5349      0.0976      6.9768    141.0963     27.6557
  1252.2000      7.9919      2.5131      0.0522      8.2981    143.8339     26.9784
  1252.3000      7.9792      2.5122      0.0674      8.3495    144.3309     26.5098
  1252.4000      7.9792      2.5249      0.0508      7.5796    144.2841     26.0705
  1252.5000      7.9655      2.5391      0.0342      6.7232    149.9198     25.7988
  1252.6000      7.9655      2.5585      0.0757      5.5484    156.5372     26.2358
  1252.7000      7.9655      2.5783      0.0924      4.3455    153.3190     27.7355
  1252.8000      7.9699      2.5972      0.0465      3.1993    142.6977     29.3305
  1252.9000      7.9699      2.6277      0.0652      1.3488    139.9368     29.7745
  1253.0000      7.9751      2.6553      0.1473     -0.3233    148.8705     29.5626
  1253.1000      7.9751      2.6501      0.1051     -0.0085    157.1941     29.4422
  1253.2000      7.9751      2.6167      0.0828      2.0209    155.9355     29.3061
  1253.3000      8.0174      2.5845     -0.0099      3.9689    150.0447     29.2215
  1253.4000      8.0174      2.5718      0.0295      4.7411    144.1512     29.0732
  1253.5000      8.0321      2.5701      0.0160      4.8431    138.2930     28.7374
  1253.6000      8.0321      2.5624      0.0310      5.3062    134.7078     28.5434
  1253.7000      8.0321      2.5411      0.0198      6.5975    135.4070     28.4384
  1253.8000      8.0284      2.5158     -0.0154      8.1348    138.7329     28.5102
  1253.9000      8.0284      2.5005      0.0222      9.0619    140.9529     28.7196
  1254.0000      8.0289      2.4940      0.0396      9.4518    138.5623     28.4066
  1254.1000      8.0289      2.4892      0.0336      9.7467    132.4267     27.5198
  1254.2000      8.0289      2.4880      0.0219      9.8202    129.3245     26.9206
  1254.3000      8.0273      2.4977      0.0060      9.2284    132.4096     27.0323
  1254.4000      8.0273      2.5200      0.0345      7.8804    138.8477     27.5916
  1254.5000      8.0308      2.5417      0.0418      6.5629    146.8012     27.7544
  1254.6000      8.0308      2.5444      0.0217      6.4011    148.6081     27.4253
  1254.7000      8.0308      2.5239      0.0204      7.6396    139.1911     27.4639
  1254.8000      8.0609      2.4916      0.0436      9.6000    126.8453     27.6872
  1254.9000      8.0609      2.4601     -0.0111     11.5085    116.3327     27.8292
  1255.0000      8.0671      2.4469     -0.0418     12.3091    111.9611     28.1278
  1255.1000      8.0671      2.4658     -0.0338     11.1641    119.2299     28.5805
  1255.2000      8.0671      2.5032      0.0329      8.8979    132.4326     28.7309
  1255.3000      8.0603      2.5309      0.0645      7.2167    137.7047     27.9671
  1255.4000      8.0603      2.5433      0.0420      6.4644    130.9461     26.5560
  1255.5000      8.0285      2.5559      0.0283      5.7042    124.6950     25.4979
  1255.6000      8.0285      2.5702      0.1111      4.8368    128.5143     25.3780
  1255.7000      8.0285      2.5702      0.0546      4.8344    134.1389     25.7040
