~Version Information
VERS.                      2.0: CWLS Log ASCII Standard - VERSION 2.0
WRAP.                       NO: One line per depth step
~Well Information Block
STRT.FT               260.0000: 
STOP.FT              1230.0000: 
STEP.FT                 0.2500: 
NULL.                -999.2500: 
COMP.          Pioneer Natural Resources: COMPANY
WELL.             Mahalo 12-20: WELL
FLD.           Purgatoire River: FIELD
LOC.           1689' FNL & 479' FWL: LOCATION
CNTY.               Las Animas: COUNTY
SRVC.                Patterson: SERVICE COMPANY
DATE.          Thu Feb 23 20:25:01 2006: LOG DATE
UWI.           05 071 08700 00: UNIQUE WELL ID
STAT.                 Colorado: STATE
~Curve Information Block
DEPT.FT            0 000 00 00: Depth
SN.Ohm-m                      : IEL Short Normal
SP.mV                         : IEL Spontaneous Potential
DIR.Ohm-m                     : IEL Induction Resistivity
GR.GAPI                       : Gamma Ray
~Parameter Information Block
~A  Depth        SN          SP         DIR          GR     
# ...
   997.0000     10.6927     57.3911      8.9555    118.6489
   997.2500     10.6271     57.4302      8.7446    117.1498
   997.5000     10.5366     57.4698      8.5454    115.0973
   997.7500     10.4016     57.5000      8.3783    114.5377
   998.0000     10.2474     57.5233      8.2631    115.0924
   998.2500     10.1617     57.5494      8.2145    115.6563
   998.5000     10.1670     57.5902      8.2393    114.8539
   998.7500     10.1924     57.6548      8.3344    112.4958
   999.0000     10.1591     57.7454      8.4896    106.7178
   999.2500     10.0679     57.8575      8.6890    102.5363
   999.5000     10.0280     57.9842      8.9124     97.9056
   999.7500     10.1327     58.1177      9.1357     96.4248
  1000.0000     10.3580     58.2465      9.3351     95.6906
  1000.2500     10.6383     58.3539      9.4971     95.1312
  1000.5000     10.9411     58.4237      9.6263     93.1182
  1000.7500     11.2540     58.4460      9.7454     91.2045
  1001.0000     11.5584     58.4169      9.8860     88.5642
  1001.2500     11.8439     58.3389     10.0755     87.4851
  1001.5000     12.1370     58.2228     10.3273     87.2321
  1001.7500     12.4586     58.0838     10.6374     87.8098
  1002.0000     12.7687     57.9361     10.9878     88.9350
  1002.2500     12.9966     57.7896     11.3548     89.2897
  1002.5000     13.1238     57.6506     11.7156     88.9572
  1002.7500     13.1975     57.5221     12.0518     88.6224
  1003.0000     13.2444     57.4026     12.3498     89.3387
  1003.2500     13.2619     57.2844     12.6003     91.2117
  1003.5000     13.2677     57.1540     12.7978     95.8595
  1003.7500     13.2491     56.9993     12.9399     99.3400
  1004.0000     13.1561     56.8176     13.0268    103.3696
  1004.2500     13.0112     56.6172     13.0636    104.4877
  1004.5000     12.8907     56.4102     13.0625    103.2557
  1004.7500     12.7980     56.2028     13.0413    100.7043
  1005.0000     12.7391     55.9952     13.0171     95.7030
  1005.2500     12.8385     55.7904     12.9999     92.8550
  1005.5000     13.1714     55.6008     12.9926     91.1411
  1005.7500     13.6052     55.4417     12.9953     91.9397
  1006.0000     13.9249     55.3198     13.0099     94.7967
  1006.2500     14.0280     55.2305     13.0399     96.6074
  1006.5000     13.9773     55.1644     13.0870     97.7002
  1006.7500     13.9162     55.1161     13.1464     97.2828
  1007.0000     13.9418     55.0870     13.2070     95.9091
  1007.2500     14.0277     55.0823     13.2550     95.0978
  1007.5000     14.0833     55.1047     13.2794     94.3820
  1007.7500     14.0756     55.1484     13.2722     94.1803
  1008.0000     14.0272     55.1996     13.2259     94.5130
  1008.2500     13.9383     55.2403     13.1343     95.5678
  1008.5000     13.8153     55.2557     13.0001     98.8770
  1008.7500     13.7111     55.2372     12.8417    101.9471
  1009.0000     13.6422     55.1858     12.6899    106.5022
  1009.2500     13.5607     55.1139     12.5769    108.7260
  1009.5000     13.4322     55.0444     12.5251    110.3920
  1009.7500     13.2773     55.0021     12.5452    110.6966
  1010.0000     13.1389     55.0021     12.6370    110.7352
  1010.2500     13.0060     55.0418     12.7918    110.6661
  1010.5000     12.8604     55.1050     12.9918    110.1366
  1010.7500     12.7931     55.1734     13.2138    109.1546
  1011.0000     12.9092     55.2353     13.4359    105.9236
  1011.2500     13.2000     55.2888     13.6462    102.0666
  1011.5000     13.5936     55.3427     13.8472     93.5543
  1011.7500     13.9942     55.4116     14.0542     86.8368
  1012.0000     14.3318     55.5041     14.2882     77.6916
  1012.2500     14.6745     55.6092     14.5682     73.6164
  1012.5000     15.1396     55.6992     14.9063     71.5587
  1012.7500     15.7088     55.7523     15.3063     72.5818
  1013.0000     16.2640     55.7724     15.7644     76.3951
  1013.2500     16.7556     55.7872     16.2672     79.5988
  1013.5000     17.2457     55.8298     16.7884     83.7180
  1013.7500     17.7660     55.9226     17.2830     84.9445
  1014.0000     18.2061     56.0713     17.6882     83.4727
  1014.2500     18.4179     56.2644     17.9353     80.6311
  1014.5000     18.3725     56.4818     17.9746     75.5377
  1014.7500     18.1454     56.7045     17.7999     72.9134
  1015.0000     17.8461     56.9196     17.4541     71.6549
  1015.2500     17.5821     57.1173     17.0086     72.7346
  1015.5000     17.3557     57.2922     16.5323     76.2664
  1015.7500     17.0843     57.4506     16.0698     79.1247
  1016.0000     16.7425     57.6119     15.6374     83.5342
  1016.2500     16.3216     57.7938     15.2311     86.6600
  1016.5000     15.8021     57.9988     14.8386     91.7438
  1016.7500     15.2672     58.2157     14.4496     94.9772
  1017.0000     14.8187     58.4274     14.0601     98.3140
  1017.2500     14.4213     58.6149     13.6728     99.0617
  1017.5000     14.0226     58.7595     13.2935     98.1951
  1017.7500     13.7020     58.8485     12.9269     96.7192
  1018.0000     13.5710     58.8838     12.5763     93.7931
  1018.2500     13.6111     58.8816     12.2474     91.7923
  1018.5000     13.6578     58.8623     11.9500     89.7318
  1018.7500     13.5536     58.8385     11.6970     89.4667
  1019.0000     13.2927     58.8124     11.5002     90.9840
  1019.2500     12.9876     58.7807     11.3674     93.2857
  1019.5000     12.7589     58.7423     11.3036     98.5865
  1019.7500     12.6811     58.7017     11.3128    102.9143
  1020.0000     12.7637     58.6668     11.3984    109.0121
  1020.2500     12.9600     58.6432     11.5590    111.8098
  1020.5000     13.2096     58.6275     11.7838    112.8939
  1020.7500     13.4803     58.6066     12.0520    111.1715
  1021.0000     13.7652     58.5648     12.3376    104.9307
  1021.2500     14.0593     58.4936     12.6191     98.8578
  1021.5000     14.3529     58.3954     12.8868     88.5820
  1021.7500     14.6293     58.2820     13.1438     82.0237
  1022.0000     14.8878     58.1701     13.4021     73.8468
  1022.2500     15.1908     58.0767     13.6770     69.7810
  1022.5000     15.6278     58.0141     13.9827     65.7668
  1022.7500     16.2001     57.9846     14.3279     64.3677
  1023.0000     16.7951     57.9790     14.7148     64.2166
  1023.2500     17.2732     57.9801     15.1392     65.6806
  1023.5000     17.5686     57.9690     15.5917     70.3420
  1023.7500     17.7484     57.9314     16.0553     74.3407
  1024.0000     17.9079     57.8612     16.5031     79.2429
  1024.2500     18.0109     57.7631     16.8990     80.7171
  1024.5000     17.9932     57.6514     17.2096     80.4674
  1024.7500     17.9620     57.5457     17.4195     79.6373
  1025.0000     18.0770     57.4640     17.5420     78.5950
  1025.2500     18.3303     57.4168     17.6132     77.8909
  1025.5000     18.6144     57.4035     17.6757     75.9890
  1025.7500     18.8931     57.4104     17.7647     74.1476
  1026.0000     19.2290     57.4126     17.9069     71.6212
  1026.2500     19.7154     57.3811     18.1275     70.7743
  1026.5000     20.3559     57.2971     18.4558     70.9253
  1026.7500     21.0294     57.1636     18.9226     71.5233
  1027.0000     21.6382     57.0107     19.5481     72.2616
  1027.2500     22.2116     56.8860     20.3310     72.4057
  1027.5000     22.8509     56.8338     21.2377     72.3398
  1027.7500     23.6468     56.8752     22.1983     72.5139
  1028.0000     24.5766     57.0028     23.1093     73.7402
  1028.2500     25.4955     57.1895     23.8458     75.1840
  1028.5000     26.3107     57.4039     24.2850     77.1719
  1028.7500     27.0662     57.6209     24.3376     77.2390
  1029.0000     27.8385     57.8239     23.9797     73.6903
  1029.2500     28.6167     58.0000     23.2623     68.6175
  1029.5000     29.2512     58.1346     22.2863     58.1823
  1029.7500     29.5225     58.2133     21.1590     50.7371
  1030.0000     29.3108     58.2287     19.9707     41.4645
  1030.2500     28.6406     58.1884     18.7967     37.8580
