~Version Information
VERS.                      2.0: CWLS Log ASCII Standard - VERSION 2.0
WRAP.                       NO: One line per depth step
~Well Information Block
STRT.FT                -6.0000: 
STOP.FT              1295.2500: 
STEP.FT                 0.2500: 
NULL.                -999.2500: 
COMP.          Pioneer Natural Resources: COMPANY
WELL.            Erin 21-15 Tr: WELL
FLD.           Purgatoire River: FIELD
LOC.           1217' FNL & 2284' FWL--: LOCATION
CNTY.               Las Animas: COUNTY
SRVC.                         : SERVICE COMPANY
DATE.          Fri Mar 10 09:14:17 2006: LOG DATE
UWI.           05 071 08712 00: UNIQUE WELL ID
STAT.                       CO: STATE
~Curve Information Block
DEPT.FT            0 000 00 00: Depth
GR.GAPI                       : Gamma Ray
CCL.                          : Casing Collar Locator
TT3.usec                      : CBL 3' Travel Time
AMP3.mV                       : CBL 3' Amplitude
~Parameter Information Block
~A  Depth        GR         CCL         TT3         AMP3    
# ...
   764.5000    123.0845      0.0000    769.0557      8.4003
   764.7500    125.7497      0.0000    769.5309      8.5040
   765.0000    126.5125      0.0000    769.8831      8.5506
   765.2500    125.4095      0.0000    770.0751      8.5499
   765.5000    123.0810      0.0000    769.4632      8.5131
   765.7500    119.4939      0.0000    767.9641      8.4377
   766.0000    113.6497      0.0000    766.1354      8.3164
   766.2500    104.8725      0.0000    764.0886      8.1652
   766.5000     94.1678      0.0000    760.9946      8.0365
   766.7500     84.0283      0.0000    756.1430      7.9929
   767.0000     76.9137      0.0000    750.2560      8.0635
   767.2500     73.8582      0.0000    745.2204      8.2216
   767.5000     74.3783      0.0000    742.3646      8.3977
   767.7500     77.5157      0.0000    741.1619      8.5166
   768.0000     82.6932      0.0000    739.7842      8.5290
   768.2500     89.3847      0.0000    736.8707      8.4203
   768.5000     96.2235      0.0000    732.5335      8.2101
   768.7500    100.9491      0.0000    727.7828      7.9547
   769.0000    101.5972      0.0000    723.6118      7.7387
   769.2500     97.8470      0.0000    720.8694      7.6322
   769.5000     91.3489      0.0000    720.2680      7.6436
   769.7500     84.9057      0.0000    721.8018      7.7196
   770.0000     81.2071      0.0000    724.3683      7.7925
   770.2500     81.7127      0.0000    726.4842      7.8247
   770.5000     86.0430      0.0000    727.3922      7.8156
   770.7500     92.4031      0.0000    727.4815      7.7814
   771.0000     99.0716      0.0000    728.0259      7.7341
   771.2500    105.6563      0.0000    730.4579      7.6766
   771.5000    112.6994      0.0000    735.0959      7.6104
   771.7500    120.1611      0.0000    740.1539      7.5434
   772.0000    126.7246      0.0000    742.7302      7.4860
   772.2500    130.6548      0.0000    741.5144      7.4414
   772.5000    131.0688      0.0000    738.3003      7.4006
   772.7500    128.4017      0.0000    736.5461      7.3489
   773.0000    124.2570      0.0000    738.6786      7.2766
   773.2500    120.9913      0.0000    744.7773      7.1827
   773.5000    120.6798      0.0000    753.1572      7.0709
   773.7500    123.7440      0.0000    761.6249      6.9456
   774.0000    128.6377      0.0000    768.4715      6.8141
   774.2500    133.1216      0.0000    773.0137      6.6877
   774.5000    135.8927      0.0000    775.5667      6.5771
   774.7500    137.2095      0.0000    776.9233      6.4875
   775.0000    138.3225      0.0000    777.8386      6.4199
   775.2500    140.3969      0.0000    778.9089      6.3775
   775.5000    143.6253      0.0000    780.7889      6.3654
   775.7500    146.8381      0.0000    784.2518      6.3838
   776.0000    147.8342      0.0000    789.6831      6.4221
   776.2500    144.7439      0.0000    796.5568      6.4652
   776.5000    137.5741      0.0000    804.1104      6.5047
   776.7500    128.2809      0.0000    812.6755      6.5429
   777.0000    119.3578      0.0000    823.0839      6.5874
   777.2500    112.5480      0.0000    833.9321      6.6421
   777.5000    108.4559      0.0000    840.5887      6.7023
   777.7500    106.6741      0.0000    838.2550      6.7541
   778.0000    106.3062      0.0000    826.0646      6.7779
   778.2500    106.8061      0.0000    807.8757      6.7585
   778.5000    108.3790      0.0000    789.1575      6.6995
   778.7500    111.4964      0.0000    773.3742      6.6236
   779.0000    116.1173      0.0000    761.3465      6.5551
   779.2500    121.3940      0.0000    753.1517      6.5024
   779.5000    126.0435      0.0000    749.2529      6.4590
   779.7500    129.1293      0.0000    749.5400      6.4163
   780.0000    130.6438      0.0000    752.4728      6.3727
   780.2500    131.3475      0.0000    756.0861      6.3342
   780.5000    132.0347      0.0000    759.3838      6.3117
   780.7500    133.0806      0.0000    762.0699      6.3149
   781.0000    134.6791      0.0000    763.4485      6.3458
   781.2500    137.0797      0.0000    762.6509      6.3989
   781.5000    140.1520      0.0000    760.0861      6.4685
   781.7500    143.0430      0.0000    757.8802      6.5518
   782.0000    144.8172      0.0000    758.2562      6.6452
   782.2500    145.2967      0.0000    761.5448      6.7426
   782.5000    144.9948      0.0000    766.1069      6.8386
   782.7500    144.4941      0.0000    770.0239      6.9335
   783.0000    144.1078      0.0000    772.4806      7.0333
   783.2500    143.9879      0.0000    773.7353      7.1464
   783.5000    144.3615      0.0000    774.3772      7.2777
   783.7500    145.3989      0.0000    774.8166      7.4196
   784.0000    146.7581      0.0000    775.1904      7.5509
   784.2500    147.6082      0.0000    775.4706      7.6507
   784.5000    147.1938      0.0000    775.6027      7.7171
   784.7500    145.1146      0.0000    775.5845      7.7680
   785.0000    141.3636      0.0000    775.4610      7.8173
   785.2500    136.5736      0.0000    775.2800      7.8543
   785.5000    131.9423      0.0000    775.0438      7.8536
   785.7500    128.5357      0.0000    774.6465      7.8095
   786.0000    126.4987      0.0000    773.7445      7.7514
   786.2500    124.6998      0.0000    771.6605      7.7160
   786.5000    121.3841      0.0000    767.6304      7.7087
   786.7500    115.7015      0.0000    761.4800      7.6971
   787.0000    108.5755      0.0000    754.1329      7.6442
   787.2500    101.9589      0.0000    747.2006      7.5437
   787.5000     97.4589      0.0000    741.9504      7.4229
   787.7500     95.5968      0.0000    738.7607      7.3140
   788.0000     95.8729      0.0000    737.4792      7.2312
   788.2500     97.3201      0.0000    737.9180      7.1747
   788.5000     99.1977      0.0000    739.7356      7.1485
   788.7500    101.2949      0.0000    742.0113      7.1619
   789.0000    103.6815      0.0000    743.4818      7.2150
   789.2500    106.3358      0.0000    743.5892      7.2909
   789.5000    109.0943      0.0000    743.1371      7.3680
   789.7500    111.9017      0.0000    743.5596      7.4376
   790.0000    114.8034      0.0000    745.4869      7.5047
   790.2500    117.3853      0.0000    748.0782      7.5754
   790.5000    118.5703      0.0000    749.7849      7.6488
   790.7500    117.6781      0.0000    749.8834      7.7193
   791.0000    115.5500      0.0000    749.3165      7.7818
   791.2500    114.0059      0.0000    750.0578      7.8344
   791.5000    114.2507      0.0000    753.5540      7.8780
   791.7500    116.1212      0.0000    759.3903      7.9140
   792.0000    118.5322      0.0000    765.2141      7.9289
   792.2500    120.4170      0.0000    768.4782      7.8730
   792.5000    121.6169      0.0000    768.8325      7.6768
   792.7500    122.9437      0.0000    768.6788      7.3221
   793.0000    124.9777      0.0000    771.2001      6.8873
   793.2500    126.9717      0.0000    777.8616      6.4947
   793.5000    127.3717      0.0000    787.3999      6.2150
   793.7500    125.2604      0.0000    796.6970      6.0433
   794.0000    121.0758      2.0000    802.9298      5.9475
   794.2500    116.2639      1.8427    805.5553      5.9135
   794.5000    112.3924      0.0000    806.1345      5.9469
   794.7500    110.1389      0.0000    805.8188      6.0490
   795.0000    108.8124      0.0000    803.6246      6.1955
   795.2500    107.1772      0.0000    798.1973      6.3436
   795.5000    104.7620      0.0000    790.5675      6.4688
   795.7500    102.0157      0.0000    783.6451      6.5828
   796.0000     99.4433      0.0000    779.1804      6.7061
   796.2500     97.1300      0.0000    776.4984      6.8404
   796.5000     94.8998      0.0000    774.1403      6.9790
   796.7500     92.4353      0.0000    771.7415      7.1236
   797.0000     89.3738      0.0000    769.9719      7.2798
   797.2500     85.7099      0.0000    769.0825      7.4437
   797.5000     82.0609      0.0000    768.0660      7.6013
   797.7500     79.3036      0.0000    765.5125      7.7374
