~Version Information
VERS.                      2.0: CWLS Log ASCII Standard - VERSION 2.0
WRAP.                       NO: One line per depth step
~Well Information Block
STRT.FT               460.0000: 
STOP.FT              2311.7500: 
STEP.FT                 0.2500: 
NULL.                -999.2500: 
COMP.          Pioneer Natural Resources: COMPANY
WELL.          McDonald 33-31 R: WELL
FLD.           Purgatoire River: FIELD
LOC.           1386' FSL & 1926' FEL: LOCATION
STAT.                 Colorado: State
CNTY.               Las Animas: COUNTY
CTRY.                      USA: Country
SECT.                       31: Section
TOWN.                      32S: Township
RANG.                      66W: Range
SRVC.                Patterson: SERVICE COMPANY
DATE.          Fri Sep 23 00:08:18 2005: LOG DATE
API.           05 071 08533 00: API#
~Curve Information Block
DEPT.FT            0 000 00 00: Depth
SN.Ohm-m                      : IEL Short Normal
SP.mV                         : IEL Spontaneous Potential
DIR.Ohm-m                     : IEL Induction Resistivity
GR.GAPI                       : Gamma Ray
~Parameter Information Block
~A  Depth        SN          SP         DIR          GR     
# ...
  2269.0000     -2.2436   -313.3414     19.7924    129.7817
  2269.2500     -2.1586   -315.1437     19.8458    127.3976
  2269.5000     -1.9368   -317.2249     20.0777    122.6617
  2269.7500     -1.6559   -319.4183     20.5366    119.5948
  2270.0000     -1.4330   -321.5490     21.2361    116.5279
  2270.2500     -1.3327   -323.4571     22.1202    115.9932
  2270.5000     -1.3271   -325.0208     23.0449    117.4376
  2270.7500     -1.3445   -326.1782     23.8014    119.5475
  2271.0000     -1.3444   -326.9397     24.1946    123.8439
  2271.2500     -1.3387   -327.3878     24.1449    127.2484
  2271.5000     -1.3537   -327.6589     23.7297    132.7702
  2271.7500     -1.3859   -327.9158     23.1283    136.3722
  2272.0000     -1.3968   -328.3130     22.5264    140.7740
  2272.2500     -1.3477   -328.9670     22.0514    142.2805
  2272.5000     -1.2428   -329.9374     21.7593    140.8618
  2272.7500     -1.1290   -331.2238     21.6541    136.9536
  2273.0000     -1.0482   -332.7757     21.7175    127.4160
  2273.2500     -1.0030   -334.5117     21.9366    120.0128
  2273.5000     -0.9805   -336.3411     22.3194    110.4668
  2273.7500     -0.9917   -338.1833     22.8897    106.6843
  2274.0000     -1.0662   -339.9794     23.6650    105.9299
  2274.2500     -1.2091   -341.6980     24.6284    108.1637
  2274.5000     -1.3781   -343.3332     25.7120    113.3349
  2274.7500     -1.5130   -344.8997     26.8055    116.5904
  2275.0000     -1.5797   -346.4253     27.7900    119.8115
  2275.2500     -1.5845   -347.9425     28.5746    120.8115
  2275.5000     -1.5533   -349.4823     29.1103    121.2864
  2275.7500     -1.5072   -351.0673     29.3801    121.4382
  2276.0000     -1.4580   -352.7063     29.3876    122.1309
  2276.2500     -1.4205   -354.3913     29.1575    123.0053
  2276.5000     -1.4081   -356.0956     28.7399    124.2916
  2276.7500     -1.4139   -357.7753     28.2004    124.5079
  2277.0000     -1.4170   -359.3759     27.5963    123.4213
  2277.2500     -1.4161   -360.8400     26.9554    122.1707
  2277.5000     -1.4325   -362.1193     26.2711    120.7299
  2277.7500     -1.4729   -363.1848     25.5206    120.4880
  2278.0000     -1.5137   -364.0358     24.6902    121.2973
  2278.2500     -1.5297   -364.7029     23.7904    122.5102
  2278.5000     -1.5247   -365.2459     22.8497    124.4175
  2278.7500     -1.5306   -365.7469     21.8965    124.1001
  2279.0000     -1.5853   -366.2979     20.9459    116.4772
  2279.2500     -1.6984   -366.9877     20.0040    104.2260
  2279.5000     -1.8301   -367.8882     19.0814     75.8022
  2279.7500     -1.9191   -369.0437     18.2036     54.1105
  2280.0000     -1.9427   -370.4633     17.4075     26.2363
  2280.2500     -1.9338   -372.1184     16.7260     13.8165
  2280.5000     -1.9257   -373.9474     16.1742      4.0942
  2280.7500     -1.8991   -375.8653     15.7441      1.5245
  2281.0000     -1.8088   -377.7790     15.4091      0.2620
  2281.2500     -1.6603   -379.6041     15.1336      0.0658
  2281.5000     -1.5343   -381.2811     14.8852      0.0041
  2281.7500     -1.5126   -382.7852     14.6459   -999.2500
  2282.0000     -1.5898   -384.1290     14.4155   -999.2500
  2282.2500     -1.6873   -385.3574     14.2053   -999.2500
  2282.5000     -1.7441   -386.5350     14.0248   -999.2500
  2282.7500     -1.7604   -387.7332     13.8707   -999.2500
  2283.0000     -1.7573   -389.0185     13.7262   -999.2500
  2283.2500     -1.7383   -390.4456     13.5722   -999.2500
  2283.5000     -1.7036   -392.0533     13.4018   -999.2500
  2283.7500     -1.6650   -393.8634     13.2298   -999.2500
  2284.0000     -1.6321   -395.8779     13.0882   -999.2500
  2284.2500     -1.5997   -398.0767     13.0128   -999.2500
  2284.5000     -1.5560   -400.4167     13.0288   -999.2500
  2284.7500     -1.5003   -402.8369     13.1421   -999.2500
  2285.0000     -1.4511   -405.2680     13.3389   -999.2500
  2285.2500     -1.4331   -407.6464     13.5926   -999.2500
  2285.5000     -1.4529   -409.9277     13.8717   -999.2500
  2285.7500     -1.4888   -412.0939     14.1477   -999.2500
  2286.0000     -1.5113   -414.1533     14.3993   -999.2500
  2286.2500     -1.5129   -416.1315     14.6162   -999.2500
  2286.5000     -1.5135   -418.0619     14.8007   -999.2500
  2286.7500     -1.5353   -419.9751     14.9655   -999.2500
  2287.0000     -1.5717   -421.8933     15.1232   -999.2500
  2287.2500     -1.5748   -423.8274     15.2771   -999.2500
  2287.5000     -1.4824   -425.7755     15.4176   -999.2500
  2287.7500     -1.2778   -427.7219     15.5282   -999.2500
  2288.0000     -1.0308   -429.6372     15.5940   -999.2500
  2288.2500     -0.8569   -431.4814     15.6089   -999.2500
  2288.5000     -0.8223   -433.2105     15.5762   -999.2500
  2288.7500     -0.9028   -434.7862     15.5074   -999.2500
  2289.0000     -1.0364   -436.1857     15.4177   -999.2500
  2289.2500     -1.1873   -437.4089     15.3229   -999.2500
  2289.5000     -1.3491   -438.4808     15.2351   -999.2500
  2289.7500     -1.5141   -439.4502     15.1598   -999.2500
  2290.0000     -1.6586   -440.3861     15.0956   -999.2500
  2290.2500     -1.7540   -441.3737     15.0379   -999.2500
  2290.5000     -1.7903   -442.5078     14.9866   -999.2500
  2290.7500     -1.7891   -443.8852     14.9522   -999.2500
  2291.0000     -1.7856   -445.5912     14.9555   -999.2500
  2291.2500     -1.7911   -447.6834     15.0235   -999.2500
  2291.5000     -1.7786   -450.1792     15.1829   -999.2500
  2291.7500     -1.7138   -453.0485     15.4546   -999.2500
  2292.0000     -1.5989   -456.2181     15.8481   -999.2500
  2292.2500     -1.4799   -459.5862     16.3567   -999.2500
  2292.5000     -1.4131   -463.0424     16.9570   -999.2500
  2292.7500     -1.4245   -466.4870     17.6115   -999.2500
  2293.0000     -1.4985   -469.8439     18.2771   -999.2500
  2293.2500     -1.5977   -473.0664     18.9150   -999.2500
  2293.5000     -1.6893   -476.1361     19.4981   -999.2500
  2293.7500     -1.7529   -479.0579     20.0104   -999.2500
  2294.0000     -1.7745   -481.8523     20.4373   -999.2500
  2294.2500     -1.7466   -484.5480     20.7553   -999.2500
  2294.5000     -1.6820   -487.1720     20.9334   -999.2500
  2294.7500     -1.6144   -489.7429     20.9490   -999.2500
  2295.0000     -1.5715   -492.2650     20.8045   -999.2500
  2295.2500     -1.5496   -494.7288     20.5290   -999.2500
  2295.5000     -1.5304   -497.1179     20.1656   -999.2500
  2295.7500     -1.5184   -499.4189     19.7539   -999.2500
  2296.0000     -1.5448   -501.6308     19.3192   -999.2500
  2296.2500     -1.6264   -503.7697     18.8694   -999.2500
  2296.5000     -1.7355   -505.8649     18.3999   -999.2500
  2296.7500     -1.8209   -507.9525     17.9025   -999.2500
  2297.0000     -1.8500   -510.0668     17.3762   -999.2500
  2297.2500     -1.8251   -512.2351     16.8313   -999.2500
  2297.5000     -1.7647   -514.4774     16.2877   -999.2500
  2297.7500     -1.6876   -516.8085     15.7654   -999.2500
  2298.0000     -1.6194   -519.2414     15.2756   -999.2500
  2298.2500     -1.5933   -521.7880     14.8183   -999.2500
  2298.5000     -1.6266   -524.4583     14.3888   -999.2500
  2298.7500     -1.7024   -527.2592     14.1231   -999.2500
  2299.0000     -1.7815   -530.1921     13.7574   -999.2500
  2299.2500     -1.8282   -533.2531     13.4536   -999.2500
  2299.5000     -1.8226   -536.4306     13.2293   -999.2500
  2299.7500     -1.7610   -539.7040     13.0928   -999.2500
  2300.0000     -1.6568   -543.0403     13.0440   -999.2500
  2300.2500     -1.5410   -546.3935     13.0782   -999.2500
  2300.5000     -1.4530   -549.7053     13.1883   -999.2500
  2300.7500     -1.4145   -552.9112     13.3665   -999.2500
  2301.0000     -1.4129   -555.9479     13.6109   -999.2500
  2301.2500     -1.4188   -558.7614     13.9479   -999.2500
  2301.5000     -1.4222   -561.3120     14.4762   -999.2500
  2301.7500     -1.4457   -563.5759     15.4228   -999.2500
  2302.0000     -1.5168   -565.5442     17.2251   -999.2500
  2302.2500     -1.6299   -567.2205     20.3907   -999.2500
