~Version Information
VERS.                      2.0: CWLS Log ASCII Standard - VERSION 2.0
WRAP.                       NO: One line per depth step
~Well Information Block
STRT.FT               570.0000: 
STOP.FT              1958.5000: 
STEP.FT                 0.2500: 
NULL.                -999.2500: 
COMP.          Petrogulf Corporation: COMPANY
WELL.            Montoya 7-14R: WELL
FLD.           Purgatorie River: FIELD
LOC.           628' FSL & 454' FWL: LOCATION
PROV.                 Colorado: PROVINCE
CNTY.               Las Animas: COUNTRY
SRVC.                Patterson: SERVICE COMPANY
DATE.          Sat Oct 08 17:13:52 2005: LOG DATE
UWI.                          : UNIQUE WELL ID
~Curve Information Block
DEPT.FT            0 000 00 00: Depth
SP.mV                         : DIL Spontaneous Potential
RILD.Ohm-m                    : DIL Deep Resistivity
RILM.Ohm-m                    : DIL Medium Resistivity
RLL3.Ohm-m                    : DIL Shallow Resistivity
GR.GAPI                       : Gamma Ray
~Parameter Information Block
~A  Depth        SP         RILD        RILM        RLL3         GR     
# ...
  1858.0000    230.8666     12.3621     11.5293     12.6811    141.8047
  1858.2500    229.4757     12.5301     11.7224     13.0300    142.7145
  1858.5000    228.2362     12.7403     11.9767     13.4377    141.0154
  1858.7500    227.1427     12.9934     12.2947     13.9243    138.2671
  1859.0000    226.1947     13.2934     12.6785     14.5203    133.8419
  1859.2500    225.3937     13.6455     13.1293     15.2598    131.4598
  1859.5000    224.7321     14.0537     13.6477     16.1549    128.1711
  1859.7500    224.1871     14.5178     14.2327     17.1599    125.4108
  1860.0000    223.7205     15.0328     14.8820     18.1732    120.2806
  1860.2500    223.2828     15.5907     15.5905     19.1238    116.9993
  1860.5000    222.8210     16.1842     16.3501     20.1069    113.7249
  1860.7500    222.2903     16.8081     17.1485     21.4184    112.7309
  1861.0000    221.6680     17.4580     17.9693     23.3461    112.0603
  1861.2500    220.9559     18.1258     18.7925     25.8034    111.6531
  1861.5000    220.1698     18.7973     19.5975     28.1627    111.0862
  1861.7500    219.3260     19.4534     20.3675     29.5791    111.0080
  1862.0000    218.4364     20.0763     21.0941     29.6067    111.5226
  1862.2500    217.5111     20.6551     21.7791     28.5305    112.1111
  1862.5000    216.5610     21.1881     22.4334     27.0993    112.8145
  1862.7500    215.5994     21.6792     23.0724     25.9919    112.8211
  1863.0000    214.6431     22.1333     23.7090     25.5696    111.6502
  1863.2500    213.7142     22.5523     24.3481     26.0077    110.0088
  1863.5000    212.8423     22.9358     24.9836     27.3974    106.4924
  1863.7500    212.0663     23.2851     25.6003     29.5702    103.5205
  1864.0000    211.4319     23.6070     26.1791     31.9395     97.7834
  1864.2500    210.9780     23.9141     26.7052     33.7287     92.9637
  1864.5000    210.7191     24.2212     27.1736     34.4366     84.9171
  1864.7500    210.6349     24.5420     27.5912     34.0837     79.8263
  1865.0000    210.6767     24.8885     27.9738     33.0976     73.6972
  1865.2500    210.7880     25.2686     28.3385     32.0644     70.8027
  1865.5000    210.9278     25.6824     28.6969     31.5115     68.1664
  1865.7500    211.0821     26.1190     29.0504     31.7108     67.3418
  1866.0000    211.2582     26.5598     29.3898     32.5507     66.3503
  1866.2500    211.4662     26.9883     29.7002     33.6055     64.7790
  1866.5000    211.7039     27.3984     29.9675     34.3903     60.1530
  1866.7500    211.9540     27.7956     30.1862     34.6066     56.2602
  1867.0000    212.1892     28.1924     30.3624     34.2287     51.4185
  1867.2500    212.3805     28.6020     30.5132     33.4323     49.4788
  1867.5000    212.5070     29.0306     30.6628     32.4652     47.6948
  1867.7500    212.5659     29.4691     30.8358     31.5496     46.3782
  1868.0000    212.5756     29.8922     31.0519     30.8544     43.4914
  1868.2500    212.5665     30.2666     31.3233     30.5032     41.2427
  1868.5000    212.5672     30.5707     31.6542     30.5678     38.6164
  1868.7500    212.5968     30.8075     32.0424     31.0453     37.9689
  1869.0000    212.6643     31.0006     32.4835     31.8546     38.6128
  1869.2500    212.7690     31.1746     32.9731     32.8591     39.4413
  1869.5000    212.9041     31.3387     33.5085     33.8942     39.8708
  1869.7500    213.0642     31.4819     34.0853     34.8066     39.1739
  1870.0000    213.2567     31.5794     34.6914     35.5207     36.8895
  1870.2500    213.5061     31.5959     35.2970     36.0876     35.0501
  1870.5000    213.8492     31.4818     35.8446     36.6515     32.7229
  1870.7500    214.3274     31.1723     36.2411     37.3797     31.7985
  1871.0000    214.9829     30.6018     36.3589     38.4507     31.4723
  1871.2500    215.8585     29.7328     36.0528     40.0890     31.7402
  1871.5000    216.9971     28.5813     35.1993     42.5247     32.2076
  1871.7500    218.4341     27.2207     33.7479     45.7967     32.3009
  1872.0000    220.1847     25.7590     31.7595     49.4614     32.3152
  1872.2500    222.2327     24.3064     29.4016     52.3903     32.7315
  1872.5000    224.5240     22.9477     26.8975     52.9580     35.0490
  1872.7500    226.9623     21.7321     24.4594     49.8356     38.2299
  1873.0000    229.4071     20.6774     22.2417     43.0355     45.9963
  1873.2500    231.6856     19.7816     20.3289     34.2494     53.4637
  1873.5000    233.6304     19.0336     18.7483     25.9240     68.4476
  1873.7500    235.1282     18.4175     17.4897     19.8126     80.5620
  1874.0000    236.1508     17.9153     16.5249     16.2735     99.5925
  1874.2500    236.7471     17.5102     15.8200     14.6667    111.0259
  1874.5000    237.0080     17.1922     15.3433     14.1464    124.0211
  1874.7500    237.0300     16.9604     15.0691     14.1394    129.4370
  1875.0000    236.8966     16.8227     14.9789     14.4060    132.7976
  1875.2500    236.6752     16.7897     15.0608     14.9339    132.2981
  1875.5000    236.4185     16.8697     15.3077     15.8583    129.0773
  1875.7500    236.1647     17.0653     15.7148     17.4143    126.5114
  1876.0000    235.9402     17.3755     16.2773     19.8324    123.2146
  1876.2500    235.7640     17.7988     16.9871     23.1313    121.1302
  1876.5000    235.6534     18.3370     17.8313     26.9139    116.9893
  1876.7500    235.6235     18.9920     18.7911     30.3874    113.2040
  1877.0000    235.6801     19.7599     19.8427     32.7349    106.5542
  1877.2500    235.8086     20.6235     20.9586     33.6368    102.1221
  1877.5000    235.9661     21.5518     22.1095     33.4937     96.1600
  1877.7500    236.0839     22.5054     23.2648     33.1154     92.6688
  1878.0000    236.0787     23.4432     24.3911     33.1580     88.1887
  1878.2500    235.8690     24.3242     25.4511     33.7905     86.0249
  1878.5000    235.3927     25.1070     26.4023     34.7462     84.8990
  1878.7500    234.6249     25.7528     27.2014     35.5631     85.8129
  1879.0000    233.5904     26.2347     27.8116     35.8134     88.8227
  1879.2500    232.3606     26.5457     28.2119     35.2718     90.7385
  1879.5000    231.0328     26.6993     28.4040     34.0031     91.3408
  1879.7500    229.6989     26.7211     28.4116     32.3153     89.4577
  1880.0000    228.4197     26.6399     28.2746     30.5865     83.0854
  1880.2500    227.2190     26.4841     28.0396     29.0949     77.1990
  1880.5000    226.0958     26.2834     27.7518     27.9638     68.2358
  1880.7500    225.0435     26.0696     27.4501     27.2059     63.3858
  1881.0000    224.0614     25.8745     27.1652     26.7689     58.1351
  1881.2500    223.1582     25.7246     26.9204     26.5570     55.2700
  1881.5000    222.3490     25.6356     26.7329     26.4633     50.8638
  1881.7500    221.6471     25.6114     26.6142     26.4214     47.9064
  1882.0000    221.0537     25.6487     26.5719     26.4355     44.0817
  1882.2500    220.5487     25.7439     26.6090     26.5710     42.1552
  1882.5000    220.0911     25.8952     26.7246     26.9238     40.3333
  1882.7500    219.6291     26.0983     26.9130     27.5794     39.9324
  1883.0000    219.1181     26.3398     27.1636     28.5639     40.5507
  1883.2500    218.5410     26.5961     27.4604     29.7976     41.5188
  1883.5000    217.9155     26.8435     27.7824     31.0795     43.0832
  1883.7500    217.2811     27.0692     28.1060     32.1316     43.8396
  1884.0000    216.6751     27.2736     28.4080     32.6993     44.4073
  1884.2500    216.1174     27.4615     28.6694     32.6603     44.6728
  1884.5000    215.6137     27.6315     28.8788     32.0885     45.4493
  1884.7500    215.1655     27.7743     29.0332     31.2335     46.1456
  1885.0000    214.7775     27.8804     29.1367     30.4069     46.5261
  1885.2500    214.4574     27.9496     29.1979     29.8278     45.8397
  1885.5000    214.2132     27.9949     29.2271     29.5321     43.5554
  1885.7500    214.0516     28.0385     29.2351     29.4042     41.7755
