~Version Information
VERS.                      2.0: CWLS Log ASCII Standard - VERSION 2.0
WRAP.                       NO: One line per depth step
~Well Information Block
STRT.FT               550.0000: 
STOP.FT              1498.5000: 
STEP.FT                 0.1000: 
NULL.                -999.2500: 
COMP.          Pioneer Natural Resources: COMPANY
WELL.          Surtees 23-34 Tr: WELL
FLD.           Purgatoire River: FIELD
LOC.           1559' FSL & 1997' FWL: LOCATION
PROV.                 Colorado: PROVINCE
CNTY.               Las Animas: COUNTRY
SRVC.                Patterson: SERVICE COMPANY
DATE.          Wed Jul 27 09:35:51 2005: LOG DATE
UWI.           05 071 08449 00: UNIQUE WELL ID
~Curve Information Block
DEPT.FT            0 000 00 00: Depth
DCAL.in                       : CDL Caliper
RHOB.g/cc                     : CDL Bulk Density
RHOC.g/cc                     : CDL Density Correction
DPOR.pu                       : CDL Density Porosity
GR.GAPI                       : Gamma Ray
NPOR.pu                       : Neutron Porosity
~Parameter Information Block
~A  Depth       DCAL        RHOB        RHOC        DPOR         GR         NPOR    
# ...
  1298.8000      8.0341      2.5273      0.0253      7.4343     46.3165     17.1358
  1298.9000      8.0341      2.5259      0.0566      7.5201     49.2328     16.8831
  1299.0000      7.9998      2.5416      0.0657      6.5681     48.3139     16.1824
  1299.1000      7.9998      2.5568      0.0951      5.6458     45.3082     16.0790
  1299.2000      7.9998      2.5610      0.0924      5.3936     45.3977     16.6249
  1299.3000      7.9994      2.5550      0.0817      5.7592     47.8494     17.1730
  1299.4000      7.9994      2.5489      0.0865      6.1243     49.0703     17.1691
  1299.5000      8.0050      2.5531      0.0864      5.8755     47.7102     16.9591
  1299.6000      8.0050      2.5577      0.0838      5.5929     45.3686     17.2414
  1299.7000      8.0050      2.5409      0.0669      6.6144     44.8822     17.8441
  1299.8000      8.0324      2.5027      0.0160      8.9247     47.8891     18.3247
  1299.9000      8.0324      2.4764     -0.0078     10.5242     54.8725     19.0423
  1300.0000      8.0371      2.4893      0.0678      9.7415     63.5664     19.8301
  1300.1000      8.0371      2.5330      0.0330      7.0879     71.2101     19.9183
  1300.2000      8.0371      2.5793      0.0945      4.2863     78.5924     19.8925
  1300.3000      8.0482      2.6101      0.0808      2.4210     84.5784     20.5865
  1300.4000      8.0482      2.6230      0.1379      1.6376     87.8190     21.7131
  1300.5000      8.0512      2.6133      0.0957      2.2256     93.4391     22.6608
  1300.6000      8.0512      2.5845      0.1035      3.9715    104.5697     23.1361
  1300.7000      8.0512      2.5601      0.0211      5.4494    115.9597     23.7759
  1300.8000      8.0465      2.5611      0.0586      5.3904    120.2731     24.9911
  1300.9000      8.0465      2.5754      0.0567      4.5231    118.4323     25.8531
  1301.0000      8.0746      2.5712      0.0726      4.7743    118.8532     25.9890
  1301.1000      8.0746      2.5391      0.0273      6.7220    124.0970     26.0171
  1301.2000      8.0746      2.4991      0.0857      9.1476    129.3249     26.2306
  1301.3000      8.0909      2.4701      0.0768     10.9018    131.3195     26.4798
  1301.4000      8.0909      2.4567      0.0784     11.7167    129.4253     26.5762
  1301.5000      8.0954      2.4575      0.0751     11.6692    125.6074     27.4024
  1301.6000      8.0954      2.4655      0.1143     11.1820    125.8166     29.5753
  1301.7000      8.0954      2.4673      0.1009     11.0700    129.9529     31.8378
  1301.8000      8.1047      2.4600      0.0787     11.5161    133.3412     32.4351
  1301.9000      8.1047      2.4462      0.1272     12.3488    134.2425     31.1404
  1302.0000      8.1372      2.4161      0.1016     14.1767    133.2649     29.6952
  1302.1000      8.1372      2.3576      0.1109     17.7216    133.6990     29.7207
  1302.2000      8.1372      2.2757      0.0383     22.6877    137.2286     30.6108
  1302.3000      8.1155      2.1882      0.0232     27.9872    138.9085     30.9100
  1302.4000      8.1155      2.1025     -0.0091     33.1828    135.6767     30.4079
  1302.5000      8.0981      2.0190     -0.0212     38.2453    132.5265     29.7980
  1302.6000      8.0981      1.9505     -0.0409     42.3958    131.8877     29.7016
  1302.7000      8.0981      1.9088      0.0002     44.9213    129.4116     29.8051
  1302.8000      8.1060      1.8957     -0.0459     45.7144    123.0778     29.5142
  1302.9000      8.1060      1.9248     -0.0328     43.9502    116.9352     29.3338
  1303.0000      8.1373      2.0089      0.0353     38.8550    115.4867     30.0769
  1303.1000      8.1373      2.1253      0.1690     31.8020    117.8211     31.5924
  1303.2000      8.1373      2.2359      0.2241     25.0992    120.7123     32.6280
  1303.3000      8.1541      2.3327      0.1961     19.2292    121.8248     32.0209
  1303.4000      8.1541      2.4209      0.2226     13.8871    121.5071     30.5539
  1303.5000      8.1399      2.4863      0.1865      9.9237    122.1743     29.6515
  1303.6000      8.1399      2.5187      0.1429      7.9605    126.0957     29.1056
  1303.7000      8.1399      2.5225      0.0919      7.7301    131.1904     28.5586
  1303.8000      8.0801      2.5045      0.1098      8.8177    132.4024     28.8437
  1303.9000      8.0801      2.4835      0.0190     10.0893    129.8421     29.7586
  1304.0000      8.0601      2.4825      0.0983     10.1487    127.6706     30.0032
  1304.1000      8.0601      2.4963      0.1082      9.3153    127.0684     29.7634
  1304.2000      8.0601      2.4973      0.1143      9.2521    127.2241     29.9772
  1304.3000      8.0689      2.4778      0.0696     10.4342    130.2088     30.7932
  1304.4000      8.0689      2.4626      0.0473     11.3574    135.1809     31.8326
  1304.5000      8.0507      2.4641      0.0737     11.2655    137.2902     32.0909
  1304.6000      8.0507      2.4640      0.0441     11.2709    136.7297     30.8189
  1304.7000      8.0507      2.4496      0.0408     12.1433    134.9284     29.0908
  1304.8000      8.0410      2.4293      0.0187     13.3741    132.3428     28.4431
  1304.9000      8.0410      2.4192      0.0401     13.9875    134.3508     29.0318
  1305.0000      8.0696      2.4300      0.0087     13.3323    144.4500     30.2963
  1305.1000      8.0696      2.4572      0.0597     11.6857    153.7963     31.4874
  1305.2000      8.0696      2.4813      0.0751     10.2242    152.9057     31.5861
  1305.3000      8.0549      2.4881      0.0834      9.8138    148.6371     30.6343
  1305.4000      8.0549      2.4811      0.1136     10.2370    150.3983     30.2176
  1305.5000      8.0599      2.4782      0.0498     10.4150    156.7368     30.6630
  1305.6000      8.0599      2.4897      0.0780      9.7157    162.2195     30.7080
  1305.7000      8.0599      2.4972      0.1124      9.2586    162.4837     29.8463
  1305.8000      8.0804      2.4826      0.0938     10.1430    156.9367     28.5521
  1305.9000      8.0804      2.4596      0.0241     11.5391    149.0648     28.0073
  1306.0000      8.0744      2.4483      0.0654     12.2250    143.2189     28.6929
  1306.1000      8.0744      2.4455      0.0651     12.3964    143.1568     29.5839
  1306.2000      8.0744      2.4390      0.0624     12.7899    148.3444     29.7750
  1306.3000      8.0976      2.4277      0.0430     13.4744    153.6842     29.9372
  1306.4000      8.0976      2.4207      0.0681     13.8954    154.5758     31.0850
  1306.5000      8.0799      2.4293      0.0302     13.3764    153.3422     32.4716
  1306.6000      8.0799      2.4594      0.0455     11.5502    155.5888     32.5837
  1306.7000      8.0799      2.4966      0.1103      9.2962    159.4362     31.4122
  1306.8000      8.0731      2.5093      0.0819      8.5249    158.5450     29.9388
  1306.9000      8.0731      2.4824      0.1068     10.1601    152.1333     28.9588
  1307.0000      8.0879      2.4401      0.0505     12.7235    144.0895     28.4127
  1307.1000      8.0879      2.4193      0.0500     13.9845    138.1901     28.2262
  1307.2000      8.0879      2.4208      0.0919     13.8924    137.3235     28.9927
  1307.3000      8.0797      2.4193      0.0732     13.9830    142.5074     30.2385
  1307.4000      8.0797      2.4043      0.0969     14.8911    146.4779     30.9011
  1307.5000      8.0285      2.3901      0.0444     15.7506    144.3663     31.2541
  1307.6000      8.0285      2.3885      0.1023     15.8509    139.8302     31.5317
  1307.7000      8.0285      2.3835      0.1314     16.1501    136.0376     31.7989
  1307.8000      8.0543      2.3664      0.0838     17.1858    135.1877     32.5041
  1307.9000      8.0543      2.3625      0.0393     17.4220    138.7773     33.2661
  1308.0000      8.0584      2.3863      0.0782     15.9806    146.0347     33.1877
  1308.1000      8.0584      2.4217      0.0676     13.8381    151.8166     32.3832
  1308.2000      8.0584      2.4520      0.1258     12.0002    151.4257     31.7279
  1308.3000      8.0884      2.4717      0.1172     10.8053    147.4376     31.1809
