~Version Information
VERS.                      2.0: CWLS Log ASCII Standard - VERSION 2.0
WRAP.                       NO: One line per depth step
~Well Information Block
STRT.FT                -5.2500: 
STOP.FT              1184.2500: 
STEP.FT                 0.2500: 
NULL.                -999.2500: 
COMP.          Pioneer Natural Resources: COMPANY
WELL.          Lucky Lady 42-29: WELL
FLD.           Purgatoire River: FIELD
LOC.           2482' FNL & 662' FEL: LOCATION
CNTY.               Las Animas: COUNTY
SRVC.                         : SERVICE COMPANY
DATE.          Tue Mar 14 14:47:22 2006: LOG DATE
UWI.           05 071 08659 00: UNIQUE WELL ID
STAT.                       CO: STATE
~Curve Information Block
DEPT.FT            0 000 00 00: Depth
GR.GAPI                       : Gamma Ray
CCL.                          : Casing Collar Locator
TT3.usec                      : CBL 3' Travel Time
AMP3.mV                       : CBL 3' Amplitude
~Parameter Information Block
~A  Depth        GR         CCL         TT3         AMP3    
# ...
  1167.2500    100.5624      0.0000    737.1973      7.8952
  1167.5000     96.6094      0.0000    728.3287      7.7765
  1167.7500     90.0787      0.0000    715.4313      7.6847
  1168.0000     82.6265      0.0000    703.8457      7.6100
  1168.2500     77.5471      0.0000    697.2634      7.5271
  1168.5000     77.4631      0.0000    695.5085      7.4179
  1168.7500     82.4382      0.0000    695.8797      7.2898
  1169.0000     89.9940      0.0000    696.0950      7.1628
  1169.2500     96.5604      0.0000    693.9307      7.0250
  1169.5000     99.2643      0.0000    682.1514      6.7900
  1169.7500     97.2492      0.0000    645.0387      6.3022
  1170.0000     91.9181      0.0000    565.5030      5.4236
  1170.2500     85.9991      0.0000    441.7128      4.1689
  1170.5000     82.0993      0.0000    296.8131      2.7667
  1170.7500     81.6295      0.0000    166.9482      1.5423
  1171.0000     84.6182      0.0000     77.0384      0.7073
  1171.2500     90.2406      0.0000     28.7480      0.2628
  1171.5000     97.2578      0.0000      8.5849      0.0782
  1171.7500    104.0554      0.0000      2.0339      0.0185
  1172.0000    108.8956      0.0000      0.3764      0.0034
  1172.2500    110.6789      0.0000      0.0501      0.0005
  1172.5000    109.5342      0.0000   -999.2500   -999.2500
  1172.7500    106.7795      0.0000   -999.2500   -999.2500
  1173.0000    104.3885      0.0000   -999.2500   -999.2500
  1173.2500    103.7983      0.0000   -999.2500   -999.2500
  1173.5000    104.5634      0.0000   -999.2500   -999.2500
  1173.7500    104.5604      0.0000   -999.2500   -999.2500
  1174.0000    102.0308      0.0000   -999.2500   -999.2500
  1174.2500     97.2000      0.0000   -999.2500   -999.2500
  1174.5000     91.8162      0.0000   -999.2500   -999.2500
  1174.7500     87.6901      0.0000   -999.2500   -999.2500
  1175.0000     85.8160      0.0000   -999.2500   -999.2500
  1175.2500     86.1080      0.0000   -999.2500   -999.2500
  1175.5000     87.4013      0.0000   -999.2500   -999.2500
  1175.7500     88.0995      0.0000   -999.2500   -999.2500
  1176.0000     87.4123      0.0000   -999.2500   -999.2500
  1176.2500     86.0117      0.0000   -999.2500   -999.2500
  1176.5000     85.1922      0.0000   -999.2500   -999.2500
  1176.7500     85.3093      0.0000   -999.2500   -999.2500
  1177.0000     85.3442      0.0000   -999.2500   -999.2500
  1177.2500     84.2245      0.0000   -999.2500   -999.2500
  1177.5000     82.3927      0.0000   -999.2500   -999.2500
  1177.7500     81.6775      0.0000   -999.2500   -999.2500
  1178.0000     83.4916   -999.2500   -999.2500   -999.2500
  1178.2500     87.3716   -999.2500   -999.2500   -999.2500
  1178.5000     91.4263   -999.2500   -999.2500   -999.2500
  1178.7500     93.9415   -999.2500   -999.2500   -999.2500
  1179.0000     94.3055   -999.2500   -999.2500   -999.2500
  1179.2500     92.7837   -999.2500   -999.2500   -999.2500
  1179.5000     90.0160   -999.2500   -999.2500   -999.2500
  1179.7500     86.3996   -999.2500   -999.2500   -999.2500
  1180.0000     81.0911   -999.2500   -999.2500   -999.2500
  1180.2500     71.8884   -999.2500   -999.2500   -999.2500
  1180.5000     57.3814   -999.2500   -999.2500   -999.2500
  1180.7500     39.4506   -999.2500   -999.2500   -999.2500
  1181.0000     22.6124   -999.2500   -999.2500   -999.2500
  1181.2500     10.5758   -999.2500   -999.2500   -999.2500
  1181.5000      3.9805   -999.2500   -999.2500   -999.2500
  1181.7500      1.1947   -999.2500   -999.2500   -999.2500
  1182.0000      0.2839   -999.2500   -999.2500   -999.2500
  1182.2500      0.0529   -999.2500   -999.2500   -999.2500
  1182.5000      0.0070   -999.2500   -999.2500   -999.2500
  1182.7500      0.0000   -999.2500   -999.2500   -999.2500
  1183.0000   -999.2500   -999.2500   -999.2500   -999.2500
  1183.2500   -999.2500   -999.2500   -999.2500   -999.2500
  1183.5000   -999.2500   -999.2500   -999.2500   -999.2500
  1183.7500   -999.2500   -999.2500   -999.2500   -999.2500
  1184.0000   -999.2500   -999.2500   -999.2500   -999.2500
  1184.2500   -999.2500   -999.2500   -999.2500   -999.2500
