~Version Information
VERS.                      2.0: CWLS Log ASCII Standard - VERSION 2.0
WRAP.                       NO: One line per depth step
~Well Information Block
STRT.FT                -1.5000: 
STOP.FT              2143.7500: 
STEP.FT                 0.2500: 
NULL.                -999.2500: 
COMP.          Pioneer Natural Resources: COMPANY
WELL.              Kermit 32-7: WELL
FLD.           Purgatoire River: FIELD
LOC.           2002' FNL & 2103' FEL: LOCATION
PROV.                 Colorado: PROVINCE
CNTY.               Las Animas: COUNTRY
SRVC.                Patterson: SERVICE COMPANY
DATE.          Wed Jan 18 14:17:49 2006: LOG DATE
UWI.           05 071 08647 00: UNIQUE WELL ID
~Curve Information Block
DEPT.FT            0 000 00 00: Depth
GR.GAPI                       : Gamma Ray
CCL.                          : Casing Collar Locator
TT3.usec                      : CBL 3' Travel Time
AMP3.mV                       : CBL 3' Amplitude
~Parameter Information Block
~A  Depth        GR         CCL         TT3         AMP3    
# ...
   568.0000     83.3358      0.0000    647.2028     12.2541
   568.2500     84.1441      0.0000    642.6329     12.2625
   568.5000     84.4620      0.0000    640.5313     12.2382
   568.7500     84.2300      0.0000    639.8498     12.1962
   569.0000     84.3627      0.0000    639.6895     12.1488
   569.2500     85.6494      0.0000    639.6011     12.1004
   569.5000     88.0208      0.0000    639.4315     12.0522
   569.7500     90.6315      0.0000    639.1877     12.0067
   570.0000     92.4046      0.0000    638.9355     11.9638
   570.2500     92.8057      0.0000    638.6713     11.9161
   570.5000     92.1645      0.0000    638.1461     11.8538
   570.7500     91.0150      0.0000    636.8395     11.7768
   571.0000     89.4058      0.0000    634.3002     11.6985
   571.2500     87.2269      0.0000    630.7819     11.6380
   571.5000     84.7541      0.0000    627.5479     11.6086
   571.7500     82.3238      0.0000    626.1478     11.6110
   572.0000     79.9766      0.0000    626.9705     11.6343
   572.2500     77.9494      0.0000    628.4247     11.6652
   572.5000     77.0283      0.0000    627.7680     11.6954
   572.7500     77.8994      0.0000    623.2881     11.7227
   573.0000     80.3596      0.0000    616.3043     11.7463
   573.2500     83.3771      0.0000    610.9651     11.7634
   573.5000     85.7172      0.0000    611.1485     11.7715
   573.7500     86.5505      0.0000    617.0709     11.7712
   574.0000     85.8452      0.0000    625.1960     11.7659
   574.2500     84.3532      0.0000    631.2373     11.7602
   574.5000     82.9665      0.0000    632.5175     11.7575
   574.7500     81.8747      0.0000    628.2102     11.7577
   575.0000     80.4242      0.0000    619.4427     11.7546
   575.2500     77.9832      0.0000    609.9395     11.7383
   575.5000     74.8973      0.0000    604.6070     11.7021
   575.7500     72.4032      0.0000    605.5892     11.6500
   576.0000     71.5034      0.0000    610.5063     11.5983
   576.2500     72.0789      0.0000    615.7375     11.5649
   576.5000     73.2573      0.0000    620.2205     11.5553
   576.7500     74.3662      0.0000    624.9191     11.5586
   577.0000     75.2278      0.0000    630.0975     11.5559
   577.2500     75.7510      0.0000    634.7906     11.5330
   577.5000     75.6508      0.0000    638.3308     11.4863
   577.7500     74.6231      0.0000    641.2755     11.4213
   578.0000     72.5975      0.0000    644.7950     11.3458
   578.2500     69.8295      0.0000    649.3448     11.2658
   578.5000     66.9179      0.0000    653.8018     11.1879
   578.7500     64.7478      0.0000    656.2993     11.1223
   579.0000     64.1307      0.0000    656.4614     11.0795
   579.2500     65.2083      0.0000    656.5007     11.0629
   579.5000     67.1423      0.0000    659.1727     11.0664
   579.7500     68.6035      0.0000    664.4304     11.0805
   580.0000     68.8202      0.0000    668.7029     11.0995
   580.2500     68.3509      0.0000    668.0761     11.1238
   580.5000     68.8440      0.0000    662.0576     11.1563
   580.7500     71.8133      0.0000    653.7874     11.1984
   581.0000     77.3776      0.0000    646.9804     11.2474
   581.2500     84.1308      0.0000    643.4984     11.2975
   581.5000     90.2048      0.0000    643.6297     11.3446
   581.7500     94.3861      0.0000    647.4077     11.3881
   582.0000     96.4351      0.0000    654.6399     11.4278
   582.2500     96.7537      0.0000    663.6418     11.4630
   582.5000     95.8221      0.0000    670.8620     11.4927
   582.7500     93.6973      0.0000    672.9440     11.5163
   583.0000     90.0519      0.0000    669.6360     11.5331
   583.2500     84.9188      0.0000    664.3460     11.5410
   583.5000     79.2019      0.0000    661.4999     11.5354
   583.7500     74.1212      0.0000    663.1321     11.5106
   584.0000     70.3191      0.0000    667.6278     11.4615
   584.2500     67.8078      0.0000    671.3383     11.3878
   584.5000     66.5942      0.0000    671.4520     11.2957
   584.7500     66.9652      0.0000    667.8356     11.1985
   585.0000     69.1034      0.0000    662.7143     11.1143
   585.2500     72.5632      0.0000    658.7693     11.0565
   585.5000     76.1663      0.0000    657.3270     11.0270
   585.7500     78.5385      0.0000    657.7880     11.0173
   586.0000     79.0204      0.0000    658.2347     11.0181
   586.2500     78.0628      0.0000    656.7927     11.0251
   586.5000     76.5508      0.0000    653.0958     11.0374
   586.7500     74.8566      0.0000    648.5744     11.0538
   587.0000     72.8043      0.0000    645.1489     11.0722
   587.2500     70.3269      0.0000    643.7162     11.0941
   587.5000     67.7656      0.0000    643.4004     11.1255
   587.7500     65.6424      0.0000    641.2044     11.1729
   588.0000     64.3428      0.0000    632.6957     11.2375
   588.2500     63.8108      0.0000    615.3650     11.3141
   588.5000     63.4059      0.0000    592.9283     11.3956
   588.7500     62.2614      0.0000    574.4674     11.4783
   589.0000     60.0414      0.0000    566.6219     11.5623
   589.2500     57.4332      0.0000    567.0521     11.6475
   589.5000     55.7488      0.0000    567.5502     11.7289
   589.7500     55.8366      0.0000    563.0479     11.7972
   590.0000     57.4431      0.0000    555.6483     11.8440
   590.2500     59.7762      0.0000    550.4290     11.8680
   590.5000     62.4023      0.0000    549.6925     11.8735
   590.7500     65.2735      0.0000    552.1081     11.8667
   591.0000     68.2323      0.0000    556.3430     11.8521
   591.2500     70.9869      0.0000    563.9728     11.8303
   591.5000     73.4135      0.0000    577.6636     11.7963
   591.7500     75.5320      0.0000    597.1473     11.7456
   592.0000     77.2660      0.0000    619.0667     11.6848
   592.2500     78.4316      0.0000    641.0585     11.6322
   592.5000     78.9003      0.0000    663.9087     11.6063
   592.7500     78.6285      0.0000    688.4454     11.6125
   593.0000     77.5256      0.0000    711.4170     11.6381
   593.2500     75.3346      0.0000    725.9724     11.6596
   593.5000     71.7693      0.0000    726.7751     11.6576
   593.7500     67.0066      0.0000    714.9899     11.6319
   594.0000     62.1252      0.0000    698.6680     11.6021
   594.2500     58.8122      0.0000    687.6914     11.5939
   594.5000     58.4339      0.0000    686.7976     11.6202
   594.7500     61.3593      0.0000    692.7040     11.6723
   595.0000     66.9308      0.0000    698.2227     11.7276
   595.2500     73.7746      0.0000    698.9674     11.7672
   595.5000     80.2520      0.0000    695.3188     11.7900
   595.7500     85.0004      0.0000    688.7914     11.8129
   596.0000     87.3315      0.0000    679.1471     11.8645
   596.2500     87.3667      0.0000    665.7111     11.9749
   596.5000     85.9779      0.0000    649.0794     12.1554
   596.7500     84.4231      0.0000    630.7159     12.3547
   597.0000     83.6459      0.0000    613.3953     12.4177
   597.2500     83.6974      0.0000    602.8583     12.1251
   597.5000     83.7330      0.0000    605.6060     11.3572
   597.7500     82.5370      0.0000    622.5780     10.2541
   598.0000     79.3006      0.0000    646.8933      9.1678
   598.2500     74.2139      0.0000    669.1956      8.4094
   598.5000     68.4435      0.0000    683.2302      8.0586
   598.7500     63.4672      2.6244    686.6242      8.0094
   599.0000     60.2218      3.0000    679.7816      8.1360
   599.2500     58.6218      0.0000    664.6047      8.4033
   599.5000     57.8072      0.0000    642.6729      8.8835
   599.7500     57.0263      0.0000    615.9070      9.6765
   600.0000     56.4220      0.0000    589.4766     10.7546
   600.2500     56.8434      0.0000    570.6741     11.8872
   600.5000     58.8448      0.0000    563.3943     12.7993
   600.7500     62.0265      0.0000    566.6158     13.3990
   601.0000     65.4907      0.0000    577.9125     13.7772
   601.2500     68.8816      0.0000    594.5729     14.0297
