~Version Information
VERS.                      2.0: CWLS Log ASCII Standard - VERSION 2.0
WRAP.                       NO: One line per depth step
~Well Information Block
STRT.FT                 0.0000: 
STOP.FT              3428.7500: 
STEP.FT                 0.2500: 
NULL.                -999.2500: 
COMP.          Pioneer Natural Resources: COMPANY
WELL.          Cordillera 34-7: WELL
FLD.           Purgatorie River: FIELD
LOC.           598' FSL & 1770' FEL: LOCATION
PROV.                 Colorado: PROVINCE
CNTY.               Las Animas: COUNTRY
SRVC.                Patterson: SERVICE COMPANY
DATE.          Fri Nov 18 07:55:32 2005: LOG DATE
UWI.                          : UNIQUE WELL ID
~Curve Information Block
DEPT.FT            0 000 00 00: Depth
AMP3.mV                       : CBL 3' Amplitude
CCL.                          : Casing Collar Locator
GR.GAPI                       : Gamma Ray
TT3.usec                      : CBL 3' Travel Time
~Parameter Information Block
~A  Depth       AMP3        CCL          GR         TT3     
# ...
  1574.5000      5.8916      0.0000     99.0189    669.3593
  1574.7500      5.8864      0.0000    102.8165    669.2465
  1575.0000      5.8800      0.0000    109.4414    669.6520
  1575.2500      5.9043      0.0000    117.3292    671.8221
  1575.5000      5.9501      0.0000    124.3780    677.1125
  1575.7500      5.9786      0.0000    128.7915    683.9321
  1576.0000      5.9504      0.0000    129.7890    685.9697
  1576.2500      5.8431      0.0000    127.7221    679.7181
  1576.5000      5.6872      0.0000    123.7033    671.1340
  1576.7500      5.5602      0.0000    119.1518    667.2889
  1577.0000      5.5153      0.0000    115.3863    667.8006
  1577.2500      5.5362      0.0000    113.1192    668.9678
  1577.5000      5.5749      0.0000    112.0600    668.9058
  1577.7500      5.6078      0.0000    111.1241    667.0605
  1578.0000      5.6293      0.0000    109.2643    662.9643
  1578.2500      5.6341      0.0000    106.2420    654.7466
  1578.5000      5.6402      0.0000    102.6862    638.0895
  1578.7500      5.6769      0.0000     99.4943    615.1893
  1579.0000      5.7304      0.0000     97.3120    603.7129
  1579.2500      5.7687      0.0000     96.5861    616.7801
  1579.5000      5.8227      0.0000     97.6723    641.6680
  1579.7500      5.9523      0.0000    100.2676    659.1312
  1580.0000      6.1386      0.0000    102.8849    665.1924
  1580.2500      6.2839      0.0000    103.7299    664.4114
  1580.5000      6.3111      0.0000    102.4304    660.3557
  1580.7500      6.2390      0.0000    100.4886    656.4437
  1581.0000      6.1558      0.0000     99.9336    656.3859
  1581.2500      6.1310      0.0000    101.6882    660.7333
  1581.5000      6.1712      0.0000    104.9934    667.1779
  1581.7500      6.2403      0.0000    108.0013    674.4523
  1582.0000      6.2985      0.0000    109.1001    681.0043
  1582.2500      6.3378      0.0000    108.0725    682.2794
  1582.5000      6.3792      0.0000    106.0310    676.5157
  1582.7500      6.4237      0.0000    104.2081    668.6287
  1583.0000      6.4386      0.0000    103.0141    663.3890
  1583.2500      6.4188      0.0000    102.1203    661.8281
  1583.5000      6.4078      0.0000    100.9693    663.5930
  1583.7500      6.4362      0.0000     99.2162    668.0118
  1584.0000      6.4886      0.0000     97.1246    675.0052
  1584.2500      6.5231      0.0000     95.5216    683.3088
  1584.5000      6.5169      0.0000     95.2117    687.9618
  1584.7500      6.4923      0.0000     96.5448    686.7864
  1585.0000      6.4842      0.0000     99.6413    686.7084
  1585.2500      6.4977      0.0000    104.6714    694.2319
  1585.5000      6.4979      0.0000    111.4823    703.5458
  1585.7500      6.4348      0.0000    118.9858    703.1592
  1586.0000      6.3030      0.0000    125.4843    691.9365
  1586.2500      6.1558      0.0000    129.9238    679.3702
  1586.5000      6.0472      0.0000    132.3926    672.2939
  1586.7500      5.9963      0.0000    133.2257    670.4022
  1587.0000      5.9953      0.0000    132.3195    672.1861
  1587.2500      6.0070      0.0000    129.5927    678.5743
  1587.5000      5.9849      0.0000    125.4073    689.9244
  1587.7500      5.9168      0.0000    120.2992    701.6830
  1588.0000      5.8251      0.0000    114.9664    706.6981
  1588.2500      5.7595      0.0000    110.7066    701.9921
  1588.5000      5.7822      0.0000    109.1226    692.3626
  1588.7500      5.8975      0.0000    110.7631    687.8889
  1589.0000      6.0249      0.0000    114.3115    693.8765
  1589.2500      6.0812      0.0000    117.4810    703.1389
  1589.5000      6.0603      0.0000    118.5953    704.6070
  1589.7500      6.0358      0.0000    117.3290    698.5824
  1590.0000      6.0934      0.0000    114.4602    693.7810
  1590.2500      6.2479      0.0000    111.1623    692.6512
  1590.5000      6.4297      0.0000    108.0425    692.9841
  1590.7500      6.5435      0.0000    104.6017    695.7253
  1591.0000      6.5470      0.0000     99.9114    698.7294
  1591.2500      6.4952      0.0000     93.8459    696.1453
  1591.5000      6.4890      0.0000     87.3604    688.9153
  1591.7500      6.5720      0.0000     81.7917    682.0664
  1592.0000      6.7073      0.0000     78.2582    676.5988
  1592.2500      6.8437      0.0000     77.4610    673.3486
  1592.5000      6.9646      0.0000     79.4063    675.6191
  1592.7500      7.0651      0.0000     83.1726    683.8062
  1593.0000      7.1068      0.0000     87.4074    693.3623
  1593.2500      7.0464      0.0000     91.3547    700.4163
  1593.5000      6.9224      0.0000     95.2642    703.8474
  1593.7500      6.8375      0.0000     99.6804    701.8643
  1594.0000      6.8215      0.0000    104.4953    695.9294
  1594.2500      6.7949      0.0000    108.9061    691.6583
  1594.5000      6.6908      0.0000    112.2071    688.9678
  1594.7500      6.5217      0.0000    114.4849    683.2854
  1595.0000      6.3389      0.0000    116.5610    675.3532
  1595.2500      6.2171      0.0000    119.1436    668.2589
  1595.5000      6.2160      0.0000    121.7953    660.6360
  1595.7500      6.3104      0.0000    122.8993    650.1308
  1596.0000      6.4118      0.0000    121.0910    639.5496
  1596.2500      6.4333      0.0000    116.7890    633.6483
  1596.5000      6.3398      0.0000    112.0363    631.3882
  1596.7500      6.1826      0.0000    108.8694    628.2667
  1597.0000      6.0520      0.0000    108.0689    622.8015
  1597.2500      5.9808      0.0000    109.2491    617.4545
  1597.5000      5.9296      0.0000    111.4748    619.2222
  1597.7500      5.8672      0.0000    113.6259    632.5112
  1598.0000      5.8075      0.0000    114.8442    649.8531
  1598.2500      5.7532      0.0000    115.1169    661.3940
  1598.5000      5.6858      0.0000    115.1120    666.0624
  1598.7500      5.6141      0.0000    115.2729    667.4087
  1599.0000      5.5771      0.0000    115.4683    667.7267
  1599.2500      5.5911      0.0000    115.4772    667.8112
  1599.5000      5.6340      0.0000    115.0963    667.8948
  1599.7500      5.6836      0.0000    113.7278    667.7581
  1600.0000      5.7308      0.0000    110.7317    666.4392
  1600.2500      5.7627      0.0000    106.6314    661.7379
  1600.5000      5.7722      0.0000    103.4812    651.0868
  1600.7500      5.7757      0.0000    103.4544    635.9857
  1601.0000      5.7957      0.0000    106.9610    625.2695
  1601.2500      5.8262      0.0000    112.2352    627.9875
  1601.5000      5.8464      0.0000    116.6964    641.9298
  1601.7500      5.8243      0.0000    118.5643    655.8757
  1602.0000      5.6788      0.0000    117.4212    662.4348
  1602.2500      5.3759      0.0000    113.9058    662.8248
  1602.5000      5.1357      0.0000    109.1827    662.8019
  1602.7500      5.2445      0.0000    104.5348    668.8495
  1603.0000      5.5222      0.0000    101.2590    685.2944
  1603.2500      5.5406      0.0000    100.3989    709.9356
  1603.5000      5.3322      0.0000    101.7965    734.3750
  1603.7500      5.1787      0.0000    103.5838    756.0629
  1604.0000      5.1014      0.0000    103.5569    788.3464
  1604.2500      5.0247      2.0000    101.3235    842.8363
  1604.5000      4.9964     -2.0000     98.5653    897.9348
  1604.7500      5.0665      0.0000     97.1608    914.4350
  1605.0000      5.2433      0.0000     97.4829    884.8438
  1605.2500      5.6319      0.0000     98.4655    832.6830
  1605.5000      6.2408      0.0000     98.7595    779.9138
  1605.7500      6.6596      0.0000     97.5487    740.6721
  1606.0000      6.5897      0.0000     94.6429    719.9464
  1606.2500      6.3992      0.0000     90.4269    710.7855
  1606.5000      6.4502      0.0000     85.9532    706.0092
  1606.7500      6.5822      0.0000     82.7144    703.7690
  1607.0000      6.5805      0.0000     81.7837    701.4065
  1607.2500      6.4775      0.0000     83.0555    697.0413
  1607.5000      6.3538      0.0000     85.4277    693.3216
  1607.7500      6.2141      0.0000     87.6148    692.8787
