~Version Information
VERS.                      2.0: CWLS Log ASCII Standard - VERSION 2.0
WRAP.                       NO: One line per depth step
~Well Information Block
STRT.FT                -6.7500: 
STOP.FT              2256.0000: 
STEP.FT                 0.2500: 
NULL.                -999.2500: 
COMP.          Pioneer Natural Resources: COMPANY
WELL.               Relay 12-7: WELL
FLD.           Purgatorie River: FIELD
LOC.           1999' FNL & 848' FWL--: LOCATION
PROV.                       CO: PROVINCE
CNTY.               Las Animas: COUNTRY
SRVC.          Patterson Wireline: SERVICE COMPANY
DATE.          Thu Dec 22 09:06:31 2005: LOG DATE
UWI.           05 071 08453 00: UNIQUE WELL ID
~Curve Information Block
DEPT.FT            0 000 00 00: Depth
CCL.                          : Casing Collar Locator
TT3.usec                      : CBL 3' Travel Time
AMP3.mV                       : CBL 3' Amplitude
GR.GAPI                       : Gamma Ray
~Parameter Information Block
~A  Depth       CCL         TT3         AMP3         GR     
# ...
   730.2500      0.0000    817.2799      7.2218     86.3075
   730.5000      0.0000    802.2025      7.2366     81.8214
   730.7500      0.0000    782.9456      7.2211     79.8957
   731.0000      0.0000    764.5788      7.1673     79.7160
   731.2500      0.0000    751.8964      7.0859     79.6821
   731.5000      0.0000    748.8143      7.0034     78.7519
   731.7500      0.0000    755.9376      6.9467     77.5452
   732.0000      0.0000    768.9020      6.9250     77.3668
   732.2500      0.0000    780.7015      6.9257     78.3233
   732.5000      0.0000    786.5999      6.9276     79.0648
   732.7500      0.0000    786.5899      6.9160     78.3315
   733.0000      0.0000    783.2976      6.8864     76.0904
   733.2500      0.0000    778.5739      6.8393     73.0678
   733.5000      0.0000    772.4987      6.7760     69.8232
   733.7500      0.0000    764.8107      6.7020     66.6870
   734.0000      0.0000    756.3288      6.6318     64.1631
   734.2500      0.0000    748.7357      6.5825     62.9005
   734.5000      0.0000    743.3002      6.5597     63.2552
   734.7500      0.0000    740.1246      6.5531     64.9629
   735.0000      0.0000    738.5188      6.5451     67.1651
   735.2500      0.0000    737.7620      6.5242     68.8194
   735.5000      0.0000    737.4437      6.4900     69.4071
   735.7500      0.0000    737.3745      6.4524     69.4033
   736.0000      0.0000    737.4332      6.4253     69.8446
   736.2500      0.0000    737.5372      6.4196     71.2470
   736.5000      0.0000    737.6992      6.4376     73.1931
   736.7500      0.0000    738.0865      6.4729     75.1710
   737.0000      0.0000    739.0357      6.5139     77.4692
   737.2500      0.0000    740.8999      6.5500     80.7027
   737.5000      0.0000    743.6062      6.5747     84.4921
   737.7500      0.0000    746.2474      6.5865     87.1899
   738.0000      0.0000    747.4481      6.5896     87.2755
   738.2500      0.0000    746.6147      6.5928     84.7406
   738.5000      0.0000    744.7926      6.6075     80.9543
   738.7500      0.0000    744.1240      6.6404     77.7403
   739.0000      0.0000    746.3251      6.6884     76.7701
   739.2500      0.0000    751.1625      6.7408     78.9871
   739.5000      0.0000    755.9299      6.7867     84.0592
   739.7500      0.0000    757.0982      6.8214     90.6557
   740.0000      0.0000    753.4284      6.8476     97.4944
   740.2500      0.0000    747.1271      6.8726    103.9300
   740.5000      0.0000    741.5013      6.9025    109.3905
   740.7500      0.0000    738.1666      6.9381    112.5670
   741.0000      0.0000    736.7827      6.9755    112.0644
   741.2500      0.0000    736.4089      7.0123    108.3732
   741.5000      0.0000    736.3952      7.0538    104.3302
   741.7500      0.0000    736.4226      7.1103    102.5834
   742.0000      0.0000    736.3491      7.1862    102.8942
   742.2500      0.0000    736.1759      7.2744    102.6225
   742.5000      0.0000    736.0359      7.3623     99.7840
   742.7500      0.0000    736.1688      7.4429     95.1545
   743.0000      0.0000    736.9010      7.5181     91.1957
   743.2500      0.0000    738.5928      7.5922     89.1687
   743.5000      0.0000    741.3790      7.6640     87.9005
   743.7500      0.0000    744.9030      7.7273     85.5258
   744.0000      0.0000    748.6272      7.7765     81.8269
   744.2500      0.0000    752.5568      7.8107     78.5482
   744.5000      0.0000    757.3489      7.8298     78.0678
   744.7500      0.0000    763.6066      7.8287     81.9521
   745.0000      0.0000    771.4374      7.8006     89.8828
   745.2500      0.0000    780.3949      7.7450     99.4714
   745.5000      0.0000    789.3309      7.6727    107.8484
   745.7500      0.0000    796.8010      7.6031    114.0150
   746.0000      0.0000    802.2734      7.5556    119.1883
   746.2500      0.0000    806.5154      7.5407    124.4942
   746.5000      0.0000    810.4352      7.5566    129.0003
   746.7500      0.0000    814.1409      7.5950    130.7276
   747.0000      0.0000    817.4600      7.6485    129.2311
   747.2500      0.0000    820.9810      7.7154    126.4015
   747.5000      0.0000    825.9325      7.7970    124.8026
   747.7500      0.0000    832.4075      7.8923    125.7215
   748.0000      0.0000    838.0765      7.9896    128.4964
   748.2500      0.0000    839.7379      8.0672    131.1145
   748.5000      0.0000    836.2968      8.1068    131.6035
   748.7500      0.0000    829.7007      8.1097    129.2301
   749.0000      0.0000    823.1736      8.0962    124.5981
   749.2500      0.0000    818.8373      8.0877    118.8510
   749.5000      0.0000    816.7031      8.0923    112.8579
   749.7500      0.0000    815.2797      8.1044    107.1162
   750.0000      0.0000    813.0586      8.1146    102.3744
   750.2500      0.0000    809.5714      8.1191     99.9863
   750.5000      0.0000    805.0682      8.1216    101.1147
   750.7500      0.0000    799.6581      8.1241    105.4530
   751.0000      0.0000    793.4676      8.1193    111.0958
   751.2500      0.0000    787.3666      8.0940    115.9519
   751.5000      0.0000    782.2128      8.0359    119.2518
   751.7500      0.0000    776.9053      7.9369    121.7253
   752.0000      0.0000    768.4025      7.8013    124.3902
   752.2500      0.0000    755.1063      7.6557    127.3084
   752.5000      0.0000    739.8204      7.5400    129.8060
   752.7500      0.0000    727.5985      7.4806    131.8166
   753.0000      0.0000    720.2787      7.4747    134.1667
   753.2500      0.0000    714.5561      7.5033    137.0883
   753.5000      0.0000    705.9789      7.5506    139.2429
   753.7500      0.0000    693.5543      7.6081    139.1798
   754.0000      0.0000    680.1263      7.6670    137.4709
   754.2500      0.0000    669.8543      7.7165    136.5975
   754.5000      0.0000    666.0047      7.7501    138.5411
   754.7500      0.0000    669.9116      7.7663    142.7942
   755.0000      0.0000    680.9087      7.7647    146.9419
   755.2500      0.0000    697.0322      7.7465    149.0876
   755.5000      0.0000    715.6308      7.7229    149.2787
   755.7500      0.0000    733.5579      7.7139    148.3763
   756.0000      0.0000    747.8466      7.7338    146.1868
   756.2500      0.0000    757.0440      7.7793    141.5831
   756.5000      0.0000    761.7311      7.8316    134.3939
   756.7500      0.0000    763.5779      7.8721    126.3544
   757.0000      0.0000    764.0179      7.8950    119.7562
   757.2500      0.0000    763.5339      7.9049    115.5403
   757.5000      0.0000    761.4689      7.9029    113.0951
   757.7500      0.0000    756.1598      7.8763    111.5746
   758.0000      0.0000    745.9681      7.8019    110.9073
   758.2500      0.0000    731.3347      7.6585    111.4536
   758.5000      0.0000    716.1122      7.4454    112.8506
   758.7500      0.0000    705.6406      7.2002    113.7214
   759.0000      0.0000    702.6219      6.9922    113.1236
   759.2500      0.0000    705.5583      6.8722    111.9046
   759.5000      0.0000    712.0809      6.8131    111.5786
   759.7500      0.0000    722.5539      6.7332    111.9072
   760.0000      0.0000    738.5456      6.6004    110.6598
   760.2500      0.0000    758.1413      6.4825    106.0884
   760.5000      0.0000    774.8274      6.4714     98.9080
   760.7500      0.0000    781.8842      6.5843     91.4948
   761.0000      0.0000    777.4593      6.7575     85.7824
   761.2500     -2.0000    765.6168      6.9032     82.4370
   761.5000      0.0000    753.0818      6.9584     81.6013
   761.7500      0.0000    744.3339      6.9154     83.6242
   762.0000      0.0000    738.7719      6.8379     88.6840
   762.2500      0.0000    731.9880      6.8370     95.7028
   762.5000      0.0000    719.6224      7.0034    102.1334
   762.7500      0.0000    701.0253      7.3487    105.4998
   763.0000      0.0000    680.9218      7.7976    105.2357
   763.2500      0.0000    666.9123      8.2256    102.7517
   763.5000      0.0000    663.5054      8.5240     99.9348
