~Version Information
VERS.                      2.0: CWLS Log ASCII Standard - VERSION 2.0
WRAP.                       NO: One line per depth step
~Well Information Block
STRT.FT                -7.0000: 
STOP.FT              2328.5000: 
STEP.FT                 0.2500: 
NULL.                -999.2500: 
COMP.          Pioneer Natural Resources: COMPANY
WELL.              Rolls 14-14: WELL
FLD.           Purgatorie River: FIELD
LOC.           572' FSL & 856' FWL--: LOCATION
PROV.                       CO: PROVINCE
CNTY.               Las Animas: COUNTRY
SRVC.          Patterson Wireline: SERVICE COMPANY
DATE.          Mon Aug 08 10:10:54 2005: LOG DATE
UWI.           05 071 08455 00: UNIQUE WELL ID
~Curve Information Block
DEPT.FT            0 000 00 00: Depth
CCL.                          : Casing Collar Locator
TT3.usec                      : CBL 3' Travel Time
AMP3.mV                       : CBL 3' Amplitude
GR.GAPI                       : Gamma Ray
~Parameter Information Block
~A  Depth       CCL         TT3         AMP3         GR     
# ...
  1065.0000      0.0000    865.6803      4.5113    123.6905
  1065.2500      0.0000    872.7719      4.5123    129.4874
  1065.5000      0.0000    875.9105      4.5039    134.3388
  1065.7500      0.0000    872.9366      4.4943    136.2878
  1066.0000      0.0000    863.6594      4.4894    134.4856
  1066.2500      0.0000    850.3356      4.4852    130.3351
  1066.5000      0.0000    837.4414      4.4726    126.2744
  1066.7500      0.0000    830.2963      4.4453    123.5253
  1067.0000      0.0000    832.3398      4.4097    121.7309
  1067.2500      0.0000    842.7575      4.3858    120.5466
  1067.5000      0.0000    856.5071      4.3896    120.5820
  1067.7500      0.0000    866.6246      4.4164    122.5216
  1068.0000      0.0000    867.1233      4.4480    126.1232
  1068.2500      0.0000    855.3622      4.4733    130.5773
  1068.5000      0.0000    833.4252      4.4928    135.1382
  1068.7500      0.0000    807.4891      4.5079    138.9636
  1069.0000      0.0000    784.5497      4.5162    140.9366
  1069.2500      0.0000    768.5739      4.5158    140.2007
  1069.5000      0.0000    759.4446      4.5078    136.7233
  1069.7500      0.0000    755.2945      4.4934    131.2340
  1070.0000      0.0000    755.4830      4.4756    124.9331
  1070.2500      0.0000    761.3785      4.4579    119.6413
  1070.5000      0.0000    774.4786      4.4373    117.7265
  1070.7500      0.0000    793.8113      4.4035    120.6367
  1071.0000      0.0000    815.2582      4.3532    127.1163
  1071.2500      0.0000    833.6895      4.2969    133.6880
  1071.5000      0.0000    846.0206      4.2483    137.5269
  1071.7500      0.0000    852.4342      4.2108    138.5234
  1072.0000      0.0000    855.1387      4.1844    138.2347
  1072.2500      0.0000    856.3691      4.1726    137.5756
  1072.5000      0.0000    857.3385      4.1703    136.2951
  1072.7500      0.0000    858.2949      4.1508    134.2633
  1073.0000      0.0000    858.9561      4.0811    132.0287
  1073.2500      0.0000    858.8256      3.9499    129.7841
  1073.5000      0.0000    857.4905      3.7747    126.6958
  1073.7500      0.0000    855.0771      3.5833    121.7534
  1074.0000      0.0000    852.8215      3.3972    114.7810
  1074.2500      0.0000    853.1689      3.2270    106.4215
  1074.5000      0.0000    859.1234      3.0703     97.5834
  1074.7500      0.0000    872.6470      2.9177     89.1530
  1075.0000      0.0000    892.2819      2.7661     81.9440
  1075.2500      0.0000    911.7996      2.6278     76.5381
  1075.5000      0.0000    922.9021      2.5245     72.9972
  1075.7500      0.0000    921.1641      2.4725     70.8166
  1076.0000      0.0000    909.1104      2.4753     69.4528
  1076.2500      0.0000    893.0901      2.5250     69.2495
  1076.5000      0.0000    877.8439      2.6049     71.6062
  1076.7500      0.0000    864.1943      2.6943     77.5668
  1077.0000      0.0000    850.9247      2.7789     86.0853
  1077.2500      0.0000    837.6174      2.8615     94.3540
  1077.5000      0.0000    824.1365      2.9563    100.0207
  1077.7500      0.0000    807.4412      3.0739    102.5483
  1078.0000      0.0000    782.0685      3.2119    102.7747
  1078.2500      0.0000    746.9123      3.3603    102.2401
  1078.5000      0.0000    710.7387      3.5052    102.9313
  1078.7500      0.0000    687.6025      3.6263    106.4588
  1079.0000     -2.0000    685.4068      3.6977    112.6628
  1079.2500     -2.0000    699.4784      3.7043    119.2150
  1079.5000      0.0000    717.5048      3.6642    123.2377
  1079.7500      0.0000    729.8812      3.6290    123.8048
  1080.0000      0.0000    734.8835      3.6480    122.7787
  1080.2500      0.0000    735.8672      3.7242    122.9398
  1080.5000      0.0000    736.5236      3.8141    125.2829
  1080.7500      0.0000    738.8914      3.8738    128.2959
  1081.0000      0.0000    743.1663      3.8944    129.6893
  1081.2500      0.0000    748.2456      3.8879    128.4020
  1081.5000      0.0000    753.3876      3.8609    124.9175
  1081.7500      0.0000    759.5601      3.8184    120.4153
  1082.0000      0.0000    768.2188      3.7800    116.1549
  1082.2500      0.0000    778.8912      3.7710    113.0538
  1082.5000      0.0000    788.5947      3.7954    111.0832
  1082.7500      0.0000    793.3011      3.8347    109.2671
  1083.0000      0.0000    789.9932      3.8753    106.6208
  1083.2500      0.0000    778.5016      3.9221    102.8788
  1083.5000      0.0000    762.3428      3.9782     98.3786
  1083.7500      0.0000    747.2791      4.0261     93.7342
  1084.0000      0.0000    737.7261      4.0464     89.5513
  1084.2500      0.0000    733.8420      4.0455     86.0433
  1084.5000      0.0000    732.3703      4.0465     82.9571
  1084.7500      0.0000    730.4447      4.0520     80.0705
  1085.0000      0.0000    728.1738      4.0382     77.5114
  1085.2500      0.0000    727.5714      3.9914     75.3940
  1085.5000      0.0000    729.8330      3.9335     73.3983
  1085.7500      0.0000    733.9926      3.8974     71.0169
  1086.0000      0.0000    737.5165      3.8865     68.2233
  1086.2500      0.0000    737.1556      3.8718     65.6711
  1086.5000      0.0000    729.0955      3.8305     64.1140
  1086.7500      0.0000    710.0059      3.7775     63.8695
  1087.0000      0.0000    680.6879      3.7493     64.9158
  1087.2500      0.0000    649.6895      3.7624     67.1087
  1087.5000      0.0000    631.2454      3.7952     69.9734
  1087.7500      0.0000    636.5944      3.8159     72.4850
  1088.0000      0.0000    665.5204      3.8195     73.4797
  1088.2500      0.0000    705.9808      3.8300     72.5242
  1088.5000      0.0000    742.5226      3.8704     70.3684
  1088.7500      0.0000    765.9022      3.9348     68.4267
  1089.0000      0.0000    775.8631      3.9915     67.6813
  1089.2500      0.0000    777.0849      4.0103     68.2868
  1089.5000      0.0000    774.1766      3.9910     70.3142
  1089.7500      0.0000    769.3181      3.9662     74.3394
  1090.0000      0.0000    762.4039      3.9726     80.8531
  1090.2500      0.0000    752.8226      4.0144     89.5110
  1090.5000      0.0000    741.5553      4.0569     99.4782
  1090.7500      0.0000    731.4138      4.0610    110.2872
  1091.0000      0.0000    725.1754      4.0236    121.7716
  1091.2500      0.0000    723.9199      3.9812    132.9563
  1091.5000      0.0000    726.8273      3.9720    141.4215
  1091.7500      0.0000    731.8641      3.9971    144.4987
  1092.0000      0.0000    736.8829      4.0247    141.5021
  1092.2500      0.0000    740.8607      4.0300    134.5965
  1092.5000      0.0000    744.0522      4.0275    127.3291
  1092.7500      0.0000    746.7870      4.0541    122.4172
  1093.0000      0.0000    748.5535      4.1203    120.6602
  1093.2500      0.0000    748.2931      4.1853    121.3763
  1093.5000      0.0000    745.0471      4.1917    123.5575
  1093.7500      0.0000    738.5186      4.1236    126.5662
  1094.0000      0.0000    729.8814      4.0262    129.8674
  1094.2500      0.0000    722.1621      3.9660    132.6210
  1094.5000      0.0000    719.1454      3.9714    134.0198
  1094.7500      0.0000    723.2005      4.0129    133.8754
  1095.0000      0.0000    733.7211      4.0347    132.3148
  1095.2500      0.0000    747.3179      4.0067    128.8890
  1095.5000      0.0000    759.8291      3.9483    122.7135
  1095.7500      0.0000    768.8901      3.9049    113.9678
  1096.0000      0.0000    774.6996      3.9016    104.7968
  1096.2500      0.0000    778.4247      3.9189     98.1506
  1096.5000      0.0000    780.5511      3.9146     95.8295
  1096.7500      0.0000    780.8616      3.8625     97.7903
  1097.0000      0.0000    779.1586      3.7741    102.7654
  1097.2500      0.0000    775.7141      3.6890    109.1164
  1097.5000      0.0000    771.4650      3.6485    115.6123
  1097.7500      0.0000    767.8010      3.6689    121.9430
  1098.0000      0.0000    765.6112      3.7292    128.1700
  1098.2500      0.0000    763.9039      3.7844    133.4739
