~Version Information
VERS.                      2.0: CWLS Log ASCII Standard - VERSION 2.0
WRAP.                       NO: One line per depth step
~Well Information Block
STRT.FT                -7.7500: 
STOP.FT              1793.5000: 
STEP.FT                 0.2500: 
NULL.                -999.2500: 
COMP.          Pioneer Natural Resources: COMPANY
WELL.           Loews 41-32 Tr: WELL
FLD.           Purgatorie River: FIELD
LOC.           706' FNL & 224' FEL--: LOCATION
CNTY.               Las Animas: COUNTY
SRVC.          Patterson Wireline: SERVICE COMPANY
DATE.          Fri Feb 24 11:31:48 2006: LOG DATE
UWI.           05 071 08690 00: UNIQUE WELL ID
STAT.                       CO: STATE
~Curve Information Block
DEPT.FT            0 000 00 00: Depth
CCL.                          : Casing Collar Locator
TT3.usec                      : CBL 3' Travel Time
AMP3.mV                       : CBL 3' Amplitude
GR.GAPI                       : Gamma Ray
~Parameter Information Block
~A  Depth       CCL         TT3         AMP3         GR     
    -7.7500   -999.2500   -999.2500   -999.2500     79.2062
    -7.5000   -999.2500   -999.2500   -999.2500     79.1422
    -7.2500   -999.2500   -999.2500   -999.2500     80.1431
    -7.0000   -999.2500   -999.2500   -999.2500     81.9145
    -6.7500   -999.2500   -999.2500   -999.2500     83.3422
    -6.5000   -999.2500   -999.2500   -999.2500     83.2580
    -6.2500   -999.2500   -999.2500   -999.2500     81.4678
    -6.0000   -999.2500   -999.2500   -999.2500     79.0105
    -5.7500   -999.2500   -999.2500   -999.2500     77.3202
    -5.5000   -999.2500   -999.2500   -999.2500     77.1127
    -5.2500   -999.2500   -999.2500   -999.2500     77.9229
    -5.0000   -999.2500   -999.2500   -999.2500     78.5548
    -4.7500   -999.2500   -999.2500   -999.2500     78.0872
    -4.5000   -999.2500   -999.2500   -999.2500     76.5247
    -4.2500   -999.2500   -999.2500   -999.2500     74.5445
    -4.0000   -999.2500   -999.2500   -999.2500     72.8288
    -3.7500   -999.2500   -999.2500   -999.2500     71.7213
    -3.5000   -999.2500   -999.2500   -999.2500     71.3114
    -3.2500   -999.2500   -999.2500   -999.2500     71.7861
    -3.0000   -999.2500   1161.0000      0.8825     73.6779
    -2.7500   -999.2500   1161.0000      0.8950     77.2936
    -2.5000   -999.2500   1161.0000      0.9060     81.5128
    -2.2500   -999.2500   1161.0000      0.9102     83.7253
    -2.0000   -999.2500   1161.0000      0.9057     81.7993
    -1.7500   -999.2500   1161.0000      0.8960     76.0310
    -1.5000   -999.2500   1161.0000      0.8867     68.6672
    -1.2500   -999.2500   1161.0000      0.8812     61.8604
    -1.0000   -999.2500   1161.0000      0.8800     56.6372
    -0.7500   -999.2500   1161.0000      0.8830     53.3073
    -0.5000   -999.2500   1161.0000      0.8897     51.7689
    -0.2500   -999.2500   1161.0000      0.9070     50.6874
     0.0000   -999.2500   1161.0000      0.9119     49.0225
     0.2500   -999.2500   1161.0000      0.9134     46.0095
     0.5000   -999.2500   1161.0000      0.9143     42.0435
     0.7500   -999.2500   1161.0000      0.9178     38.0378
     1.0000   -999.2500   1161.0000      0.9243     34.9768
     1.2500   -999.2500   1161.0000      0.9299     33.3398
     1.5000   -999.2500   1161.0000      0.9298     32.9139
     1.7500   -999.2500   1161.0000      0.9232     33.1939
     2.0000   -999.2500   1161.0000      0.9145     33.9837
     2.2500      0.0000   1161.0000      0.9091     35.5781
     2.5000      0.0000   1161.0000      0.9080     38.3160
     2.7500      0.0000   1161.0000      0.9093     42.0989
     3.0000      0.0000   1161.0000      0.9117     46.3757
     3.2500      0.0000   1161.0000      0.9160     50.3325
     3.5000      0.0000   1161.0000      0.9225     53.0352
     3.7500      0.0000   1161.0000      0.9290     53.9293
     4.0000      0.0000   1161.0000      0.9328     53.5623
     4.2500      0.0000   1161.0000      0.9333     53.3469
     4.5000      0.0000   1161.0000      0.9319     54.1684
     4.7500      0.0000   1161.0000      0.9303     55.5664
     5.0000      0.0000   1161.0000      0.9304     56.4983
     5.2500      0.0000   1161.0000      0.9335     56.3861
     5.5000      0.0000   1161.0000      0.9395     55.2541
     5.7500      0.0000   1160.9399      0.9530     53.5339
     6.0000      0.0000   1160.5481      0.9975     52.0429
     6.2500      0.0000   1158.5583      1.1804     51.6672
     6.5000      0.0000   1150.6885      1.8603     52.6807
     6.7500      0.0000   1126.4476      3.9063     54.4227
     7.0000      0.0000   1068.2965      8.7563     55.8115
     7.2500      0.0000    959.6553     17.7432     56.3321
     7.5000      0.0000    801.5822     30.7313     56.4558
     7.7500      0.0000    622.4603     45.3612     56.8848
     8.0000      0.0000    464.3847     58.2130     57.5453
     8.2500      0.0000    355.7402     67.0492     57.6484
     8.5000      0.0000    297.5861     71.8657     56.5580
     8.7500      0.0000    273.3416     74.0327     54.2975
     9.0000      0.0000    265.4662     74.9227     51.5270
     9.2500      0.0000    263.4687     75.3080     49.3151
     9.5000     -2.0000    263.0675     75.4854     48.5193
     9.7500      0.0000    262.9986     75.5526     48.9748
    10.0000      0.0000    262.9928     75.5548     49.5255
    10.2500      0.0000    262.9904     75.5301     49.1885
    10.5000      0.0000    262.9890     75.5144     48.1254
    10.7500      0.0000    262.9858     75.5357     47.2656
    11.0000      0.0000    262.9817     75.6038     47.1957
    11.2500      0.0000    262.9799     75.7121     47.7186
    11.5000      0.0000    262.9839     75.8463     48.4679
    11.7500      0.0000    262.9938     75.9871     49.5661
    12.0000      0.0000    263.0074     76.1130     51.3718
    12.2500      0.0000    263.0219     76.2093     53.7178
    12.5000      0.0000    263.0358     76.2739     55.7960
    12.7500      0.0000    263.0488     76.3137     56.9733
    13.0000      0.0000    263.0597     76.3427     57.5182
    13.2500      0.0000    263.0661     76.3784     58.2364
    13.5000      0.0000    263.0661     76.4303     59.4860
    13.7500      0.0000    263.0597     76.4900     60.8364
    14.0000      0.0000    263.0485     76.5369     61.6785
    14.2500      0.0000    263.0352     76.5544     61.9502
    14.5000      0.0000    263.0229     76.5402     62.2608
    14.7500      0.0000    263.0147     76.5067     63.4008
    15.0000      0.0000    263.0123     76.4746     65.8193
    15.2500      0.0000    263.0160     76.4633     69.5821
    15.5000      0.0000    263.0247     76.4819     74.5188
    15.7500      0.0000    263.0371     76.5283     79.9483
    16.0000      0.0000    263.0508     76.5929     84.4610
    16.2500      0.0000    263.0626     76.6593     86.6923
    16.5000      0.0000    263.0686     76.7051     86.5916
    16.7500      0.0000    263.0668     76.7099     85.5440
    17.0000      0.0000    263.0578     76.6709     84.9173
    17.2500      0.0000    263.0442     76.6095     84.7333
    17.5000      0.0000    263.0289     76.5561     84.0061
    17.7500      0.0000    263.0144     76.5256     82.0860
    18.0000      0.0000    263.0023     76.5104     79.3406
    18.2500      0.0000    262.9936     76.4950     76.8471
    18.5000      0.0000    262.9883     76.4731     75.8233
    18.7500      0.0000    262.9863     76.4474     76.9929
    19.0000      0.0000    262.9886     76.4193     79.9294
    19.2500      0.0000    262.9960     76.3831     83.0424
    19.5000      0.0000    263.0082     76.3304     84.6832
    19.7500      0.0000    263.0223     76.2606     84.5115
    20.0000      0.0000    263.0343     76.1876     83.7074
    20.2500      0.0000    263.0408     76.1352     83.8721
    20.5000      0.0000    263.0400     76.1259     85.8478
    20.7500      0.0000    263.0323     76.1663     89.3964
    21.0000      0.0000    263.0208     76.2401     93.5841
    21.2500      0.0000    263.0095     76.3182     97.4373
    21.5000      0.0000    263.0016     76.3810    100.4322
    21.7500      0.0000    262.9984     76.4270    102.4850
    22.0000      0.0000    262.9995     76.4559    103.6348
    22.2500      0.0000    263.0041     76.4555    103.9673
    22.5000      0.0000    263.0115     76.4130    103.9050
    22.7500      0.0000    263.0203     76.3351    104.3037
    23.0000      0.0000    263.0282     76.2461    105.8103
    23.2500      0.0000    263.0332     76.1669    108.0147
    23.5000      0.0000    263.0351     76.1018    109.6197
    23.7500      0.0000    263.0351     76.0477    109.7712
    24.0000      0.0000    263.0337     76.0120    109.0319
    24.2500      0.0000    263.0299     76.0092    108.6961
    24.5000      0.0000    263.0233     76.0421    109.2234
    24.7500      0.0000    263.0159     76.0963    109.7534
    25.0000      0.0000    263.0111     76.1540    109.2160
    25.2500      0.0000    263.0105     76.2062    107.5671
    25.5000      0.0000    263.0120     76.2505    105.6943
