~Version Information
VERS.                      2.0: CWLS Log ASCII Standard - VERSION 2.0
WRAP.                       NO: One line per depth step
~Well Information Block
STRT.FT               335.0000: 
STOP.FT              1154.7000: 
STEP.FT                 0.1000: 
NULL.                -999.2500: 
COMP.          Pioneer Natural Resources: COMPANY
WELL.             Croc 42-9 Tr: WELL
FLD.           Purgatoire River: FIELD
LOC.           2429' FNL & 315' FEL--: LOCATION
STAT.                 Colorado: State
CNTY.               Las Animas: COUNTY
CTRY. USA : Country
SECT. 9 : Section
TOWN. 32S : Township
RANG. 66W : Range
SRVC.                Patterson: SERVICE COMPANY
DATE.          Fri Oct 14 07:56:23 2005: LOG DATE
API.           05 071 08550 00: UNIQUE WELL ID
~Curve Information Block
DEPT.FT            0 000 00 00: Depth
DCAL.in                       : CDL Caliper
RHOB.g/cc                     : CDL Bulk Density
RHOC.g/cc                     : CDL Density Correction
DPOR.pu                       : CDL Density Porosity
NPOR.pu                       : Neutron Porosity
GR.GAPI                       : Gamma Ray
~Parameter Information Block
~A  Depth       DCAL        RHOB        RHOC        DPOR        NPOR         GR     
# ...
  1074.2000      7.8720      2.5910      0.0487      3.5737     23.0417     89.2553
  1074.3000      7.8748      2.5926      0.0695      3.4788     23.6328     89.2657
  1074.4000      7.8748      2.5909      0.0368      3.5822     23.9323     89.1744
  1074.5000      7.8764      2.5903      0.0357      3.6166     23.8000     90.1996
  1074.6000      7.8764      2.5913      0.0544      3.5553     23.6246     88.7584
  1074.7000      7.8764      2.5877      0.0517      3.7734     23.5020     86.2260
  1074.8000      7.8756      2.5822      0.0461      4.1120     23.3292     87.1640
  1074.9000      7.8756      2.5836      0.0255      4.0216     23.3744     94.1827
  1075.0000      7.8733      2.5899      0.0721      3.6422     23.5670    106.8250
  1075.1000      7.8733      2.5973      0.0237      3.1949     23.2895    116.8820
  1075.2000      7.8733      2.6089      0.0572      2.4884     22.6539    116.0360
  1075.3000      7.8707      2.6129      0.0672      2.2491     22.7136    108.9546
  1075.4000      7.8707      2.5994      0.0617      3.0684     23.6519    104.0779
  1075.5000      7.8681      2.5847      0.0277      3.9602     24.4045    103.2734
  1075.6000      7.8681      2.5860      0.0551      3.8816     24.4397    104.3502
  1075.7000      7.8681      2.5987      0.0469      3.1106     24.1579    105.7960
  1075.8000      7.8597      2.6082      0.0554      2.5337     23.8807    107.7688
  1075.9000      7.8597      2.6048      0.0565      2.7394     23.5469    110.1639
  1076.0000      7.8457      2.5876      0.0532      3.7790     23.3752    109.6775
  1076.1000      7.8457      2.5635      0.0426      5.2442     23.8567    104.9885
  1076.2000      7.8457      2.5372      0.0521      6.8369     24.9014    101.9803
  1076.3000      7.8326      2.5067      0.0411      8.6821     25.8943    101.6704
  1076.4000      7.8326      2.4772     -0.0073     10.4700     26.4726    100.4542
  1076.5000      7.8223      2.4650      0.0006     11.2105     26.7878    101.7310
  1076.6000      7.8223      2.4760      0.0312     10.5444     27.1147    107.0578
  1076.7000      7.8223      2.4964      0.0534      9.3101     27.6242    113.4838
  1076.8000      7.8223      2.5101      0.0659      8.4799     28.2639    120.4919
  1076.9000      7.8223      2.5187      0.0580      7.9605     28.9707    125.1152
  1077.0000      7.8332      2.5292      0.0666      7.3233     29.8338    124.1221
  1077.1000      7.8332      2.5337      0.1179      7.0457     30.6135    118.4772
  1077.2000      7.8332      2.5270      0.0943      7.4563     31.1141    113.8427
  1077.3000      7.8413      2.5181      0.0902      7.9961     31.4774    113.5032
  1077.4000      7.8413      2.5059      0.1039      8.7342     31.7263    111.8530
  1077.5000      7.8455      2.4777      0.1123     10.4406     31.9324    109.0864
  1077.6000      7.8455      2.4392      0.0422     12.7748     32.0028    109.5005
  1077.7000      7.8455      2.4052      0.0673     14.8340     31.6638    109.1415
  1077.8000      7.8528      2.3760      0.0515     16.6043     31.2598    108.5347
  1077.9000      7.8528      2.3572      0.0073     17.7458     31.3204    110.5722
  1078.0000      7.8674      2.3628      0.0272     17.4044     31.5707    110.2987
  1078.1000      7.8674      2.3868      0.0661     15.9510     31.4963    107.1930
  1078.2000      7.8674      2.4109      0.0809     14.4890     30.7789    106.2485
  1078.3000      7.8886      2.4299      0.1245     13.3380     29.6252    109.0588
  1078.4000      7.8886      2.4460      0.1082     12.3663     29.1084    112.5758
  1078.5000      7.9018      2.4619      0.1301     11.3990     29.5996    114.1052
  1078.6000      7.9018      2.4796      0.1269     10.3262     29.9213    116.1453
  1078.7000      7.9018      2.4984      0.1027      9.1882     29.3517    120.0377
  1078.8000      7.8927      2.5134      0.0982      8.2803     28.7856    120.1200
  1078.9000      7.8927      2.5176      0.0842      8.0232     29.0344    111.4749
  1079.0000      7.8785      2.5160      0.0671      8.1231     29.6627     99.3577
  1079.1000      7.8785      2.5179      0.0744      8.0067     29.6827     92.5922
  1079.2000      7.8785      2.5229      0.0600      7.7041     28.7906     93.1570
  1079.3000      7.8729      2.5284      0.0619      7.3683     27.6492     95.9111
  1079.4000      7.8729      2.5371      0.0572      6.8421     26.9085     97.2626
  1079.5000      7.8704      2.5520      0.0656      5.9408     26.5587     99.7226
  1079.6000      7.8704      2.5637      0.0921      5.2327     26.4462    104.0654
  1079.7000      7.8704      2.5630      0.0616      5.2751     26.7328    108.6111
  1079.8000      7.8670      2.5620      0.0458      5.3304     27.0749    112.0515
  1079.9000      7.8670      2.5742      0.0553      4.5949     26.7444    113.8101
  1080.0000      7.8667      2.5912      0.0874      3.5635     26.2631    113.5282
  1080.1000      7.8667      2.5954      0.0726      3.3089     26.5813    111.3465
  1080.2000      7.8667      2.5845      0.0529      3.9696     27.4073    110.0175
  1080.3000      7.8710      2.5743      0.0320      4.5867     27.9723    111.7947
  1080.4000      7.8710      2.5744      0.0778      4.5816     28.1608    113.6054
  1080.5000      7.8735      2.5779      0.0386      4.3708     28.2708    111.0165
  1080.6000      7.8735      2.5769      0.0447      4.4290     28.4330    106.0363
  1080.7000      7.8735      2.5686      0.0598      4.9331     28.5590    104.1214
  1080.8000      7.8726      2.5554      0.0471      5.7357     28.5998    105.0496
  1080.9000      7.8726      2.5401      0.0251      6.6622     28.5583    106.1289
  1081.0000      7.8724      2.5263      0.0198      7.4998     28.4448    106.7673
  1081.1000      7.8724      2.5200      0.0172      7.8816     28.1341    107.4767
  1081.2000      7.8724      2.5226      0.0443      7.7216     27.5095    110.4823
  1081.3000      7.8736      2.5293      0.0484      7.3125     26.7427    118.4075
  1081.4000      7.8736      2.5356      0.0308      6.9307     26.2899    127.7832
  1081.5000      7.8767      2.5430      0.0422      6.4864     26.5368    127.4740
  1081.6000      7.8767      2.5527      0.0345      5.8978     27.2729    115.8712
  1081.7000      7.8767      2.5610      0.0900      5.3926     28.0093    107.7450
  1081.8000      7.8782      2.5640      0.0679      5.2123     28.2695    110.7908
  1081.9000      7.8782      2.5602      0.0628      5.4401     27.8155    115.9072
  1082.0000      7.8756      2.5536      0.0653      5.8420     27.1467    118.5800
  1082.1000      7.8756      2.5528      0.0411      5.8937     27.1305    123.3475
  1082.2000      7.8756      2.5555      0.0856      5.7266     27.7561    130.5469
  1082.3000      7.8728      2.5505      0.0808      6.0284     27.8877    134.8104
  1082.4000      7.8728      2.5415      0.0307      6.5774     26.9995    133.0758
  1082.5000      7.8714      2.5370      0.0638      6.8456     26.0833    130.3186
  1082.6000      7.8714      2.5344      0.0182      7.0040     26.0852    131.2610
  1082.7000      7.8714      2.5325      0.0580      7.1188     26.7935    132.0757
  1082.8000      7.8689      2.5342      0.0425      7.0190     27.3612    126.5028
  1082.9000      7.8689      2.5475      0.0197      6.2095     27.5277    118.7645
  1083.0000      7.8657      2.5732      0.0528      4.6565     27.8471    115.5628
  1083.1000      7.8657      2.5882      0.0843      3.7446     28.5501    114.9104
  1083.2000      7.8657      2.5853      0.0238      3.9219     29.1646    114.3849
  1083.3000      7.8625      2.5859      0.0695      3.8830     29.1809    114.9069
  1083.4000      7.8625      2.5948      0.0861      3.3451     28.8832    116.7685
  1083.5000      7.8581      2.6021      0.0724      2.9023     28.6410    118.2900
  1083.6000      7.8581      2.6082      0.0618      2.5332     28.2650    117.1146
  1083.7000      7.8581      2.6121      0.0777      2.2967     28.1930    114.8237
