~Version Information
VERS.                      2.0: CWLS Log ASCII Standard - VERSION 2.0
WRAP.                       NO: One line per depth step
~Well Information Block
STRT.FT                 0.0000: 
STOP.FT              1201.0000: 
STEP.FT                 0.2500: 
NULL.                -999.2500: 
COMP.          Pioneer Natural Resources: COMPANY
WELL.             Margaux 11-1: WELL
FLD.           Purgatoire River: FIELD
LOC.           1154' FNL & 472' FWL --------: LOCATION
PROV.                 Colorado: PROVINCE
CNTY.               Las Animas: COUNTRY
SRVC.                         : SERVICE COMPANY
DATE.          Thu Jan 05 11:16:55 2006: LOG DATE
UWI.                          : UNIQUE WELL ID
~Curve Information Block
DEPT.FT            0 000 00 00: Depth
CCL.                          : Casing Collar Locator
TT3.usec                      : CBL 3' Travel Time
AMP3.mV                       : CBL 3' Amplitude
AMP5.mV                       : CBL 5' Amplitude
GR.GAPI                       : Gamma Ray
~Parameter Information Block
~A  Depth       CCL         TT3         AMP3        AMP5         GR     
# ...
   476.0000      0.0000    717.5346      7.2988      1.8374    145.0370
   476.2500      0.0000    724.3979      7.2555      1.7183    150.8872
   476.5000      0.0000    736.1226      7.2462      1.5340    154.9640
   476.7500      0.0000    746.3035      7.2661      1.3937    155.5548
   477.0000      0.0000    751.3211      7.3129      1.3747    151.8948
   477.2500      0.0000    751.0548      7.3763      1.4770    145.3542
   477.5000      0.0000    746.9720      7.4331      1.6173    139.5169
   477.7500      0.0000    740.2223      7.4573      1.6831    137.8558
   478.0000      0.0000    731.7488      7.4392      1.6231    140.6446
   478.2500      0.0000    723.5533      7.3937      1.4984    144.4317
   478.5000      0.0000    718.7498      7.3501      1.4326    144.9362
   478.7500      0.0000    720.0392      7.3386      1.5026    140.4794
   479.0000      0.0000    728.2420      7.3796      1.6735    132.8284
   479.2500      0.0000    741.9849      7.4777      1.8363    125.2411
   479.5000      0.0000    758.5182      7.6204      1.9066    119.8777
   479.7500      0.0000    774.9987      7.7848      1.8942    116.7932
   480.0000      0.0000    789.3283      7.9441      1.8827    114.8627
   480.2500      0.0000    800.3751      8.0751      1.9409    113.0108
   480.5000      0.0000    807.9224      8.1727      2.0500    110.5585
   480.7500      0.0000    812.3468      8.2532      2.1181    107.1986
   481.0000      0.0000    814.1478      8.3299      2.0770    103.0180
   481.2500      0.0000    813.5345      8.3882      1.9627     98.3489
   481.5000      0.0000    810.1899      8.3995      1.8872     93.7976
   481.7500      0.0000    803.9572      8.3561      1.9281     90.6265
   482.0000      0.0000    796.3771      8.2791      2.0569     90.5322
   482.2500      0.0000    790.6313      8.1930      2.1693     94.3121
   482.5000      0.0000    788.7751      8.1027      2.1707    100.6862
   482.7500      0.0000    789.4944      7.9956      2.0360    106.8072
   483.0000      0.0000    789.6934      7.8634      1.8109    110.2848
   483.2500      0.0000    788.0795      7.7187      1.5670    110.8753
   483.5000      0.0000    786.0059      7.5922      1.3576    110.2579
   483.7500      0.0000    784.8563      7.5165      1.2115    110.3223
   484.0000      0.0000    784.3360      7.5118      1.1501    111.8799
   484.2500      0.0000    784.3867      7.5791      1.1893    114.7821
   484.5000      0.0000    787.4680      7.7007      1.3291    118.5174
   484.7500      0.0000    796.9292      7.8521      1.5484    122.3034
   485.0000      0.0000    812.4519      8.0178      1.7989    125.0878
   485.2500      0.0000    827.8122      8.1934      2.0021    125.9837
   485.5000      0.0000    834.4031      8.3739      2.0803    124.7013
   485.7500      0.0000    827.9262      8.5425      2.0106    121.5165
   486.0000      0.0000    811.7637      8.6759      1.8474    117.0490
   486.2500      0.0000    793.7594      8.7593      1.6950    112.0982
   486.5000      0.0000    780.1809      8.7945      1.6525    107.5491
   486.7500      0.0000    772.7748      8.7945      1.7607    104.1617
   487.0000      0.0000    770.2170      8.7744      1.9805    102.0509
   487.2500      0.0000    770.8334      8.7473      2.2188    100.3429
   487.5000      0.0000    773.7601      8.7233      2.3809     97.7898
   487.7500      0.0000    778.2327      8.7051      2.4157     93.8762
   488.0000      0.0000    782.4779      8.6861      2.3345     89.2010
   488.2500      0.0000    784.0826      8.6610      2.1897     84.9681
   488.5000      0.0000    781.9134      8.6369      2.0281     82.2349
   488.7500      0.0000    777.2557      8.6285      1.8723     81.3111
   489.0000      0.0000    772.5331      8.6430      1.7462     81.6487
   489.2500      0.0000    769.2550      8.6751      1.6970     82.5049
   489.5000      0.0000    767.4600      8.7135      1.7708     83.7126
   489.7500      0.0000    766.5274      8.7480      1.9695     85.6055
   490.0000      0.0000    765.9011      8.7712      2.2397     88.3745
   490.2500      0.0000    765.1449      8.7780      2.5046     91.8200
   490.5000      0.0000    763.6697      8.7646      2.7149     95.6795
   490.7500      0.0000    760.6186      8.7292      2.8738     99.9335
   491.0000      0.0000    755.2282      8.6729      3.0085    104.6753
   491.2500      0.0000    747.6479      8.5985      3.1243    109.6240
   491.5000      0.0000    739.4595      8.5070      3.1916    113.8259
   491.7500      0.0000    733.1400      8.4015      3.1666    116.0012
   492.0000      0.0000    730.7764      8.2925      3.0143    115.3363
   492.2500      0.0000    733.0391      8.1935      2.7278    112.1329
   492.5000      0.0000    738.8246      8.1086      2.3477    107.7562
   492.7500      0.0000    745.4808      8.0310      1.9609    103.8165
   493.0000      0.0000    749.7732      7.9566      1.6620    101.2136
   493.2500      0.0000    749.4669      7.8964      1.5098     99.8634
   493.5000      0.0000    744.6096      7.8721      1.5129     99.1701
   493.7500      0.0000    737.5507      7.8995      1.6354     98.6043
   494.0000      0.0000    731.6643      7.9746      1.8065     97.9309
   494.2500      0.0000    729.7224      8.0713      1.9456     97.1410
   494.5000      0.0000    733.0359      8.1497      1.9920     96.3063
   494.7500      0.0000    741.7024      8.1706      1.9083     95.5802
   495.0000      0.0000    755.7397      8.1175      1.6814     95.3362
   495.2500      0.0000    776.2316      8.0063      1.3546     95.9223
   495.5000      0.0000    804.4664      7.8539      1.0439     97.0524
   495.7500      0.0000    838.1596      7.6306      0.8817     97.8073
   496.0000      0.0000    868.4782      7.2849      0.9284     97.4736
   496.2500      0.0000    883.4794      6.8406      1.1353     95.9584
   496.5000      0.0000    877.3231      6.4230      1.3747     93.2257
   496.7500      0.0000    856.5552      6.1541      1.5096     88.9361
   497.0000      0.0000    836.1931      6.0512      1.4687     83.0787
   497.2500      0.0000    828.3615      6.0441      1.2871     76.6814
   497.5000     -2.0000    834.0695      6.0518      1.0827     71.6513
   497.7500      0.0000    844.9923      6.0294      0.9797     70.0064
   498.0000      0.0000    851.4305      5.9818      1.0429     73.0962
   498.2500      0.0000    847.9893      5.9547      1.2600     80.9934
   498.5000      0.0000    834.1443      5.9958      1.5622     92.1501
   498.7500      0.0000    812.8529      6.1248      1.8628    103.7224
   499.0000      0.0000    789.3646      6.3544      2.1028    112.7752
   499.2500      0.0000    769.4205      6.7028      2.2756    117.6996
   499.5000      0.0000    756.9692      7.1427      2.4054    118.7943
   499.7500      0.0000    752.8041      7.5728      2.5122    117.6572
   500.0000      0.0000    754.6996      7.8866      2.6028    115.9918
   500.2500      0.0000    758.8506      8.0529      2.6727    114.5821
   500.5000      0.0000    761.7750      8.1130      2.6941    112.9475
   500.7500      0.0000    761.4188      8.1214      2.6199    109.8952
   501.0000      0.0000    757.3400      8.1089      2.4246    104.6555
   501.2500      0.0000    750.7652      8.0896      2.1435     97.6924
   501.5000      0.0000    744.5377      8.0857      1.8582     90.5329
   501.7500      0.0000    741.8861      8.1295      1.6465     84.8071
   502.0000      0.0000    744.2728      8.2403      1.5483     81.3720
   502.2500      0.0000    750.3811      8.4057      1.5659     80.0726
   502.5000      0.0000    757.5128      8.5883      1.6796     80.0279
   502.7500      0.0000    764.0615      8.7475      1.8655     80.1618
   503.0000      0.0000    770.5587      8.8590      2.1075     79.8291
   503.2500      0.0000    778.4428      8.9188      2.3828     79.3610
   503.5000      0.0000    788.0449      8.9342      2.6332     80.2089
   503.7500      0.0000    797.7577      8.9135      2.7719     84.2380
