~Version Information
VERS.                      2.0: CWLS Log ASCII Standard - VERSION 2.0
WRAP.                       NO: One line per depth step
~Well Information Block
STRT.FT                -7.7500: 
STOP.FT              1420.5000: 
STEP.FT                 0.2500: 
NULL.                -999.2500: 
COMP.          Pioneer Natural Resources: COMPANY
WELL.          Parklane 43-34 Tr: WELL
FLD.           Purgatorie River: FIELD
LOC.           1643' FSL & 966' FEL--: LOCATION
PROV.                       CO: PROVINCE
CNTY.               Las Animas: COUNTRY
SRVC.          Patterson Wireline: SERVICE COMPANY
DATE.          Tue Aug 02 11:35:27 2005: LOG DATE
UWI.           05 071 08452 00: UNIQUE WELL ID
~Curve Information Block
DEPT.FT            0 000 00 00: Depth
CCL.                          : Casing Collar Locator
TT3.usec                      : CBL 3' Travel Time
AMP3.mV                       : CBL 3' Amplitude
GR.GAPI                       : Gamma Ray
~Parameter Information Block
~A  Depth       CCL         TT3         AMP3         GR     
# ...
    92.7500      0.0000    880.9207     11.6292     70.5281
    93.0000      0.0000    872.2272     11.6196     70.9288
    93.2500      0.0000    864.7897     11.6177     71.2347
    93.5000      0.0000    859.5099     11.6158     71.8676
    93.7500      0.0000    856.5847     11.6086     73.1602
    94.0000      0.0000    855.4540     11.5966     75.2134
    94.2500      0.0000    855.2131     11.5848     77.6010
    94.5000      0.0000    854.7421     11.5776     79.4766
    94.7500      0.0000    852.9888     11.5753     80.2455
    95.0000      0.0000    849.9327     11.5750     79.9601
    95.2500      0.0000    847.1149     11.5732     78.9815
    95.5000      0.0000    846.3575     11.5676     77.6304
    95.7500      0.0000    847.8952     11.5545     76.4159
    96.0000      0.0000    850.3377     11.5292     76.3197
    96.2500      0.0000    852.2669     11.4896     78.2842
    96.5000      0.0000    853.2639     11.4411     82.0542
    96.7500      0.0000    853.6262     11.3975     85.7670
    97.0000      0.0000    853.7385     11.3765     87.3252
    97.2500      0.0000    853.8125     11.3918     86.3248
    97.5000      0.0000    853.9211     11.4429     84.2691
    97.7500      0.0000    854.0748     11.5160     82.9155
    98.0000      0.0000    854.2869     11.5937     82.8386
    98.2500      0.0000    854.6270     11.6647     83.4261
    98.5000      0.0000    855.3237     11.7219     83.5923
    98.7500      0.0000    856.8994     11.7596     82.4219
    99.0000      0.0000    860.1862     11.7753     79.6192
    99.2500      0.0000    865.9327     11.7720     75.6909
    99.5000      0.0000    874.0239     11.7552     71.7666
    99.7500      0.0000    883.0453     11.7293     69.1984
   100.0000      0.0000    890.9568     11.7017     69.1791
   100.2500      0.0000    896.4392     11.6854     72.4908
   100.5000      0.0000    899.7830     11.6920     79.3126
   100.7500      0.0000    903.0118     11.7188     88.8418
   101.0000      0.0000    909.9365     11.7487     98.9454
   101.2500      0.0000    925.8549     11.7656    106.8370
   101.5000      0.0000    955.1262     11.7673    110.9107
   101.7500      0.0000    996.4127     11.7640    111.9390
   102.0000      0.0000   1040.0546     11.7674    112.0299
   102.2500      0.0000   1072.6931     11.7803    112.4028
   102.5000      0.0000   1086.5490     11.7933    112.6177
   102.7500      0.0000   1084.1931     11.7914    111.9406
   103.0000      0.0000   1074.5148     11.7663    110.6625
   103.2500      0.0000   1065.3065     11.7220    109.6197
   103.5000      0.0000   1059.5702     11.6690    109.0457
   103.7500      0.0000   1056.5320     11.6118    108.4075
   104.0000      0.0000   1053.9238     11.5461    106.9152
   104.2500      0.0000   1049.1080     11.4693    103.9454
   104.5000      0.0000   1039.4824     11.3937     99.5251
   104.7500      0.0000   1023.4438     11.3424     94.7030
   105.0000      0.0000   1001.7725     11.3311     90.9578
   105.2500      0.0000    977.7010     11.3533     88.8126
   105.5000      0.0000    955.0125     11.3851     87.1186
   105.7500      0.0000    936.0464     11.4025     84.0497
   106.0000      0.0000    921.5068     11.3977     78.9568
   106.2500      0.0000    911.3398     11.3809     73.0559
   106.5000      0.0000    905.1033     11.3700     68.2389
   106.7500      0.0000    901.8810     11.3737     65.6531
   107.0000      0.0000    900.5177     11.3871     65.6306
   107.2500      0.0000    900.0960     11.4022     68.2981
   107.5000      0.0000    900.1636     11.4191     73.4656
   107.7500      0.0000    900.7449     11.4424     80.0126
   108.0000      0.0000    902.4880     11.4721     86.0116
   108.2500      0.0000    907.0873     11.5009     89.7656
   108.5000      0.0000    917.3651     11.5192     90.8159
   108.7500      0.0000    935.7484     11.5199     90.2266
   109.0000      0.0000    961.0293     11.5021     89.7768
   109.2500      0.0000    986.2421     11.4714     90.3807
   109.5000      0.0000   1001.2126     11.4355     91.3220
   109.7500      0.0000    998.9665     11.3985     91.4422
   110.0000      0.0000    980.5171     11.3635     90.7272
   110.2500      0.0000    953.7273     11.3372     90.0365
   110.5000      0.0000    927.5485     11.3246     89.5039
   110.7500      0.0000    906.9897     11.3197     88.1556
   111.0000      0.0000    892.5940     11.3068     85.4764
   111.2500      0.0000    882.9703     11.2729     82.7082
   111.5000      0.0000    876.6006     11.2189     81.8096
   111.7500      0.0000    872.0385     11.1577     83.1746
   112.0000      0.0000    868.1591     11.1050     85.1040
   112.2500      0.0000    864.8043     11.0726     85.8074
   112.5000      0.0000    862.7310     11.0664     85.3535
   112.7500      0.0000    862.8201     11.0872     85.2537
   113.0000      0.0000    865.4309     11.1315     86.6279
   113.2500      0.0000    870.2388     11.1911     89.3317
   113.5000      0.0000    876.4749     11.2533     92.4390
   113.7500      0.0000    883.4409     11.3039     94.9016
   114.0000      0.0000    891.0259     11.3336     95.8232
   114.2500      0.0000    900.0922     11.3429     94.6580
   114.5000      0.0000    912.4185     11.3395     91.4957
   114.7500      0.0000    929.0592     11.3303     87.2278
   115.0000      0.0000    947.2911     11.3195     83.4615
   115.2500      0.0000    959.9481     11.3143     82.0516
   115.5000      0.0000    960.3021     11.3275     84.0968
   115.7500      0.0000    948.3952     11.3694     88.8545
   116.0000      0.0000    931.2134     11.4386     93.7774
   116.2500      0.0000    916.4966     11.5219     96.0949
   116.5000      0.0000    907.5698     11.6013     94.6322
   116.7500      0.0000    903.5317     11.6620     90.2886
   117.0000      0.0000    902.1912     11.6981     85.0986
   117.2500      0.0000    901.9969     11.7159     80.9114
   117.5000      0.0000    902.2775     11.7281     78.6090
   117.7500      0.0000    902.8428     11.7419     78.1891
   118.0000      0.0000    903.7809     11.7566     79.3685
   118.2500      0.0000    905.6021     11.7722     81.9202
   118.5000      0.0000    909.5137     11.7935     85.3998
   118.7500      0.0000    916.9629     11.8223     88.7233
   119.0000      0.0000    927.7379     11.8511     90.3611
   119.2500      0.0000    938.1808     11.8689     89.4226
   119.5000      0.0000    943.2526     11.8662     86.7475
   119.7500      0.0000    942.6482     11.8115     84.5724
   120.0000      0.0000    944.0754     11.6173     84.6380
   120.2500      0.0000    957.3630     11.1749     86.4620
   120.5000      0.0000    984.2387     10.4807     87.5633
   120.7500      0.0000   1015.7253      9.7080     85.4859
   121.0000      0.0000   1040.8254      9.0915     79.7893
   121.2500      0.0000   1056.0580      8.7438     72.3736
   121.5000     -2.0000   1065.3613      8.6151     65.9131
   121.7500      0.0000   1073.4590      8.6048     61.8268
   122.0000      0.0000   1081.5583      8.6776     59.7321
   122.2500      0.0000   1086.6110      8.9057     58.5394
   122.5000      0.0000   1081.9019      9.4137     57.6019
   122.7500      0.0000   1060.4545     10.2337     56.9212
   123.0000      0.0000   1021.7379     11.1846     56.7962
   123.2500      0.0000    975.3162     11.9521     57.3998
   123.5000      0.0000    935.4392     12.3308     58.4282
   123.7500      0.0000    911.0748     12.3542     59.1206
   124.0000      0.0000    901.5811     12.1943     58.6576
   124.2500      0.0000    900.5377     12.0013     56.6416
   124.5000      0.0000    901.5817     11.8479     53.4906
   124.7500      0.0000    901.0122     11.7515     50.5525
   125.0000      0.0000    897.6106     11.7024     49.3978
   125.2500      0.0000    892.1279     11.6846     50.5397
   125.5000      0.0000    886.9489     11.6914     53.0371
   125.7500      0.0000    884.8860     11.7247     55.6819
   126.0000      0.0000    887.2256     11.7766     58.3176
