~Version Information
VERS.                      2.0: CWLS Log ASCII Standard - VERSION 2.0
WRAP.                       NO: One line per depth step
~Well Information Block
STRT.FT               575.0000: 
STOP.FT              1557.5000: 
STEP.FT                 0.1000: 
NULL.                -999.2500: 
COMP.          Pioneer Natural Resources: COMPANY
WELL.          McClaren 13-34 Tr: WELL
FLD.           Purgatoire River: FIELD
LOC.           1934' FSL & 826' FWL: LOCATION
PROV.                 Colorado: PROVINCE
CNTY.               Las Animas: COUNTRY
SRVC.                Patterson: SERVICE COMPANY
DATE.          Tue Jul 12 07:15:27 2005: LOG DATE
UWI.           05 071 08437 00: UNIQUE WELL ID
~Curve Information Block
DEPT.FT            0 000 00 00: Depth
DCAL.in                       : CDL Caliper
RHOB.g/cc                     : CDL Bulk Density
RHOC.g/cc                     : CDL Density Correction
DPOR.pu                       : CDL Density Porosity
GR.GAPI                       : Gamma Ray
NPOR.pu                       : Neutron Porosity
~Parameter Information Block
~A  Depth       DCAL        RHOB        RHOC        DPOR         GR         NPOR    
# ...
  1419.8000      7.8695      2.6092      0.0590      2.4725     70.6051     21.9085
  1419.9000      7.8695      2.5905      0.0328      3.6042     76.6463     22.2479
  1420.0000      7.8744      2.5737      0.0464      4.6216     84.7978     22.5338
  1420.1000      7.8744      2.5599      0.0512      5.4606     92.3115     22.8669
  1420.2000      7.8744      2.5572      0.0082      5.6258     97.5881     22.8794
  1420.3000      7.8743      2.5715      0.0559      4.7606    100.9145     22.0439
  1420.4000      7.8743      2.5886      0.0396      3.7233    101.8836     21.0958
  1420.5000      7.8706      2.5869      0.0939      3.8239     98.8982     20.8983
  1420.6000      7.8706      2.5594      0.0735      5.4935     93.7810     21.3425
  1420.7000      7.8706      2.5255      0.0128      7.5467     90.9489     21.8530
  1420.8000      7.8709      2.5081      0.0303      8.6001     90.0732     22.2599
  1420.9000      7.8709      2.5065      0.0491      8.6992     87.9556     22.2623
  1421.0000      7.8734      2.5093      0.0236      8.5245     84.6901     21.8186
  1421.1000      7.8734      2.5037      0.0339      8.8695     83.4946     21.7026
  1421.2000      7.8734      2.4753      0.0614     10.5898     85.4554     21.9653
  1421.3000      7.8776      2.4357      0.0080     12.9900     87.0940     22.0171
  1421.4000      7.8776      2.4123      0.0402     14.4050     87.5944     21.7942
  1421.5000      7.8791      2.4054      0.0728     14.8220     89.4412     21.7971
  1421.6000      7.8791      2.3961      0.0487     15.3859     92.5148     22.2003
  1421.7000      7.8791      2.3793      0.0666     16.4074     94.5891     22.5415
  1421.8000      7.8661      2.3699      0.0562     16.9759     96.1746     22.8436
  1421.9000      7.8661      2.3852      0.0648     16.0512    100.9047     23.4219
  1422.0000      7.8455      2.4202      0.1247     13.9285    105.7766     23.9343
  1422.1000      7.8455      2.4586      0.1278     11.5984    104.6658     23.7752
  1422.2000      7.8455      2.4924      0.1437      9.5486    101.8177     23.0570
  1422.3000      7.8409      2.5141      0.1288      8.2345    105.9255     22.2373
  1422.4000      7.8409      2.5262      0.0796      7.5057    116.5811     21.6695
  1422.5000      7.8603      2.5382      0.1071      6.7779    125.6565     21.7888
  1422.6000      7.8603      2.5438      0.1273      6.4345    129.2989     22.2773
  1422.7000      7.8603      2.5386      0.1119      6.7529    128.0280     22.0939
  1422.8000      7.8813      2.5324      0.0769      7.1269    122.2419     20.9619
  1422.9000      7.8813      2.5297      0.0862      7.2904    115.5508     19.6949
  1423.0000      7.8916      2.5230      0.1135      7.6990    111.0286     19.3597
  1423.1000      7.8916      2.5103      0.0518      8.4637    107.8292     20.2178
  1423.2000      7.8916      2.5024      0.0657      8.9426    103.2462     21.2238
  1423.3000      7.8939      2.5053      0.0775      8.7721     97.7769     21.3215
  1423.4000      7.8939      2.5119      0.0556      8.3676     95.5860     20.4292
  1423.5000      7.8975      2.5056      0.0883      8.7489     95.0792     19.0408
  1423.6000      7.8975      2.4790      0.0419     10.3643     92.3459     17.7856
  1423.7000      7.8975      2.4465      0.0314     12.3321     88.3047     17.3730
  1423.8000      7.9045      2.4241      0.0398     13.6909     86.6436     18.0692
  1423.9000      7.9045      2.4149      0.0265     14.2473     86.4671     19.0138
  1424.0000      7.9108      2.4190     -0.0076     13.9992     80.8150     19.1276
  1424.1000      7.9108      2.4350      0.0418     13.0277     71.2716     18.5854
  1424.2000      7.9108      2.4548      0.0686     11.8331     66.3204     18.1851
  1424.3000      7.9130      2.4711      0.0638     10.8398     67.3068     18.3052
  1424.4000      7.9130      2.4794      0.0556     10.3379     69.6080     18.8121
  1424.5000      7.9100      2.4760      0.0562     10.5455     71.1394     18.6958
  1424.6000      7.9100      2.4645      0.0439     11.2408     72.5258     17.4002
  1424.7000      7.9100      2.4513      0.0376     12.0446     73.7771     16.2728
  1424.8000      7.9025      2.4388      0.0599     12.7971     77.0748     16.2313
  1424.9000      7.9025      2.4312      0.0317     13.2633     82.4143     16.9977
  1425.0000      7.8938      2.4366      0.0404     12.9331     83.5177     18.1122
  1425.1000      7.8938      2.4545      0.0603     11.8461     78.9878     18.8109
  1425.2000      7.8938      2.4746      0.0424     10.6307     75.1189     18.8690
  1425.3000      7.8891      2.4879      0.0806      9.8216     75.2942     18.6151
  1425.4000      7.8891      2.4890      0.0628      9.7606     77.3135     17.9466
  1425.5000      7.8903      2.4844      0.0688     10.0386     78.1459     17.0691
  1425.6000      7.8903      2.4891      0.0624      9.7519     76.5955     16.7856
  1425.7000      7.8903      2.5056      0.0852      8.7541     72.5737     17.4873
  1425.8000      7.8943      2.5127      0.1138      8.3199     68.5340     18.6193
  1425.9000      7.8943      2.4922      0.0474      9.5652     68.4679     19.5305
  1426.0000      7.8988      2.4573      0.0518     11.6779     73.1328     19.9597
  1426.1000      7.8988      2.4285      0.0581     13.4265     79.8429     19.6215
  1426.2000      7.8988      2.4127      0.0336     14.3806     84.8170     19.1569
  1426.3000      7.9044      2.4142      0.0173     14.2924     88.0736     19.5192
  1426.4000      7.9044      2.4280      0.0797     13.4543     89.5414     20.2217
  1426.5000      7.9100      2.4368      0.0463     12.9232     85.1182     20.3578
  1426.6000      7.9100      2.4368      0.0301     12.9183     76.2544     20.0504
  1426.7000      7.9100      2.4425      0.0098     12.5742     70.9961     19.6306
  1426.8000      7.9124      2.4524      0.0670     11.9747     70.8163     19.1539
  1426.9000      7.9124      2.4455      0.0749     12.3962     69.9530     18.5121
  1427.0000      7.9076      2.4223      0.0482     13.7992     66.8660     17.9520
  1427.1000      7.9076      2.4053      0.0396     14.8273     64.1600     17.7826
  1427.2000      7.9076      2.4068      0.0422     14.7369     63.3957     17.7355
  1427.3000      7.9017      2.4230      0.0333     13.7597     64.2114     17.4401
  1427.4000      7.9017      2.4382      0.0641     12.8394     65.1822     16.9064
  1427.5000      7.9013      2.4479      0.0053     12.2456     67.1139     16.7159
  1427.6000      7.9013      2.4635      0.0462     11.3017     69.0274     17.2741
  1427.7000      7.9013      2.4789      0.0867     10.3673     67.4819     18.0019
  1427.8000      7.9045      2.4843      0.0512     10.0438     65.5991     18.1812
  1427.9000      7.9045      2.4860      0.0566      9.9365     67.6301     18.0874
  1428.0000      7.9046      2.4874      0.0664      9.8555     71.3466     17.7335
  1428.1000      7.9046      2.4890      0.0212      9.7582     73.3096     16.8465
  1428.2000      7.9046      2.4948      0.0739      9.4075     72.6612     16.0721
  1428.3000      7.9022      2.5022      0.0090      8.9569     72.3256     15.7675
  1428.4000      7.9022      2.5069      0.0573      8.6702     75.2229     15.7347
  1428.5000      7.9013      2.5033      0.0423      8.8880     77.4824     15.9086
  1428.6000      7.9013      2.4902      0.0297      9.6823     76.9541     15.9575
  1428.7000      7.9013      2.4728      0.0125     10.7369     77.6143     15.7427
  1428.8000      7.9016      2.4587      0.0302     11.5959     79.0071     15.7363
  1428.9000      7.9016      2.4595     -0.0255     11.5470     76.6171     16.0410
  1429.0000      7.9040      2.4746      0.0535     10.6299     72.0791     16.3812
  1429.1000      7.9040      2.4865      0.0565      9.9064     69.9006     16.7908
  1429.2000      7.9040      2.4924      0.0350      9.5490     68.4124     17.4676
  1429.3000      7.9069      2.4929      0.0658      9.5231     65.8581     18.3568
