~Version Information
VERS.                      2.0: CWLS Log ASCII Standard - VERSION 2.0
WRAP.                       NO: One line per depth step
~Well Information Block
STRT.FT                10.0000: 
STOP.FT              1044.5000: 
STEP.FT                 0.1000: 
NULL.                -999.2500: 
COMP.          Pioneer Natural Resources: COMPANY
WELL.          Stags Leap 13-30: WELL
FLD.           Purgatorie River: FIELD
LOC.           1813' FSL & 117' FWL: LOCATION
PROV.                 Colorado: PROVINCE
CNTY.               Las Animas: COUNTRY
SRVC.                Patterson: SERVICE COMPANY
DATE.          Fri Dec 09 09:46:17 2005: LOG DATE
UWI.                          : UNIQUE WELL ID
~Curve Information Block
DEPT.FT            0 000 00 00: Depth
DCAL.in                       : CDL Caliper
RHOB.g/cc                     : CDL Bulk Density
RHOC.g/cc                     : CDL Density Correction
DPOR.pu                       : CDL Density Porosity
GR.GAPI                       : Gamma Ray
NPOR.pu                       : Neutron Porosity
~Parameter Information Block
~A  Depth       DCAL        RHOB        RHOC        DPOR         GR         NPOR    
# ...
   893.2000      7.9019      2.6168      0.0977      2.0117     93.1315     22.7427
   893.3000      7.9180      2.6110      0.0971      2.3635    100.6757     22.5641
   893.4000      7.9180      2.5991      0.0724      3.0873    105.4491     22.1671
   893.5000      7.8956      2.5788      0.0878      4.3177    106.1715     21.7881
   893.6000      7.8956      2.5546      0.0219      5.7825    103.7567     21.7253
   893.7000      7.8956      2.5400      0.0277      6.6690     99.8638     22.0534
   893.8000      7.8535      2.5357      0.0724      6.9266     95.5933     22.5327
   893.9000      7.8535      2.5280      0.0490      7.3951     91.6496     22.7101
   894.0000      7.9005      2.5121      0.0261      8.3597     88.6314     22.5325
   894.1000      7.9005      2.4944     -0.0013      9.4326     86.2422     22.4074
   894.2000      7.9005      2.4819     -0.0256     10.1856     83.5480     22.3990
   894.3000      7.9345      2.4823     -0.0121     10.1639     82.4075     22.3033
   894.4000      7.9345      2.4978      0.0191      9.2257     84.5128     22.1950
   894.5000      7.9805      2.5188      0.0456      7.9515     87.9548     22.1553
   894.6000      7.9805      2.5297      0.0718      7.2936     89.9646     21.9948
   894.7000      7.9805      2.5230      0.0617      7.6982     88.6266     21.6819
   894.8000      7.9790      2.5128      0.0143      8.3147     84.5647     21.6451
   894.9000      7.9790      2.5153      0.0404      8.1608     80.7283     21.9125
   895.0000      7.9587      2.5255      0.0186      7.5474     80.0138     21.9574
   895.1000      7.9587      2.5333      0.0452      7.0701     82.1080     21.8111
   895.2000      7.9587      2.5360      0.0480      6.9090     83.3771     21.8307
   895.3000      7.9315      2.5356      0.0447      6.9313     82.2619     21.9966
   895.4000      7.9315      2.5362      0.0215      6.8974     81.4707     22.4420
   895.5000      7.9374      2.5337      0.0826      7.0477     83.4404     23.1889
   895.6000      7.9374      2.5252      0.0494      7.5622     85.7576     23.6950
   895.7000      7.9374      2.5192      0.0250      7.9255     85.1149     23.7617
   895.8000      7.9301      2.5196      0.0524      7.9022     83.4184     23.7830
   895.9000      7.9301      2.5236      0.0282      7.6588     84.3404     23.8711
   896.0000      7.9194      2.5354      0.0220      6.9454     86.9890     23.9540
   896.1000      7.9194      2.5562      0.0558      5.6858     87.8307     23.9897
   896.2000      7.9194      2.5773      0.0923      4.4043     86.8577     23.8010
   896.3000      7.8836      2.5920      0.0558      3.5141     85.6536     23.4447
   896.4000      7.8836      2.6035      0.0971      2.8201     83.9007     23.3038
   896.5000      7.8604      2.6229      0.0598      1.6402     82.3282     23.3943
   896.6000      7.8604      2.6539      0.1113     -0.2337     81.4061     23.4176
   896.7000      7.8604      2.6778      0.1255     -1.6825     79.0748     23.5324
   896.8000      7.8882      2.6735      0.1514     -1.4265     76.3570     23.7269
   896.9000      7.8882      2.6441      0.1183      0.3563     77.0541     23.4935
   897.0000      7.8496      2.6170      0.0415      1.9978     80.6478     22.8605
   897.1000      7.8496      2.6126      0.0761      2.2697     83.1461     22.4746
   897.2000      7.8496      2.6256      0.0611      1.4768     82.4225     22.6207
   897.3000      7.8638      2.6437      0.0656      0.3812     79.9158     22.9810
   897.4000      7.8638      2.6527      0.0926     -0.1631     77.3234     22.9820
   897.5000      7.9357      2.6412      0.0540      0.5320     75.2184     22.4268
   897.6000      7.9357      2.6202      0.0107      1.8077     75.9386     21.6270
   897.7000      7.9357      2.6031      0.0526      2.8454     80.0804     20.9374
   897.8000      7.9384      2.5847      0.0473      3.9547     82.3671     20.3836
   897.9000      7.9384      2.5593      0.0110      5.4953     78.8474     19.8693
   898.0000      7.9577      2.5315     -0.0152      7.1809     73.6839     19.5449
   898.1000      7.9577      2.5125     -0.0337      8.3309     72.0840     19.5955
   898.2000      7.9577      2.5096     -0.0332      8.5077     72.9217     19.7371
   898.3000      7.9877      2.5167     -0.0012      8.0777     74.0667     19.6047
   898.4000      7.9877      2.5215      0.0249      7.7849     76.4379     19.3614
   898.5000      8.0161      2.5184      0.0174      7.9772     80.1192     19.2879
   898.6000      8.0161      2.5115      0.0012      8.3947     82.5533     19.2692
   898.7000      8.0161      2.5104     -0.0274      8.4634     82.7007     19.1608
   898.8000      7.9986      2.5169     -0.0177      8.0653     81.8621     19.2128
   898.9000      7.9986      2.5203     -0.0025      7.8581     79.8937     19.6076
   899.0000      7.9887      2.5132      0.0308      8.2919     77.5673     20.1432
   899.1000      7.9887      2.4975      0.0273      9.2415     77.8431     20.4601
   899.2000      7.9887      2.4781      0.0035     10.4210     81.4254     20.5977
   899.3000      8.0094      2.4652     -0.0303     11.1986     85.6117     20.7947
   899.4000      8.0094      2.4719     -0.0109     10.7913     88.3384     20.9464
   899.5000      7.9899      2.4946      0.0335      9.4201     89.9984     20.8824
   899.6000      7.9899      2.5125      0.0305      8.3332     91.7674     20.8593
   899.7000      7.9899      2.5138      0.0272      8.2571     93.4838     21.0680
   899.8000      7.9844      2.5012      0.0116      9.0162     94.5539     21.2710
   899.9000      7.9844      2.4860      0.0001      9.9364     94.5062     21.4044
   900.0000      7.9889      2.4856     -0.0090      9.9621     93.1261     21.5176
   900.1000      7.9889      2.5062      0.0547      8.7132     92.4286     21.6820
   900.2000      7.9889      2.5318      0.0639      7.1646     93.0614     21.9644
   900.3000      8.0093      2.5461      0.0303      6.2994     93.0263     22.0854
   900.4000      8.0093      2.5488      0.0751      6.1360     93.2637     21.8118
   900.5000      7.9625      2.5384      0.0915      6.7631     95.0689     21.4583
   900.6000      7.9625      2.5148      0.0871      8.1951     96.8394     21.3560
   900.7000      7.9625      2.4952      0.0800      9.3824     97.6383     21.2810
   900.8000      7.9232      2.4946      0.1002      9.4171     97.7258     21.0260
   900.9000      7.9232      2.5058      0.1148      8.7396     96.7902     20.8578
   901.0000      7.8946      2.5174      0.0773      8.0349     95.9255     21.0061
   901.1000      7.8946      2.5269      0.1281      7.4608     95.4363     21.3009
   901.2000      7.8946      2.5367      0.0529      6.8662     93.3862     21.6015
   901.3000      7.9149      2.5503      0.1593      6.0449     91.1913     21.9045
   901.4000      7.9149      2.5596      0.1727      5.4794     92.5903     22.1124
   901.5000      7.9171      2.5539      0.1574      5.8245     96.4451     22.0683
   901.6000      7.9171      2.5330      0.1600      7.0887     98.4747     21.7785
   901.7000      7.9171      2.5054      0.1093      8.7625     97.2390     21.4396
   901.8000      7.9089      2.4832      0.0830     10.1076     94.0321     21.2373
   901.9000      7.9089      2.4797      0.0618     10.3200     91.0931     21.2233
   902.0000      7.9655      2.5001      0.0847      9.0871     90.5758     21.3923
   902.1000      7.9655      2.5314      0.1102      7.1856     91.7397     21.7070
   902.2000      7.9655      2.5611      0.1602      5.3888     91.2255     22.0210
   902.3000      7.9223      2.5870      0.2193      3.8196     88.7586     22.1351
   902.4000      7.9223      2.6057      0.1790      2.6847     86.9969     22.0162
   902.5000      7.8602      2.6118      0.2113      2.3168     86.8589     21.7913
   902.6000      7.8602      2.6058      0.1835      2.6768     87.4883     21.5008
   902.7000      7.8602      2.5955      0.1799      3.3051     88.1760     21.0947
