~Version Information
VERS.                      2.0: CWLS Log ASCII Standard - VERSION 2.0
WRAP.                       NO: One line per depth step
~Well Information Block
STRT.FT               655.0000: 
STOP.FT              2623.7500: 
STEP.FT                 0.2500: 
NULL.                -999.2500: 
COMP.          Pioneer Natural Resources: COMPANY
WELL.             Aviator 12-4: WELL
FLD.           Purgatoire River: FIELD
LOC.           1969' FNL & 732' FWL--: LOCATION
CNTY.               Las Animas: COUNTY
SRVC.                Patterson: SERVICE COMPANY
DATE.          Sun Apr 09 14:25:03 2006: LOG DATE
UWI.           05 071 08714 00: UNIQUE WELL ID
STAT.                 Colorado: STATE
~Curve Information Block
DEPT.FT            0 000 00 00: Depth
SN.Ohm-m                      : IEL Short Normal
SP.mV                         : IEL Spontaneous Potential
DIR.Ohm-m                     : IEL Induction Resistivity
GR.GAPI                       : Gamma Ray
~Parameter Information Block
~A  Depth        SN          SP         DIR          GR     
   655.0000   2000.0000   2000.0000 100000.0000     76.8546
   655.2500   2000.0000   2000.0000 100000.0000     76.6908
   655.5000   2000.0000   2000.0000 100000.0000     76.4103
   655.7500   2000.0000   2000.0000 100000.0000     76.3085
   656.0000   2000.0000   2000.0000 100000.0000     76.0851
   656.2500   2000.0000   2000.0000 100000.0000     75.6041
   656.5000   2000.0000   2000.0000 100000.0000     73.9791
   656.7500   2000.0000   2000.0000 100000.0000     72.3351
   657.0000   2000.0000   2000.0000 100000.0000     69.7406
   657.2500   2000.0000   2000.0000 100000.0000     68.4836
   657.5000   2000.0000   2000.0000 100000.0000     67.7294
   657.7500   2000.0000   2000.0000 100000.0000     67.7983
   658.0000   2000.0000   2000.0000 100000.0000     68.3570
   658.2500   2000.0000   2000.0000 100000.0000     69.0890
   658.5000   2000.0000   2000.0000 100000.0000     71.1391
   658.7500   2000.0000   2000.0000 100000.0000     73.2156
   659.0000   2000.0000   2000.0000 100000.0000     76.8923
   659.2500   2000.0000   2000.0000 100000.0000     79.2037
   659.5000   2000.0000   2000.0000 100000.0000     81.8913
   659.7500   2000.0000   2000.0000 100000.0000     83.3250
   660.0000   2000.0000   2000.0000 100000.0000     85.8010
   660.2500   2000.0000   2000.0000 100000.0000     87.9185
   660.5000   2000.0000   2000.0000 100000.0000     91.0204
   660.7500   2000.0000   2000.0000 100000.0000     92.1671
   661.0000   2000.0000   2000.0000 100000.0000     91.6893
   661.2500   2000.0000   2000.0000 100000.0000     90.2817
   661.5000   2000.0000   2000.0000 100000.0000     88.0440
   661.7500   2000.0000   2000.0000 100000.0000     87.1227
   662.0000   2000.0000   2000.0000 100000.0000     86.6705
   662.2500   2000.0000   2000.0000 100000.0000     86.6318
   662.5000   2000.0000   2000.0000 100000.0000     86.1972
   662.7500   2000.0000   2000.0000 100000.0000     85.2138
   663.0000   2000.0000   2000.0000 100000.0000     82.2630
   663.2500   2000.0000   2000.0000 100000.0000     79.4917
   663.5000   2000.0000   2000.0000 100000.0000     75.1179
   663.7500   2000.0000   2000.0000 100000.0000     72.6931
   664.0000   2000.0000   2000.0000 100000.0000     70.5688
   664.2500   2000.0000   2000.0000 100000.0000     70.4493
   664.5000   2000.0000   2000.0000 100000.0000     72.4167
   664.7500   2000.0000   2000.0000     20.5738     74.9559
   665.0000   2000.0000   2000.0000      5.8461     79.5834
   665.2500   2000.0000   2000.0000      3.3412     82.4325
   665.5000   2000.0000   2000.0000      2.5986     85.3346
   665.7500   2000.0000   2000.0000      2.5732     86.1580
   666.0000   2000.0000   2000.0000      3.2389     85.9841
   666.2500   2000.0000   2000.0000      5.5716     85.2213
   666.5000   2000.0000   2000.0000     21.2963     83.4134
   666.7500   2000.0000   2000.0000 100000.0000     81.7207
   667.0000   2000.0000   2000.0000 100000.0000     78.3327
   667.2500   2000.0000   2000.0000 100000.0000     75.7666
   667.5000   2000.0000   2000.0000 100000.0000     72.4697
   667.7500   2000.0000   2000.0000 100000.0000     71.1087
   668.0000   2000.0000   2000.0000 100000.0000     70.2815
   668.2500   2000.0000   2000.0000    205.3865     70.2670
   668.5000   2000.0000   2000.0000     23.7791     70.9368
   668.7500   2000.0000   2000.0000     15.6864     71.9203
   669.0000   2000.0000   2000.0000     14.5020     73.7857
   669.2500   2000.0000   2000.0000     16.4153     74.7227
   669.5000   2000.0000   2000.0000     22.2612     75.1751
   669.7500   2000.0000   2000.0000     37.3852     75.1482
   670.0000   2000.0000   2000.0000     86.3191     75.3459
   670.2500   2000.0000   2000.0000    334.9664     75.5733
   670.5000   2000.0000   2000.0000    484.1267     75.1812
   670.7500   2000.0000   2000.0000    133.0018     74.1223
   671.0000   2000.0000   2000.0000     61.4561     72.1314
   671.2500   2000.0000   2000.0000     40.5097     71.6823
   671.5000   2000.0000   2000.0000     33.1204     74.3591
   671.7500   2000.0000   2000.0000     30.9826     78.9127
   672.0000   2000.0000   2000.0000     31.0410     89.0665
   672.2500   2000.0000   2000.0000     31.2704     96.8262
   672.5000   2000.0000   2000.0000     30.2076    107.9257
   672.7500   2000.0000   2000.0000     27.6715    114.3057
   673.0000   2000.0000   2000.0000     24.5938    121.8311
   673.2500   2000.0000   2000.0000     21.9161    125.2074
   673.5000   2000.0000   2000.0000     20.0632    127.4009
   673.7500   2000.0000   2000.0000     19.0802    127.0006
   674.0000   2000.0000   2000.0000     18.8527    124.3629
   674.2500   2000.0000   2000.0000     19.2143    121.9029
   674.5000   2000.0000   2000.0000     19.9863    118.1606
   674.7500   2000.0000   2000.0000     21.0007    115.9589
   675.0000   2000.0000   2000.0000     22.1198    113.1511
   675.2500   2000.0000   2000.0000     23.2386    111.4682
   675.5000   2000.0000   2000.0000     24.2745    109.1641
   675.7500   2000.0000   2000.0000     25.1667    107.9861
   676.0000   2000.0000   2000.0000     25.9021    107.1671
   676.2500   2000.0000   2000.0000     26.5399    107.1867
   676.5000   2000.0000   2000.0000     27.2004    107.3990
   676.7500   2000.0000   2000.0000     28.0182    107.2625
   677.0000   2000.0000   2000.0000     29.0901    106.4148
   677.2500   2000.0000   2000.0000     30.4424    105.5137
   677.5000   2000.0000   2000.0000     32.0196    103.7445
   677.7500   2000.0000   2000.0000     33.6931    102.0401
   678.0000   2000.0000   2000.0000     35.2974     97.9051
   678.2500   2000.0000   2000.0000     36.6945     93.9396
   678.5000   2000.0000   2000.0000     37.8378     87.2334
   678.7500   2000.0000   2000.0000     38.7885     83.4349
   679.0000   2000.0000   2000.0000     39.6654     80.4542
   679.2500   2000.0000   2000.0000     40.5692     80.5145
   679.5000   2000.0000   2000.0000     41.5314     82.6190
   679.7500   2000.0000   2000.0000     42.5073     84.3514
   680.0000   2000.0000   2000.0000     43.4066     86.3673
   680.2500   2000.0000   2000.0000     44.1437     87.4753
   680.5000   2000.0000   2000.0000     44.6918     89.7093
   680.7500   2000.0000   2000.0000     45.1161     91.6775
   681.0000   2000.0000   2000.0000     45.5603     93.8772
   681.2500   2000.0000   2000.0000     46.1854     93.5493
   681.5000   2000.0000   2000.0000     47.0906     89.4654
   681.7500   2000.0000   2000.0000     48.2548     85.1045
   682.0000   2000.0000   2000.0000     49.5343     78.4171
   682.2500   2000.0000   2000.0000     50.7333     74.8816
   682.5000   2000.0000   2000.0000     51.7244     71.5775
   682.7500   2000.0000   2000.0000     52.5310     70.5350
   683.0000   2000.0000   2000.0000     53.2947     69.8092
   683.2500   2000.0000   2000.0000     54.1439     69.3223
   683.5000   2000.0000   2000.0000     55.0737     68.3858
   683.7500   2000.0000   2000.0000     55.9209     67.9782
   684.0000   2000.0000   2000.0000     56.4537     68.2016
   684.2500   2000.0000   2000.0000     56.5191     68.7795
   684.5000   2000.0000   2000.0000     56.1327     69.7035
   684.7500   2000.0000   2000.0000     55.4580     70.1892
   685.0000   2000.0000   2000.0000     54.7224     70.8239
   685.2500   2000.0000   2000.0000     54.1490     71.1674
   685.5000   2000.0000   2000.0000     53.9107     71.0026
   685.7500   2000.0000   2000.0000     54.0829     70.0235
   686.0000   2000.0000   2000.0000     54.6061     67.2557
   686.2500   2000.0000   2000.0000     55.3051     65.1071
   686.5000   2000.0000   2000.0000     55.9798     62.5657
   686.7500   2000.0000   2000.0000     56.5091     61.5736
   687.0000   2000.0000   2000.0000     56.8757     60.8009
   687.2500   2000.0000   2000.0000     57.0973     60.5518
   687.5000   2000.0000   2000.0000     57.1451     60.7793
   687.7500   2000.0000   2000.0000     56.9372     61.6144
   688.0000   2000.0000   2000.0000     56.4094     64.0726
   688.2500   2000.0000   2000.0000     55.5938     66.5057
