~Version Information
VERS.                      2.0: CWLS Log ASCII Standard - VERSION 2.0
WRAP.                       NO: One line per depth step
~Well Information Block
STRT.FT                 0.0000: 
STOP.FT               787.2500: 
STEP.FT                 0.2500: 
NULL.                -999.2500: 
COMP.          Pioneer Natural Resources: COMPANY
WELL.             Veedol 34-28: WELL
FLD.           Purgatorie River: FIELD
LOC.           357' FSL & 2520' FEL: LOCATION
PROV.                 Colorado: PROVINCE
CNTY.               Las Animas: COUNTRY
SRVC.                Patterson: SERVICE COMPANY
DATE.          Wed Dec 28 10:10:37 2005: LOG DATE
UWI.                          : UNIQUE WELL ID
~Curve Information Block
DEPT.FT            0 000 00 00: Depth
CCL.                          : Casing Collar Locator
TT3.usec                      : CBL 3' Travel Time
AMP3.mV                       : CBL 3' Amplitude
GR.GAPI                       : Gamma Ray
~Parameter Information Block
~A  Depth       CCL         TT3         AMP3         GR     
# ...
   737.0000      0.0000    716.3420     14.0905     69.4618
   737.2500      0.0000    716.3646     13.6795     74.5792
   737.5000      0.0000    716.4548     13.4183     80.0989
   737.7500      0.0000    716.5876     13.2994     85.9157
   738.0000      0.0000    716.7302     13.2769     91.5091
   738.2500      0.0000    716.9195     13.2886     95.9706
   738.5000      0.0000    717.1545     13.2883     98.4713
   738.7500      0.0000    717.3362     13.2588     98.4951
   739.0000      0.0000    717.2415     13.1877     95.9527
   739.2500      0.0000    715.6080     13.0537     91.5356
   739.5000      0.0000    707.4702     12.8431     86.7134
   739.7500      0.0000    683.4362     12.5791     82.7802
   740.0000      0.0000    641.4253     12.3370     79.8945
   740.2500      0.0000    604.0818     12.1937     77.3716
   740.5000      0.0000    603.7834     12.1629     74.8814
   740.7500      0.0000    640.6643     12.2050     73.0971
   741.0000      0.0000    682.4905     12.2620     73.1132
   741.2500      0.0000    706.5314     12.2737     75.2873
   741.5000      0.0000    714.5345     12.1930     78.8493
   741.7500      0.0000    715.1253     12.0052     82.7796
   742.0000      0.0000    712.3079     11.7481     86.7811
   742.2500      0.0000    708.0549     11.5041     90.9666
   742.5000      0.0000    706.0570     11.3417     94.8135
   742.7500      0.0000    708.6339     11.2601     97.1118
   743.0000      0.0000    713.1324     11.2195     97.2435
   743.2500      0.0000    715.2645     11.2063     96.1866
   743.5000      0.0000    711.3733     11.2429     95.8544
   743.7500      0.0000    695.0215     11.3509     97.3480
   744.0000      0.0000    660.4464     11.5201    100.0841
   744.2500      0.0000    619.1459     11.7151    102.7071
   744.5000      0.0000    599.4305     11.8990    104.5471
   744.7500      0.0000    609.1233     12.0283    105.9208
   745.0000      0.0000    625.7811     12.0787    107.2369
   745.2500      0.0000    640.3881     12.0967    108.1328
   745.5000      0.0000    663.3484     12.1606    107.6400
   745.7500      0.0000    690.5353     12.3052    105.2257
   746.0000      0.0000    708.4183     12.5163    101.6536
   746.2500      0.0000    715.2183     12.7647     98.7121
   746.5000      0.0000    716.8115     13.0344     98.0331
   746.7500      0.0000    717.1620     13.2875    100.0249
   747.0000      0.0000    717.4238     13.4173    103.5289
   747.2500      0.0000    717.6829     13.3560    106.2954
   747.5000      0.0000    717.8293     13.1799    106.3118
   747.7500      0.0000    717.8090     12.9886    103.2997
   748.0000      0.0000    717.3806     12.7942     98.8345
   748.2500      0.0000    714.5377     12.5930     94.6744
   748.5000      0.0000    701.5551     12.3986     91.0984
   748.7500      0.0000    664.0105     12.1528     87.0871
   749.0000      0.0000    598.4138     11.7005     81.9373
   749.2500      0.0000    538.0834     10.9438     76.3840
   749.5000      0.0000    532.5680      9.9991     72.1124
   749.7500      0.0000    588.4355      9.1164     70.3153
   750.0000      0.0000    663.1929      8.5448     70.7892
   750.2500      0.0000    716.5039      8.4470     72.4269
   750.5000      0.0000    738.5232      8.6799     74.5935
   750.7500     -2.0000    739.9497      8.8834     78.0158
   751.0000      2.0000    733.6218      8.9012     84.2402
   751.2500      0.0000    719.4780      8.8561     93.8940
   751.5000      0.0000    690.6132      8.8942    105.2505
   751.7500      0.0000    654.1495      9.1002    114.7571
   752.0000      0.0000    627.8740      9.6414    119.3029
   752.2500      0.0000    627.1029     10.6191    118.1068
   752.5000      0.0000    655.6111     11.6716    112.6346
   752.7500      0.0000    693.3737     12.2606    105.1180
   753.0000      0.0000    715.9218     12.3083     97.3707
   753.2500      0.0000    721.3488     12.1128     90.6830
   753.5000      0.0000    720.5029     11.9206     85.9740
   753.7500      0.0000    719.5905     11.8010     83.4232
   754.0000      0.0000    719.3010     11.7362     82.2264
   754.2500      0.0000    719.0764     11.6967     81.3426
   754.5000      0.0000    718.6953     11.6505     80.4680
   754.7500      0.0000    718.0828     11.5862     79.9689
   755.0000      0.0000    716.6940     11.5337     80.0878
   755.2500      0.0000    713.4052     11.5216     80.5901
   755.5000      0.0000    708.0490     11.5231     80.9650
   755.7500      0.0000    702.7000     11.4802     80.6703
   756.0000      0.0000    699.4852     11.3753     79.3862
   756.2500      0.0000    698.2771     11.2352     77.3086
   756.5000      0.0000    697.6948     11.0819     75.2000
   756.7500      0.0000    696.2385     10.9343     74.0942
   757.0000      0.0000    692.5391     10.8335     74.8684
   757.2500      0.0000    686.7620     10.8141     77.8963
   757.5000      0.0000    682.0059     10.8500     82.7911
   757.7500      0.0000    681.6696     10.8689     88.1625
   758.0000      0.0000    685.0947     10.8345     91.8083
   758.2500      0.0000    687.4916     10.7750     91.8908
   758.5000      0.0000    685.5260     10.7209     88.4810
   758.7500      0.0000    681.3630     10.6645     83.8297
   759.0000      0.0000    679.1870     10.5847     80.7051
   759.2500      0.0000    680.9660     10.4535     80.3034
   759.5000      0.0000    685.5612     10.2497     81.7703
   759.7500      0.0000    689.4967     10.0134     83.4436
   760.0000      0.0000    691.2262      9.8186     84.1060
   760.2500      0.0000    693.2253      9.6804     83.2256
   760.5000      0.0000    697.0895      9.5564     80.8147
   760.7500      0.0000    701.5937      9.4293     77.5138
   761.0000      0.0000    705.0147      9.3315     74.5124
   761.2500      0.0000    706.3180      9.2777     73.0718
   761.5000      0.0000    707.1303      9.2374     73.9993
   761.7500      0.0000    709.4291      9.1946     77.2927
   762.0000      0.0000    710.8580      9.1659     82.0567
   762.2500      0.0000    708.5292      9.1643     86.7938
   762.5000      0.0000    704.3723      9.2017     89.8937
   762.7500      0.0000    702.2989      9.3024     90.2252
   763.0000      0.0000    704.1457      9.4744     87.7899
   763.2500      0.0000    709.4207      9.6709     83.7906
   763.5000      0.0000    716.0815      9.8245     79.6428
   763.7500      0.0000    722.7614      9.9356     75.9342
   764.0000      0.0000    728.8456     10.0584     72.6129
   764.2500      0.0000    731.8665     10.2038     69.9619
   764.5000      0.0000    729.9497     10.3494     68.9174
   764.7500      0.0000    725.6260     10.5090     70.3256
   765.0000      0.0000    722.7492     10.6888     73.9737
   765.2500      0.0000    722.8442     10.8496     78.3723
   765.5000      0.0000    725.9557     10.9629     81.5386
   765.7500      0.0000    730.7416     11.0183     82.1289
   766.0000      0.0000    733.6967     10.9998     80.0403
   766.2500      0.0000    733.2272     10.9108     76.2795
   766.5000      0.0000    733.4176     10.7916     72.4659
   766.7500      0.0000    738.4976     10.6934     70.1918
   767.0000      0.0000    746.1890     10.6425     70.2422
   767.2500      0.0000    751.3358     10.6445     72.0551
   767.5000      0.0000    752.1112     10.6965     74.1494
   767.7500      0.0000    748.0461     10.7685     75.4171
   768.0000      0.0000    739.1035     10.8012     76.0092
   768.2500      0.0000    729.1726     10.7664     76.9190
   768.5000      0.0000    722.6290     10.7032     78.7720
   768.7500      0.0000    719.6858     10.6745     81.0582
   769.0000      0.0000    718.4899     10.7184     82.5393
   769.2500      0.0000    717.8135     10.8452     82.4114
   769.5000      0.0000    717.0671     11.0241     81.0531
   769.7500      0.0000    715.3878     11.1782     79.6215
   770.0000      0.0000    711.0004     11.2397     79.0242
   770.2500      0.0000    702.5255     11.1847     79.2817
