~Version Information
VERS.                      2.0: CWLS Log ASCII Standard - VERSION 2.0
WRAP.                       NO: One line per depth step
~Well Information Block
STRT.FT               -10.2500: 
STOP.FT              2437.2500: 
STEP.FT                 0.2500: 
NULL.                -999.2500: 
COMP.          Pioneer Natural Resources: COMPANY
WELL.          Hellzonfire 32-31: WELL
FLD.           Purgatorie River: FIELD
LOC.           1993' FNL & 2265' FEL------: LOCATION
STAT.                       CO: State
CNTY.               Las Animas: COUNTY
CTRY. USA : Country
SECT. 31 : Section
TOWN. 32S : Township
RANG. 66W : Range
SRVC.          Patterson Wireline: SERVICE COMPANY
DATE.          Thu Sep 08 11:10:17 2005: LOG DATE
API.           05 071 08483 00: UNIQUE WELL ID
~Curve Information Block
DEPT.FT            0 000 00 00: Depth
CCL.                          : Casing Collar Locator
TT3.usec                      : CBL 3' Travel Time
AMP3.mV                       : CBL 3' Amplitude
GR.GAPI                       : Gamma Ray
~Parameter Information Block
~A  Depth       CCL         TT3         AMP3         GR     
# ...
  1765.2500      0.0000    376.5443     10.4542     79.0687
  1765.5000      0.0000    376.3524     10.5793     78.1590
  1765.7500      0.0000    376.1280     10.7118     79.1210
  1766.0000      0.0000    375.8946     10.8240     80.1419
  1766.2500      0.0000    375.6991     10.8869     80.3702
  1766.5000      0.0000    375.6043     10.8814     79.9730
  1766.7500      0.0000    375.6547     10.8028     79.1612
  1767.0000      0.0000    375.8470     10.6610     77.7762
  1767.2500      0.0000    376.1237     10.4761     75.9883
  1767.5000      0.0000    376.3929     10.2750     74.6793
  1767.7500      0.0000    376.5721     10.0875     74.6112
  1768.0000      0.0000    376.6247      9.9404     75.6254
  1768.2500      0.0000    376.5591      9.8485     76.9538
  1768.5000      0.0000    376.3947      9.8079     77.8956
  1768.7500      0.0000    376.1332      9.8003     78.0591
  1769.0000      0.0000    375.7665      9.8065     77.3992
  1769.2500      0.0000    375.3069      9.8152     76.1848
  1769.5000      0.0000    374.8069      9.8210     74.7775
  1769.7500      0.0000    374.3512      9.8166     73.4504
  1770.0000      0.0000    374.0320      9.7912     72.3017
  1770.2500      0.0000    373.9187      9.7360     71.0685
  1770.5000      0.0000    374.0367      9.6510     69.1915
  1770.7500      0.0000    374.3654      9.5480     66.5110
  1771.0000      0.0000    374.8481      9.4480     63.9137
  1771.2500      0.0000    375.3961      9.3722     62.8126
  1771.5000      0.0000    375.8968      9.3299     63.7093
  1771.7500      0.0000    376.2527      9.3151     65.5195
  1772.0000      0.0000    376.4547      9.3130     66.6024
  1772.2500      0.0000    376.6393      9.3108     66.2772
  1772.5000      0.0000    377.2994      9.3008     65.1574
  1772.7500      0.0000    379.8862      9.2784     64.3365
  1773.0000      0.0000    387.8077      9.2391     64.5365
  1773.2500      0.0000    406.6802      9.1799     65.7025
  1773.5000      0.0000    441.7612      9.1008     66.9747
  1773.7500      0.0000    492.6368      9.0068     67.2185
  1774.0000      0.0000    550.1619      8.9080     66.0111
  1774.2500      0.0000    600.8398      8.8170     64.0624
  1774.5000      0.0000    635.5920      8.7452     62.5542
  1774.7500      0.0000    654.1021      8.6974     62.3093
  1775.0000      0.0000    661.7153      8.6686     63.5381
  1775.2500      0.0000    664.1063      8.6444     65.8065
  1775.5000      0.0000    664.6995      8.6061     68.0815
  1775.7500      0.0000    664.8951      8.5418     69.3597
  1776.0000      0.0000    665.0634      8.4565     69.5691
  1776.2500      0.0000    665.2161      8.3710     69.4443
  1776.5000      0.0000    665.3099      8.3087     69.3515
  1776.7500      0.0000    665.3231      8.2814     68.9064
  1777.0000      0.0000    665.2665      8.2832     68.0011
  1777.2500      0.0000    665.1678      8.2983     67.3122
  1777.5000      0.0000    665.1033      8.3147     67.3696
  1777.7500      0.0000    665.3058      8.3312     67.9232
  1778.0000      0.0000    666.3207      8.3523     68.5667
  1778.2500      0.0000    669.0156      8.3781     69.2337
  1778.5000      0.0000    674.1583      8.4029     69.7945
  1778.7500      0.0000    681.5731      8.4212     69.7437
  1779.0000      0.0000    689.6161      8.4336     68.7018
  1779.2500      0.0000    695.6912      8.4454     67.0376
  1779.5000      0.0000    697.5551      8.4593     65.7253
  1779.7500      0.0000    694.3862      8.4692     65.5676
  1780.0000      0.0000    686.9590      8.4608     66.5529
  1780.2500      0.0000    676.9542      8.4221     67.8094
  1780.5000      0.0000    666.0462      8.3506     68.1729
  1780.7500      0.0000    655.5997      8.2527     67.1480
  1781.0000      0.0000    646.8566      8.1367     65.3736
  1781.2500      0.0000    640.7565      8.0080     63.8209
  1781.5000      0.0000    637.5021      7.8659     62.6997
  1781.7500      0.0000    636.6013      7.6967     61.7829
  1782.0000      0.0000    637.2981      7.4743     61.5531
  1782.2500      0.0000    638.9242      7.1783     63.0434
  1782.5000      0.0000    641.3839      6.8176     66.4360
  1782.7500      0.0000    645.6990      6.4299     70.5209
  1783.0000      0.0000    653.4426      6.0538     73.7194
  1783.2500      0.0000    664.6696      5.7048     75.1785
  1783.5000      0.0000    676.7307      5.3789     74.8098
  1783.7500      0.0000    686.2148      5.0726     72.9394
  1784.0000      0.0000    692.0825      4.7965     70.3911
  1784.2500      0.0000    695.9405      4.5691     68.4756
  1784.5000      0.0000    699.4453      4.4053     68.0954
  1784.7500      0.0000    702.7037      4.3129     68.6644
  1785.0000      0.0000    705.3052      4.2973     68.2815
  1785.2500      0.0000    707.4996      4.3659     65.3877
  1785.5000      0.0000    709.6699      4.5278     60.4442
  1785.7500      0.0000    711.5649      4.7896     55.9097
  1786.0000      0.0000    712.8764      5.1497     54.2414
  1786.2500      0.0000    713.9955      5.5935     55.8410
  1786.5000      0.0000    715.6227      6.0938     59.2033
  1786.7500      0.0000    718.0386      6.6131     62.9829
  1787.0000      0.0000    720.9160      7.1069     67.3749
  1787.2500      0.0000    723.1892      7.5306     73.2662
  1787.5000      0.0000    723.2537      7.8555     80.6330
  1787.7500      0.0000    720.3109      8.0849     88.4157
  1788.0000      0.0000    715.5407      8.2561     95.7599
  1788.2500      0.0000    711.2030      8.4223    102.6856
  1788.5000      0.0000    708.7084      8.6198    109.3944
  1788.7500      0.0000    707.9540      8.8424    115.3674
  1789.0000      0.0000    708.1157      9.0475    119.4757
  1789.2500      0.0000    708.5209      9.1926    121.0443
  1789.5000      0.0000    708.8909      9.2665    120.6961
  1789.7500      0.0000    709.1764      9.2913    119.7537
  1790.0000      0.0000    709.3792      9.3014    118.8248
  1790.2500      0.0000    709.5591      9.3198    117.6286
  1790.5000      0.0000    709.9630      9.3407    116.0781
  1790.7500      0.0000    711.0441      9.3285    114.5436
  1791.0000      0.0000    713.1035      9.2385    113.0988
  1791.2500      0.0000    715.5654      9.0616    111.3388
  1791.5000      0.0000    716.7594      8.8581    109.0194
  1791.7500      0.0000    715.3771      8.7170    106.4442
  1792.0000      0.0000    712.6436      8.6518    104.1775
  1792.2500      0.0000    711.9468      8.5655    102.3790
  1792.5000      0.0000    715.1762      8.3585    100.5088
  1792.7500      0.0000    719.9824      8.0392     98.1498
  1793.0000      0.0000    721.7267      7.6943     96.2044
  1793.2500     -2.0000    718.2870      7.3859     96.5606
  1793.5000      2.0000    712.3856      7.1196    100.1984
  1793.7500      0.0000    708.5284      6.8881    105.9331
  1794.0000      0.0000    707.5072      6.7151    111.2257
  1794.2500      0.0000    704.9860      6.6505    114.0415
  1794.5000      0.0000    696.4555      6.7177    113.9691
  1794.7500      0.0000    682.8573      6.8632    112.0869
  1795.0000      0.0000    670.1627      6.9826    110.1038
  1795.2500      0.0000    663.6987      7.0189    109.3478
  1795.5000      0.0000    663.4833      7.0069    110.2386
  1795.7500      0.0000    664.4453      7.0082    112.4574
  1796.0000      0.0000    660.3192      7.0388    115.2327
  1796.2500      0.0000    648.1628      7.0780    117.3872
  1796.5000      0.0000    630.6509      7.1127    117.7089
  1796.7500      0.0000    614.3770      7.1509    115.7189
  1797.0000      0.0000    605.4936      7.2040    111.9128
  1797.2500      0.0000    606.4099      7.2660    107.1464
  1797.5000      0.0000    615.4335      7.3156    102.0950
  1797.7500      0.0000    628.4656      7.3384     97.3461
  1798.0000      0.0000    641.2393      7.3451     93.6755
  1798.2500      0.0000    650.9681      7.3629     92.0867
  1798.5000      0.0000    656.7814      7.4166     93.5849
