~Version Information
VERS.                      2.0: CWLS Log ASCII Standard - VERSION 2.0
WRAP.                       NO: One line per depth step
~Well Information Block
STRT.FT               196.3000: 
STOP.FT              1631.0000: 
STEP.FT                 0.1000: 
NULL.                -999.2500: 
COMP.          Petrogulf Corporation: COMPANY
WELL.             State 16-44R: WELL
FLD.           Purgatoire River: FIELD
LOC.           632' FSL & 223' FEL--: LOCATION
PROV.                 Colorado: PROVINCE
CNTY.               Las Animas: COUNTRY
SRVC.                Patterson: SERVICE COMPANY
DATE.          Fri Oct 21 14:20:18 2005: LOG DATE
UWI.           05 071 08457 00: UNIQUE WELL ID
~Curve Information Block
DEPT.FT            0 000 00 00: Depth
DCAL.in                       : CDL Caliper
RHOB.g/cc                     : CDL Bulk Density
RHOC.g/cc                     : CDL Density Correction
DPOR.pu                       : CDL Density Porosity
NPOR.pu                       : Neutron Porosity
GR.GAPI                       : Gamma Ray
~Parameter Information Block
~A  Depth       DCAL        RHOB        RHOC        DPOR        NPOR         GR     
# ...
   849.1000      7.9882      2.6862      0.0572     -2.1913     27.0936    107.8131
   849.2000      7.9882      2.6825      0.0182     -1.9712     27.0334    103.3235
   849.3000      7.9857      2.6778      0.0213     -1.6825     26.8282    100.7696
   849.4000      7.9857      2.6687      0.0372     -1.1332     26.5402    105.6976
   849.5000      7.9813      2.6625     -0.0014     -0.7603     26.2833    117.0336
   849.6000      7.9813      2.6573      0.0533     -0.4402     25.9612    123.4520
   849.7000      7.9813      2.6407      0.0476      0.5637     25.5341    120.1864
   849.8000      7.9710      2.6190      0.0278      1.8775     25.2694    115.9099
   849.9000      7.9710      2.6095      0.0661      2.4551     25.4300    119.6158
   850.0000      7.9522      2.6142      0.0767      2.1725     25.9515    128.3570
   850.1000      7.9522      2.6252      0.0809      1.5039     26.5092    131.2006
   850.2000      7.9522      2.6339      0.0842      0.9747     26.8909    125.2935
   850.3000      7.9339      2.6381      0.0846      0.7189     26.9846    118.8663
   850.4000      7.9339      2.6389      0.0717      0.6740     26.8326    118.0578
   850.5000      7.9252      2.6311      0.0939      1.1469     26.7406    121.7589
   850.6000      7.9252      2.6185      0.0169      1.9103     26.8376    125.8356
   850.7000      7.9252      2.6157      0.0429      2.0816     26.7972    124.8192
   850.8000      7.9258      2.6231      0.0480      1.6311     26.4757    119.0146
   850.9000      7.9258      2.6323      0.0162      1.0752     26.4476    117.0666
   851.0000      7.9292      2.6321      0.0812      1.0829     27.0293    124.0527
   851.1000      7.9292      2.6114      0.0345      2.3397     27.6721    130.8338
   851.2000      7.9292      2.5739      0.0341      4.6129     27.8660    127.2515
   851.3000      7.9285      2.5409      0.0002      6.6113     27.7272    120.5857
   851.4000      7.9285      2.5355      0.0119      6.9419     27.5200    120.0341
   851.5000      7.9259      2.5503      0.0514      6.0444     27.3626    121.2973
   851.6000      7.9259      2.5591      0.0304      5.5081     27.3618    119.4101
   851.7000      7.9259      2.5577      0.0583      5.5970     27.4418    116.8839
   851.8000      7.9251      2.5572      0.0388      5.6270     27.4603    116.3484
   851.9000      7.9251      2.5633      0.0584      5.2533     27.3525    117.6289
   852.0000      7.9249      2.5748      0.0533      4.5553     27.0321    119.8325
   852.1000      7.9249      2.5877      0.0670      3.7743     26.7045    124.6000
   852.2000      7.9249      2.5958      0.0727      3.2823     26.8445    130.8906
   852.3000      7.9248      2.5980      0.0610      3.1507     27.3121    135.7175
   852.4000      7.9248      2.5978      0.0681      3.1630     27.4301    139.3767
   852.5000      7.9267      2.5966      0.0578      3.2377     27.0278    140.1491
   852.6000      7.9267      2.5994      0.0357      3.0646     26.7247    138.8933
   852.7000      7.9267      2.6068      0.0423      2.6160     26.8961    137.4181
   852.8000      7.9294      2.6065      0.0553      2.6343     27.2395    135.2567
   852.9000      7.9294      2.5909      0.0384      3.5832     27.5402    137.4570
   853.0000      7.9293      2.5674      0.0424      5.0087     27.7835    145.3954
   853.1000      7.9293      2.5514      0.0235      5.9730     27.6257    148.0732
   853.2000      7.9293      2.5537      0.0424      5.8374     27.0448    140.3727
   853.3000      7.9276      2.5654      0.0562      5.1273     26.6773    131.5833
   853.4000      7.9276      2.5699      0.0858      4.8536     26.5866    129.7332
   853.5000      7.9278      2.5656      0.0569      5.1163     26.3749    135.2603
   853.6000      7.9278      2.5600      0.0687      5.4570     26.1815    141.8641
   853.7000      7.9278      2.5627      0.0068      5.2911     26.1862    143.1345
   853.8000      7.9288      2.5833      0.0510      4.0431     26.2322    140.7658
   853.9000      7.9288      2.6148      0.0629      2.1304     26.3337    137.7506
   854.0000      7.9285      2.6465      0.0470      0.2106     26.3432    135.4105
   854.1000      7.9285      2.6750      0.0704     -1.5162     26.2399    135.1498
   854.2000      7.9285      2.6925      0.1026     -2.5761     26.2538    136.5327
   854.3000      7.9264      2.6936      0.0838     -2.6402     26.2099    136.7951
   854.4000      7.9264      2.6789      0.0674     -1.7502     25.9394    133.7719
   854.5000      7.9236      2.6500      0.0428     -0.0008     25.5996    129.0772
   854.6000      7.9236      2.6242     -0.0242      1.5619     25.3974    124.9431
   854.7000      7.9236      2.6235     -0.0618      1.6080     25.5541    123.3179
   854.8000      7.9232      2.6392     -0.0154      0.6550     25.8814    127.3207
   854.9000      7.9232      2.6498     -0.0300      0.0132     25.9586    135.2903
   855.0000      7.9242      2.6567      0.0022     -0.4076     25.7875    140.6402
   855.1000      7.9242      2.6645      0.0411     -0.8792     25.4219    140.0310
   855.2000      7.9242      2.6688      0.0591     -1.1403     24.7898    135.5407
   855.3000      7.9247      2.6703      0.0560     -1.2309     24.3880    129.4667
   855.4000      7.9247      2.6647      0.1002     -0.8901     24.9084    124.1539
   855.5000      7.9245      2.6431      0.0699      0.4161     26.0053    121.4064
   855.6000      7.9245      2.6132      0.0397      2.2330     26.8214    121.7872
   855.7000      7.9245      2.5918     -0.0034      3.5274     27.0520    123.9178
   855.8000      7.9214      2.5871      0.0188      3.8108     26.7508    128.0498
   855.9000      7.9214      2.5962      0.0021      3.2585     26.2499    132.5177
   856.0000      7.9153      2.6122      0.0187      2.2890     26.0660    130.7026
   856.1000      7.9153      2.6301      0.0239      1.2065     26.1980    125.1287
   856.2000      7.9153      2.6434      0.0707      0.4019     26.2500    124.6875
   856.3000      7.9077      2.6380      0.0505      0.7253     26.1907    128.5009
   856.4000      7.9077      2.6134      0.0453      2.2202     26.1436    129.6192
   856.5000      7.9001      2.5915      0.0229      3.5484     25.9000    127.4794
   856.6000      7.9001      2.5876      0.0130      3.7821     25.5216    127.0486
   856.7000      7.9001      2.5930      0.0129      3.4533     25.3955    127.1991
   856.8000      7.8970      2.5937      0.0153      3.4119     25.5961    126.7175
   856.9000      7.8970      2.5929     -0.0064      3.4596     25.8163    129.6458
   857.0000      7.8976      2.6024      0.0302      2.8862     25.8282    133.7236
   857.1000      7.8976      2.6158      0.0568      2.0716     25.7949    134.6820
   857.2000      7.8976      2.6179      0.0398      1.9485     25.7260    136.3808
   857.3000      7.8968      2.6091      0.0061      2.4784     25.5563    144.1158
   857.4000      7.8968      2.6012      0.0397      2.9604     25.4814    152.7919
   857.5000      7.8962      2.6012      0.0612      2.9547     25.4960    152.3723
   857.6000      7.8962      2.6194      0.0406      1.8544     25.1873    144.9083
   857.7000      7.8962      2.6587      0.0980     -0.5270     24.5274    139.8567
   857.8000      7.8985      2.6965      0.1162     -2.8194     24.2430    135.3822
   857.9000      7.8985      2.7125      0.0770     -3.7877     24.8659    127.2497
   858.0000      7.9003      2.7116      0.0910     -3.7351     25.7142    123.8187
   858.1000      7.9003      2.6987      0.1204     -2.9525     25.8748    130.2920
   858.2000      7.9003      2.6782      0.0350     -1.7118     25.6162    138.6676
   858.3000      7.9006      2.6651      0.0438     -0.9177     25.2394    140.6701
   858.4000      7.9006      2.6625      0.0251     -0.7574     24.5989    137.8067
   858.5000      7.9015      2.6624      0.0198     -0.7500     24.1413    133.9558
   858.6000      7.9015      2.6614      0.0343     -0.6884     24.2964    131.6840
