~Version Information
VERS.                      2.0: CWLS Log ASCII Standard - VERSION 2.0
WRAP.                       NO: One line per depth step
~Well Information Block
STRT.FT                -6.5000: 
STOP.FT              1317.5000: 
STEP.FT                 0.2500: 
NULL.                -999.2500: 
COMP.          Pioneer Natural Resources: COMPANY
WELL.              Dicks 32-5R: WELL
FLD.           Purgatorie River: FIELD
LOC.           1485' FNL & 1684' FEL--: LOCATION
PROV.                       CO: PROVINCE
CNTY.               Las Animas: COUNTRY
SRVC.          Patterson Wireline: SERVICE COMPANY
DATE.          Tue Dec 13 09:33:22 2005: LOG DATE
UWI.           05 071 08596 00: UNIQUE WELL ID
~Curve Information Block
DEPT.FT            0 000 00 00: Depth
CCL.                          : Casing Collar Locator
TT3.usec                      : CBL 3' Travel Time
AMP3.mV                       : CBL 3' Amplitude
GR.GAPI                       : Gamma Ray
~Parameter Information Block
~A  Depth       CCL         TT3         AMP3         GR     
# ...
   697.0000      0.0000    699.0943      8.9847    122.9753
   697.2500      0.0000    699.8157      9.0006    117.3118
   697.5000      0.0000    701.5125      8.9960    112.6665
   697.7500      0.0000    704.4064      8.9553    110.7643
   698.0000      0.0000    708.0317      8.8841    112.0454
   698.2500      0.0000    711.1516      8.8132    115.2805
   698.5000      0.0000    712.3909      8.7787    118.2603
   698.7500      0.0000    711.1501      8.7988    119.0257
   699.0000      0.0000    708.0422      8.8681    116.8388
   699.2500      0.0000    704.5220      8.9693    112.2765
   699.5000      0.0000    702.0528      9.0877    106.6513
   699.7500      0.0000    701.5676      9.2189    101.4121
   700.0000      0.0000    703.5516      9.3644     97.7538
   700.2500      0.0000    708.1848      9.5248     96.2456
   700.5000      0.0000    715.0282      9.6979     96.5640
   700.7500      0.0000    722.7569      9.8855     97.6858
   701.0000      0.0000    729.7564     10.1000     98.6034
   701.2500      0.0000    735.1818     10.3647     99.1061
   701.5000      0.0000    739.0732     10.7025     99.9390
   701.7500      0.0000    740.9482     11.1138    101.8806
   702.0000      0.0000    738.4333     11.5430    104.4359
   702.2500      0.0000    728.6870     11.8586    105.9004
   702.5000      0.0000    712.8196     11.8851    105.3005
   702.7500      0.0000    698.4139     11.5071    103.9557
   703.0000      0.0000    695.2106     10.7812    104.2261
   703.2500      0.0000    707.1468      9.9399    106.5803
   703.5000      0.0000    729.1015      9.2487    108.5559
   703.7500      0.0000    751.2228      8.8373    107.1517
   704.0000      0.0000    765.8051      8.6573    102.0359
   704.2500      0.0000    770.4889      8.5812     95.8920
   704.5000      2.0000    766.0508      8.5189     91.7243
   704.7500      0.0000    752.6611      8.4564     90.5469
   705.0000      0.0000    730.2938      8.4245     91.6307
   705.2500      0.0000    702.9563      8.4366     93.7862
   705.5000      0.0000    679.9589      8.4372     95.8634
   705.7500      0.0000    670.2989      8.3444     96.8794
   706.0000      0.0000    675.3036      8.1767     96.4185
   706.2500      0.0000    688.0989      8.0822     94.6710
   706.5000      0.0000    700.7219      8.1802     91.8582
   706.7500      0.0000    710.2985      8.4243     88.0405
   707.0000      0.0000    718.1743      8.6688     83.6764
   707.2500      0.0000    725.6320      8.8156     79.8690
   707.5000      0.0000    732.1353      8.8565     77.6345
   707.7500      0.0000    736.6077      8.8227     77.0452
   708.0000      0.0000    738.6917      8.7414     77.3172
   708.2500      0.0000    738.5362      8.6303     77.7335
   708.5000      0.0000    736.0816      8.5025     78.3228
   708.7500      0.0000    731.0132      8.3686     79.6293
   709.0000      0.0000    723.5521      8.2365     81.8215
   709.2500      0.0000    715.0494      8.1129     84.0002
   709.5000      0.0000    707.4642      8.0031     84.5317
   709.7500      0.0000    702.1362      7.9102     82.4441
   710.0000      0.0000    699.1522      7.8389     78.6717
   710.2500      0.0000    697.7806      7.7985     75.6746
   710.5000      0.0000    697.2418      7.7959     75.5740
   710.7500      0.0000    697.0781      7.8184     78.6251
   711.0000      0.0000    697.1392      7.8296     83.2799
   711.2500      0.0000    697.5265      7.7940     87.4604
   711.5000      0.0000    698.6672      7.7138     90.0379
   711.7500      0.0000    701.3293      7.6358     91.4540
   712.0000      0.0000    706.2175      7.6073     92.9236
   712.2500      0.0000    713.1468      7.6210     95.0548
   712.5000      0.0000    720.5550      7.6159     97.4872
   712.7500      0.0000    726.2448      7.5448     99.6332
   713.0000      0.0000    729.0690      7.4324    101.3095
   713.2500      0.0000    730.0187      7.3573    102.8096
   713.5000      0.0000    731.5920      7.3814    104.6787
   713.7500      0.0000    736.0236      7.5071    107.2324
   714.0000      0.0000    743.9379      7.6937    110.1417
   714.2500      0.0000    754.1828      7.9022    112.7563
   714.5000      0.0000    764.4736      8.1222    115.0533
   714.7500      0.0000    772.3531      8.3608    118.1557
   715.0000      0.0000    776.1876      8.6100    123.6593
   715.2500      0.0000    775.7132      8.8308    132.2205
   715.5000      0.0000    771.8383      8.9693    142.8833
   715.7500      0.0000    765.9025      8.9821    153.8186
   716.0000      0.0000    758.9399      8.8547    163.3676
   716.2500      0.0000    751.4521      8.6116    170.1490
   716.5000      0.0000    743.6112      8.3175    172.9074
   716.7500      0.0000    735.5654      8.0472    171.0044
   717.0000      0.0000    727.7769      7.8420    165.0159
   717.2500      0.0000    721.1276      7.6980    156.9483
   717.5000      0.0000    716.4045      7.5929    150.1084
   717.7500      0.0000    713.9031      7.5144    148.0181
   718.0000      0.0000    714.1390      7.4647    152.2534
   718.2500      0.0000    718.5528      7.4589    160.9819
   718.5000      0.0000    728.4010      7.5221    169.9332
   718.7500      0.0000    742.6373      7.6776    175.1637
   719.0000      0.0000    757.4601      7.9242    175.4054
   719.2500      0.0000    768.1210      8.2218    172.2175
   719.5000      0.0000    771.0205      8.5035    167.9427
   719.7500      0.0000    764.5385      8.7037    163.5681
   720.0000      0.0000    748.9180      8.7785    158.8651
   720.2500      0.0000    725.3478      8.7088    154.1577
   720.5000      0.0000    694.2065      8.5027    150.9833
   720.7500      0.0000    654.7793      8.2043    150.7377
   721.0000      0.0000    608.8344      7.8916    153.1620
   721.2500      0.0000    564.7568      7.6499    156.3806
   721.5000      0.0000    535.3925      7.5408    158.4768
   721.7500      0.0000    528.8245      7.5929    159.1621
   722.0000      0.0000    540.3712      7.8099    159.8457
   722.2500      0.0000    554.9958      8.1681    162.0485
   722.5000      0.0000    560.5357      8.6001    165.8709
   722.7500      0.0000    559.6829      9.0047    169.8064
   723.0000      0.0000    566.5193      9.2966    171.7353
   723.2500      0.0000    588.9464      9.4522    170.1282
   723.5000      0.0000    616.1122      9.5055    164.4454
   723.7500      0.0000    626.3800      9.5076    154.8049
   724.0000      0.0000    609.4484      9.4937    142.0905
   724.2500      0.0000    579.6027      9.4766    128.4936
   724.5000      0.0000    564.8937      9.4557    117.0175
   724.7500      0.0000    581.8254      9.4242    109.8032
   725.0000      0.0000    621.4049      9.3730    107.0427
   725.2500      0.0000    660.6180      9.2966    107.3815
   725.5000      0.0000    684.9133      9.2012    109.1784
   725.7500      0.0000    695.8516      9.1030    111.6556
   726.0000      0.0000    699.2270      9.0156    115.0631
   726.2500      0.0000    694.5889      8.9443    119.6974
   726.5000      0.0000    680.9324      8.8917    125.0651
   726.7500      0.0000    666.0096      8.8633    130.3158
   727.0000      0.0000    661.2328      8.8631    135.1541
   727.2500      0.0000    667.4659      8.8877    139.9971
   727.5000      0.0000    672.0468      8.9292    145.3781
   727.7500      0.0000    662.3979      8.9772    151.3292
   728.0000      0.0000    640.5979      9.0168    157.3760
   728.2500      0.0000    622.8077      9.0305    163.0866
   728.5000      0.0000    624.0605      9.0084    168.2617
   728.7500      0.0000    643.3860      8.9545    172.2865
   729.0000      0.0000    663.9766      8.8777    173.7312
   729.2500      0.0000    668.2037      8.7793    171.1768
   729.5000      0.0000    653.3085      8.6592    164.5358
   729.7500      0.0000    632.6137      8.5349    155.3499
   730.0000      0.0000    619.8285      8.4446    145.8245
   730.2500      0.0000    613.1204      8.4245    137.5934
