~Version Information
 VERS.                                  2.0 : CWLS LAS VERSION
 WRAP.                                   NO : WRAPING MODE
 SWARE .                 MController 2.5.0N : SOFTWARE VERSION
~Well Information
 WELL.                    Hellzonfire 32-31 : WELL
 COMP.    Pioneer Natural Resources USA Inc : COMPANY
 FLD.                      Purgatoire River : FIELD
 LOC.                 SW/NE SEC31 T32S R66W : LOCATION
 DATE.                             09/01/05 : DATE(S) LOGGED
 SRVC.       Blanco Geological Services LLC : SERVICE COMPANY
 STAT.                             Colorado : STATE
 CNTY.                           Las Animas : COUNTY
 CTRY.                                  USA : COUNTRY
 API.                       05-071-08483-00 : API NUMBER
 STRT.FT                             356.00 : START DEPTH
 STOP.FT                            2480.00 : STOP DEPTH
 STEP.FT                               1.00 : DEPTH INCREMENT
 NULL.                                -9999 : NULL VALUE
~Curve information
 DEPTH.FT                                   :
 ROP.MIN/FT                                 :
 GAS.UNITS                                  :
~ASCII Log data
# ...
      1956.0         0.33        142.8 
      1957.0         0.30        140.8 
      1958.0         0.27        139.2 
      1959.0         0.27        135.7 
      1960.0         0.23        135.2 
      1961.0         0.27        132.4 
      1962.0         0.27        131.5 
      1963.0         0.27        130.3 
      1964.0         0.27        129.8 
      1965.0         0.23        129.4 
      1966.0         0.27        128.5 
      1967.0         0.28        126.2 
      1968.0         0.30        128.3 
      1969.0         0.27        132.6 
      1970.0         0.27        133.6 
      1971.0         0.23        132.7 
      1972.0         0.27        128.1 
      1973.0         0.23        124.9 
      1974.0         0.23        123.6 
      1975.0         0.20         93.2 
      1976.0         2.78        174.0 
      1977.0         0.30        186.7 
      1978.0         0.37        202.0 
      1979.0         0.33        206.8 
      1980.0         0.30        207.0 
      1981.0         0.27        204.8 
      1982.0         0.28        194.0 
      1983.0         0.30        177.4 
      1984.0         0.30        176.0 
      1985.0         0.33        177.2 
      1986.0         0.33        175.5 
      1987.0         0.30        172.3 
      1988.0         0.30        160.6 
      1989.0         0.33        152.9 
      1990.0         0.27        143.7 
      1991.0         0.27        138.6 
      1992.0         0.20        136.3 
      1993.0         0.27        133.9 
      1994.0         0.38        133.2 
      1995.0         0.27        130.8 
      1996.0         0.30        129.2 
      1997.0         0.30        128.1 
      1998.0         0.23        131.0 
      1999.0         0.20        135.1 
      2000.0         0.27        135.5 
      2001.0         0.17        135.5 
      2002.0         0.23        134.7 
      2003.0         0.27        125.9 
      2004.0         0.27        124.4 
      2005.0         0.23        109.0 
      2006.0         1.52         93.7 
      2007.0         0.27        121.8 
      2008.0         0.10        138.3 
      2009.0         0.20        163.4 
      2010.0         0.30        193.7 
      2011.0         0.23        213.4 
      2012.0         0.30        229.5 
      2013.0         0.33        225.3 
      2014.0         0.30        216.4 
      2015.0         0.22        197.8 
      2016.0         0.23        193.7 
      2017.0         0.23        176.7 
      2018.0         0.27        163.4 
      2019.0         0.33        158.5 
      2020.0         0.23        158.3 
      2021.0         0.33        159.5 
      2022.0         0.20        159.1 
      2023.0         0.20        157.9 
      2024.0         0.20        155.3 
      2025.0         0.20        151.9 
      2026.0         0.20        153.6 
      2027.0         0.23        152.6 
      2028.0         0.20        152.6 
      2029.0         0.22        146.4 
      2030.0         0.17        141.9 
      2031.0         0.23        131.7 
      2032.0         0.27        128.9 
      2033.0         0.17        113.7 
      2034.0         0.13        109.1 
      2035.0         0.13         96.4 
      2036.0         1.80        179.7 
      2037.0         0.30        205.2 
      2038.0         0.48        198.6 
      2039.0         0.33        151.6 
      2040.0         0.33        168.9 
      2041.0         0.33        171.6 
      2042.0         0.47        171.2 
      2043.0         0.43        165.1 
      2044.0         0.53        150.0 
      2045.0         0.37        146.4 
      2046.0         0.42        142.1 
      2047.0         0.33         84.1 
      2048.0         0.37         77.1 
      2049.0         0.27        111.6 
      2050.0         0.23        114.6 
      2051.0         0.17        121.0 
      2052.0         0.20        126.3 
      2053.0         0.17        131.9 
      2054.0         0.20        134.1 
      2055.0         0.20        134.1 
      2056.0         0.13        135.5 
      2057.0         0.20        135.5 
      2058.0         0.20        138.2 
      2059.0         0.23        140.9 
      2060.0         0.15        140.9 
      2061.0         0.17        139.1 
      2062.0         0.23        133.9 
      2063.0         0.23        130.0 
      2064.0         0.23        124.3 
      2065.0         0.60        111.6 
      2066.0         3.08        236.0 
      2067.0         0.97        221.0 
      2068.0         0.50        215.0 
      2069.0         0.47        189.7 
      2070.0         0.35        169.1 
      2071.0         0.37        159.3 
      2072.0         0.30        152.7 
      2073.0         0.33        152.1 
      2074.0         0.30        149.1 
      2075.0         0.30        145.3 
      2076.0         0.37        144.1 
      2077.0         0.33        142.5 
      2078.0         0.27        142.1 
      2079.0         0.27        141.7 
      2080.0         0.23        138.5 
      2081.0         0.25        136.8 
      2082.0         0.27        135.9 
      2083.0         0.27        131.7 
      2084.0         0.23        131.7 
      2085.0         0.27        129.0 
      2086.0         0.20        129.0 
      2087.0         0.17        128.6 
      2088.0         0.17        127.7 
      2089.0         0.23        127.5 
      2090.0         0.23        129.8 
      2091.0         0.23        132.9 
      2092.0         0.23        134.6 
      2093.0         0.20        133.5 
      2094.0         0.30        130.7 
      2095.0         0.28        124.7 
      2096.0         4.18        196.8 
      2097.0         0.60        197.1 
      2098.0         0.37        174.0 
      2099.0         0.37        160.2 
      2100.0         0.27        147.9 
      2101.0         0.20        131.9 
      2102.0         0.23        123.9 
      2103.0         0.30        118.6 
      2104.0         0.28        109.4 
      2105.0         0.27        108.9 
      2106.0         0.17         99.5 
      2107.0         0.17        100.9 
      2108.0         0.27        102.6 
      2109.0         0.33        111.7 
      2110.0         0.27        115.9 
      2111.0         0.30        115.7 
      2112.0         0.27        116.6 
      2113.0         0.30        116.7 
      2114.0         0.27        116.8 
      2115.0         0.27        117.4 
      2116.0         0.35        119.1 
      2117.0         0.27        122.4 
      2118.0         0.23        120.3 
      2119.0         0.27        116.9 
      2120.0         0.27        115.3 
      2121.0         0.27        104.9 
      2122.0         0.23         97.5 
      2123.0         0.20         94.1 
      2124.0         0.23         70.9 
      2125.0         0.13         70.9 
      2126.0         5.73        187.0 
      2127.0         0.10        110.0 
      2128.0         0.23        117.4 
      2129.0         0.27        120.7 
      2130.0         0.30        141.9 
      2131.0         0.27        156.3 
      2132.0         0.27        187.6 
      2133.0         0.13        216.3 
      2134.0         0.13        216.3 
      2135.0         0.27        242.4 
      2136.0         0.32        266.9 
      2137.0         0.30        270.5 
      2138.0         0.33        270.4 
      2139.0         0.27        264.5 
      2140.0         0.33        255.8 
      2141.0         0.33        247.3 
      2142.0         0.33        241.8 
      2143.0         0.30        234.9 
      2144.0         0.30        230.6 
      2145.0         0.30        228.4 
      2146.0         0.35        227.5 
      2147.0         0.37        227.5 
      2148.0         0.33        230.6 
      2149.0         0.33        231.5 
      2150.0         0.33        235.7 
      2151.0         0.27        236.2 
      2152.0         0.30        234.6 
      2153.0         0.27        226.4 
      2154.0         0.27        224.1 
      2155.0         0.23        200.8 
