~Version Information
VERS.                      2.0: CWLS Log ASCII Standard - VERSION 2.0
WRAP.                       NO: One line per depth step
~Well Information Block
STRT.FT               325.0000: 
STOP.FT              1014.5000: 
STEP.FT                 0.2500: 
NULL.                -999.2500: 
COMP.          Pioneer Natural Resources: COMPANY
WELL.                Doc 34-30: WELL
FLD.           Purgatoire River: FIELD
LOC.           454' FSL & 1386' FEL: LOCATION
CNTY.               Las Animas: COUNTY
SRVC.                Patterson: SERVICE COMPANY
DATE.          Wed Feb 15 20:26:19 2006: LOG DATE
UWI.           05 071 08694 00: UNIQUE WELL ID
STAT.                 Colorado: STATE
~Curve Information Block
DEPT.FT            0 000 00 00: Depth
SN.Ohm-m                      : IEL Short Normal
SP.mV                         : IEL Spontaneous Potential
DIR.Ohm-m                     : IEL Induction Resistivity
GR.GAPI                       : Gamma Ray
~Parameter Information Block
~A  Depth        SN          SP         DIR          GR     
# ...
   693.5000     14.5791    -28.8672     12.9429    115.9068
   693.7500     14.3412    -28.4398     12.5699    118.0066
   694.0000     14.1155    -28.0519     12.2274    121.8269
   694.2500     13.7814    -27.7181     11.8945    124.0363
   694.5000     13.3065    -27.4510     11.5593    126.7885
   694.7500     12.8210    -27.2615     11.2208    128.8053
   695.0000     12.4936    -27.1525     10.8877    132.7676
   695.2500     12.3501    -27.1147     10.5751    135.7944
   695.5000     12.2685    -27.1284     10.2989    139.7627
   695.7500     12.1316    -27.1707     10.0710    141.3889
   696.0000     11.9242    -27.2204      9.8963    141.7543
   696.2500     11.6983    -27.2590      9.7732    140.6239
   696.5000     11.5281    -27.2712      9.6958    137.4806
   696.7500     11.4566    -27.2512      9.6574    135.0615
   697.0000     11.4622    -27.2131      9.6525    131.8186
   697.2500     11.5182    -27.1896      9.6768    129.7750
   697.5000     11.6186    -27.2135      9.7281    125.6157
   697.7500     11.7493    -27.2970      9.8055    121.5723
   698.0000     11.8971    -27.4281      9.9087    114.3925
   698.2500     12.0591    -27.5817     10.0367    110.1854
   698.5000     12.2774    -27.7327     10.1879    106.8776
   698.7500     12.6355    -27.8642     10.3616    107.1048
   699.0000     13.1071    -27.9694     10.5582    110.2447
   699.2500     13.4912    -28.0533     10.7790    113.2001
   699.5000     13.6265    -28.1302     11.0227    117.4081
   699.7500     13.5742    -28.2177     11.2833    119.6259
   700.0000     13.5171    -28.3275     11.5486    121.7899
   700.2500     13.5564    -28.4581     11.8046    122.1507
   700.5000     13.6179    -28.5927     12.0425    120.1709
   700.7500     13.5451    -28.7075     12.2648    116.9190
   701.0000     13.3127    -28.7843     12.4860    110.1186
   701.2500     13.1009    -28.8193     12.7252    105.5247
   701.5000     13.1206    -28.8211     12.9963    100.2335
   701.7500     13.4462    -28.8024     13.2986     97.8767
   702.0000     14.0079    -28.7718     13.6177     95.0595
   702.2500     14.6833    -28.7292     13.9343     92.9492
   702.5000     15.3682    -28.6686     14.2385     88.8082
   702.7500     15.9487    -28.5848     14.5381     85.4945
   703.0000     16.3553    -28.4797     14.8550     80.6569
   703.2500     16.6647    -28.3627     15.2124     78.3584
   703.5000     17.0004    -28.2488     15.6234     77.3879
   703.7500     17.3976    -28.1523     16.0875     78.4503
   704.0000     17.8620    -28.0816     16.5951     81.8196
   704.2500     18.4184    -28.0394     17.1353     84.6831
   704.5000     19.0409    -28.0249     17.6983     89.2537
   704.7500     19.6165    -28.0357     18.2715     92.1678
   705.0000     20.0042    -28.0668     18.8312     95.4632
   705.2500     20.1457    -28.1103     19.3415     96.3415
   705.5000     20.1394    -28.1598     19.7668     95.2602
   705.7500     20.1634    -28.2141     20.0899     93.2616
   706.0000     20.2885    -28.2769     20.3216     89.4633
   706.2500     20.4558    -28.3533     20.4923     87.0926
   706.5000     20.6462    -28.4475     20.6336     84.8848
   706.7500     20.8881    -28.5608     20.7660     84.7825
   707.0000     21.1225    -28.6926     20.8968     86.6151
   707.2500     21.2691    -28.8445     21.0259     88.5192
   707.5000     21.3465    -29.0230     21.1540     91.1476
   707.7500     21.3889    -29.2355     21.2868     92.5501
   708.0000     21.3712    -29.4834     21.4348     94.6408
   708.2500     21.3112    -29.7589     21.6069     96.1476
   708.5000     21.3158    -30.0498     21.8050     97.7707
   708.7500     21.4464    -30.3471     22.0268     97.7831
   709.0000     21.6635    -30.6471     22.2746     96.0099
   709.2500     21.9294    -30.9492     22.5582     94.1773
   709.5000     22.2532    -31.2534     22.8861     91.6425
   709.7500     22.6355    -31.5560     23.2515     90.4560
   710.0000     23.0462    -31.8448     23.6320     89.3219
   710.2500     23.5015    -32.0999     24.0072     88.6872
   710.5000     24.0939    -32.3041     24.3797     87.2584
   710.7500     24.8362    -32.4534     24.7812     85.6291
   711.0000     25.6182    -32.5559     25.2611     81.9135
   711.2500     26.4250    -32.6243     25.8669     78.7875
   711.5000     27.3862    -32.6667     26.6258     73.8987
   711.7500     28.5388    -32.6812     27.5339     70.9031
   712.0000     29.7473    -32.6564     28.5600     66.9655
   712.2500     30.9018    -32.5800     29.6675     64.5692
   712.5000     32.0240    -32.4554     30.8416     61.1040
   712.7500     33.1498    -32.3092     32.0957     58.8770
   713.0000     34.2618    -32.1769     33.4385     55.6953
   713.2500     35.3248    -32.0789     34.8162     53.6139
   713.5000     36.2523    -32.0087     36.0815     50.3325
   713.7500     36.9674    -31.9426     37.0401     47.9756
   714.0000     37.5570    -31.8563     37.5692     44.4017
   714.2500     38.1757    -31.7342     37.7067     42.3406
   714.5000     38.8330    -31.5719     37.6143     40.5999
   714.7500     39.4031    -31.3793     37.4572     40.8962
   715.0000     39.7554    -31.1791     37.3192     44.1786
   715.2500     39.8304    -30.9975     37.2065     48.1367
   715.5000     39.6769    -30.8511     37.1040     55.2926
   715.7500     39.4581    -30.7385     37.0197     59.6162
   716.0000     39.3139    -30.6411     36.9814     63.8584
   716.2500     39.1964    -30.5269     36.9958     65.0887
   716.5000     38.9871    -30.3593     37.0116     65.2854
   716.7500     38.6886    -30.1122     36.9290     64.6428
   717.0000     38.3812    -29.7825     36.6555     62.4115
   717.2500     38.1358    -29.3895     36.1722     59.9516
   717.5000     37.9887    -28.9641     35.5499     55.1919
   717.7500     37.9051    -28.5398     34.9051     51.8783
   718.0000     37.8184    -28.1462     34.3340     47.6734
   718.2500     37.7194    -27.8006     33.8708     45.6787
   718.5000     37.5918    -27.5017     33.4804     43.9169
   718.7500     37.3176    -27.2315     33.0865     43.4133
   719.0000     36.7611    -26.9692     32.6203     43.3321
   719.2500     35.8687    -26.7033     32.0632     43.5685
   719.5000     34.6959    -26.4352     31.4537     44.2607
   719.7500     33.4540    -26.1741     30.8583     44.9902
   720.0000     32.4164    -25.9294     30.3329     46.4955
   720.2500     31.6629    -25.7064     29.8964     47.6100
   720.5000     31.0320    -25.5053     29.5261     49.0261
   720.7500     30.3482    -25.3213     29.1706     49.7917
   721.0000     29.6077    -25.1477     28.7764     51.4112
   721.2500     28.9249    -24.9818     28.3130     53.4199
   721.5000     28.3443    -24.8297     27.7850     58.2022
   721.7500     27.8216    -24.7053     27.2243     62.1484
   722.0000     27.3612    -24.6212     26.6745     67.8956
   722.2500     26.9967    -24.5780     26.1738     71.0041
   722.5000     26.6714    -24.5617     25.7424     74.4156
   722.7500     26.2863    -24.5504     25.3752     76.2962
   723.0000     25.8255    -24.5235     25.0436     79.6061
   723.2500     25.3532    -24.4658     24.7086     82.4303
   723.5000     24.8935    -24.3713     24.3406     87.0108
   723.7500     24.4056    -24.2462     23.9362     89.6029
   724.0000     23.8883    -24.1089     23.5171     92.0292
   724.2500     23.4032    -23.9811     23.1120     92.7336
   724.5000     23.0003    -23.8748     22.7343     92.9071
   724.7500     22.6784    -23.7859     22.3750     92.4681
   725.0000     22.4068    -23.6982     22.0148     90.5615
   725.2500     22.1677    -23.5929     21.6398     88.4942
   725.5000     21.9183    -23.4585     21.2494     85.4597
   725.7500     21.5648    -23.2938     20.8531     84.4684
   726.0000     21.0964    -23.1052     20.4630     85.2552
   726.2500     20.6455    -22.9015     20.0870     87.0129
   726.5000     20.2763    -22.6916     19.7243     90.6033
   726.7500     19.9012    -22.4855     19.3631     93.1513
