~Version Information
VERS.                      2.0: CWLS Log ASCII Standard - VERSION 2.0
WRAP.                       NO: One line per depth step
~Well Information Block
STRT.FT               840.0000: 
STOP.FT              1913.5000: 
STEP.FT                 0.2500: 
NULL.                -999.2500: 
COMP.          Petrogulf Corporation: COMPANY
WELL.             Kraft 17-23R: WELL
FLD.           Purgatorie River: FIELD
LOC.           1509' FSL & 1673' FWL: LOCATION
PROV.                 Colorado: PROVINCE
CNTY.               Las Animas: COUNTRY
SRVC.                Patterson: SERVICE COMPANY
DATE.          Tue Oct 11 13:03:25 2005: LOG DATE
UWI.                          : UNIQUE WELL ID
~Curve Information Block
DEPT.FT            0 000 00 00: Depth
SP.mV                         : DIL Spontaneous Potential
RILD.Ohm-m                    : DIL Deep Resistivity
RILM.Ohm-m                    : DIL Medium Resistivity
RLL3.Ohm-m                    : DIL Shallow Resistivity
GR.GAPI                       : Gamma Ray
~Parameter Information Block
~A  Depth        SP         RILD        RILM        RLL3         GR     
# ...
  1456.0000    231.0106      9.1940      8.3466     10.2990    150.8364
  1456.2500    230.5106      9.2728      8.4152     10.6778    152.6491
  1456.5000    230.0602      9.3941      8.5618     11.2397    155.6968
  1456.7500    229.6911      9.5533      8.7875     12.2218    157.1017
  1457.0000    229.4387      9.7461      9.0917     14.0088    156.6023
  1457.2500    229.3378      9.9720      9.4707     16.9539    154.0484
  1457.5000    229.4163     10.2351      9.9161     20.9765    147.2611
  1457.7500    229.6851     10.5435     10.4145     25.1938    141.4453
  1458.0000    230.1275     10.9079     10.9489     28.1211    132.3098
  1458.2500    230.6914     11.3389     11.5019     28.5839    126.8897
  1458.5000    231.2937     11.8445     12.0610     26.5989    121.1371
  1458.7500    231.8398     12.4263     12.6232     23.3281    119.4028
  1459.0000    232.2543     13.0741     13.1959     20.2303    120.0843
  1459.2500    232.5033     13.7622     13.7941     18.3512    122.1795
  1459.5000    232.5959     14.4473     14.4326     18.2497    125.8622
  1459.7500    232.5693     15.0719     15.1165     20.2132    127.4015
  1460.0000    232.4707     15.5762     15.8320     24.2843    126.8908
  1460.2500    232.3468     15.9186     16.5401     30.0331    124.6083
  1460.5000    232.2371     16.0949     17.1791     36.3134    119.2998
  1460.7500    232.1699     16.1432     17.6787     41.3295    115.2234
  1461.0000    232.1611     16.1312     17.9843     43.2563    109.1122
  1461.2500    232.2153     16.1321     18.0817     41.2246    105.6066
  1461.5000    232.3279     16.2052     18.0059     35.9400    102.9928
  1461.7500    232.4851     16.3852     17.8292     29.3261    103.9862
  1462.0000    232.6676     16.6773     17.6364     23.4986    109.4105
  1462.2500    232.8529     17.0560     17.5014     19.9679    114.4457
  1462.5000    233.0176     17.4690     17.4742     19.4710    121.7492
  1462.7500    233.1364     17.8517     17.5773     22.0223    125.4404
  1463.0000    233.1848     18.1509     17.8078     26.7671    127.8855
  1463.2500    233.1453     18.3451     18.1435     31.9213    126.9544
  1463.5000    233.0134     18.4505     18.5504     35.3963    122.1592
  1463.7500    232.7947     18.5117     18.9934     35.9963    117.7296
  1464.0000    232.4964     18.5855     19.4466     34.1438    111.1592
  1464.2500    232.1225     18.7265     19.9005     31.3634    107.6271
  1464.5000    231.6798     18.9768     20.3630     29.0824    104.5682
  1464.7500    231.1871     19.3596     20.8532     27.9408    104.2636
  1465.0000    230.6765     19.8741     21.3924     27.9758    105.7375
  1465.2500    230.1843     20.4962     21.9960     29.0278    107.1410
  1465.5000    229.7389     21.1823     22.6686     30.7785    108.5492
  1465.7500    229.3554     21.8799     23.4045     32.6015    108.6707
  1466.0000    229.0370     22.5390     24.1910     33.7528    107.7183
  1466.2500    228.7789     23.1224     25.0142     33.9425    106.6600
  1466.5000    228.5701     23.6146     25.8625     33.6879    105.2316
  1466.7500    228.3931     24.0259     26.7278     33.9452    104.7564
  1467.0000    228.2246     24.3892     27.6037     35.2890    104.7391
  1467.2500    228.0368     24.7466     28.4814     37.4397    104.7894
  1467.5000    227.8006     25.1317     29.3475     39.5716    104.3947
  1467.7500    227.4908     25.5563     30.1830     41.0328    103.9035
  1468.0000    227.0934     26.0104     30.9665     41.7873    103.2383
  1468.2500    226.6144     26.4708     31.6774     42.3131    102.7789
  1468.5000    226.0838     26.9148     32.2993     43.2144    101.2266
  1468.7500    225.5481     27.3263     32.8231     44.8107     98.9799
  1469.0000    225.0559     27.6951     33.2485     46.7733     93.3947
  1469.2500    224.6452     28.0120     33.5850     48.0828     88.8070
  1469.5000    224.3386     28.2688     33.8510     47.7155     82.9849
  1469.7500    224.1456     28.4614     34.0709     45.7198     81.1317
  1470.0000    224.0655     28.5924     34.2687     43.5065     81.9402
  1470.2500    224.0927     28.6693     34.4613     42.8092     84.1134
  1470.5000    224.2256     28.7008     34.6520     44.3169     88.0185
  1470.7500    224.4726     28.6933     34.8291     47.2512     90.2673
  1471.0000    224.8478     28.6475     34.9687     49.9716     92.1389
  1471.2500    225.3585     28.5573     35.0411     50.9275     92.0289
  1471.5000    225.9939     28.4132     35.0190     49.5288     90.1950
  1471.7500    226.7203     28.2094     34.8828     46.5720     88.5984
  1472.0000    227.4861     27.9508     34.6231     43.6939     86.6158
  1472.2500    228.2342     27.6523     34.2404     42.0616     85.6858
  1472.5000    228.9208     27.3325     33.7434     41.5035     85.2255
  1472.7500    229.5293     27.0054     33.1490     40.8858     86.1834
  1473.0000    230.0679     26.6731     32.4803     39.2122     90.4300
  1473.2500    230.5539     26.3218     31.7634     36.3922     94.8239
  1473.5000    230.9977     25.9235     31.0209     33.1686    102.0098
  1473.7500    231.3992     25.4421     30.2643     30.4865    106.3511
  1474.0000    231.7539     24.8451     29.4877     28.9516    111.8085
  1474.2500    232.0604     24.1176     28.6662     28.7268    114.6330
  1474.5000    232.3262     23.2728     27.7628     29.6206    116.8185
  1474.7500    232.5692     22.3526     26.7420     31.0587    116.5792
  1475.0000    232.8167     21.4167     25.5867     32.1102    114.7624
  1475.2500    233.0983     20.5246     24.3112     31.8602    113.9080
  1475.5000    233.4365     19.7215     22.9621     29.9371    114.4900
  1475.7500    233.8395     19.0315     21.6069     26.7068    115.7277
  1476.0000    234.2981     18.4585     20.3159     22.9975    117.4742
  1476.2500    234.7871     17.9907     19.1466     19.6383    118.3657
  1476.5000    235.2697     17.6063     18.1362     17.1335    120.1188
  1476.7500    235.7035     17.2776     17.3009     15.5954    122.0440
  1477.0000    236.0501     16.9754     16.6397     14.8727    126.1199
  1477.2500    236.2865     16.6736     16.1395     14.7233    129.3217
  1477.5000    236.4121     16.3536     15.7791     14.9417    134.0155
  1477.7500    236.4487     16.0068     15.5326     15.4364    136.4711
  1478.0000    236.4325     15.6358     15.3707     16.2398    138.2049
  1478.2500    236.4040     15.2530     15.2622     17.3910    137.8041
  1478.5000    236.3983     14.8769     15.1756     18.7352    135.2258
  1478.7500    236.4385     14.5261     15.0812     19.8473    132.8005
  1479.0000    236.5316     14.2122     14.9534     20.2327    129.2339
  1479.2500    236.6700     13.9349     14.7741     19.6710    127.2445
  1479.5000    236.8394     13.6822     14.5333     18.3817    124.9682
  1479.7500    237.0284     13.4343     14.2296     16.8578    124.1278
  1480.0000    237.2311     13.1701     13.8678     15.5373    124.5391
  1480.2500    237.4435     12.8727     13.4565     14.5936    125.9583
  1480.5000    237.6556     12.5332     13.0052     13.9551    128.6082
  1480.7500    237.8486     12.1517     12.5238     13.4622    129.7330
  1481.0000    237.9950     11.7373     12.0218     13.0046    129.6172
  1481.2500    238.0619     11.3046     11.5093     12.5553    128.6388
  1481.5000    238.0173     10.8711     10.9970     12.1183    127.2991
  1481.7500    237.8393     10.4531     10.4966     11.6743    127.4478
  1482.0000    237.5243     10.0635     10.0196     11.1918    129.9585
  1482.2500    237.0894      9.7106      9.5765     10.6763    132.6985
  1482.5000    236.5672      9.3977      9.1757     10.1891    136.8011
  1482.7500    235.9944      9.1244      8.8232      9.8069    138.9535
  1483.0000    235.4025      8.8880      8.5223      9.5665    141.7128
  1483.2500    234.8122      8.6857      8.2738      9.4468    143.9383
  1483.5000    234.2360      8.5159      8.0771      9.3995    148.6077
  1483.7500    233.6831      8.3785      7.9301      9.3960    152.4273
