~Version Information
VERS.                      2.0: CWLS Log ASCII Standard - VERSION 2.0
WRAP.                       NO: One line per depth step
~Well Information Block
STRT.FT                 0.0000: 
STOP.FT               816.5000: 
STEP.FT                 0.1000: 
NULL.                -999.2500: 
COMP.          Pioneer Natural Resources: COMPANY
WELL.           Weissach 32-32: WELL
FLD.           Purgatorie River: FIELD
LOC.           2193' FNL & 2256' FEL: LOCATION
STAT.                 Colorado: State
CNTY.               Las Animas: COUNTY
CTRY. USA : Country
SECT. 32 : Section
TOWN. 33S : Township
RANG. 66W : Range
SRVC.                Patterson: SERVICE COMPANY
DATE.          Mon Sep 26 09:15:29 2005: LOG DATE
API. 05-071-08523                         : UNIQUE WELL ID
~Curve Information Block
DEPT.FT            0 000 00 00: Depth
DCAL.in                       : CDL Caliper
RHOB.g/cc                     : CDL Bulk Density
RHOC.g/cc                     : CDL Density Correction
DPOR.pu                       : CDL Density Porosity
GR.GAPI                       : Gamma Ray
NPOR.pu                       : Neutron Porosity
~Parameter Information Block
~A  Depth       DCAL        RHOB        RHOC        DPOR         GR         NPOR    
# ...
    57.6000     17.4825      2.1902      2.0000     -0.0092    126.8308     22.5589
    57.7000     17.4825      2.2160      2.0000     -0.0087    128.4106     22.9696
    57.8000     17.4755      2.2242      2.0000     -0.0085    128.0953     23.0624
    57.9000     17.4755      2.2222      2.0000     -0.0086    127.5529     22.5612
    58.0000     17.4715      2.2140      2.0000     -0.0087    126.2195     21.8632
    58.1000     17.4715      2.2054      2.0000     -0.0089    128.0667     21.2392
    58.2000     17.4715      2.2024      2.0000     -0.0090    135.9999     20.7432
    58.3000     17.4786      2.1977      2.0000     -0.0091    140.7884     20.6243
    58.4000     17.4786      2.1852      2.0000     -0.0093    135.9151     20.7439
    58.5000     17.4745      2.1716      2.0000     -0.0096    129.1910     20.7031
    58.6000     17.4745      2.1652      2.0000     -0.0097    128.0521     20.5692
    58.7000     17.4745      2.1675      2.0000     -0.0097    130.1095     20.8879
    58.8000     17.4742      2.1736      2.0000     -0.0095    132.3440     21.7229
    58.9000     17.4742      2.1730      2.0000     -0.0095    135.5094     22.4280
    59.0000     17.4764      2.1620      2.0000     -0.0098    138.5051     22.6359
    59.1000     17.4764      2.1551      2.0000     -0.0099    140.7604     22.4816
    59.2000     17.4764      2.1656      2.0000     -0.0097    143.6440     22.3036
    59.3000     17.4708      2.1882      2.0000     -0.0092    148.2905     22.2439
    59.4000     17.4708      2.2097      2.0000     -0.0088    153.3976     22.0826
    59.5000     17.4784      2.2216      2.0000     -0.0086    155.5038     21.9590
    59.6000     17.4784      2.2270      2.0000     -0.0085    155.0744     22.3834
    59.7000     17.4784      2.2340      2.0000     -0.0083    155.2275     23.3196
    59.8000     17.4739      2.2416      2.0000     -0.0082    157.0754     24.0026
    59.9000     17.4739      2.2427      2.0000     -0.0081    159.4494     23.9529
    60.0000     17.4697      2.2388      2.0000     -0.0082    160.4536     23.5038
    60.1000     17.4697      2.2402      2.0000     -0.0082    160.9418     23.0917
    60.2000     17.4697      2.2536      2.0000     -0.0079    164.1456     22.8083
    60.3000     17.4732      2.2734      2.0000     -0.0075    167.6128     22.8042
    60.4000     17.4732      2.2845      2.0000     -0.0073    165.3548     23.1494
    60.5000     17.4738      2.2778      2.0000     -0.0074    158.0887     23.4122
    60.6000     17.4738      2.2614      2.0000     -0.0078    150.4926     23.2411
    60.7000     17.4738      2.2498      2.0000     -0.0080    146.9137     22.7081
    60.8000     17.4737      2.2502      2.0000     -0.0080    148.7753     22.2586
    60.9000     17.4737      2.2547      2.0000     -0.0079    152.1932     22.3189
    61.0000     17.4726      2.2491      2.0000     -0.0080    150.2449     22.5428
    61.1000     17.4726      2.2305      2.0000     -0.0084    141.0678     22.3234
    61.2000     17.4726      2.2121      2.0000     -0.0088    130.6198     21.8095
    61.3000     17.4724      2.2091      2.0000     -0.0088    122.6087     21.4613
    61.4000     17.4724      2.2210      2.0000     -0.0086    117.4856     21.2865
    61.5000     17.4726      2.2362      2.0000     -0.0083    118.6629     21.2142
    61.6000     17.4726      2.2441      2.0000     -0.0081    126.8924     21.3438
    61.7000     17.4726      2.2460      2.0000     -0.0081    136.1516     21.5236
    61.8000     17.4813      2.2573      2.0000     -0.0079    140.5579     21.4773
    61.9000     17.4813      2.2810      2.0000     -0.0074    138.2875     21.5250
    62.0000     17.4795      2.3023      2.0000     -0.0070    133.9095     22.1092
    62.1000     17.4795      2.3138      2.0000     -0.0067    134.7217     22.7857
    62.2000     17.4795      2.3187      2.0000     -0.0066    138.9006     23.1035
    62.3000     17.4796      2.3131      2.0000     -0.0067    137.4335     23.0767
    62.4000     17.4796      2.2961      2.0000     -0.0071    130.9273     22.8523
    62.5000     17.4825      2.2852      2.0000     -0.0073    127.3267     22.8819
    62.6000     17.4825      2.2886      2.0000     -0.0072    127.8551     22.7822
    62.7000     17.4825      2.2915      2.0000     -0.0072    131.2568     22.0942
    62.8000     17.4738      2.2875      2.0000     -0.0073    136.1928     21.6851
    62.9000     17.4738      2.2863      2.0000     -0.0073    138.8595     22.1309
    63.0000     17.4735      2.2882      2.0000     -0.0072    141.0871     22.8934
    63.1000     17.4735      2.2857      2.0000     -0.0073    148.1846     23.5600
    63.2000     17.4735      2.2768      2.0000     -0.0075    157.8046     24.1760
    63.3000     17.4804      2.2636      2.0000     -0.0077    163.7989     25.1924
    63.4000     17.4804      2.2542      2.0000     -0.0079    165.0692     26.7846
    63.5000     17.4793      2.2654      2.0000     -0.0077    162.5192     28.4127
    63.6000     17.4793      2.3085      2.0000     -0.0068    158.0882     29.9374
    63.7000     17.4793      2.3736      2.0000     -0.0055    153.0032     31.5880
    63.8000     17.4793      2.4374      2.0000     -0.0043    145.6485     33.1784
    63.9000     17.4793      2.4907      2.0000     -0.0032    135.6360     34.5658
    64.0000     17.4814      2.5379      2.0000     -0.0022    126.5740     35.5086
    64.1000     17.4814      2.5762      2.0000     -0.0015    120.3431     35.5595
    64.2000     17.4814      2.6007      2.0000     -0.0010    114.5776     35.0512
    64.3000     17.4823      2.6126      2.0000     -0.0007    108.8651     34.4373
    64.4000     17.4823      2.6219      2.0000     -0.0006    106.0579     33.2420
    64.5000     17.4856      2.6355      2.0000     -0.0003    107.4981     31.3882
    64.6000     17.4856      2.6364      2.0000     -0.0003    111.7009     29.5777
    64.7000     17.4856      2.6035      2.0000     -0.0009    116.8712     28.0262
    64.8000     17.4800      2.5362      2.0000     -0.0023    120.7752     26.6131
    64.9000     17.4800      2.4531      2.0000     -0.0039    123.2138     25.3528
    65.0000     17.4798      2.3777      2.0000     -0.0054    125.6716     24.1759
    65.1000     17.4798      2.3247      2.0000     -0.0065    127.2760     23.1758
    65.2000     17.4798      2.2926      2.0000     -0.0072    128.2770     22.6134
    65.3000     17.4774      2.2752      2.0000     -0.0075    129.1858     22.2776
    65.4000     17.4774      2.2721      2.0000     -0.0076    132.0852     21.9042
    65.5000     17.4806      2.2771      2.0000     -0.0075    138.1080     21.9268
    65.6000     17.4806      2.2798      2.0000     -0.0074    142.0997     22.3887
    65.7000     17.4806      2.2762      2.0000     -0.0075    137.7087     22.7336
    65.8000     17.4774      2.2659      2.0000     -0.0077    128.6918     23.0338
    65.9000     17.4774      2.2512      2.0000     -0.0080    125.3350     23.5527
    66.0000     17.4797      2.2421      2.0000     -0.0082    130.0833     24.0561
    66.1000     17.4797      2.2455      2.0000     -0.0081    136.6954     24.3129
    66.2000     17.4797      2.2511      2.0000     -0.0080    140.9540     24.3558
    66.3000     17.4784      2.2480      2.0000     -0.0080    144.8858     24.3261
    66.4000     17.4784      2.2422      2.0000     -0.0082    147.3126     24.2038
    66.5000     17.4803      2.2457      2.0000     -0.0081    145.3932     23.9953
    66.6000     17.4803      2.2545      2.0000     -0.0079    141.6866     23.9382
    66.7000     17.4803      2.2567      2.0000     -0.0079    138.7108     23.9030
    66.8000     17.4745      2.2533      2.0000     -0.0079    136.7404     23.8304
    66.9000     17.4745      2.2522      2.0000     -0.0080    135.3443     23.9340
    67.0000     17.4800      2.2550      2.0000     -0.0079    135.3928     23.9736
    67.1000     17.4800      2.2581      2.0000     -0.0078    137.6742     23.6799
