~Version Information
VERS.                      2.0: CWLS Log ASCII Standard - VERSION 2.0
WRAP.                       NO: One line per depth step
~Well Information Block
STRT.FT                -7.0000: 
STOP.FT              2517.5000: 
STEP.FT                 0.2500: 
NULL.                -999.2500: 
COMP.          Pioneer Natural Resources: COMPANY
WELL.          Horsefeathers 24-34: WELL
FLD.           Purgatoire River: FIELD
LOC.           183' FSL & 1570' FWL: LOCATION
CNTY.               Las Animas: COUNTY
SRVC.                         : SERVICE COMPANY
DATE.          Fri Mar 17 10:06:37 2006: LOG DATE
UWI.           05 071 08675 00: UNIQUE WELL ID
STAT.                       CO: STATE
~Curve Information Block
DEPT.FT            0 000 00 00: Depth
GR.GAPI                       : Gamma Ray
CCL.                          : Casing Collar Locator
TT3.usec                      : CBL 3' Travel Time
AMP3.mV                       : CBL 3' Amplitude
~Parameter Information Block
~A  Depth        GR         CCL         TT3         AMP3    
    -7.0000   -999.2500   -999.2500   -999.2500   -999.2500
    -6.7500   -999.2500   -999.2500   -999.2500   -999.2500
    -6.5000   -999.2500   -999.2500   -999.2500   -999.2500
    -6.2500   -999.2500   -999.2500   -999.2500   -999.2500
    -6.0000   -999.2500   -999.2500   -999.2500   -999.2500
    -5.7500   -999.2500   -999.2500   -999.2500   -999.2500
    -5.5000   -999.2500   -999.2500   -999.2500   -999.2500
    -5.2500   -999.2500   -999.2500   -999.2500   -999.2500
    -5.0000   -999.2500   -999.2500   -999.2500   -999.2500
    -4.7500   -999.2500   -999.2500   -999.2500   -999.2500
    -4.5000   -999.2500   -999.2500   -999.2500   -999.2500
    -4.2500   -999.2500   -999.2500   1230.0000      1.3280
    -4.0000   -999.2500   -999.2500   1230.0000      1.3292
    -3.7500   -999.2500   -999.2500   1230.0000      1.3307
    -3.5000   -999.2500   -999.2500   1230.0000      1.3326
    -3.2500   -999.2500   -999.2500   1230.0000      1.3343
    -3.0000   -999.2500   -999.2500   1230.0000      1.3359
    -2.7500   -999.2500   -999.2500   1230.0000      1.3378
    -2.5000   -999.2500   -999.2500   1230.0000      1.3395
    -2.2500   -999.2500   -999.2500   1230.0000      1.3392
    -2.0000   -999.2500   -999.2500   1230.0000      1.3355
    -1.7500   -999.2500   -999.2500   1230.0000      1.3297
    -1.5000   -999.2500   -999.2500   1230.0000      1.3247
    -1.2500   -999.2500   -999.2500   1230.0000      1.3230
    -1.0000   -999.2500   -999.2500   1230.0000      1.3246
    -0.7500   -999.2500   -999.2500   1230.0000      1.3275
    -0.5000   -999.2500   -999.2500   1230.0000      1.3308
    -0.2500   -999.2500   -999.2500   1230.0000      1.3351
     0.0000   -999.2500   -999.2500   1230.0000      1.3394
     0.2500   -999.2500   -999.2500   1230.0000      1.3404
     0.5000   -999.2500   -999.2500   1230.0000      1.3281
     0.7500   -999.2500      0.0000   1230.0000      1.3188
     1.0000   -999.2500      0.0000   1230.0000      1.3131
     1.2500   -999.2500      0.0000   1230.0000      1.3130
     1.5000   -999.2500      0.0000   1230.0000      1.3161
     1.7500   -999.2500      0.0000   1230.0000      1.3186
     2.0000   -999.2500      0.0000   1230.0000      1.3192
     2.2500   -999.2500      0.0000   1230.0000      1.3201
     2.5000   -999.2500      0.0000   1229.9724      1.3224
     2.7500   -999.2500      0.0000   1229.7958      1.3259
     3.0000   -999.2500      0.0000   1228.8630      1.3370
     3.2500   -999.2500      0.0000   1225.0945      1.3857
     3.5000   -999.2500      0.0000   1213.0559      1.5937
     3.7500   -999.2500      0.0000   1182.3881      2.3370
     4.0000   -999.2500      0.0000   1119.3779      4.4914
     4.2500   -999.2500      0.0000   1013.6058      9.4804
     4.5000   -999.2500      0.0000    866.8624     18.6256
     4.7500   -999.2500      0.0000    697.6042     31.8194
     5.0000   -999.2500      0.0000    535.6578     46.7544
     5.2500   -999.2500      0.0000    408.3222     60.0047
     5.5000   -999.2500      0.0000    327.0832     69.2247
     5.7500     47.6343      0.0000    285.5418     74.2731
     6.0000     47.9537      0.0000    268.6849     76.4716
     6.2500     48.4330      0.0000    263.3004     77.2739
     6.5000     48.8522      0.0000    261.9606     77.5979
     6.7500     48.8382      0.0000    261.7123     77.8552
     7.0000     48.2782      0.0000    261.6804     78.1746
     7.2500     47.4138      0.0000    261.6815     78.5513
     7.5000     46.6132      0.0000    261.6760     78.9292
     7.7500     46.1666      0.0000    261.6662     79.2556
     8.0000     46.1943      0.0000    261.6544     79.5150
     8.2500     46.5284      0.0000    261.6416     79.7237
     8.5000     46.6957      0.0000    261.6294     79.9048
     8.7500     46.2138      0.0000    261.6207     80.0676
     9.0000     45.0020      0.0000    261.6176     80.2034
     9.2500     43.5305      0.0000    261.6182     80.2975
     9.5000     42.6016      0.0000    261.6191     80.3462
     9.7500     42.8188      0.0000    261.6189     80.3588
    10.0000     44.0245      0.0000    261.6198     80.3456
    10.2500     45.2980      0.0000    261.6264     80.3047
    10.5000     45.7538      0.0000    261.6470     80.2085
    10.7500     45.4712      0.0000    261.7027     79.9673
    11.0000     45.6010      0.0000    261.8486     79.3924
    11.2500     47.4597      0.0000    262.1886     78.2268
    11.5000     51.3876      0.0000    262.8419     76.3037
    11.7500     56.3137      0.0000    263.8472     73.7682
    12.0000     60.3100      0.0000    265.0807     71.1502
    12.2500     61.6693      0.0000    266.2944     69.1275
    12.5000     59.8490      0.0000    267.2603     68.1086
    12.7500     55.7783      0.0000    267.8879     68.0037
    13.0000     51.3793     -1.0901    268.2220     68.3767
    13.2500     48.6164      1.9431    268.3652     68.7606
    13.5000     48.6524      2.0000    268.4064     68.8116
    13.7500     51.5513      0.0000    268.3828     68.3108
    14.0000     56.5735      0.0000    268.2602     67.2656
    14.2500     62.7926      0.0000    267.9381     66.1439
    14.5000     69.4924      0.0000    267.3087     65.8620
    14.7500     75.9481      0.0000    266.3560     67.2259
    15.0000     81.0139      0.0000    265.2087     70.2113
    15.2500     83.4667      0.0000    264.0793     73.8533
    15.5000     83.1039      0.0000    263.1488     76.9098
    15.7500     81.0729      0.0000    262.4978     78.6039
    16.0000     78.5531      0.0000    262.1151     78.7791
    16.2500     75.4096      0.0000    261.9487     77.5715
    16.5000     70.7405      0.0000    261.9645     75.1255
    16.7500     64.5294      0.0000    262.2073     71.5676
    17.0000     58.2131      0.0000    262.8810     67.0765
    17.2500     53.5841      0.0000    264.4507     61.8935
    17.5000     51.4046      0.0000    267.6717     56.2842
    17.7500     51.0901      0.0000    273.3477     50.5216
    18.0000     51.4668      0.0000    282.1344     44.8838
    18.2500     51.6838      0.0000    295.2921     39.6107
    18.5000     51.5612      0.0000    316.7525     34.8128
    18.7500     51.4012      0.0000    354.0624     30.4401
    19.0000     51.5237      0.0000    414.0446     26.3973
    19.2500     51.7821      0.0000    493.9392     22.7076
    19.5000     51.5272      0.0000    577.5076     19.5430
    19.7500     50.2435      0.0000    644.0509     17.0879
    20.0000     48.1619      0.0000    683.0901     15.3909
    20.2500     46.1050      0.0000    699.1620     14.3428
    20.5000     44.8871      0.0000    703.5399     13.7623
    20.7500     44.9960      0.0000    704.2618     13.4823
    21.0000     46.6374      0.0000    703.6139     13.3823
    21.2500     49.9633      0.0000    701.4075     13.3740
    21.5000     55.3058      0.0000    698.0556     13.3770
    21.7500     62.9413      0.0000    694.7988     13.3170
    22.0000     72.3215      0.0000    692.5342     13.1564
    22.2500     81.7174      0.0000    691.3279     12.9239
    22.5000     89.0583      0.0000    690.7529     12.6991
    22.7500     93.2572      0.0000    690.1077     12.5600
    23.0000     94.6033      0.0000    687.9997     12.5370
    23.2500     94.0017      0.0000    682.3287     12.6007
    23.5000     92.2005      0.0000    672.3422     12.6806
    23.7500     89.7638      0.0000    661.6870     12.7033
    24.0000     87.3453      0.0000    657.4036     12.6339
    24.2500     85.5752      0.0000    663.2319     12.4934
    24.5000     84.5607      0.0000    675.0812     12.3411
    24.7500     83.7051      0.0000    685.3348     12.2314
    25.0000     82.4043      0.0000    690.1304     12.1753
    25.2500     80.9069      0.0000    690.7954     12.1333
    25.5000     80.0449      0.0000    690.3607     12.0420
    25.7500     80.1174      0.0000    690.9583     11.8481
    26.0000     80.5113      0.0000    693.5485     11.5196
    26.2500     80.3555      0.0000    697.8940     11.0505
