~Version Information
VERS.                      2.0: CWLS Log ASCII Standard - VERSION 2.0
WRAP.                       NO: One line per depth step
~Well Information Block
STRT.FT               240.0000: 
STOP.FT              1043.5000: 
STEP.FT                 0.2500: 
NULL.                -999.2500: 
COMP.          Pioneer Natural Resources: COMPANY
WELL.          Stags Leap 13-30: WELL
FLD.           Purgatorie River: FIELD
LOC.           1813' FSL & 117' FWL: LOCATION
PROV.                 Colorado: PROVINCE
CNTY.               Las Animas: COUNTRY
SRVC.                Patterson: SERVICE COMPANY
DATE.          Thu Dec 08 19:20:57 2005: LOG DATE
UWI.                          : UNIQUE WELL ID
~Curve Information Block
DEPT.FT            0 000 00 00: Depth
DIR.Ohm-m                     : IEL Induction Resistivity
GR.GAPI                       : Gamma Ray
~Parameter Information Block
~A  Depth       DIR          GR     
# ...
   295.7500     50.8583     83.7806
   296.0000     49.1674     83.3284
   296.2500     47.5159     83.1501
   296.5000     45.9385     82.9661
   296.7500     44.4465     82.7490
   297.0000     43.0083     82.2227
   297.2500     41.5565     81.9665
   297.5000     40.0158     82.4649
   297.7500     38.3300     83.8303
   298.0000     36.4721     87.9533
   298.2500     34.4407     92.1894
   298.5000     32.2553    100.3291
   298.7500     29.9600    106.1291
   299.0000     27.6235    113.2919
   299.2500     25.3289    116.0444
   299.5000     23.1541    116.9789
   299.7500     21.1565    116.2288
   300.0000     19.3684    114.5210
   300.2500     17.8006    113.4675
   300.5000     16.4476    112.6058
   300.7500     15.2921    113.1978
   301.0000     14.3085    117.4119
   301.2500     13.4672    122.9052
   301.5000     12.7413    134.2147
   301.7500     12.1125    142.4056
   302.0000     11.5739    153.2933
   302.2500     11.1262    158.9385
   302.5000     10.7706    165.1588
   302.7500     10.5024    168.2617
   303.0000     10.3083    171.9020
   303.2500     10.1695    173.6376
   303.5000     10.0677    174.7675
   303.7500      9.9908    174.3672
   304.0000      9.9358    172.4566
   304.2500      9.9073    170.8896
   304.5000      9.9138    168.6867
   304.7500      9.9633    166.9900
   305.0000     10.0599    163.0519
   305.2500     10.2009    159.5214
   305.5000     10.3754    154.6614
   305.7500     10.5635    153.0706
   306.0000     10.7386    154.2395
   306.2500     10.8722    157.0039
   306.5000     10.9417    162.3215
   306.7500     10.9385    165.3591
   307.0000     10.8724    167.2734
   307.2500     10.7690    166.2511
   307.5000     10.6600    161.5623
   307.7500     10.5726    157.0568
   308.0000     10.5220    149.9616
   308.2500     10.5097    146.0544
   308.5000     10.5260    142.7259
   308.7500     10.5564    142.4666
   309.0000     10.5887    144.8103
   309.2500     10.6186    147.8215
   309.5000     10.6519    153.3931
   309.7500     10.7022    156.9314
   310.0000     10.7871    160.8192
   310.2500     10.9249    162.3791
   310.5000     11.1332    163.8490
   310.7500     11.4266    164.6676
   311.0000     11.8133    165.8686
   311.2500     12.2912    166.5405
   311.5000     12.8453    167.0643
   311.7500     13.4485    166.9329
   312.0000     14.0674    165.8079
   312.2500     14.6692    164.4321
   312.5000     15.2306    161.6913
   312.7500     15.7407    159.5524
   313.0000     16.1999    155.6592
   313.2500     16.6133    152.3439
   313.5000     16.9840    146.4666
   313.7500     17.3084    142.6308
   314.0000     17.5755    138.5434
   314.2500     17.7702    137.5583
   314.5000     17.8776    138.9010
   314.7500     17.8889    141.3325
   315.0000     17.8053    146.2507
   315.2500     17.6384    149.7853
   315.5000     17.4088    154.7530
   315.7500     17.1440    157.4981
   316.0000     16.8756    160.0449
   316.2500     16.6351    160.2732
   316.5000     16.4475    158.1255
   316.7500     16.3279    155.2729
   317.0000     16.2808    149.8109
   317.2500     16.3016    146.0591
   317.5000     16.3790    141.3587
   317.7500     16.4949    139.2955
   318.0000     16.6252    137.9404
   318.2500     16.7408    137.8782
   318.5000     16.8100    138.2184
   318.7500     16.8022    138.3052
   319.0000     16.6948    137.6577
   319.2500     16.4833    136.5259
   319.5000     16.1883    133.9630
   319.7500     15.8521    132.0732
   320.0000     15.5265    129.8058
   320.2500     15.2572    129.0913
   320.5000     15.0734    129.6448
   320.7500     14.9834    131.1402
   321.0000     14.9768    134.9643
   321.2500     15.0304    138.5373
   321.5000     15.1166    145.3151
   321.7500     15.2110    150.4408
   322.0000     15.2971    157.8512
   322.2500     15.3683    161.7192
   322.5000     15.4300    164.5429
   322.7500     15.5011    163.9860
   323.0000     15.6140    159.6905
   323.2500     15.8109    155.2169
   323.5000     16.1375    147.7603
   323.7500     16.6343    143.1022
   324.0000     17.3291    137.1389
   324.2500     18.2283    133.7554
   324.5000     19.3094    129.4525
   324.7500     20.5172    127.4068
   325.0000     21.7696    126.5062
   325.2500     22.9749    127.5781
   325.5000     24.0580    130.7834
   325.7500     24.9849    132.8702
   326.0000     25.7741    134.0977
   326.2500     26.4857    133.1236
   326.5000     27.1951    129.1365
   326.7500     27.9679    125.2677
   327.0000     28.8491    118.6114
   327.2500     29.8644    114.1195
   327.5000     31.0233    108.0317
   327.7500     32.3191    104.7228
   328.0000     33.7242    101.1355
   328.2500     35.1869     99.6574
   328.5000     36.6319     98.9006
   328.7500     37.9690     99.6111
   329.0000     39.1094    102.6980
   329.2500     39.9879    105.5431
   329.5000     40.5825    108.7349
   329.7500     40.9129    108.7711
   330.0000     41.0174    104.9338
   330.2500     40.9242    100.5906
   330.5000     40.6432     93.9837
   330.7500     40.1804     90.8946
   331.0000     39.5537     89.3786
   331.2500     38.7907     90.3450
   331.5000     37.9147     93.7275
   331.7500     36.9371     96.5718
   332.0000     35.8615    100.9482
   332.2500     34.6919    103.7103
   332.5000     33.4379    107.0896
   332.7500     32.1181    108.3507
   333.0000     30.7591    108.2637
   333.2500     29.3871    107.1852
   333.5000     28.0185    105.4185
   333.7500     26.6594    105.0267
   334.0000     25.3170    106.6717
   334.2500     24.0106    109.5455
   334.5000     22.7687    116.3837
   334.7500     21.6172    122.0735
   335.0000     20.5702    130.7355
   335.2500     19.6305    135.7471
   335.5000     18.7962    141.5472
   335.7500     18.0676    144.3932
   336.0000     17.4548    147.4244
   336.2500     16.9804    148.6635
   336.5000     16.6735    149.4780
   336.7500     16.5570    149.5235
   337.0000     16.6346    149.2720
   337.2500     16.8861    149.2288
   337.5000     17.2725    150.1689
   337.7500     17.7467    151.8128
   338.0000     18.2636    155.4373
   338.2500     18.7851    157.7572
   338.5000     19.2770    159.0229
   338.7500     19.7048    157.3307
   339.0000     20.0320    150.3532
   339.2500     20.2261    143.2760
   339.5000     20.2696    130.9563
   339.7500     20.1655    122.8353
   340.0000     19.9285    112.6728
   340.2500     19.5710    108.2119
   340.5000     19.0989    105.9453
   340.7500     18.5208    107.0738
   341.0000     17.8571    110.8368
   341.2500     17.1395    113.6373
   341.5000     16.4033    117.8462
   341.7500     15.6818    121.2269
   342.0000     15.0043    128.3515
   342.2500     14.3946    134.6836
   342.5000     13.8686    145.7882
   342.7500     13.4333    153.3680
   343.0000     13.0877    163.2996
   343.2500     12.8251    168.1438
   343.5000     12.6373    172.0449
   343.7500     12.5173    172.5399
   344.0000     12.4629    171.0864
   344.2500     12.4759    169.2529
   344.5000     12.5608    165.7194
   344.7500     12.7196    162.9053
   345.0000     12.9480    158.1591
   345.2500     13.2339    154.8332
   345.5000     13.5584    149.9043
   345.7500     13.9001    146.8480
   346.0000     14.2382    143.1529
   346.2500     14.5537    141.6814
   346.5000     14.8289    141.3615
   346.7500     15.0479    142.2425
   347.0000     15.1982    144.2198
   347.2500     15.2745    145.3382
   347.5000     15.2815    146.4453
   347.7500     15.2350    147.2628
   348.0000     15.1591    149.7150
   348.2500     15.0814    152.4749
   348.5000     15.0294    157.8479
   348.7500     15.0282    161.5680
   349.0000     15.1002    166.1456
   349.2500     15.2629    168.1467
   349.5000     15.5251    169.6626
   349.7500     15.8847    170.0054
   350.0000     16.3299    170.0598
   350.2500     16.8479    169.9262
   350.5000     17.4358    169.2665
   350.7500     18.1072    168.1423
   351.0000     18.8896    164.4338
   351.2500     19.8175    160.0168
