~Version Information
VERS.                      2.0: CWLS Log ASCII Standard - VERSION 2.0
WRAP.                       NO: One line per depth step
~Well Information Block
STRT.FT               745.0000: 
STOP.FT              1985.0000: 
STEP.FT                 0.1000: 
NULL.                -999.2500: 
COMP.          Pioneer Natural Resources: COMPANY
WELL.          Lorencito 15-36-33-67: WELL
FLD.           Purgatoire River: FIELD
LOC.           38' FSL & 1446' FEL: LOCATION
STAT.                 Colorado: State
CNTY.               Las Animas: COUNTY
CTRY. USA : Country
SECT. 36 : Section
TOWN. 33S : Township
RANG. 67W : Range
SRVC.                Patterson: SERVICE COMPANY
DATE.          Thu Oct 13 10:16:17 2005: LOG DATE
API.           05 071 08515 00: UNIQUE WELL ID
~Curve Information Block
DEPT.FT            0 000 00 00: Depth
DCAL.in                       : CDL Caliper
RHOB.g/cc                     : CDL Bulk Density
RHOC.g/cc                     : CDL Density Correction
DPOR.pu                       : CDL Density Porosity
GR.GAPI                       : Gamma Ray
NPOR.pu                       : Neutron Porosity
~Parameter Information Block
~A  Depth       DCAL        RHOB        RHOC        DPOR         GR         NPOR    
# ...
  1724.2000      8.0192      2.5450      0.0967      6.3613     86.4366     22.9166
  1724.3000      8.0201      2.5327      0.0187      7.1065     86.5933     22.3678
  1724.4000      8.0201      2.5315      0.0403      7.1824     86.7069     21.7030
  1724.5000      8.0171      2.5389      0.0776      6.7313     89.1162     21.4713
  1724.6000      8.0171      2.5378      0.0315      6.8005     93.7988     22.0152
  1724.7000      8.0171      2.5192      0.0198      7.9266     99.0145     23.0881
  1724.8000      8.0062      2.4962     -0.0287      9.3214    104.1940     23.8011
  1724.9000      8.0062      2.4852      0.0349      9.9864    107.1608     24.2055
  1725.0000      8.0176      2.4827      0.0213     10.1365    107.1179     24.6858
  1725.1000      8.0176      2.4779      0.0153     10.4292    106.1163     24.8177
  1725.2000      8.0176      2.4708     -0.0080     10.8624    105.1540     24.6323
  1725.3000      8.0197      2.4710      0.0267     10.8509    104.4019     24.3364
  1725.4000      8.0197      2.4856      0.0250      9.9657    109.1799     23.8844
  1725.5000      8.0184      2.5082      0.1290      8.5956    118.5014     23.7197
  1725.6000      8.0184      2.5240      0.0898      7.6339    121.0572     24.2680
  1725.7000      8.0184      2.5288      0.1110      7.3476    115.9007     25.4086
  1725.8000      8.0206      2.5238      0.1179      7.6472    111.9888     26.1105
  1725.9000      8.0206      2.5129      0.0790      8.3112    108.8519     25.2854
  1726.0000      8.0216      2.5062      0.0864      8.7122    103.9403     23.3457
  1726.1000      8.0216      2.5127      0.0559      8.3195    102.8368     21.8515
  1726.2000      8.0216      2.5310      0.0628      7.2095    107.8427     21.8601
  1726.3000      8.0204      2.5475      0.0727      6.2116    115.5988     23.2911
  1726.4000      8.0204      2.5470      0.0986      6.2418    122.8232     25.0925
  1726.5000      8.0208      2.5254      0.0766      7.5503    126.4595     25.7239
  1726.6000      8.0208      2.4947      0.0269      9.4104    122.2455     24.9860
  1726.7000      8.0208      2.4712      0.0327     10.8387    113.7144     23.8348
  1726.8000      8.0185      2.4531      0.0648     11.9312    109.3865     23.0879
  1726.9000      8.0185      2.4349      0.0026     13.0357    108.9404     23.7460
  1727.0000      8.0183      2.4295     -0.0086     13.3608    108.1675     25.4842
  1727.1000      8.0183      2.4502      0.0153     12.1093    105.4829     26.3943
  1727.2000      8.0183      2.4898      0.0427      9.7101    102.1282     26.3153
  1727.3000      8.0188      2.5338      0.0480      7.0452     98.3521     26.2339
  1727.4000      8.0188      2.5695      0.1333      4.8795     92.9043     26.0680
  1727.5000      8.0180      2.5872      0.1527      3.8055     90.2200     25.6758
  1727.6000      8.0180      2.5916      0.1497      3.5381     91.7113     25.4277
  1727.7000      8.0180      2.5930      0.1867      3.4557     92.6604     25.4946
  1727.8000      8.0171      2.5880      0.1979      3.7590     93.0765     25.7387
  1727.9000      8.0171      2.5740      0.1191      4.6072     95.9196     26.0458
  1728.0000      8.0270      2.5613      0.1366      5.3737    102.2740     26.0420
  1728.1000      8.0270      2.5521      0.1115      5.9345    107.5833     25.4777
  1728.2000      8.0270      2.5382      0.1446      6.7770    107.6692     24.9139
  1728.3000      8.0519      2.5158      0.1355      8.1339    106.6400     25.0957
  1728.4000      8.0519      2.4899      0.1041      9.7038    105.6636     25.7278
  1728.5000      8.0515      2.4722      0.0571     10.7746    103.0010     25.9959
  1728.6000      8.0515      2.4700      0.0885     10.9090    103.1145     26.0846
  1728.7000      8.0515      2.4798      0.0677     10.3130    107.5151     26.5871
  1728.8000      8.0453      2.4954      0.0971      9.3673    111.4795     27.4218
  1728.9000      8.0453      2.5073      0.1202      8.6466    112.4702     28.1747
  1729.0000      8.0533      2.5040      0.0971      8.8481    110.8577     28.5318
  1729.1000      8.0533      2.4911      0.0436      9.6281    108.2442     27.9840
  1729.2000      8.0533      2.4950      0.0457      9.3935    106.1054     26.6097
  1729.3000      8.0525      2.5227      0.1043      7.7155    105.7161     25.1432
  1729.4000      8.0525      2.5492      0.0847      6.1066    108.0067     23.9844
  1729.5000      8.0527      2.5580      0.0655      5.5754    109.6499     23.3011
  1729.6000      8.0527      2.5550      0.0366      5.7551    106.5183     23.0617
  1729.7000      8.0527      2.5460      0.0947      6.3058    101.7635     23.0159
  1729.8000      8.0524      2.5287      0.0423      7.3523    104.8393     22.9714
  1729.9000      8.0524      2.5124      0.0470      8.3415    118.8487     23.1029
  1730.0000      8.0533      2.5136      0.0056      8.2684    131.5990     23.7228
  1730.1000      8.0533      2.5361      0.0437      6.9013    129.5008     24.5216
  1730.2000      8.0533      2.5620      0.0532      5.3352    114.2511     24.8445
  1730.3000      8.0521      2.5769      0.0255      4.4324     96.8375     24.7012
  1730.4000      8.0521      2.5837      0.0611      4.0181     86.7893     24.8766
  1730.5000      8.0504      2.5858      0.0403      3.8922     85.7876     25.8451
  1730.6000      8.0504      2.5809      0.0575      4.1874     87.0098     26.5209
  1730.7000      8.0504      2.5642      0.0230      5.2027     86.6252     25.7299
  1730.8000      8.0524      2.5391      0.0107      6.7184     86.6355     24.6213
  1730.9000      8.0524      2.5209      0.0003      7.8273     88.7088     24.2981
  1731.0000      8.0538      2.5187     -0.0149      7.9580     94.3682     24.4878
  1731.1000      8.0538      2.5271      0.0181      7.4511    102.8003     24.9916
  1731.2000      8.0538      2.5346      0.0392      6.9969    110.6846     25.5079
  1731.3000      8.0554      2.5393      0.0028      6.7075    113.8408     25.4010
  1731.4000      8.0554      2.5473      0.0142      6.2244    110.5101     24.6014
  1731.5000      8.0535      2.5560      0.0797      5.6952    104.7001     23.9523
  1731.6000      8.0535      2.5548      0.0841      5.7687    101.5100     24.1826
  1731.7000      8.0535      2.5426      0.0701      6.5063    102.3150     24.9726
  1731.8000      8.0521      2.5320      0.0256      7.1495    105.0575     25.3565
  1731.9000      8.0521      2.5298      0.0792      7.2863    107.2471     24.9820
  1732.0000      8.0489      2.5309      0.0537      7.2209    107.2916     24.3475
  1732.1000      8.0489      2.5381      0.0582      6.7819    107.6646     23.9382
  1732.2000      8.0489      2.5528      0.0637      5.8885    109.8869     24.0983
  1732.3000      8.0521      2.5609      0.0760      5.3999    110.8180     24.7641
  1732.4000      8.0521      2.5511      0.0713      5.9925    110.6690     25.4828
  1732.5000      8.0552      2.5334      0.0339      7.0691    109.7123     25.8853
  1732.6000      8.0552      2.5275      0.0269      7.4268    106.0426     25.7187
  1732.7000      8.0552      2.5352      0.0776      6.9605    104.1079     25.0177
  1732.8000      8.0539      2.5489      0.0241      6.1244    107.2106     24.0058
  1732.9000      8.0539      2.5709      0.0542      4.7936    109.4691     23.0710
  1733.0000      8.0557      2.5928      0.0876      3.4697    106.4312     22.7282
  1733.1000      8.0557      2.5996      0.0569      3.0557    101.6135     23.3126
  1733.2000      8.0557      2.5908      0.0788      3.5891     98.4102     24.5252
  1733.3000      8.0536      2.5731      0.0424      4.6617     94.9704     25.4498
  1733.4000      8.0536      2.5519      0.0534      5.9467     90.9646     25.6767
  1733.5000      8.0512      2.5305      0.0332      7.2424     89.2188     25.9608
  1733.6000      8.0512      2.5171      0.0019      8.0573     89.3294     26.8977
  1733.7000      8.0512      2.5128      0.0284      8.3174     89.5507     27.8218
