~Version Information
VERS.                      2.0: CWLS Log ASCII Standard - VERSION 2.0
WRAP.                       NO: One line per depth step
~Well Information Block
STRT.FT                15.0000: 
STOP.FT              1532.0000: 
STEP.FT                 0.2500: 
NULL.                -999.2500: 
COMP.          Pioneer Natural Resources: COMPANY
WELL.           Bobsy 34-11 Tr: WELL
FLD.           Purgatoire River: FIELD
LOC.           514' FSL & 1784' FEL: LOCATION
PROV.                 Colorado: PROVINCE
CNTY.               Las Animas: COUNTRY
SRVC.                Patterson: SERVICE COMPANY
DATE.          Fri Jul 22 12:22:14 2005: LOG DATE
UWI.           05 071 08438 00: UNIQUE WELL ID
~Curve Information Block
DEPT.FT            0 000 00 00: Depth
GR.GAPI                       : Gamma Ray
CCL.                          : Casing Collar Locator
TT3.usec                      : CBL 3' Travel Time
AMP3.mV                       : CBL 3' Amplitude
~Parameter Information Block
~A  Depth        GR         CCL         TT3         AMP3    
# ...
  1087.0000    111.6989      0.0000    698.5599     11.7756
  1087.2500    121.4256      0.0000    694.2138     11.9367
  1087.5000    127.6230      0.0000    689.3400     12.1936
  1087.7500    128.4122      0.0000    685.0379     12.5766
  1088.0000    124.8523      0.0000    680.6971     13.0842
  1088.2500    119.6032      0.0000    674.7546     13.6721
  1088.5000    114.9224      0.0000    665.6644     14.2542
  1088.7500    111.7287      0.0000    653.1324     14.6950
  1089.0000    110.2062      0.0000    640.3214     14.7998
  1089.2500    110.7215      0.0000    634.9451     14.3573
  1089.5000    113.6466      0.0000    644.7251     13.2688
  1089.7500    118.2251      0.0000    668.7582     11.6737
  1090.0000    122.0473      0.0000    695.4891      9.9126
  1090.2500    122.0823      0.0000    712.5026      8.3263
  1090.5000    116.5411      0.0000    717.1673      7.0825
  1090.7500    106.0888      1.6690    715.7569      6.1760
  1091.0000     93.5307      3.0000    714.3796      5.5408
  1091.2500     82.2812      0.0000    713.9654      5.1440
  1091.5000     74.7350      0.0000    713.4292      5.0013
  1091.7500     71.5382      0.0000    714.1145      5.1209
  1092.0000     72.0951      0.0000    719.0558      5.4492
  1092.2500     75.7230      0.0000    729.0630      5.9108
  1092.5000     82.3404      0.0000    741.3139      6.5154
  1092.7500     92.0493      0.0000    751.8141      7.3732
  1093.0000    104.2567      0.0000    758.1527      8.5736
  1093.2500    117.4834      0.0000    759.7317     10.0889
  1093.5000    129.9215      0.0000    756.3765     11.8117
  1093.7500    139.9968      0.0000    747.7855     13.6348
  1094.0000    146.6556      0.0000    734.6139     15.4652
  1094.2500    149.6074      0.0000    719.4767     17.1855
  1094.5000    149.6053      0.0000    705.9795     18.6379
  1094.7500    148.3893      0.0000    696.4412     19.6661
  1095.0000    147.7827      0.0000    690.7460     20.1844
  1095.2500    148.2934      0.0000    687.1618     20.2193
  1095.5000    148.6378      0.0000    683.7941     19.8947
  1095.7500    147.0885      0.0000    679.4979     19.3758
  1096.0000    143.2700      0.0000    674.2007     18.7991
  1096.2500    138.3738      0.0000    668.8277     18.2296
  1096.5000    134.0676      0.0000    664.9113     17.6697
  1096.7500    131.6050      0.0000    663.9747     17.0997
  1097.0000    131.3384      0.0000    666.6763     16.5085
  1097.2500    132.4791      0.0000    672.0701     15.9038
  1097.5000    133.7582      0.0000    677.9688     15.3131
  1097.7500    134.8352      0.0000    682.4214     14.7722
  1098.0000    136.7250      0.0000    684.8206     14.3016
  1098.2500    140.4292      0.0000    685.6981     13.8945
  1098.5000    145.3804      0.0000    685.8847     13.5346
  1098.7500    149.5475      0.0000    686.0186     13.2223
  1099.0000    150.8741      0.0000    686.5815     12.9754
  1099.2500    148.4389      0.0000    688.1234     12.8014
  1099.5000    142.6610      0.0000    691.1979     12.6775
  1099.7500    135.0106      0.0000    695.6682     12.5674
  1100.0000    127.6208      0.0000    699.9533     12.4545
  1100.2500    122.7007      0.0000    701.6279     12.3508
  1100.5000    121.6715      0.0000    699.4885     12.2728
  1100.7500    124.5299      0.0000    694.8126     12.2134
  1101.0000    130.0199      0.0000    690.1389     12.1409
  1101.2500    136.4761      0.0000    687.1306     12.0258
  1101.5000    142.6758      0.0000    685.8684     11.8651
  1101.7500    148.0877      0.0000    685.6140     11.6824
  1102.0000    152.2807      0.0000    685.6805     11.5072
  1102.2500    154.3125      0.0000    685.7328     11.3612
  1102.5000    153.3234      0.0000    685.7113     11.2612
  1102.7500    149.7854      0.0000    685.6752     11.2216
  1103.0000    145.5826      0.0000    685.6758     11.2462
  1103.2500    142.7236      0.0000    685.7108     11.3185
  1103.5000    142.1544      0.0000    685.7423     11.4061
  1103.7500    143.5057      0.0000    685.7411     11.4791
  1104.0000    145.6985      0.0000    685.7027     11.5231
  1104.2500    147.9734      0.0000    685.6349     11.5359
  1104.5000    150.3248      0.0000    685.5525     11.5178
  1104.7500    152.8542      0.0000    685.4847     11.4700
  1105.0000    155.0287      0.0000    685.4656     11.4007
  1105.2500    155.8929      0.0000    685.4970     11.3256
  1105.5000    154.8253      0.0000    685.5211     11.2585
  1105.7500    152.0274      0.0000    685.4416     11.2030
  1106.0000    148.5310      0.0000    685.1830     11.1575
  1106.2500    145.7551      0.0000    684.7471     11.1241
  1106.5000    144.7735      0.0000    684.2243     11.1079
  1106.7500    145.8476      0.0000    683.7443     11.1090
  1107.0000    148.4353      0.0000    683.4001     11.1193
  1107.2500    151.2974      0.0000    683.2125     11.1265
  1107.5000    152.7036      0.0000    683.1495     11.1237
  1107.7500    151.3687      0.0000    683.1646     11.1184
  1108.0000    147.7080      0.0000    683.2152     11.1318
  1108.2500    143.7976      0.0000    683.2694     11.1857
  1108.5000    141.6126      0.0000    683.2865     11.2868
  1108.7500    141.3799      0.0000    683.1575     11.4210
  1109.0000    141.7571      0.0000    682.6190     11.5593
  1109.2500    141.3419      0.0000    681.3222     11.6749
  1109.5000    139.7386      0.0000    679.2509     11.7588
  1109.7500    137.5854      0.0000    677.1843     11.8215
  1110.0000    136.2776      0.0000    676.4465     11.8785
  1110.2500    137.5227      0.0000    677.9171     11.9367
  1110.5000    142.0323      0.0000    681.4828     11.9961
  1110.7500    148.1217      0.0000    686.5493     12.0593
  1111.0000    152.2575      0.0000    692.3998     12.1305
  1111.2500    151.5036      0.0000    697.5754     12.2047
  1111.5000    145.2968      0.0000    699.7711     12.2645
  1111.7500    135.2469      0.0000    697.6216     12.2961
  1112.0000    123.9577      0.0000    692.4870     12.3016
  1112.2500    113.8169      0.0000    687.4462     12.2876
  1112.5000    105.9723      0.0000    684.6238     12.2426
  1112.7500    100.2565      0.0000    684.3016     12.1411
  1113.0000     96.3568      0.0000    686.3237     11.9703
  1113.2500     94.8461      0.0000    691.0612     11.7438
  1113.5000     96.7106      0.0000    698.2660     11.4891
  1113.7500    102.0872      0.0000    705.4375     11.2362
  1114.0000    109.8303      0.0000    708.6491     11.0165
  1114.2500    118.0807      0.0000    705.9172     10.8566
  1114.5000    124.9845      0.0000    699.2024     10.7676
  1114.7500    129.2912      0.0000    692.4186     10.7442
  1115.0000    130.9236      0.0000    688.0878     10.7717
  1115.2500    131.2013      0.0000    686.4155     10.8317
  1115.5000    132.2861      0.0000    686.6518     10.9060
  1115.7500    135.8508      0.0000    688.4943     10.9805
  1116.0000    141.7508      0.0000    692.3277     11.0439
  1116.2500    147.9719      0.0000    698.4158     11.0866
  1116.5000    152.1921      0.0000    705.7650     11.1053
  1116.7500    153.5469      0.0000    711.8373     11.1046
  1117.0000    152.8654      0.0000    713.8190     11.0914
  1117.2500    151.4441      0.0000    710.4741     11.0671
  1117.5000    149.9115      0.0000    702.9757     11.0273
  1117.7500    148.2690      0.0000    693.9859     10.9678
  1118.0000    146.6137      0.0000    685.8312     10.8924
  1118.2500    145.4333      0.0000    679.5480     10.8143
  1118.5000    145.2258      0.0000    675.4656     10.7476
  1118.7500    146.0103      0.0000    673.9183     10.6980
  1119.0000    147.2682      0.0000    674.8587     10.6641
  1119.2500    148.4441      0.0000    677.2881     10.6483
  1119.5000    149.6435      0.0000    679.7399     10.6656
  1119.7500    151.5906      0.0000    681.2897     10.7394
  1120.0000    154.5348      0.0000    681.8582     10.8830
  1120.2500    157.4845      0.0000    681.8111     11.0814
