~Version Information
VERS.                      2.0: CWLS Log ASCII Standard - VERSION 2.0
WRAP.                       NO: One line per depth step
~Well Information Block
STRT.FT                10.0000: 
STOP.FT              1063.0000: 
STEP.FT                 0.1000: 
NULL.                -999.2500: 
COMP.          Pioneer Natural Resources: COMPANY
WELL.                Mac 22-36: WELL
FLD.           Purgatorie River: FIELD
LOC.           2545' FNL & 1398' FWL: LOCATION
PROV.                 Colorado: PROVINCE
CNTY.               Las Animas: COUNTRY
SRVC.                Patterson: SERVICE COMPANY
DATE.          Mon Dec 05 10:55:42 2005: LOG DATE
UWI.                          : UNIQUE WELL ID
~Curve Information Block
DEPT.FT            0 000 00 00: Depth
DCAL.in                       : CDL Caliper
RHOB.g/cc                     : CDL Bulk Density
RHOC.g/cc                     : CDL Density Correction
DPOR.pu                       : CDL Density Porosity
GR.GAPI                       : Gamma Ray
NPOR.pu                       : Neutron Porosity
~Parameter Information Block
~A  Depth       DCAL        RHOB        RHOC        DPOR         GR         NPOR    
# ...
   422.8000      7.9435      2.5710      0.0334      4.7908    149.4496     25.1637
   422.9000      7.9435      2.5907      0.0321      3.5925    148.6570     25.3407
   423.0000      7.9463      2.6144      0.0682      2.1577    152.9580     25.5365
   423.1000      7.9463      2.6173      0.0663      1.9788    157.4928     25.9365
   423.2000      7.9463      2.5916      0.0627      3.5385    158.4403     26.3198
   423.3000      7.9532      2.5606      0.0016      5.4183    157.1905     26.3156
   423.4000      7.9532      2.5429      0.0217      6.4921    155.5670     26.1331
   423.5000      7.9490      2.5345      0.0017      7.0021    153.2988     26.0953
   423.6000      7.9490      2.5372      0.0009      6.8358    149.5758     26.1541
   423.7000      7.9490      2.5499      0.0394      6.0668    147.0034     26.3725
   423.8000      7.9481      2.5579      0.0230      5.5831    147.4433     26.7304
   423.9000      7.9481      2.5602      0.0083      5.4402    150.4389     26.8199
   424.0000      7.9442      2.5651      0.0315      5.1449    153.3727     26.5197
   424.1000      7.9442      2.5721      0.0352      4.7242    154.0941     26.2215
   424.2000      7.9442      2.5765      0.0517      4.4548    154.7132     26.1577
   424.3000      7.9313      2.5736      0.0465      4.6310    155.9029     26.1441
   424.4000      7.9313      2.5654      0.0318      5.1258    156.8228     25.9382
   424.5000      7.9364      2.5641      0.0198      5.2042    157.7534     25.4840
   424.6000      7.9364      2.5733      0.0504      4.6490    158.2455     25.0937
   424.7000      7.9364      2.5746      0.0822      4.5703    157.1710     25.2110
   424.8000      7.9418      2.5589      0.0166      5.5225    155.8723     25.6803
   424.9000      7.9418      2.5450      0.0447      6.3607    155.9393     26.1165
   425.0000      7.9381      2.5491      0.0429      6.1126    157.2179     26.4924
   425.1000      7.9381      2.5693      0.0386      4.8902    158.7900     26.8124
   425.2000      7.9381      2.5957      0.0576      3.2939    159.5678     26.8321
   425.3000      7.9342      2.6130      0.1133      2.2420    159.8538     26.6730
   425.4000      7.9342      2.6099      0.0948      2.4304    158.1890     26.8803
   425.5000      7.9249      2.5936      0.0628      3.4171    152.6307     27.5127
   425.6000      7.9249      2.5818      0.0621      4.1354    146.1543     28.1640
   425.7000      7.9249      2.5823      0.0478      4.1038    141.0398     28.6632
   425.8000      7.9263      2.5942      0.0378      3.3817    135.5645     29.0421
   425.9000      7.9263      2.6132      0.0727      2.2304    131.9034     29.4878
   426.0000      7.9291      2.6286      0.0748      1.2991    132.4259     30.1485
   426.1000      7.9291      2.6331      0.0600      1.0257    132.3755     30.7543
   426.2000      7.9291      2.6305      0.0402      1.1824    128.5175     30.9105
   426.3000      7.9185      2.6308      0.0157      1.1631    122.7670     30.5562
   426.4000      7.9185      2.6388      0.0438      0.6791    116.4469     29.9692
   426.5000      7.9161      2.6471      0.0513      0.1754    111.9576     29.4883
   426.6000      7.9161      2.6453      0.0339      0.2853    109.8807     29.1811
   426.7000      7.9161      2.6372     -0.0179      0.7785    107.7610     28.8420
   426.8000      7.9035      2.6394      0.0130      0.6416    104.8703     28.4191
   426.9000      7.9035      2.6584     -0.0084     -0.5094    101.5973     28.0410
   427.0000      7.9066      2.6818      0.0490     -1.9281     97.5807     27.6665
   427.1000      7.9066      2.6967      0.0372     -2.8279     94.0838     27.2457
   427.2000      7.9066      2.6993      0.0424     -2.9859     91.8365     26.8793
   427.3000      7.9036      2.6839      0.0201     -2.0532     89.9916     26.6297
   427.4000      7.9036      2.6541     -0.0112     -0.2507     88.6930     26.4093
   427.5000      7.8937      2.6392     -0.0811      0.6556     88.0282     26.0574
   427.6000      7.8937      2.6539     -0.0214     -0.2378     87.9927     25.4752
   427.7000      7.8937      2.6720      0.0351     -1.3315     88.8060     24.7298
   427.8000      7.9144      2.6765      0.0076     -1.6090     90.1104     24.1094
   427.9000      7.9144      2.6785      0.0260     -1.7254     93.0796     24.0087
   428.0000      7.9297      2.6727      0.0595     -1.3776     97.2499     24.3398
   428.1000      7.9297      2.6462      0.0180      0.2315     99.9331     24.4508
   428.2000      7.9297      2.6139     -0.0356      2.1860    102.7078     24.1536
   428.3000      7.9334      2.5970     -0.0334      3.2102    109.1232     23.7527
   428.4000      7.9334      2.5868      0.0152      3.8313    117.8717     23.3788
   428.5000      7.9412      2.5693     -0.0189      4.8925    124.9929     23.1028
   428.6000      7.9412      2.5548     -0.0223      5.7727    129.2275     22.9731
   428.7000      7.9412      2.5545     -0.0170      5.7849    132.0455     22.6878
   428.8000      7.9435      2.5646      0.0351      5.1765    134.5245     22.1807
   428.9000      7.9435      2.5790      0.0098      4.3022    136.1990     21.7526
   429.0000      7.9314      2.5941      0.0459      3.3879    137.1518     21.4754
   429.1000      7.9314      2.6051      0.0445      2.7240    137.9037     21.3793
   429.2000      7.9314      2.6150      0.0699      2.1192    138.6517     21.4985
   429.3000      7.9373      2.6197      0.1053      1.8386    139.6693     21.7084
   429.4000      7.9373      2.6032      0.1159      2.8370    140.5408     21.8113
   429.5000      7.9416      2.5691      0.0541      4.9005    141.1527     21.7265
   429.6000      7.9416      2.5391      0.0346      6.7212    141.6049     21.6077
   429.7000      7.9416      2.5214      0.0468      7.7949    142.7590     21.5233
   429.8000      7.9448      2.5140      0.0298      8.2422    144.1504     21.3971
   429.9000      7.9448      2.5221      0.0272      7.7542    143.8948     21.2917
   430.0000      7.9497      2.5349      0.1114      6.9734    142.5209     21.2211
   430.1000      7.9497      2.5270      0.0752      7.4569    138.5983     20.9573
   430.2000      7.9497      2.4983      0.0668      9.1951    131.3970     20.5212
   430.3000      7.9466      2.4689      0.0370     10.9762    124.6789     20.1808
   430.4000      7.9466      2.4514      0.0275     12.0340    120.1690     19.9704
   430.5000      7.9491      2.4439      0.0413     12.4908    117.4016     19.7312
   430.6000      7.9491      2.4423      0.0111     12.5901    116.0614     19.4372
   430.7000      7.9491      2.4492      0.0395     12.1712    114.5755     19.2135
   430.8000      7.9562      2.4613      0.0480     11.4373    112.1402     19.2303
   430.9000      7.9562      2.4645      0.0735     11.2429    110.8384     19.5157
   431.0000      7.9538      2.4517      0.0524     12.0196    112.3437     19.9756
   431.1000      7.9538      2.4329      0.0379     13.1599    114.4096     20.5586
   431.2000      7.9538      2.4258      0.0068     13.5908    115.3241     21.0996
   431.3000      7.9514      2.4386      0.0392     12.8148    116.3984     21.2408
   431.4000      7.9514      2.4551      0.0970     11.8128    117.1779     20.9993
   431.5000      7.9524      2.4599      0.0474     11.5196    117.4541     20.7782
   431.6000      7.9524      2.4599      0.0796     11.5187    119.1714     20.7522
   431.7000      7.9524      2.4607      0.0682     11.4721    123.5063     20.8896
   431.8000      7.9541      2.4643      0.0470     11.2565    128.6522     21.0855
   431.9000      7.9541      2.4768      0.0770     10.4964    131.9500     21.4282
   432.0000      7.9512      2.4940      0.1114      9.4567    132.8190     22.0222
   432.1000      7.9512      2.5085      0.1018      8.5756    131.5316     22.5145
   432.2000      7.9512      2.5221      0.1302      7.7518    129.2481     22.6590
   432.3000      7.9563      2.5289      0.1697      7.3402    129.1492     22.7260
