~Version Information
VERS.                      2.0: CWLS Log ASCII Standard - VERSION 2.0
WRAP.                       NO: One line per depth step
~Well Information Block
STRT.FT               621.2500: 
STOP.FT               951.7500: 
STEP.FT                 0.2500: 
NULL.                -999.2500: 
COMP.          Pioneer Natural Resources: COMPANY
WELL.          Screamin 12-29 Tr: WELL
FLD.           Purgatoire River: FIELD
LOC.           1979' FNL & 532' FWL--: LOCATION
CNTY.               Las Animas: COUNTY
SRVC.                Patterson: SERVICE COMPANY
DATE.          Fri Mar 31 01:01:50 2006: LOG DATE
UWI.           05 071 08660 00: UNIQUE WELL ID
STAT.                 Colorado: STATE
~Curve Information Block
DEPT.FT            0 000 00 00: Depth
SN.Ohm-m                      : IEL Short Normal
SP.mV                         : IEL Spontaneous Potential
DIR.Ohm-m                     : IEL Induction Resistivity
GR.GAPI                       : Gamma Ray
~Parameter Information Block
~A  Depth        SN          SP         DIR          GR     
# ...
   922.7500     13.6881     75.6709      8.4781     88.3785
   923.0000     13.4449     81.1438      8.5680     88.5954
   923.2500     13.3344     85.0481      8.6243     88.0202
   923.5000     13.2983     87.9415      8.6552     84.7032
   923.7500     13.3033     90.2291      8.6796     79.3058
   924.0000     13.3343     92.1783      8.7175     64.4079
   924.2500     13.3816     93.9491      8.7828     50.6543
   924.5000     13.4335     95.6285      8.8787     29.1307
   924.7500     13.4813     97.2605      8.9976     17.3998
   925.0000     13.5332     98.8697      9.1251      6.3061
   925.2500     13.6186    100.4757      9.2438      2.7029
   925.5000     13.7732    102.0995      9.3375      0.5796
   925.7500     14.0143    103.7648      9.3932      0.1720
   926.0000     14.3223    105.4937      9.4015      0.0196
   926.2500     14.6427    107.3008      9.3563      0.0024
   926.5000     14.9091    109.1882      9.2551   -999.2500
   926.7500     15.0717    111.1410      9.1005   -999.2500
   927.0000     15.1174    113.1260      8.9022   -999.2500
   927.2500     15.0676    115.0933      8.6775   -999.2500
   927.5000     14.9652    116.9821      8.4495   -999.2500
   927.7500     14.8611    118.7286      8.2436   -999.2500
   928.0000     14.8056    120.2760      8.0820   -999.2500
   928.2500     14.8406    121.5854      7.9799   -999.2500
   928.5000     14.9933    122.6463      7.9434   -999.2500
   928.7500     15.2726    123.4862      7.9701   -999.2500
   929.0000     15.6666    124.1753      8.0501   -999.2500
   929.2500     16.1427    124.8260      8.1683   -999.2500
   929.5000     16.6573    125.5832      8.3066   -999.2500
   929.7500     17.1704    126.6046      8.4459   -999.2500
   930.0000     17.6518    128.0349      8.5702   -999.2500
   930.2500     18.0677    129.9779      8.6687   -999.2500
   930.5000     18.3636    132.4735      8.7375   -999.2500
   930.7500     18.4698    135.4866      8.7785   -999.2500
   931.0000     18.3360    138.9092      8.7963   -999.2500
   931.2500     17.9650    142.5759      8.7975   -999.2500
   931.5000     17.4181    146.2869      8.7900   -999.2500
   931.7500     16.7934    149.8328      8.7846   -999.2500
   932.0000     16.2005    153.0172      8.7955   -999.2500
   932.2500     15.7470    155.6727      8.8406   -999.2500
   932.5000     15.5312    157.6696      8.9404   -999.2500
   932.7500     15.6308    158.9191      9.1179   -999.2500
   933.0000     16.0860    159.3732      9.3977   -999.2500
   933.2500     16.8841    159.0228      9.8051   -999.2500
   933.5000     17.9578    157.8979     10.3644   -999.2500
   933.7500     19.2077    156.0678     11.0970   -999.2500
   934.0000     20.5468    153.6426     12.0182   -999.2500
   934.2500     21.9430    150.7716     13.1351   -999.2500
   934.5000     23.4233    147.6367     14.4464   -999.2500
   934.7500     25.0316    144.4391     15.9405   -999.2500
   935.0000     26.7731    141.3799     17.5900   -999.2500
   935.2500     28.5895    138.6363     19.3409   -999.2500
   935.5000     30.3773    136.3401     21.1045   -999.2500
   935.7500     32.0265    134.5621     22.7697   -999.2500
   936.0000     33.4502    133.3049     24.2385   -999.2500
   936.2500     34.5982    132.5069     25.4620   -999.2500
   936.5000     35.4604    132.0546     26.4443   -999.2500
   936.7500     36.0642    131.8010     27.2178   -999.2500
   937.0000     36.4620    131.5855     27.8251   -999.2500
   937.2500     36.7122    131.2537     28.3237   -999.2500
   937.5000     36.8640    130.6749     28.7943   -999.2500
   937.7500     36.9532    129.7566     29.3265   -999.2500
   938.0000     37.0001    128.4566     29.9883   -999.2500
   938.2500     37.0057    126.7921     30.8054   -999.2500
   938.5000     36.9474    124.8458     31.7683   -999.2500
   938.7500     36.7811    122.7661     33.9774   -999.2500
   939.0000     36.4489    120.7593     35.2739   -999.2500
   939.2500     35.8932    119.0728     36.6775   -999.2500
   939.5000     35.0759    117.9689     38.0720   -999.2500
   939.7500     33.9965    117.6925     39.1859   -999.2500
   940.0000     32.6995    118.4366     39.6312   -999.2500
   940.2500     31.2649    120.3135     39.0883   -999.2500
   940.5000     29.7791    123.3348     37.5066   -999.2500
   940.7500     28.2990    127.4054     35.1564   -999.2500
   941.0000     26.8346    132.3338     32.5015   -999.2500
   941.2500     25.3677    137.8555     30.0606   -999.2500
   941.5000     23.8895    143.6666     28.3599   -999.2500
   941.7500     22.4212    149.4607     27.9897   -999.2500
   942.0000     21.0074    154.9612     29.8296   -999.2500
   942.2500     19.6993    159.9430     34.3102   -999.2500
   942.5000     18.5434    164.2395     48.7593   -999.2500
   942.7500     17.5750    167.7355     97.1560   -999.2500
   943.0000     16.8146    170.3477   1944.4529   -999.2500
   943.2500     16.2648    172.0159 100000.0000   -999.2500
   943.5000     15.9079    172.6887 100000.0000   -999.2500
   943.7500     15.7047    172.3262 100000.0000   -999.2500
   944.0000     15.6008    170.9094 100000.0000   -999.2500
   944.2500     15.5416    168.4485 100000.0000   -999.2500
   944.5000     15.4870    164.9808 100000.0000   -999.2500
   944.7500     15.4167    160.5531 100000.0000   -999.2500
   945.0000     15.3285    155.1917 100000.0000   -999.2500
   945.2500     15.2354    148.8737   3594.8853   -999.2500
   945.5000     15.1579    141.5166 100000.0000   -999.2500
   945.7500     15.1083    133.0022 100000.0000   -999.2500
   946.0000     15.0637    123.2368 100000.0000   -999.2500
   946.2500     14.9289    112.2319 100000.0000   -999.2500
   946.5000     14.4948    100.1757 100000.0000   -999.2500
   946.7500     13.4447     87.4628 100000.0000   -999.2500
   947.0000     11.5082     74.6616 100000.0000   -999.2500
   947.2500      8.7375     62.4229 100000.0000   -999.2500
   947.5000      5.6439     51.3563 100000.0000   -999.2500
   947.7500      2.9455     41.9164 100000.0000   -999.2500
   948.0000      1.1071     34.3328 100000.0000   -999.2500
   948.2500      0.1294     28.6012 100000.0000   -999.2500
   948.5000     -0.2762     24.5284 100000.0000   -999.2500
   948.7500     -0.4074     21.8087 100000.0000   -999.2500
   949.0000     -0.4405     20.1023 100000.0000   -999.2500
   949.2500     -0.4470     19.0965 100000.0000   -999.2500
   949.5000   -999.2500     18.5396 100000.0000   -999.2500
   949.7500   -999.2500     18.2501   2693.5327   -999.2500
   950.0000   -999.2500     18.1087   1541.3702   -999.2500
   950.2500   -999.2500     18.0438   1234.3566   -999.2500
   950.5000   -999.2500     18.0158   1124.0188   -999.2500
   950.7500   -999.2500     18.0044   1083.4843   -999.2500
   951.0000   -999.2500   -999.2500   1069.7577   -999.2500
   951.2500   -999.2500   -999.2500   1065.6677   -999.2500
   951.5000   -999.2500   -999.2500   1064.6161   -999.2500
   951.7500   -999.2500   -999.2500 100000.0000   -999.2500
