~Version Information
VERS.                      2.0: CWLS Log ASCII Standard - VERSION 2.0
WRAP.                       NO: One line per depth step
~Well Information Block
STRT.FT                10.0000: 
STOP.FT              1044.5000: 
STEP.FT                 0.1000: 
NULL.                -999.2500: 
COMP.          Pioneer Natural Resources: COMPANY
WELL.          Stags Leap 13-30: WELL
FLD.           Purgatorie River: FIELD
LOC.           1813' FSL & 117' FWL: LOCATION
PROV.                 Colorado: PROVINCE
CNTY.               Las Animas: COUNTRY
SRVC.                Patterson: SERVICE COMPANY
DATE.          Fri Dec 09 09:46:17 2005: LOG DATE
UWI.                          : UNIQUE WELL ID
~Curve Information Block
DEPT.FT            0 000 00 00: Depth
DCAL.in                       : CDL Caliper
RHOB.g/cc                     : CDL Bulk Density
RHOC.g/cc                     : CDL Density Correction
DPOR.pu                       : CDL Density Porosity
GR.GAPI                       : Gamma Ray
NPOR.pu                       : Neutron Porosity
~Parameter Information Block
~A  Depth       DCAL        RHOB        RHOC        DPOR         GR         NPOR    
# ...
   826.0000      8.0018      2.2129     -0.0215     26.4913     96.9559     21.6502
   826.1000      8.0018      2.0993     -0.0147     33.3758     92.9242     20.4033
   826.2000      8.0018      1.9813     -0.1034     40.5294     92.2745     19.0472
   826.3000      8.0095      1.8778     -0.0863     46.7997     91.5882     17.5846
   826.4000      8.0095      1.8001     -0.0808     51.5114     87.6050     15.9873
   826.5000      8.0188      1.7480     -0.0879     54.6666     80.9773     14.6450
   826.6000      8.0188      1.7315     -0.0058     55.6638     75.3859     14.1497
   826.7000      8.0188      1.7663      0.0393     53.5602     73.6194     14.4802
   826.8000      8.0233      1.8572      0.1163     48.0513     74.3033     15.1914
   826.9000      8.0233      1.9878      0.2941     40.1330     75.9125     16.0165
   827.0000      8.0878      2.1288      0.2983     31.5860     78.8233     16.9173
   827.1000      8.0878      2.2625      0.3086     23.4863     82.9537     18.0841
   827.2000      8.0878      2.3785      0.2547     16.4534     86.5945     19.6421
   827.3000      8.0371      2.4667      0.2813     11.1083     86.8129     21.3505
   827.4000      8.0371      2.5176      0.2184      8.0237     84.4426     22.9119
   827.5000      7.9905      2.5316      0.1272      7.1781     84.0543     24.2205
   827.6000      7.9905      2.5290      0.0907      7.3307     86.8094     25.1940
   827.7000      7.9905      2.5295      0.0731      7.3041     90.4836     25.8538
   827.8000      7.9615      2.5312      0.0926      7.1993     93.3528     26.3767
   827.9000      7.9615      2.5318      0.0559      7.1620     95.3957     26.5586
   828.0000      7.9519      2.5442      0.0768      6.4113     95.9879     26.0962
   828.1000      7.9519      2.5762      0.1268      4.4709     93.6030     25.2975
   828.2000      7.9519      2.6148      0.1536      2.1352     90.6944     24.6127
   828.3000      7.9139      2.6369      0.1867      0.7969     91.2576     24.1903
   828.4000      7.9139      2.6311      0.1637      1.1470     95.2730     24.0568
   828.5000      7.9096      2.6083      0.1329      2.5270     99.3023     24.0558
   828.6000      7.9096      2.5899      0.0616      3.6425    101.1346     23.9158
   828.7000      7.9096      2.5817      0.0923      4.1389    101.1060     23.5968
   828.8000      7.9557      2.5698      0.1282      4.8584    100.3155     23.1478
   828.9000      7.9557      2.5505      0.0541      6.0328     99.8907     22.7067
   829.0000      7.9770      2.5368      0.0337      6.8599    102.2018     22.5066
   829.1000      7.9770      2.5284      0.0657      7.3672    107.1719     22.4417
   829.2000      7.9770      2.5138      0.0309      8.2552    110.7954     22.3509
   829.3000      8.0016      2.4973      0.0397      9.2521    112.2833     22.3597
   829.4000      8.0016      2.4919      0.0341      9.5834    113.0123     22.5638
   829.5000      8.0025      2.5046      0.0347      8.8115    111.5996     22.8646
   829.6000      8.0025      2.5306      0.0853      7.2353    108.4738     23.1927
   829.7000      8.0025      2.5490      0.0999      6.1223    107.4798     23.5932
   829.8000      8.0328      2.5480      0.0543      6.1819    108.5886     24.0444
   829.9000      8.0328      2.5393      0.0545      6.7090    109.3528     24.3700
   830.0000      8.0309      2.5279      0.0474      7.4002    110.2438     24.4982
   830.1000      8.0309      2.5091      0.0443      8.5399    112.0852     24.5254
   830.2000      8.0309      2.4929     -0.0174      9.5241    113.7566     24.5021
   830.3000      8.0225      2.4958      0.0046      9.3457    114.1230     24.4450
   830.4000      8.0225      2.5134      0.0396      8.2818    114.9012     24.3402
   830.5000      8.0190      2.5244      0.0341      7.6130    117.2634     24.2390
   830.6000      8.0190      2.5210      0.0172      7.8197    117.9473     24.4034
   830.7000      8.0190      2.5175     -0.0026      8.0308    115.5036     24.9219
   830.8000      8.0559      2.5298     -0.0101      7.2836    112.7444     25.5342
   830.9000      8.0559      2.5531      0.0272      5.8744    110.2088     26.0028
   831.0000      8.0479      2.5665      0.0706      5.0623    108.2560     26.2556
   831.1000      8.0479      2.5611      0.0450      5.3850    108.6297     26.4141
   831.2000      8.0479      2.5517      0.0078      5.9603    110.0047     26.7165
   831.3000      8.0446      2.5533      0.0085      5.8579    110.4709     27.2212
   831.4000      8.0446      2.5576      0.0630      5.6008    109.1951     27.5766
   831.5000      8.0389      2.5404      0.0505      6.6421    106.5456     27.2629
   831.6000      8.0389      2.4863      0.0289      9.9225    104.2237     26.2464
   831.7000      8.0389      2.3925     -0.0057     15.6063    101.7978     24.9625
   831.8000      8.0138      2.2611     -0.0202     23.5670     97.6627     23.6198
   831.9000      8.0138      2.1071     -0.1093     32.9030     93.6116     21.9693
   832.0000      8.0532      1.9589     -0.1408     41.8856     91.9368     19.9996
   832.1000      8.0532      1.8224     -0.1202     50.1556     91.6432     18.2107
   832.2000      8.0532      1.6855     -0.1265     58.4572     89.4674     16.6889
   832.3000      8.0839      1.5561     -0.1769     66.2994     84.6342     15.2522
   832.4000      8.0839      1.4575     -0.1639     72.2722     79.1754     14.1299
   832.5000      8.1365      1.3975     -0.0621     75.9070     73.3020     13.3244
   832.6000      8.1365      1.3627     -0.0289     78.0201     67.8415     12.6220
   832.7000      8.1365      1.3405     -0.0122     79.3625     64.5450     12.1296
   832.8000      8.0854      1.3262      0.0378     80.2296     61.1162     11.9865
   832.9000      8.0854      1.3155      0.0184     80.8771     55.5713     12.0113
   833.0000      8.0886      1.3087      0.0228     81.2885     50.2235     11.9413
   833.1000      8.0886      1.3092      0.0320     81.2579     47.6088     11.7526
   833.2000      8.0886      1.3199      0.0504     80.6114     47.5099     11.5334
   833.3000      8.1292      1.3430      0.0608     79.2130     48.5643     11.4499
   833.4000      8.1292      1.3811      0.0747     76.9026     49.3185     11.7923
   833.5000      8.1092      1.4407      0.0684     73.2918     49.0340     12.4591
   833.6000      8.1092      1.5298      0.0708     67.8897     49.7822     13.1213
   833.7000      8.1092      1.6484      0.1277     60.7025     54.1807     13.8752
   833.8000      8.1399      1.7809      0.2105     52.6723     60.4541     14.8753
   833.9000      8.1399      1.9055      0.2615     45.1216     64.6838     16.1788
   834.0000      8.2035      2.0158      0.2503     38.4346     66.4964     17.6466
   834.1000      8.2035      2.1205      0.2511     32.0901     67.5488     18.7748
   834.2000      8.2035      2.2161      0.2385     26.2940     70.2080     19.5922
   834.3000      8.0683      2.2908      0.1925     21.7717     77.0020     20.6654
   834.4000      8.0683      2.3439      0.1694     18.5511     87.5845     22.0182
   834.5000      8.0172      2.3796      0.1233     16.3861     98.3714     23.2247
   834.6000      8.0172      2.3992      0.1355     15.1978    106.0618     24.1476
   834.7000      8.0172      2.4100      0.0624     14.5460    110.0928     24.9255
   834.8000      7.9947      2.4236      0.0937     13.7231    111.8679     25.4310
   834.9000      7.9947      2.4383      0.0876     12.8304    111.8548     25.4542
   835.0000      8.0084      2.4437      0.1048     12.5035    110.6357     25.3194
   835.1000      8.0084      2.4385      0.0660     12.8163    109.5633     25.2083
   835.2000      8.0084      2.4366      0.0453     12.9323    107.9729     24.9618
   835.3000      8.0408      2.4545      0.1046     11.8511    106.3676     24.7964
   835.4000      8.0408      2.4905      0.1322      9.6677    106.9121     25.1022
   835.5000      7.9628      2.5274      0.1154      7.4332    108.4380     25.7213
