~Version Information
VERS.                      2.0: CWLS Log ASCII Standard - VERSION 2.0
WRAP.                       NO: One line per depth step
~Well Information Block
STRT.FT               880.0000: 
STOP.FT              1995.0000: 
STEP.FT                 0.2500: 
NULL.                -999.2500: 
COMP.          Petrogulf Corporation: COMPANY
WELL.          Collister 17-31R: WELL
FLD.           Purgatorie River: FIELD
LOC.           962' FNL & 1520' FEL: LOCATION
PROV.                 Colorado: PROVINCE
CNTY.               Las Animas: COUNTRY
SRVC.                Patterson: SERVICE COMPANY
DATE.          Mon Sep 26 09:32:26 2005: LOG DATE
UWI.                          : UNIQUE WELL ID
~Curve Information Block
DEPT.FT            0 000 00 00: Depth
SP.mV                         : DIL Spontaneous Potential
RILD.Ohm-m                    : DIL Deep Resistivity
RILM.Ohm-m                    : DIL Medium Resistivity
RLL3.Ohm-m                    : DIL Shallow Resistivity
GR.GAPI                       : Gamma Ray
~Parameter Information Block
~A  Depth        SP         RILD        RILM        RLL3         GR     
# ...
  1888.0000    132.0942     16.2226     19.8686     30.7830    137.4768
  1888.2500    131.8019     15.7217     19.2507     35.1935    124.6533
  1888.5000    131.5689     15.1034     17.6781     35.7527    125.6579
  1888.7500    131.4817     14.4222     16.1258     28.3267    123.0615
  1889.0000    131.5149     13.8696     14.6970     20.5126    133.1467
  1889.2500    131.6857     13.6086     13.7245     16.1427    124.3644
  1889.5000    131.8530     13.7326     12.8998     14.7391    120.1961
  1889.7500    132.0702     13.6454     12.5124     13.7482    136.1348
  1890.0000    132.2810     13.7380     12.1631     12.5325    152.5717
  1890.2500    132.6028     13.8239     12.3121     12.2099    139.0730
  1890.5000    133.0043     13.8643     12.4625     13.3309    172.5066
  1890.7500    133.5285     13.9843     12.7741     14.9792    162.1138
  1891.0000    134.1327     13.9257     13.1069     15.2476    174.3504
  1891.2500    134.8014     13.8772     13.8283     14.6374    153.5704
  1891.5000    135.4884     13.3909     14.6988     14.9803    155.2182
  1891.7500    136.3588     13.1715     15.6882     17.8653    141.3348
  1892.0000    137.6919     12.9465     16.0020     25.2530    153.7917
  1892.2500    139.3941     12.8767     15.6443     34.3952    171.9125
  1892.5000    141.1539     12.7026     15.0006     41.3472    174.0280
  1892.7500    142.7674     12.5256     13.6890     35.5687    140.1008
  1893.0000    144.3546     12.2983     12.4987     24.7589    126.5564
  1893.2500    145.8877     12.1405     11.8430     17.8700    113.6409
  1893.5000    147.3310     12.0528     11.2834     14.0591    117.5344
  1893.7500    148.7421     11.9749     10.9122     12.2817    110.7794
  1894.0000    150.2310     11.7199     10.6636     11.8508    116.0511
  1894.2500    151.5169     11.3323     10.4320     11.9778     98.8549
  1894.5000    152.5495     11.0023     10.1427     11.9919    121.2099
  1894.7500    153.5176     10.6330      9.7993     11.3045    124.3285
  1895.0000    154.4591     10.1189      9.5118     10.5237    134.7836
  1895.2500    155.1449      9.6799      9.1792      9.8465    135.7957
  1895.5000    155.8213      9.4440      8.8191      9.8752    157.0357
  1895.7500    156.2168      9.0937      8.7022      9.5886    158.2727
  1896.0000    156.5085      8.8964      8.5271      9.5940    187.5481
  1896.2500    156.7734      8.8056      8.3801      9.9811    191.4058
  1896.5000    156.9678      8.7281      8.2760     10.3143    208.4843
  1896.7500    157.1864      8.5716      8.2458     10.1815    186.0128
  1897.0000    157.1402      8.6048      8.2398     10.0022    183.7101
  1897.2500    157.0849      8.6641      8.2070     10.0212    165.4292
  1897.5000    157.2780      8.7127      8.2699     10.7014    162.1720
  1897.7500    157.4312      8.7159      8.3334     11.6793    165.6717
  1898.0000    157.5414      8.7545      8.3563     12.4018    159.5399
  1898.2500    157.5514      8.8212      8.5556     11.8416    150.1435
  1898.5000    157.4072      8.8586      8.7587     11.1825    122.2603
  1898.7500    156.8017      8.9013      9.0199     11.0659    119.7299
  1899.0000    156.2672      8.9809      9.2435     11.0343    129.1735
  1899.2500    155.7534      9.1827      9.4463     10.7590    128.2096
  1899.5000    154.8068      9.4004      9.4521     10.0770    114.2944
  1899.7500    152.1788      9.6701      9.3414      9.7178    101.4446
  1900.0000    148.3226      9.9784      9.3985      9.9585    122.7472
  1900.2500    146.1823     10.3515      9.5067     10.3840    144.4694
  1900.5000    144.4394     10.6995      9.7337     10.5182    126.4583
  1900.7500    142.8548     11.2046     10.0851     10.6089    139.9977
  1901.0000    141.5489     11.6423     10.7885     11.0053    147.7800
  1901.2500    140.5097     12.1394     11.6576     11.9756    163.5701
  1901.5000    139.7950     12.5695     12.7709     15.3076    144.2022
  1901.7500    139.1498     12.9715     14.0764     23.9911    152.5134
  1902.0000    138.5808     13.5727     15.1157     35.7178    128.2407
  1902.2500    138.1143     14.1587     15.8853     38.8093    117.3369
  1902.5000    137.5201     14.7527     16.1492     34.5050     67.9375
  1902.7500    136.9739     15.6401     16.0702     29.9296     55.6461
  1903.0000    136.5506     16.1358     16.6918     26.8569     36.5322
  1903.2500    136.4046     17.1968     17.3180     25.6937     33.7513
  1903.5000    136.2966     17.9663     18.6481     25.7457     26.6812
  1903.7500    136.1942     18.9412     19.9573     26.1294     37.9955
  1904.0000    136.0037     19.5561     21.4274     26.0037     50.1105
  1904.2500    135.6426     19.3948     22.7086     25.5067     40.3399
  1904.5000    135.4570     18.9006     23.5450     25.3377     17.7069
  1904.7500    135.4091     18.2864     23.6908     25.7824     20.0192
  1905.0000    135.4283     17.3194     23.2753     26.8584     25.6081
  1905.2500    135.2241     16.3157     22.1988     28.2151     32.7132
  1905.5000    135.0716     15.3150     20.6679     29.7493     27.0097
  1905.7500    135.0838     14.3569     19.1404     31.4823     23.8360
  1906.0000    135.5585     13.7443     16.9071     31.6077     33.5755
  1906.2500    136.0765     12.8929     14.8196     23.8757     25.6289
  1906.5000    136.6662     12.3207     13.0877     14.5858     30.1502
  1906.7500    137.2465     11.9657     11.9710     10.8563     43.3090
  1907.0000    137.9063     11.7104     10.9990      9.9749     74.0643
  1907.2500    138.7275     11.2661     10.5021      9.6916    110.5111
  1907.5000    139.7194     10.7901     10.0326      9.7911    135.6810
  1907.7500    141.0074     10.4545      9.7236      9.9322    144.6926
  1908.0000    142.3887     10.2485      9.4039      9.9934    148.2810
  1908.2500    143.7987      9.9598      9.2094      9.7734    146.4461
  1908.5000    145.0366      9.7661      9.0646      9.7267    142.4774
  1908.7500    146.1032      9.6276      8.9930      9.6531    126.8561
  1909.0000    147.1041      9.7091      8.9806      9.9604    123.1617
  1909.2500    148.1001      9.7602      9.0267     10.1536    128.3969
  1909.5000    149.2928      9.9198      9.1395     10.4383    128.1756
  1909.7500    150.7473     10.1757      9.2710     10.5527    154.9963
  1910.0000    152.1179     10.5608      9.5199     11.1445    170.5845
  1910.2500    153.2842     10.8478     10.0485     11.3223    152.3096
  1910.5000    154.3524     11.1209     10.6816     11.3065    123.3951
  1910.7500    155.5092     11.5081     11.5987     12.1250    118.3869
  1911.0000    156.6969     11.9251     12.5870     14.3005    110.8926
  1911.2500    157.6539     12.3522     13.5566     18.5051    127.6250
  1911.5000    158.6070     12.7977     14.1090     22.5015    138.1852
  1911.7500    159.7719     13.1498     14.4083     24.0784    136.3964
  1912.0000    161.0069     13.5601     14.4445     22.7300     99.0708
  1912.2500    162.3592     13.8909     14.3676     21.1988    103.3581
  1912.5000    163.4768     14.3562     14.4949     20.8635     89.5402
  1912.7500    164.6630     14.6750     14.8523     19.9141     80.7859
  1913.0000    165.6331     15.1245     15.1118     19.0647     73.6854
  1913.2500    166.4642     15.4949     15.0522     18.9012     80.4669
  1913.5000    166.6642     15.7952     15.3382     18.6515     66.9839
  1913.7500    166.4320     15.7333     15.1553     18.1426     53.5769
  1914.0000    166.0050     15.9229     15.3673     17.3347     41.6720
  1914.2500    166.0302     15.8470     15.3478     17.0022     36.9099
  1914.5000    166.1300     15.9302     15.5379     16.6583     48.1988
  1914.7500    166.3369     15.9733     15.4182     16.5610     55.9473
  1915.0000    166.5119     15.7628     15.5836     16.8291     47.0828
  1915.2500    167.1263     15.9251     15.9452     17.8549     44.9542
  1915.5000    167.9499     16.0077     16.0176     18.6462     44.8304
  1915.7500    169.0802     16.1214     16.4234     19.1346     47.5764
