~Version Information
VERS.                      2.0: CWLS Log ASCII Standard - VERSION 2.0
WRAP.                       NO: One line per depth step
~Well Information Block
STRT.FT               390.0000: 
STOP.FT              1434.5000: 
STEP.FT                 0.1000: 
NULL.                -999.2500: 
COMP.          Pioneer Natural Resources: COMPANY
WELL.             John K 12-28: WELL
FLD.           Purgatoire River: FIELD
LOC.           1476' FNL & 465' FWL: LOCATION
CNTY.               Las Animas: COUNTY
SRVC.                Patterson: SERVICE COMPANY
DATE.          Mon Apr 10 06:53:47 2006: LOG DATE
UWI.           05 071 08723 00: UNIQUE WELL ID
STAT.                 Colorado: STATE
~Curve Information Block
DEPT.FT            0 000 00 00: Depth
DCAL.in                       : CDL Caliper
RHOB.g/cc                     : CDL Bulk Density
RHOC.g/cc                     : CDL Density Correction
DPOR.pu                       : CDL Density Porosity
GR.GAPI                       : Gamma Ray
NPOR.pu                       : Neutron Porosity
~Parameter Information Block
~A  Depth       DCAL        RHOB        RHOC        DPOR         GR         NPOR    
# ...
  1426.8000      7.8239      2.5704      0.0457      4.8268   -999.2500   -999.2500
  1426.9000      7.8239      2.5838      0.0930      4.0143   -999.2500   -999.2500
  1427.0000      7.8270      2.5783      0.0876      4.3438   -999.2500   -999.2500
  1427.1000      7.8270      2.5550      0.0343      5.7585   -999.2500   -999.2500
  1427.2000      7.8270      2.5433      0.0197      6.4662   -999.2500   -999.2500
  1427.3000      7.8290      2.5575      0.0561      5.6038   -999.2500   -999.2500
  1427.4000      7.8290      2.5803      0.0452      4.2256   -999.2500   -999.2500
  1427.5000      7.8323      2.5951      0.0474      3.3293   -999.2500   -999.2500
  1427.6000      7.8323      2.5984      0.0731      3.1272   -999.2500   -999.2500
  1427.7000      7.8323      2.5952      0.0407      3.3242   -999.2500   -999.2500
  1427.8000      7.8384      2.5976      0.0406      3.1729   -999.2500   -999.2500
  1427.9000      7.8384      2.6078      0.0376      2.5566   -999.2500   -999.2500
  1428.0000      7.8446      2.6099      0.0827      2.4315   -999.2500   -999.2500
  1428.1000      7.8446      2.5945      0.0554      3.3651   -999.2500   -999.2500
  1428.2000      7.8446      2.5740      0.0336      4.6038   -999.2500   -999.2500
  1428.3000      7.8468      2.5595      0.0209      5.4842   -999.2500   -999.2500
  1428.4000      7.8468      2.5525      0.0090      5.9099   -999.2500   -999.2500
  1428.5000      7.8492      2.5541      0.0304      5.8148   -999.2500   -999.2500
  1428.6000      7.8492      2.5565      0.0222      5.6683   -999.2500   -999.2500
  1428.7000      7.8492      2.5465      0.0562      6.2721   -999.2500   -999.2500
  1428.8000      7.8554      2.5261      0.0395      7.5076   -999.2500   -999.2500
  1428.9000      7.8554      2.5134      0.0274      8.2809   -999.2500   -999.2500
  1429.0000      7.8632      2.5124      0.1034      8.3366   -999.2500   -999.2500
  1429.1000      7.8632      2.5117      0.0494      8.3816   -999.2500   -999.2500
  1429.2000      7.8632      2.5123      0.0675      8.3442   -999.2500   -999.2500
  1429.3000      7.8684      2.5156      0.1075      8.1478   -999.2500   -999.2500
  1429.4000      7.8684      2.5119      0.0539      8.3674   -999.2500   -999.2500
  1429.5000      7.8627      2.4988      0.0485      9.1606   -999.2500   -999.2500
  1429.6000      7.8627      2.4764      0.0288     10.5197   -999.2500   -999.2500
  1429.7000      7.8627      2.4495      0.0459     12.1523   -999.2500   -999.2500
  1429.8000      7.8548      2.4346      0.0318     13.0562   -999.2500   -999.2500
  1429.9000      7.8548      2.4408      0.0868     12.6775   -999.2500   -999.2500
  1430.0000      7.8556      2.4622      0.0665     11.3834   -999.2500   -999.2500
  1430.1000      7.8556      2.4973      0.0469      9.2530   -999.2500   -999.2500
  1430.2000      7.8556      2.5390      0.1170      6.7297   -999.2500   -999.2500
  1430.3000      7.8595      2.5655      0.1454      5.1237   -999.2500   -999.2500
  1430.4000      7.8595      2.5787      0.1044      4.3219   -999.2500   -999.2500
  1430.5000      7.8562      2.6027      0.1160      2.8693   -999.2500   -999.2500
  1430.6000      7.8562      2.6362      0.1724      0.8362   -999.2500   -999.2500
  1430.7000      7.8562      2.6599      0.1382     -0.6004   -999.2500   -999.2500
  1430.8000      7.8303      2.6708      0.1231     -1.2631   -999.2500   -999.2500
  1430.9000      7.8303      2.6653      0.1579     -0.9281   -999.2500   -999.2500
  1431.0000      7.7762      2.6341      0.0512      0.9655   -999.2500   -999.2500
  1431.1000      7.7762      2.5875      0.0199      3.7855   -999.2500   -999.2500
  1431.2000      7.7762      2.5457      0.0075      6.3202   -999.2500   -999.2500
  1431.3000      7.7257      2.5229     -0.0466      7.7032   -999.2500   -999.2500
  1431.4000      7.7257      2.5197      0.0146      7.8957   -999.2500   -999.2500
  1431.5000      7.6634      2.5406      0.0093      6.6283   -999.2500   -999.2500
  1431.6000      7.6634      2.6271     -0.0267      1.3907   -999.2500   -999.2500
  1431.7000      7.6634      2.6763      0.0070     -1.5913   -999.2500   -999.2500
  1431.8000      7.2518      2.2571      0.5392     23.8095   -999.2500   -999.2500
  1431.9000      7.2518      1.2884      0.0000     82.5241   -999.2500   -999.2500
  1432.0000      5.5306      0.4381      0.0000    134.0566   -999.2500   -999.2500
  1432.1000      5.5306      0.0833   -999.2500    155.5576   -999.2500   -999.2500
  1432.2000      5.5306      0.0086   -999.2500    160.0853   -999.2500   -999.2500
  1432.3000      2.7389      0.0005   -999.2500    160.5778   -999.2500   -999.2500
  1432.4000      2.7389      0.0000   -999.2500    160.6061   -999.2500   -999.2500
  1432.5000      1.0541      0.0000   -999.2500    160.6061   -999.2500   -999.2500
  1432.6000      1.0541   -999.2500   -999.2500   -999.2500   -999.2500   -999.2500
  1432.7000      1.0541   -999.2500   -999.2500   -999.2500   -999.2500   -999.2500
  1432.8000      0.6788   -999.2500   -999.2500   -999.2500   -999.2500   -999.2500
  1432.9000      0.6788   -999.2500   -999.2500   -999.2500   -999.2500   -999.2500
  1433.0000      0.6480   -999.2500   -999.2500   -999.2500   -999.2500   -999.2500
  1433.1000      0.6480   -999.2500   -999.2500   -999.2500   -999.2500   -999.2500
  1433.2000      0.6480   -999.2500   -999.2500   -999.2500   -999.2500   -999.2500
  1433.3000   -999.2500   -999.2500   -999.2500   -999.2500   -999.2500   -999.2500
  1433.4000   -999.2500   -999.2500   -999.2500   -999.2500   -999.2500   -999.2500
  1433.5000   -999.2500   -999.2500   -999.2500   -999.2500   -999.2500   -999.2500
  1433.6000   -999.2500   -999.2500   -999.2500   -999.2500   -999.2500   -999.2500
  1433.7000   -999.2500   -999.2500   -999.2500   -999.2500   -999.2500   -999.2500
  1433.8000   -999.2500   -999.2500   -999.2500   -999.2500   -999.2500   -999.2500
  1433.9000   -999.2500   -999.2500   -999.2500   -999.2500   -999.2500   -999.2500
  1434.0000   -999.2500   -999.2500   -999.2500   -999.2500   -999.2500   -999.2500
  1434.1000   -999.2500   -999.2500   -999.2500   -999.2500   -999.2500   -999.2500
  1434.2000   -999.2500   -999.2500   -999.2500   -999.2500   -999.2500   -999.2500
  1434.3000   -999.2500   -999.2500   -999.2500   -999.2500   -999.2500   -999.2500
  1434.4000   -999.2500   -999.2500   -999.2500   -999.2500   -999.2500   -999.2500
  1434.5000   -999.2500   -999.2500   -999.2500   -999.2500   -999.2500   -999.2500
