~Version Information
VERS.                      2.0: CWLS Log ASCII Standard - VERSION 2.0
WRAP.                       NO: One line per depth step
~Well Information Block
STRT.FT               880.0000: 
STOP.FT              1995.0000: 
STEP.FT                 0.2500: 
NULL.                -999.2500: 
COMP.          Petrogulf Corporation: COMPANY
WELL.          Collister 17-31R: WELL
FLD.           Purgatorie River: FIELD
LOC.           962' FNL & 1520' FEL: LOCATION
PROV.                 Colorado: PROVINCE
CNTY.               Las Animas: COUNTRY
SRVC.                Patterson: SERVICE COMPANY
DATE.          Mon Sep 26 09:32:26 2005: LOG DATE
UWI.                          : UNIQUE WELL ID
~Curve Information Block
DEPT.FT            0 000 00 00: Depth
SP.mV                         : DIL Spontaneous Potential
RILD.Ohm-m                    : DIL Deep Resistivity
RILM.Ohm-m                    : DIL Medium Resistivity
RLL3.Ohm-m                    : DIL Shallow Resistivity
GR.GAPI                       : Gamma Ray
~Parameter Information Block
~A  Depth        SP         RILD        RILM        RLL3         GR     
# ...
  1468.0000    299.9910     12.2457     14.2747     20.9514     61.6939
  1468.2500    299.9911     11.8139     12.4476     15.0904     81.3415
  1468.5000    299.9911     11.4214     11.1178     10.4120     88.1665
  1468.7500    299.9911     11.0797     10.1155      8.7854    103.8034
  1469.0000    299.9911     10.8228      9.5087      9.0973    131.7996
  1469.2500    299.9911     10.7432      9.1545      9.4529    127.0503
  1469.5000    299.9911     10.8207      8.9055      9.1436    155.6544
  1469.7500    299.9911     10.8669      8.9149      8.9528    145.8563
  1470.0000    299.9911     10.8034      9.1291      8.5271    132.3196
  1470.2500    299.9911     10.8309      9.4781      9.4707    149.6524
  1470.5000    299.9911     10.9646     10.2668     13.1492    135.8100
  1470.7500    299.9911     11.3041     11.2168     18.8706    139.7254
  1471.0000    299.9911     11.5056     12.4693     22.2478    138.1017
  1471.2500    299.9911     11.7319     13.6869     25.7230    108.6059
  1471.5000    299.9911     11.8793     15.2370     38.9537    128.8539
  1471.7500    299.9911     12.0813     16.5402     63.6575    117.1309
  1472.0000    299.9911     12.4604     17.2603     80.8562     90.9907
  1472.2500    299.9911     12.8671     17.6330     75.8698     86.9477
  1472.5000    299.9911     13.2463     17.4115     55.3473     85.1088
  1472.7500    299.9911     13.3380     16.7686     35.8968     74.7206
  1473.0000    299.9911     13.3999     15.6333     24.9285     86.6420
  1473.2500    299.9911     13.2477     14.6240     18.8323     98.1212
  1473.5000    299.9911     13.3989     13.3078     15.1594    114.5590
  1473.7500    299.9911     13.4908     12.3355     12.5537    107.5520
  1474.0000    299.9911     13.6245     11.6337     11.1093    123.3639
  1474.2500    299.9911     13.5527     11.2960     10.8136    137.8156
  1474.5000    299.9911     13.6700     11.2001     10.3628    164.0707
  1474.7500    299.9911     13.7551     11.5182     10.5063    134.8001
  1475.0000    299.9911     13.6237     11.9689     11.0104    143.8368
  1475.2500    299.9911     13.5303     12.6686     12.0696    148.8530
  1475.5000    299.9911     13.4209     13.7605     14.9971    176.9670
  1475.7500    299.9911     13.4557     14.9888     22.3250    175.8469
  1476.0000    299.9911     13.4354     16.4694     33.3689    147.4204
  1476.2500    299.9911     13.7588     17.6430     46.1623    131.1158
  1476.5000    299.9911     13.8507     18.5271     63.4722    100.6725
  1476.7500    299.9911     14.2459     18.9815     75.4966     97.1623
  1477.0000    299.9911     14.7585     18.9628     71.7606     99.9552
  1477.2500    299.9911     15.3767     18.8184     52.4727     89.4129
  1477.5000    299.9911     16.2397     18.5782     31.2282     90.2188
  1477.7500    299.9911     17.1046     17.9015     20.0507     83.6687
  1478.0000    299.9911     17.8997     17.6075     17.2107     86.6672
  1478.2500    299.9911     18.5864     17.4932     16.8010     97.1814
  1478.5000    299.9911     18.7037     17.4350     14.8414    109.0863
  1478.7500    299.9911     18.6248     17.7644     14.2781    100.9923
  1479.0000    299.9911     18.6727     18.1094     17.2081    119.3152
  1479.2500    299.9911     18.0862     18.8720     21.4354    134.9653
  1479.5000    299.9908     17.7499     19.3385     24.5260    118.3278
  1479.7500    299.8648     17.4922     19.6520     27.2791    107.1383
  1480.0000    298.8381     17.8671     19.4180     28.8689    114.5758
  1480.2500    297.8721     18.3600     19.3207     26.4500    111.1499
  1480.5000    296.7870     18.1529     19.8304     22.1067     80.6679
  1480.7500    295.8408     18.9157     21.0687     20.3857     96.0092
  1481.0000    295.0921     19.9066     22.4344     23.9926    104.0591
  1481.2500    294.3881     20.8898     23.8192     31.1669    112.4884
  1481.5000    293.9296     21.6771     25.8207     39.2477    116.1242
  1481.7500    293.8415     22.6530     28.0149     43.9771    108.6119
  1482.0000    293.9119     23.4238     28.9355     49.2166     81.1126
  1482.2500    294.1763     24.0420     30.7633     60.7375     87.6861
  1482.5000    294.3337     24.0746     31.8573     65.6889     79.2809
  1482.7500    294.5573     24.4573     31.8645     53.0117     89.6122
  1483.0000    294.8612     24.5537     32.6391     39.3355     83.6404
  1483.2500    294.9468     24.7742     32.9280     35.3693     97.5582
  1483.5000    294.9423     24.5951     31.6282     38.2786     92.0919
  1483.7500    295.0012     24.7556     32.7531     44.6890     97.4960
  1484.0000    295.3781     24.6417     32.5360     50.6734     77.0633
  1484.2500    296.1358     24.2725     30.6716     42.7920     72.2106
  1484.5000    296.9176     23.6266     28.8500     28.3165     89.6198
  1484.7500    297.6008     22.8354     28.3657     23.9649     80.9599
  1485.0000    298.3825     22.7557     26.5043     29.2512     95.5961
  1485.2500    299.0916     21.8539     25.8857     33.8264    119.8375
  1485.5000    299.8778     21.2258     24.9423     26.1581    105.8781
  1485.7500    299.9889     20.3047     24.0790     19.4794    101.4285
  1486.0000    299.9911     20.0852     22.9745     19.6622    105.1817
  1486.2500    299.9911     19.2342     21.8743     26.7951    114.3981
  1486.5000    299.9911     18.8556     20.9897     38.3538    131.4341
  1486.7500    299.9911     18.8951     19.8711     36.2319    124.5833
  1487.0000    299.9911     19.0667     18.2491     24.4756    121.7907
  1487.2500    299.9911     19.4034     17.3587     16.3945    114.1643
  1487.5000    299.9911     19.3458     17.4801     13.5627    105.6303
  1487.7500    299.9911     19.0073     18.0123     13.7411    113.6626
  1488.0000    299.9911     18.3406     19.4926     16.1991    147.0483
  1488.2500    299.9911     17.5908     20.9209     23.8730    144.8914
  1488.5000    299.9911     17.4760     21.9165     36.8741    123.7006
  1488.7500    299.9911     16.4760     22.5569     48.3225    121.5860
  1489.0000    299.9911     15.7413     21.5776     46.1580    118.0041
  1489.2500    299.9911     15.2343     20.0749     37.2873    116.4189
  1489.5000    299.9911     14.8768     18.1522     28.8528     97.6786
  1489.7500    299.9911     14.3183     16.7775     23.1453     91.0231
  1490.0000    299.9911     14.4264     15.4126     17.8336     91.7427
  1490.2500    299.9911     14.5701     14.3260     14.3064     97.5935
  1490.5000    299.9911     14.4548     13.3703     11.9540    109.2862
  1490.7500    299.9911     14.2106     13.0013     10.3234    123.0212
  1491.0000    299.9911     13.7700     12.7255     10.0216    139.3839
  1491.2500    299.9911     13.1555     12.7418     11.7012    134.1036
  1491.5000    299.9911     12.5543     12.6716     14.8415    123.4732
  1491.7500    299.9911     12.0907     12.3457     18.3456    128.2148
  1492.0000    299.9911     11.5835     11.8737     16.8545    126.2887
  1492.2500    299.9911     11.0928     11.2879     13.7055    109.6313
  1492.5000    299.9911     10.7454     10.6009     11.9748     98.9413
  1492.7500    299.9911     10.6176     10.0411     11.1027    107.5249
  1493.0000    299.9911     10.3885      9.8370     10.6840    128.4656
  1493.2500    299.9911     10.4896      9.6558     10.7990    134.0201
  1493.5000    299.9911     10.6166      9.5508     11.1548    133.9467
  1493.7500    299.9911     10.7891      9.5157     11.1164    142.0565
  1494.0000    299.9911     10.8840      9.4527     10.7708    150.8253
  1494.2500    299.9911     10.9709      9.6542     10.7313    161.1359
  1494.5000    299.9911     11.1746      9.8278     10.5325    159.0162
  1494.7500    299.9911     11.5458     10.2473     10.9175    149.2224
  1495.0000    299.9911     11.8797     10.6498     12.8600    144.1002
  1495.2500    299.9911     11.9703     11.3398     15.0583    156.8801
  1495.5000    299.9911     12.1982     12.1054     15.5697    145.4473
  1495.7500    299.9911     12.3954     13.1126     16.8068    149.2437
