~Version Information
 VERS.                                  2.0 : CWLS LAS VERSION
 WRAP.                                   NO : WRAPING MODE
 SWARE .                 MController 2.5.0J : SOFTWARE VERSION
~Well Information
 WELL.                   Stock Canyon 34-33 : WELL
 COMP.   Pioneer Natrural Resources USA Inc : COMPANY
 FLD.                      Purgatoire River : FIELD
 LOC.                 SW/SE SEC33 T31S R65W : LOCATION
 DATE.                             12/04/05 : DATE(S) LOGGED
 SRVC.       Blanco Geological Services LLC : SERVICE COMPANY
 STAT.                             Colorado : STATE
 CNTY.                           Las Animas : COUNTY
 CTRY.                                  USA : COUNTRY
 API.                       05-071-08601-00 : API NUMBER
 STRT.FT                             618.00 : START DEPTH
 STOP.FT                            1661.00 : STOP DEPTH
 STEP.FT                               1.00 : DEPTH INCREMENT
 NULL.                                -9999 : NULL VALUE
~Curve information
 DEPTH.FT                                   :
 ROP.MIN/FT                                 :
 GAS.UNITS                                  :
~ASCII Log data
       618.0     -9999.00          0.8 
       619.0         0.77          6.4 
       620.0         0.80         26.1 
       621.0         0.75         47.3 
       622.0         1.07        227.1 
       623.0         0.82        237.3 
       624.0         1.60        202.6 
       625.0         1.03         15.8 
       626.0         0.45          2.5 
       627.0         1.37          3.2 
       628.0         0.30          3.7 
       629.0         0.80          3.2 
       630.0         0.20          2.5 
       631.0         0.92          2.5 
       632.0         0.63          2.9 
       633.0         0.53          2.2 
       634.0         0.53          2.4 
       635.0         0.53          2.6 
       636.0         0.27          2.3 
       637.0         0.82          2.6 
       638.0         0.53          2.6 
       639.0         0.27          2.7 
       640.0         0.53          2.9 
       641.0         1.07          2.5 
       642.0         0.55          2.8 
       643.0         0.53          3.1 
       644.0         0.80          3.2 
       645.0         0.53          3.2 
       646.0         0.53          3.2 
       647.0         0.53          3.1 
       648.0         0.82          3.0 
       649.0         0.80          3.4 
       650.0         0.27          3.4 
       651.0         0.53          3.2 
       652.0         0.27          3.3 
       653.0         0.53          3.5 
       654.0         0.55          3.4 
       655.0         1.33          3.7 
       656.0         0.27          4.0 
       657.0         0.53          3.8 
       658.0         0.53          3.9 
       659.0         0.27          3.7 
       660.0         0.27          3.5 
       661.0         0.55          3.7 
       662.0         0.80          4.3 
       663.0         0.27          3.9 
       664.0         0.53          4.0 
       665.0         0.53          4.3 
       666.0         0.27          4.2 
       667.0         0.55          4.5 
       668.0         0.80          4.4 
       669.0         0.53          4.0 
       670.0         0.53          4.7 
       671.0         0.53          4.0 
       672.0         0.27          4.7 
       673.0         0.27          4.0 
       674.0         0.55          4.1 
       675.0         0.80          4.3 
       676.0         0.27          4.8 
       677.0         0.27          4.1 
       678.0         0.27          4.0 
       679.0         0.53          4.2 
       680.0         0.80          4.3 
       681.0         0.55          4.4 
       682.0         0.53          4.2 
       683.0         0.27          4.9 
       684.0         0.80          5.1 
       685.0         1.07          5.1 
       686.0         0.55          5.8 
       687.0         0.53          5.7 
       688.0         0.90          4.9 
       689.0         0.80          5.2 
       690.0         0.53          5.1 
       691.0         0.82          5.0 
       692.0         0.27          4.8 
       693.0         0.53          5.4 
       694.0         0.27          5.8 
       695.0         0.53          5.5 
       696.0         0.53          4.9 
       697.0         0.53          5.8 
       698.0         0.10          5.4 
       699.0         0.05          5.5 
       700.0         0.37          5.4 
       701.0         0.07          5.4 
       702.0         0.53          5.5 
       703.0         0.37          5.4 
       704.0         0.53          6.4 
       705.0         0.80         15.0 
       706.0         0.82         12.3 
       707.0         3.32          7.2 
       708.0         8.43         15.6 
       709.0         0.37          6.7 
       710.0         0.07          6.3 
       711.0         0.23          7.5 
       712.0         0.27         15.3 
       713.0         0.13         15.3 
       714.0         0.27         16.9 
       715.0         0.42         14.3 
       716.0         0.27         11.6 
       717.0         0.27          8.8 
       718.0         0.50          8.4 
       719.0         0.23          7.1 
       720.0         0.20          7.0 
       721.0         0.20          6.7 
       722.0         0.20          6.6 
       723.0         0.20          6.6 
       724.0         0.17          7.7 
       725.0         0.17          7.2 
       726.0         0.23          7.4 
       727.0         0.10          7.2 
       728.0         0.13          7.5 
       729.0         0.20          8.7 
       730.0         0.18          7.7 
       731.0         0.17          7.7 
       732.0         0.17          8.6 
       733.0         0.23          8.3 
       734.0         0.17          8.3 
       735.0         0.17          7.9 
       736.0         0.17          7.9 
       737.0         0.20          8.0 
       738.0         0.27          8.7 
       739.0         0.17          8.0 
       740.0         0.17          7.3 
       741.0         0.13          7.3 
       742.0         0.23          7.4 
       743.0         0.20          7.0 
       744.0         0.23          7.3 
       745.0         2.62         38.1 
       746.0         0.20          9.6 
       747.0         0.23          9.1 
       748.0         0.23         10.8 
       749.0         0.17         13.3 
       750.0         0.17         16.2 
       751.0         0.13         16.2 
       752.0         0.22         18.7 
       753.0         0.13         21.2 
       754.0         0.13         24.5 
       755.0         0.13         24.5 
       756.0         0.20         25.8 
       757.0         0.17         27.1 
       758.0         0.17         27.6 
       759.0         0.13         27.8 
       760.0         0.17         28.7 
       761.0         0.17         28.7 
       762.0         0.23         29.2 
       763.0         0.20         28.2 
       764.0         0.20         27.2 
       765.0         0.23         26.0 
       766.0         0.23         26.0 
       767.0         0.20         24.3 
       768.0         0.23         21.0 
       769.0         0.23         22.2 
       770.0         0.25         36.4 
       771.0         0.23         42.9 
       772.0         0.23         79.0 
       773.0         0.27         89.1 
       774.0         0.27        126.2 
       775.0        10.12        191.5 
       776.0         1.43        123.7 
       777.0         0.33         36.3 
       778.0         0.27         32.3 
       779.0         0.25         27.9 
       780.0         0.20         27.2 
       781.0         0.23         27.5 
       782.0         0.27         27.0 
       783.0         0.23         25.9 
       784.0         0.20         26.0 
       785.0         0.27         26.1 
       786.0         0.23         26.5 
       787.0         0.20         26.0 
       788.0         0.20         26.0 
       789.0         0.20         24.7 
       790.0         0.17         22.6 
       791.0         0.20         23.4 
       792.0         0.20         20.0 
       793.0         0.20         18.2 
       794.0         0.22         17.7 
       795.0         0.17         17.7 
       796.0         0.20         18.0 
       797.0         0.17         20.1 
       798.0         0.20         20.9 
       799.0         0.23         19.6 
       800.0         0.17         22.6 
       801.0         0.13         22.6 
       802.0         0.13         26.4 
       803.0         0.13         31.4 
       804.0         0.13         41.1 
       805.0         0.27         60.3 
       806.0         1.88        159.0 
       807.0         0.27         52.7 
       808.0         0.13         43.4 
       809.0         0.13         38.6 
       810.0         0.13         35.0 
       811.0         0.17         35.0 
       812.0         0.23         33.5 
       813.0         0.27         31.3 
       814.0         0.30         30.1 
       815.0         0.30         29.1 
       816.0         0.27         29.9 
       817.0         0.23         30.9 
