~Version Information
VERS.                      2.0: CWLS Log ASCII Standard - VERSION 2.0
WRAP.                       NO: One line per depth step
~Well Information Block
STRT.FT               240.0000: 
STOP.FT              1456.0000: 
STEP.FT                 0.1000: 
NULL.                -999.2500: 
COMP.          Pioneer Natural Resources: COMPANY
WELL.              Darren 11-7: WELL
FLD.           Purgatoire River: FIELD
LOC.           230' FNL & 596' FWL: LOCATION
CNTY.               Las Animas: COUNTY
SRVC.                Patterson: SERVICE COMPANY
DATE.          Mon Mar 20 07:16:06 2006: LOG DATE
UWI.           05 071 08720 00: UNIQUE WELL ID
STAT.                 Colorado: STATE
~Curve Information Block
DEPT.FT            0 000 00 00: Depth
DCAL.in                       : CDL Caliper
RHOB.g/cc                     : CDL Bulk Density
RHOC.g/cc                     : CDL Density Correction
DPOR.pu                       : CDL Density Porosity
GR.GAPI                       : Gamma Ray
NPOR.pu                       : Neutron Porosity
~Parameter Information Block
~A  Depth       DCAL        RHOB        RHOC        DPOR         GR         NPOR    
# ...
   316.8000      8.0584      2.3909     -0.0431     15.7050     71.0195     22.9527
   316.9000      8.0584      2.3906      0.0537     15.7212     65.4172     22.4000
   317.0000      8.0727      2.4218      0.1060     13.8326     66.7738     21.9527
   317.1000      8.0727      2.4536      0.0730     11.9052     72.5169     21.6078
   317.2000      8.0727      2.4564      0.0926     11.7308     77.3573     21.1927
   317.3000      8.1319      2.4291      0.0110     13.3905     76.3210     20.6338
   317.4000      8.1319      2.3935      0.0281     15.5427     71.3326     19.9050
   317.5000      8.1474      2.3559      0.0264     17.8259     70.4424     19.0174
   317.6000      8.1474      2.3050     -0.0358     20.9101     73.9255     17.9692
   317.7000      8.1474      2.2387      0.0115     24.9259     74.2163     16.7911
   317.8000      8.1716      2.1556     -0.0257     29.9641     71.0868     15.9653
   317.9000      8.1716      2.0564     -0.0585     35.9745     69.2857     15.9126
   318.0000      8.1693      1.9517     -0.0747     42.3240     68.7255     16.1927
   318.1000      8.1693      1.8517     -0.0647     48.3824     68.3206     16.1732
   318.2000      8.1693      1.7576     -0.1007     54.0865     66.7010     15.9560
   318.3000      8.1406      1.6658     -0.1004     59.6462     63.5306     16.1076
   318.4000      8.1406      1.5805     -0.1419     64.8203     60.9422     16.7670
   318.5000      8.1061      1.5092     -0.0850     69.1378     59.0688     17.3782
   318.6000      8.1061      1.4539     -0.0880     72.4885     57.5745     17.7691
   318.7000      8.1061      1.4200     -0.0735     74.5432     58.1032     18.2806
   318.8000      8.0941      1.4123     -0.0360     75.0138     58.7790     18.8727
   318.9000      8.0941      1.4231     -0.0028     74.3581     56.9319     19.0517
   319.0000      8.1195      1.4392      0.0323     73.3806     55.1701     18.5548
   319.1000      8.1195      1.4524      0.0171     72.5839     56.8690     17.6926
   319.2000      8.1195      1.4619      0.0299     72.0050     62.3012     17.1441
   319.3000      8.1039      1.4685      0.0360     71.6060     67.9644     17.3806
   319.4000      8.1039      1.4740     -0.0002     71.2704     70.1608     18.0073
   319.5000      8.0739      1.4818      0.0755     70.7975     68.1991     18.2860
   319.6000      8.0739      1.4905      0.0608     70.2746     63.9633     18.2823
   319.7000      8.0739      1.4956      0.1030     69.9644     59.5519     18.3563
   319.8000      8.0840      1.4897      0.1176     70.3184     56.7055     18.2804
   319.9000      8.0840      1.4727      0.0977     71.3488     56.7463     17.9721
   320.0000      8.0446      1.4628      0.0865     71.9538     58.5929     18.1209
   320.1000      8.0446      1.4765      0.0936     71.1234     60.6130     18.9944
   320.2000      8.0446      1.5101      0.0806     69.0859     63.6513     19.7905
   320.3000      8.0133      1.5527      0.0736     66.5054     66.3169     19.8937
   320.4000      8.0133      1.5985      0.0701     63.7285     64.9154     19.7615
   320.5000      8.0311      1.6458      0.0922     60.8616     64.1604     19.8586
   320.6000      8.0311      1.6972      0.1044     57.7452     70.7390     19.7990
   320.7000      8.0311      1.7537      0.1666     54.3235     79.6560     19.4643
   320.8000      8.0378      1.8076      0.1417     51.0573     82.9289     19.2276
   320.9000      8.0378      1.8421      0.1707     48.9624     83.9207     19.1905
   321.0000      8.0797      1.8387      0.1011     49.1722     87.6089     19.3381
   321.1000      8.0797      1.7966      0.1350     51.7233     89.2273     19.7953
   321.2000      8.0797      1.7398      0.0833     55.1645     87.4189     20.2798
   321.3000      8.0488      1.6957      0.1220     57.8391     88.8508     20.6754
   321.4000      8.0488      1.6677      0.1489     59.5311     96.7272     21.3807
   321.5000      8.0574      1.6538      0.0627     60.3758    104.1713     22.2872
   321.6000      8.0574      1.6641      0.0205     59.7507    103.5810     22.8399
   321.7000      8.0574      1.7002      0.0377     57.5620    101.0278     22.7744
   321.8000      8.1177      1.7551      0.0701     54.2366    103.6424     22.4628
   321.9000      8.1177      1.8249      0.1081     50.0045    106.8253     22.2951
   322.0000      8.1076      1.8994      0.1506     45.4909    107.1455     22.1595
   322.1000      8.1076      1.9595      0.1723     41.8474    106.9567     21.9718
   322.2000      8.1076      1.9908      0.1390     39.9521    107.6276     21.6415
   322.3000      8.1219      1.9894      0.1360     40.0368    109.9301     21.1548
   322.4000      8.1219      1.9572      0.1085     41.9849    113.8813     20.7155
   322.5000      8.1512      1.9009     -0.0270     45.4011    115.7535     20.5189
   322.6000      8.1512      1.8272      0.0364     49.8678    112.7184     20.3851
   322.7000      8.1512      1.7486     -0.0849     54.6298    106.2541     19.8412
   322.8000      8.1580      1.6908     -0.0319     58.1336     97.0924     18.9074
   322.9000      8.1580      1.6653     -0.0064     59.6787     87.7407     18.0135
   323.0000      8.1731      1.6696      0.0036     59.4175     83.9475     17.3437
   323.1000      8.1731      1.6986      0.1127     57.6610     85.0469     16.9359
   323.2000      8.1731      1.7430      0.1011     54.9725     84.5727     16.7247
   323.3000      8.1442      1.8022      0.1182     51.3830     81.9053     16.6162
   323.4000      8.1442      1.8710      0.1988     47.2101     80.5572     16.5207
   323.5000      8.1518      1.9295      0.2501     43.6657     78.4347     16.1802
   323.6000      8.1518      1.9696      0.2872     41.2358     75.0199     15.5702
   323.7000      8.1518      1.9999      0.3036     39.4014     73.4051     15.1397
   323.8000      8.1726      2.0238      0.2793     37.9531     72.2863     14.9065
   323.9000      8.1726      2.0289      0.2590     37.6454     71.0517     14.7912
   324.0000      8.1478      1.9965      0.2168     39.6035     71.3246     15.1724
   324.1000      8.1478      1.9292      0.1169     43.6857     70.1429     15.8836
   324.2000      8.1478      1.8681     -0.0164     47.3880     65.9006     16.4461
   324.3000      8.1484      1.8485      0.1735     48.5741     63.4183     16.9641
   324.4000      8.1484      1.8482      0.2335     48.5915     65.1232     17.5934
   324.5000      8.1642      1.8335      0.2631     49.4836     67.6491     18.3220
   324.6000      8.1642      1.8111      0.1954     50.8435     68.4052     19.1531
   324.7000      8.1642      1.8145      0.1354     50.6392     68.3564     20.2179
   324.8000      8.1798      1.8661      0.1161     47.5101     67.7850     21.7992
   324.9000      8.1798      1.9591      0.1307     41.8732     64.7421     23.7090
   325.0000      8.1641      2.0745      0.1306     34.8804     58.1617     25.2682
   325.1000      8.1641      2.2018      0.1854     27.1619     50.1726     26.2194
   325.2000      8.1641      2.3298      0.2682     19.4082     44.1240     26.7884
   325.3000      8.1223      2.4411      0.2801     12.6610     41.4593     27.0336
   325.4000      8.1223      2.5264      0.2731      7.4927     42.4531     26.8987
   325.5000      8.1004      2.5816      0.2492      4.1431     44.9216     26.5415
   325.6000      8.1004      2.6061      0.2023      2.6579     46.4890     26.1873
   325.7000      8.1004      2.6026      0.1410      2.8729     48.1896     25.9140
   325.8000      8.0199      2.5696      0.0549      4.8732     51.5349     25.6326
   325.9000      8.0199      2.5175     -0.0168      8.0333     58.4943     25.2561
   326.0000      8.0339      2.4740     -0.0028     10.6666     68.9780     24.8570
   326.1000      8.0339      2.4492     -0.0131     12.1727     78.5662     24.6158
   326.2000      8.0339      2.4235      0.0346     13.7246     85.0331     24.7388
   326.3000      8.0148      2.3871     -0.0254     15.9326     91.3508     25.0322
