~Version Information
VERS.                      2.0: CWLS Log ASCII Standard - VERSION 2.0
WRAP.                       NO: One line per depth step
~Well Information Block
STRT.FT                -8.0000: 
STOP.FT              1060.7500: 
STEP.FT                 0.2500: 
NULL.                -999.2500: 
COMP.          Pioneer Natural Resources: COMPANY
WELL.          Pavillion 44-25: WELL
FLD.           Purgatorie River: FIELD
LOC.           719' FSL & 650' FEL--: LOCATION
PROV.                       CO: PROVINCE
CNTY.               Las Animas: COUNTRY
SRVC.          Patterson Wireline: SERVICE COMPANY
DATE.          Mon Dec 19 11:59:26 2005: LOG DATE
UWI.           05 071 08624 00: UNIQUE WELL ID
~Curve Information Block
DEPT.FT            0 000 00 00: Depth
CCL.                          : Casing Collar Locator
TT3.usec                      : CBL 3' Travel Time
AMP3.mV                       : CBL 3' Amplitude
GR.GAPI                       : Gamma Ray
~Parameter Information Block
~A  Depth       CCL         TT3         AMP3         GR     
# ...
   829.5000      0.0000    677.9179      7.4189    101.7336
   829.7500      0.0000    677.6760      7.3004    103.1841
   830.0000      0.0000    678.2408      7.1936    104.1049
   830.2500      0.0000    679.0607      7.1085    103.5308
   830.5000      0.0000    680.0538      7.0532    100.0744
   830.7500      0.0000    681.5467      7.0202     93.4644
   831.0000      0.0000    683.9009      6.9829     85.0425
   831.2500      0.0000    686.9155      6.9154     76.8734
   831.5000      0.0000    689.5870      6.8188     70.3956
   831.7500      0.0000    690.5745      6.7225     65.6929
   832.0000      0.0000    688.9495      6.6611     61.9924
   832.2500      0.0000    684.5485      6.6489     58.8954
   832.5000      0.0000    677.9731      6.6747     56.9887
   832.7500      0.0000    670.8389      6.7162     57.1496
   833.0000      0.0000    666.2637      6.7584     59.2629
   833.2500      0.0000    668.1901      6.7987     61.7729
   833.5000      0.0000    678.7142      6.8371     62.7666
   833.7500      0.0000    695.5358      6.8670     61.5878
   834.0000      0.0000    712.6413      6.8785     59.3267
   834.2500      0.0000    724.1451      6.8677     57.8572
   834.5000      0.0000    728.0276      6.8415     58.4224
   834.7500      0.0000    726.7297      6.8157     60.9095
   835.0000      0.0000    724.4815      6.8081     64.1184
   835.2500      0.0000    723.9124      6.8291     66.6661
   835.5000      0.0000    724.7518      6.8754     67.8903
   835.7500      0.0000    725.1127      6.9329     68.0726
   836.0000      0.0000    723.5745      6.9826     67.8011
   836.2500      0.0000    720.2635      7.0099     67.2554
   836.5000      0.0000    716.5973      7.0149     66.3527
   836.7500      0.0000    714.3631      7.0159     65.3626
   837.0000      0.0000    714.9052      7.0357     64.8642
   837.2500      0.0000    718.5305      7.0801     65.0878
   837.5000      0.0000    723.9101      7.1320     65.5487
   837.7500      0.0000    728.0872      7.1679     65.3220
   838.0000      0.0000    728.2724      7.1738     63.7377
   838.2500      0.0000    724.6371      7.1495     61.0869
   838.5000      0.0000    720.9224      7.1012     58.5596
   838.7500      0.0000    721.1226      7.0360     57.2643
   839.0000      0.0000    725.4888      6.9590     57.4132
   839.2500      0.0000    730.4749      6.8772     58.5193
   839.5000      0.0000    732.3360      6.8052     59.9234
   839.7500      0.0000    729.8448      6.7600     60.9063
   840.0000      0.0000    723.9723      6.7448     60.8163
   840.2500      0.0000    716.5895      6.7438     59.5963
   840.5000      0.0000    709.9821      6.7393     57.9928
   840.7500      0.0000    706.5137      6.7316     56.7630
   841.0000      0.0000    707.7288      6.7371     55.7495
   841.2500      0.0000    713.6187      6.7691     54.2480
   841.5000      0.0000    722.6664      6.8243     52.1960
   841.7500      0.0000    732.4673      6.8893     50.3598
   842.0000      0.0000    740.6628      6.9551     49.3900
   842.2500      0.0000    745.8575      7.0209     49.3548
   842.5000      0.0000    747.8458      7.0862     50.2559
   842.7500      0.0000    747.0848      7.1447     52.3922
   843.0000      0.0000    744.2651      7.1872     55.8076
   843.2500      0.0000    740.4343      7.2077     59.5107
   843.5000      0.0000    737.1016      7.2075     61.7066
   843.7500      0.0000    735.7319      7.1936     61.2379
   844.0000      0.0000    736.9642      7.1747     58.7523
   844.2500      0.0000    740.2998      7.1573     56.1623
   844.5000      0.0000    744.5991      7.1451     55.0589
   844.7500      0.0000    749.0580      7.1398     55.8753
   845.0000      0.0000    753.7731      7.1410     58.1413
   845.2500      0.0000    759.2020      7.1450     60.8856
   845.5000      0.0000    764.9689      7.1465     62.7663
   845.7500      0.0000    769.5230      7.1407     62.4468
   846.0000      0.0000    771.4088      7.1250     59.4622
   846.2500      0.0000    770.7118      7.0996     54.8227
   846.5000      0.0000    768.7514      7.0664     50.4757
   846.7500      0.0000    766.7208      7.0277     47.9561
   847.0000      0.0000    765.2766      6.9864     47.5141
   847.2500      0.0000    764.9027      6.9467     48.3307
   847.5000      0.0000    765.5677      6.9120     49.3728
   847.7500      0.0000    766.0861      6.8809     50.1854
   848.0000      0.0000    764.7943      6.8486     51.1040
   848.2500      0.0000    761.4251      6.8102     52.7541
   848.5000      0.0000    758.0615      6.7594     55.2840
   848.7500      0.0000    757.4438      6.6902     58.0576
   849.0000      0.0000    760.0559      6.6040     60.0505
   849.2500      0.0000    763.6298      6.5140     60.5040
   849.5000      0.0000    765.6803      6.4373     59.2441
   849.7500      0.0000    765.4958      6.3846     56.6250
   850.0000      0.0000    763.6739      6.3576     53.3943
   850.2500      0.0000    761.2219      6.3509     50.5207
   850.5000      0.0000    759.3772      6.3524     48.8823
   850.7500      0.0000    759.0541      6.3453     49.0048
   851.0000      0.0000    759.9163      6.3150     51.0326
   851.2500      0.0000    760.6414      6.2572     54.6341
   851.5000      0.0000    760.3539      6.1844     58.7673
   851.7500      0.0000    759.1779      6.1203     61.9595
   852.0000      0.0000    757.2879      6.0835     63.2739
   852.2500      0.0000    754.4808      6.0749     63.0335
   852.5000      0.0000    751.4189      6.0801     62.4149
   852.7500      0.0000    750.2804      6.0817     62.2843
   853.0000      0.0000    752.8140      6.0682     62.5277
   853.2500      0.0000    757.8026      6.0381     62.6619
   853.5000      0.0000    761.5494      6.0002     63.0097
   853.7500      0.0000    761.5211      5.9720     64.8783
   854.0000      0.0000    759.0876      5.9744     69.1603
   854.2500      0.0000    757.7759      6.0242     74.8730
   854.5000      0.0000    758.9414      6.1256     79.6633
   854.7500      0.0000    760.4656      6.2641     81.9894
   855.0000      0.0000    759.8504      6.4093     82.4136
   855.2500      0.0000    757.0543      6.5274     82.5401
   855.5000      0.0000    753.7557      6.5957     83.2580
   855.7500      0.0000    751.0512      6.6101     84.3952
   856.0000      0.0000    748.4528      6.5827     85.4358
   856.2500      0.0000    744.3279      6.5356     86.0401
   856.5000      0.0000    736.8501      6.4894     86.3295
   856.7500      0.0000    725.1178      6.4572     87.0078
   857.0000      0.0000    709.9149      6.4427     88.8774
   857.2500      0.0000    693.3411      6.4426     92.1633
   857.5000      0.0000    677.6854      6.4494     96.3866
   857.7500      0.0000    665.1846      6.4566    100.5231
   858.0000      0.0000    658.7773      6.4638    103.0969
   858.2500      0.0000    661.6142      6.4765    102.9086
   858.5000      0.0000    674.3929      6.5006    100.3360
   858.7500      0.0000    693.5955      6.5345     97.3206
   859.0000      0.0000    713.5702      6.5632     95.2484
   859.2500      0.0000    730.3438      6.5622     93.2455
   859.5000      0.0000    742.9777      6.5103     89.1572
   859.7500      0.0000    752.0676      6.4061     81.8566
   860.0000      0.0000    757.9440      6.2706     72.3539
   860.2500      0.0000    760.2610      6.1356     63.2321
   860.5000      0.0000    758.7277      6.0266     57.3353
   860.7500      0.0000    753.8365      5.9559     56.5213
   861.0000      0.0000    746.9183      5.9275     60.9675
   861.2500      0.0000    739.7203      5.9376     69.1378
   861.5000      0.0000    733.4208      5.9615     78.3212
   861.7500      0.0000    727.3768      5.9453     85.7119
   862.0000      0.0000    719.3488      5.8421     89.5859
   862.2500      0.0000    708.4119      5.6813     89.7546
   862.5000      0.0000    698.0590      5.5728     87.2115
   862.7500      0.0000    695.5021      5.5902     83.6088
