~Version Information
VERS.                      2.0: CWLS Log ASCII Standard - VERSION 2.0
WRAP.                       NO: One line per depth step
~Well Information Block
STRT.FT               621.2500: 
STOP.FT               951.7500: 
STEP.FT                 0.2500: 
NULL.                -999.2500: 
COMP.          Pioneer Natural Resources: COMPANY
WELL.          Screamin 12-29 Tr: WELL
FLD.           Purgatoire River: FIELD
LOC.           1979' FNL & 532' FWL--: LOCATION
CNTY.               Las Animas: COUNTY
SRVC.                Patterson: SERVICE COMPANY
DATE.          Fri Mar 31 01:01:50 2006: LOG DATE
UWI.           05 071 08660 00: UNIQUE WELL ID
STAT.                 Colorado: STATE
~Curve Information Block
DEPT.FT            0 000 00 00: Depth
SN.Ohm-m                      : IEL Short Normal
SP.mV                         : IEL Spontaneous Potential
DIR.Ohm-m                     : IEL Induction Resistivity
GR.GAPI                       : Gamma Ray
~Parameter Information Block
~A  Depth        SN          SP         DIR          GR     
# ...
   788.7500    601.5111   -554.6378     19.4993     73.5936
   789.0000    601.5111   -554.6277     18.9435     72.0408
   789.2500    601.5111   -554.6158     18.0707     70.7168
   789.5000    601.5111   -554.6027     16.8762     69.5961
   789.7500    601.5111   -554.5888     15.4567     70.1907
   790.0000    601.5111   -554.5750     13.9626     73.8644
   790.2500    601.5111   -554.5621     12.5301     78.1131
   790.5000    601.5111   -554.5507     11.2462     86.3313
   790.7500    601.5111   -554.5408     10.1492     92.3584
   791.0000    601.5111   -554.5327      9.2468    101.0747
   791.2500    601.5111   -554.5258      8.5316    106.1149
   791.5000    601.5111   -554.5201      7.9908    111.9904
   791.7500    601.5111   -554.5152      7.6113    114.7140
   792.0000    601.5111   -554.5110      7.3803    116.8292
   792.2500    601.5111   -554.5078      7.2858    116.5876
   792.5000    601.5111   -554.5057      7.3142    113.1041
   792.7500    601.5111   -554.5048      7.4487    108.6281
   793.0000    601.5111   -554.5052      7.6660     99.3301
   793.2500    601.5111   -554.5065      7.9337     92.1633
   793.5000    601.5111   -554.5080      8.2099     81.7240
   793.7500    601.5111   -554.5089      8.4463     76.1583
   794.0000    601.5111   -554.5083      8.5957     71.7708
   794.2500    601.5111   -554.5060      8.6223     72.1410
   794.5000    601.5111   -554.5021      8.5122     77.5505
   794.7500    601.5111   -554.4969      8.2773     83.5838
   795.0000    601.5111   -554.4913      7.9504     93.8750
   795.2500    601.5111   -554.4863      7.5750     99.9404
   795.5000    601.5111   -554.4825      7.1926    105.8263
   795.7500    601.5111   -554.4802      6.8355    107.4954
   796.0000    601.5111   -554.4791      6.5253    108.3757
   796.2500    601.5111   -554.4785      6.2746    109.3105
   796.5000    601.5111   -554.4769      6.0899    112.5453
   796.7500    601.5111   -554.4730      5.9743    115.6554
   797.0000    601.5111   -554.4656      5.9289    120.4068
   797.2500    601.5111   -554.4539      5.9532    123.0175
   797.5000    601.5111   -554.4383      6.0449    125.6667
   797.7500    601.5111   -554.4199      6.1987    126.4971
   798.0000    601.5111   -554.4003      6.4048    126.4582
   798.2500    601.5111   -554.3813      6.6488    125.9481
   798.5000    601.5111   -554.3644      6.9115    125.0200
   798.7500    601.5111   -554.3503      7.1718    124.0082
   799.0000    601.5111   -554.3392      7.4099    120.5470
   799.2500    601.5111   -554.3306      7.6120    116.5170
   799.5000    601.5111   -554.3236      7.7725    109.0074
   799.7500    601.5111   -554.3172      7.8947    104.5447
   800.0000    601.5111   -554.3105      7.9874    101.1642
   800.2500    601.5111   -554.3031      8.0610    101.6503
   800.5000    601.5111   -554.2948      8.1245    105.3189
   800.7500    601.5111   -554.2861      8.1836    108.3847
   801.0000    601.5111   -554.2782      8.2397    112.2178
   801.2500    601.5111   -554.2722      8.2920    114.1094
   801.5000    601.5111   -554.2692      8.3407    116.4269
   801.7500    601.5111   -554.2700      8.3891    117.6573
   802.0000    601.5111   -554.2740      8.4442    118.4962
   802.2500    601.5111   -554.2796      8.5131    118.2721
   802.5000    601.5111   -554.2841      8.5999    117.5630
   802.7500    601.5111   -554.2846      8.7049    117.5554
   803.0000    601.5111   -554.2785      8.8251    118.8212
   803.2500    601.5111   -554.2646      8.9573    120.2962
   803.5000    601.5111   -554.2437      9.0992    122.5851
   803.7500    601.5111   -554.2184      9.2499    123.6744
   804.0000    601.5111   -554.1932      9.4106    124.1065
   804.2500    601.5111   -554.1727      9.5842    123.5115
   804.5000    601.5111   -554.1612      9.7765    121.6340
   804.7500    601.5111   -554.1612      9.9957    120.1408
   805.0000    601.5111   -554.1731     10.2513    118.3500
   805.2500    601.5111   -554.1948     10.5533    117.8759
   805.5000    601.5111   -554.2225     10.9113    118.6284
   805.7500    601.5111   -554.2513     11.3333    119.8037
   806.0000    601.5111   -554.2759     11.8242    120.7586
   806.2500    601.5111   -554.2917     12.3839    119.4923
   806.5000    601.5111   -554.2952     13.0088    113.7659
   806.7500    601.5111   -554.2849     13.6952    108.1320
   807.0000    601.5111   -554.2612     14.4434     99.3075
   807.2500    601.5111   -554.2272     15.2583     94.1817
   807.5000    601.5111   -554.1870     16.1452     88.1065
   807.7500    601.5111   -554.1459     17.1026     84.9949
   808.0000    601.5111   -554.1091     18.1138     81.5135
   808.2500    601.5111   -554.0809     19.1413     80.0407
   808.5000    601.5111   -554.0637     20.1283     79.3916
   808.7500    601.5111   -554.0582     21.0087     79.9240
   809.0000    601.5111   -554.0632     21.7182     80.9828
   809.2500    601.5111   -554.0767     22.2009     80.7685
   809.5000    601.5111   -554.0956     22.4139     78.1013
   809.7500    601.5111   -554.1169     22.3361     75.4353
   810.0000    601.5111   -554.1378     21.9797     72.7520
   810.2500    601.5111   -554.1561     21.3907     73.1192
   810.5000    601.5111   -554.1708     20.6314     77.1937
   810.7500    601.5111   -554.1813     19.7588     81.4955
   811.0000    601.5111   -554.1879     18.8142     88.5984
   811.2500    601.5111   -554.1915     17.8281     92.9244
   811.5000    601.5111   -554.1929     16.8319     97.8420
   811.7500    601.5111   -554.1931     15.8660     99.9259
   812.0000    601.5111   -554.1924     14.9776    101.9624
   812.2500    601.5111   -554.1913     14.2103    103.3832
   812.5000    601.5111   -554.1896     13.5928    106.5520
   812.7500    601.5111   -554.1871     13.1313    109.1590
   813.0000    601.5111   -554.1830     12.8090    112.2459
   813.2500    601.5111   -554.1769     12.5909    112.6276
   813.5000    601.5111   -554.1682     12.4319    109.3770
   813.7500    601.5111   -554.1569     12.2861    104.5516
   814.0000    601.5111   -554.1436     12.1160     94.3427
   814.2500    601.5111   -554.1296     11.8990     86.6924
   814.5000    601.5111   -554.1166     11.6293     76.3612
   814.7500    601.5111   -554.1064     11.3163     71.6913
   815.0000    601.5111   -554.0999     10.9775     70.1120
   815.2500    601.5111   -554.0971     10.6316     73.2481
   815.5000    601.5111   -554.0972     10.2922     83.3377
   815.7500    601.5111   -554.0984      9.9647     92.0803
   816.0000    601.5111   -554.0988      9.6477    104.9445
   816.2500    601.5111   -554.0964      9.3367    111.9343
   816.5000    601.5111   -554.0903      9.0295    119.0673
   816.7500    601.5111   -554.0802      8.7299    121.6571
   817.0000    601.5111   -554.0670      8.4475    122.9812
   817.2500    601.5111   -554.0517      8.1936    122.7177
   817.5000    601.5111   -554.0361      7.9762    121.4783
   817.7500    601.5111   -554.0212      7.7961    120.4356
   818.0000    601.5111   -554.0077      7.6484    119.0545
   818.2500    601.5111   -553.9954      7.5252    118.5825
   818.5000    601.5111   -553.9829      7.4189    118.9028
   818.7500    601.5111   -553.9686      7.3242    119.7552
   819.0000    601.5111   -553.9507      7.2374    121.6687
   819.2500    601.5111   -553.9280      7.1557    123.2007
   819.5000    601.5111   -553.9007      7.0775    125.5658
   819.7500    601.5111   -553.8700      7.0030    126.8166
   820.0000    601.5111   -553.8384      6.9356    127.4322
   820.2500    601.5111   -553.8088      6.8819    126.8597
   820.5000    601.5111   -553.7842      6.8503    125.1039
   820.7500    601.5111   -553.7672      6.8493    123.7944
   821.0000    601.5111   -553.7592      6.8850    121.9060
   821.2500    601.5111   -553.7604      6.9604    120.6513
   821.5000    601.5111   -553.7703      7.0749    118.9511
   821.7500    601.5111   -553.7872      7.2240    118.2206
   822.0000    601.5111   -553.8094      7.3995    117.8437
