~Version Information
VERS.                      2.0: CWLS Log ASCII Standard - VERSION 2.0
WRAP.                       NO: One line per depth step
~Well Information Block
STRT.FT               264.2500: 
STOP.FT              1134.7500: 
STEP.FT                 0.2500: 
NULL.                -999.2500: 
COMP.          Pioneer Natural Resources: COMPANY
WELL.          Black Cat 13-32 Tr: WELL
FLD.           Purgatoire River: FIELD
LOC.           1679' FSL & 1150' FWL--: LOCATION
CNTY.               Las Animas: COUNTY
SRVC.                Patterson: SERVICE COMPANY
DATE.          Tue Mar 07 10:58:06 2006: LOG DATE
UWI.           05 071 08721 00: UNIQUE WELL ID
STAT.                 Colorado: STATE
~Curve Information Block
DEPT.FT            0 000 00 00: Depth
SN.Ohm-m                      : IEL Short Normal
SP.mV                         : IEL Spontaneous Potential
DIR.Ohm-m                     : IEL Induction Resistivity
GR.GAPI                       : Gamma Ray
~Parameter Information Block
~A  Depth        SN          SP         DIR          GR     
# ...
   364.7500    119.2420   -541.1138     21.2804    124.0001
   365.0000    120.2807   -538.1586     21.2523    122.2465
   365.2500    120.7076   -535.2822     21.2664    121.4934
   365.5000    121.3910   -532.6536     21.3319    119.8886
   365.7500    123.0887   -530.4667     21.4544    118.1802
   366.0000    125.8114   -528.9155     21.6354    114.9814
   366.2500    129.0007   -528.1580     21.8750    112.8742
   366.5000    132.2500   -528.2765     22.1701    110.2257
   366.7500    135.4484   -529.2444     22.5065    108.7069
   367.0000    137.8228   -530.9145     22.8527    106.4144
   367.2500    137.3156   -533.0356     23.1626    104.9384
   367.5000    132.1178   -535.2943     23.3876    103.5760
   367.7500    123.2374   -537.3705     23.4888    103.6810
   368.0000    114.7095   -538.9883     23.4429    105.4134
   368.2500    110.5887   -539.9463     23.2441    107.3109
   368.5000    111.8475   -540.1227     22.9077    110.6996
   368.7500    116.0544   -539.4545     22.4723    113.0368
   369.0000    119.5626   -537.9127     21.9929    116.2201
   369.2500    120.2874   -535.4799     21.5250    118.0421
   369.5000    119.2574   -532.1412     21.1089    120.7581
   369.7500    119.5900   -527.8917     20.7624    123.0039
   370.0000    123.1239   -522.7572     20.4812    127.4153
   370.2500    127.5709   -516.8208     20.2461    130.7572
   370.5000    127.8303   -510.2458     20.0358    135.1030
   370.7500    120.9654   -503.2828     19.8418    136.7915
   371.0000    109.2637   -496.2485     19.6751    136.9417
   371.2500     97.8364   -489.4713     19.5573    135.6883
   371.5000     90.1978   -483.2039     19.5036    132.8916
   371.7500     86.8181   -477.5249     19.5101    131.1499
   372.0000     86.7498   -472.2509     19.5569    129.3798
   372.2500     89.3406   -466.9004     19.6235    128.6418
   372.5000     94.6220   -460.7256     19.7028    127.5326
   372.7500    102.9591   -452.8162     19.8042    126.4452
   373.0000    114.5164   -442.2512     19.9451    124.0481
   373.2500    128.6887   -428.2701     20.1415    122.0184
   373.5000    143.9750   -410.4400     20.4026    118.6941
   373.7500    158.5186   -388.7895     20.7343    116.4545
   374.0000    170.6882   -363.9063     21.1447    113.0347
   374.2500    179.1611   -336.9866     21.6480    110.6217
   374.5000    182.9680   -309.8218     22.2587    106.8373
   374.7500    181.8733   -284.6927     22.9742    104.3607
   375.0000    176.3723   -264.1519     23.7577    100.9515
   375.2500    166.6892   -250.6924     24.5355     98.9101
   375.5000    151.9483   -246.3403     25.2176     96.1923
   375.7500    131.3159   -252.2534     25.7329     94.7149
   376.0000    106.6658   -268.4285     26.0558     93.5238
   376.2500     83.8351   -293.6137     26.2081     93.8872
   376.5000     70.6676   -325.4725     26.2387     96.7713
   376.7500     73.3871   -360.9771     26.1984    100.0732
   377.0000     93.5821   -396.9391     26.1237    105.7777
   377.2500    126.3586   -430.5325     26.0358    109.1622
   377.5000    160.5574   -459.6917     25.9516    112.5223
   377.7500    183.2066   -483.2920     25.8927    113.2926
   378.0000    187.0418   -501.1060     25.8820    112.0475
   378.2500    175.0582   -513.5930     25.9306    109.7952
   378.5000    158.0284   -521.6105     26.0311    105.2131
   378.7500    147.4483   -526.1426     26.1685    102.0460
   379.0000    148.9042   -528.1085     26.3408     97.9101
   379.2500    159.3976   -528.2740     26.5658     95.7377
   379.5000    170.7237   -527.2532     26.8649     93.6474
   379.7500    177.3032   -525.5609     27.2355     93.2342
   380.0000    181.9117   -523.6746     27.6396     93.9243
   380.2500    192.9923   -522.0681     28.0195     94.7467
   380.5000    214.9826   -521.1965     28.3315     95.5549
   380.7500    241.0487   -521.4410     28.5676     95.5480
   381.0000    257.4176   -523.0327     28.7505     94.7327
   381.2500    256.6583   -525.9930     28.9128     93.6926
   381.5000    245.5284   -530.1160     29.0848     91.3508
   381.7500    239.0338   -535.0006     29.2980     89.3071
   382.0000    248.5525   -540.1382     29.5931     85.8782
   382.2500    275.6962   -545.0153     30.0167     83.6630
   382.5000    313.7701   -549.2071     30.6013     80.8701
   382.7500    351.7596   -552.4362     31.3432     79.5080
   383.0000    377.7665   -554.5889     32.1958     78.3729
   383.2500    383.4438   -555.6943     33.0880     78.1830
   383.5000    369.6729   -555.8809     33.9540     78.2063
   383.7500    347.5948   -555.3243     34.7556     77.8953
   384.0000    330.6488   -554.2003     35.4799     76.1826
   384.2500    324.5246   -552.6435     36.1204     74.1090
   384.5000    325.7105   -550.7219     36.6710     70.0231
   384.7500    328.3648   -548.4229     37.1444     67.0577
   385.0000    330.4726   -545.6553     37.5941     63.0052
   385.2500    334.1107   -542.2636     38.1101     61.0384
   385.5000    342.6699   -538.0507     38.7799     59.8509
   385.7500    358.8726   -532.8011     39.6364     60.2875
   386.0000    382.6306   -526.2974     40.6299     62.1179
   386.2500    408.1456   -518.3235     41.6453     63.4438
   386.5000    425.3271   -508.6538     42.5690     64.4184
   386.7500    428.1237   -497.0393     43.3625     64.0078
   387.0000    421.4260   -483.1962     44.0853     62.1702
   387.2500    417.4167   -466.8099     44.8444     60.9232
   387.5000    424.5336   -447.5670     45.7171     60.5076
   387.7500    440.5308   -425.2195     46.7102     61.5513
   388.0000    455.8112   -399.6764     47.7675     64.4143
   388.2500    462.7270   -371.1288     48.7998     66.3147
   388.5000    461.5033   -340.1673     49.7053     67.7836
   388.7500    458.1202   -307.8714     50.3895     67.5531
   389.0000    458.1830   -275.8365     50.8097     65.9900
   389.2500    462.4958   -246.1120     51.0235     64.8095
   389.5000    465.1339   -221.0399     51.1845     63.5967
   389.7500    454.8847   -203.0014     51.4629     63.1607
   390.0000    424.0667   -194.1016     51.9468     62.7346
   390.2500    380.2532   -195.8394     52.5877     62.5367
   390.5000    345.6310   -208.8177     53.2175     62.5476
   390.7500    338.6824   -232.5592     53.6315     62.8657
   391.0000    356.4916   -265.4782     53.7020     63.8210
   391.2500    378.5328   -305.0414     53.4468     64.7365
   391.5000    388.0261   -348.1072     52.9987     66.5368
   391.7500    387.4308   -391.3850     52.5002     68.0887
   392.0000    393.4510   -431.9179     52.0234     70.9895
   392.2500    418.7939   -467.4758     51.5747     73.1744
   392.5000    458.7912   -496.7730     51.1509     76.3261
   392.7500    494.8440   -519.4764     50.7669     77.9848
   393.0000    510.3373   -536.0344     50.4301     79.2184
   393.2500    503.3067   -547.4010     50.1134     78.9906
   393.5000    485.9615   -554.7429     49.7800     77.3046
   393.7500    474.7107   -559.2009     49.4392     75.8013
   394.0000    479.6828   -561.7408     49.1613     73.9285
   394.2500    499.5329   -563.0942     49.0254     73.1861
   394.5000    523.9493   -563.7639     49.0528     72.8389
   394.7500    542.3074   -564.0677     49.1895     73.0827
   395.0000    551.7319   -564.1906     49.3556     73.9716
   395.2500    556.9835   -564.2330     49.5155     74.6220
   395.5000    562.9005   -564.2475     49.7073     75.1407
   395.7500    568.4060   -564.2613     50.0101     75.0089
   396.0000    568.5508   -564.2906     50.4799     73.8879
   396.2500    561.1379   -564.3486     51.1027     72.4057
   396.5000    550.2194   -564.4406     51.7836     69.3275
   396.7500    543.0909   -564.5681     52.3782     67.2459
   397.0000    544.1774   -564.7280     52.7601     65.0885
   397.2500    552.1547   -564.9119     52.8946     64.4962
   397.5000    562.5437   -565.1071     52.8633     64.4552
   397.7500    571.6735   -565.2968     52.8150     64.5366
   398.0000    578.0891   -565.4634     52.8850     64.1662
