~Version Information
VERS.                      2.0: CWLS Log ASCII Standard - VERSION 2.0
WRAP.                       NO: One line per depth step
~Well Information Block
STRT.FT               460.0000: 
STOP.FT              3058.5000: 
STEP.FT                 0.1000: 
NULL.                -999.2500: 
COMP.          Pioneer Natural Resources: COMPANY
WELL.            Cleaver 24-12: WELL
FLD.           Purgatoire River: FIELD
LOC.           204' FSL & 2351' FWL: LOCATION
PROV.                 Colorado: PROVINCE
CNTY.               Las Animas: COUNTRY
SRVC.                Patterson: SERVICE COMPANY
DATE.          Mon Jan 09 13:49:27 2006: LOG DATE
UWI.           05 071 08634 00: UNIQUE WELL ID
~Curve Information Block
DEPT.FT            0 000 00 00: Depth
DCAL.in                       : CDL Caliper
RHOB.g/cc                     : CDL Bulk Density
RHOC.g/cc                     : CDL Density Correction
DPOR.pu                       : CDL Density Porosity
GR.GAPI                       : Gamma Ray
NPOR.pu                       : Neutron Porosity
~Parameter Information Block
~A  Depth       DCAL        RHOB        RHOC        DPOR         GR         NPOR    
# ...
  1669.6000      7.9002      2.7226      0.0845     -4.4007     76.0805     26.6429
  1669.7000      7.9002      2.7213      0.0897     -4.3209     74.4368     26.1893
  1669.8000      7.9011      2.7119      0.0364     -3.7532     72.4014     26.1113
  1669.9000      7.9011      2.6835      0.0261     -2.0309     73.7576     26.5429
  1670.0000      7.9079      2.6495     -0.0829      0.0287     77.4120     27.1973
  1670.1000      7.9079      2.6327     -0.0670      1.0510     82.9434     27.8571
  1670.2000      7.9079      2.6340      0.0305      0.9705     86.7829     28.0719
  1670.3000      7.9239      2.6329      0.0508      1.0380     83.5377     27.7049
  1670.4000      7.9239      2.6121      0.1251      2.2996     77.5741     27.2766
  1670.5000      7.9088      2.5760      0.0558      4.4868     75.6945     27.0531
  1670.6000      7.9088      2.5493     -0.0117      6.1035     79.2843     26.6554
  1670.7000      7.9088      2.5479      0.0312      6.1865     86.5879     25.9788
  1670.8000      7.8964      2.5631      0.0344      5.2672     92.7441     26.0903
  1670.9000      7.8964      2.5765      0.0599      4.4547     94.1675     27.6533
  1671.0000      7.9126      2.5811      0.0564      4.1731     88.6999     29.0780
  1671.1000      7.9126      2.5891      0.0524      3.6885     77.6544     29.0543
  1671.2000      7.9126      2.6110      0.0814      2.3639     70.3662     28.6162
  1671.3000      7.9076      2.6305      0.1347      1.1843     71.6603     28.7217
  1671.4000      7.9076      2.6388      0.0343      0.6765     74.8548     28.9559
  1671.5000      7.9067      2.6512      0.1144     -0.0702     76.7657     28.8555
  1671.6000      7.9067      2.6684      0.1084     -1.1174     78.1450     28.5813
  1671.7000      7.9067      2.6830      0.0840     -1.9983     75.9887     28.5010
  1671.8000      7.9153      2.6857      0.0969     -2.1663     71.2141     28.6344
  1671.9000      7.9153      2.6637      0.0591     -0.8310     69.7333     28.1628
  1672.0000      7.9257      2.6284     -0.0060      1.3117     71.6474     26.9045
  1672.1000      7.9257      2.6098      0.0386      2.4336     73.4850     25.6965
  1672.2000      7.9257      2.6088      0.0461      2.4949     75.5865     25.0401
  1672.3000      7.9281      2.6019      0.0411      2.9158     78.5380     25.1349
  1672.4000      7.9281      2.5837      0.0573      4.0205     81.3143     25.8043
  1672.5000      7.9267      2.5623      0.0518      5.3125     83.6315     26.5959
  1672.6000      7.9267      2.5383     -0.0182      6.7669     86.7305     27.4996
  1672.7000      7.9267      2.5205     -0.0572      7.8467     91.0445     28.4005
  1672.8000      7.9272      2.5247     -0.0146      7.5949     95.9786     28.8642
  1672.9000      7.9272      2.5410      0.0185      6.6079    101.6068     29.1412
  1673.0000      7.9500      2.5378      0.0311      6.8005    105.5397     29.5715
  1673.1000      7.9500      2.5075     -0.0214      8.6391    103.7333     29.8382
  1673.2000      7.9500      2.4824     -0.0802     10.1558    101.5684     29.6158
  1673.3000      7.9641      2.4821      0.0518     10.1749    109.3532     29.1413
  1673.4000      7.9641      2.4813      0.0409     10.2265    126.2563     29.0906
  1673.5000      7.9443      2.4494      0.0214     12.1591    141.9676     29.2975
  1673.6000      7.9443      2.3761      0.0171     16.5983    147.1880     29.1388
  1673.7000      7.9443      2.2808     -0.0185     22.3735    138.7570     28.8917
  1673.8000      7.9556      2.2056     -0.0810     26.9343    126.3257     28.8485
  1673.9000      7.9556      2.1739     -0.0482     28.8523    119.4680     28.9883
  1674.0000      7.9330      2.1744      0.0041     28.8245    112.9457     29.4699
  1674.1000      7.9330      2.2014     -0.0274     27.1851    103.0980     29.9721
  1674.2000      7.9330      2.2675      0.1036     23.1848     94.3104     29.8933
  1674.3000      7.9310      2.3628      0.1756     17.4039     88.0990     29.5714
  1674.4000      7.9310      2.4604      0.2436     11.4896     80.0489     29.5257
  1674.5000      7.9415      2.5454      0.2509      6.3397     66.9567     29.9381
  1674.6000      7.9415      2.6138      0.2391      2.1916     53.8936     30.7389
  1674.7000      7.9415      2.6628      0.2501     -0.7736     46.7335     31.2475
  1674.8000      7.9434      2.6961      0.1420     -2.7948     44.6198     31.2491
  1674.9000      7.9434      2.7237      0.1146     -4.4652     44.0729     31.0577
  1675.0000      7.9516      2.7432      0.0699     -5.6464     42.6112     30.3656
  1675.1000      7.9516      2.7502      0.0487     -6.0755     40.8838     28.9969
  1675.2000      7.9516      2.7542      0.0303     -6.3150     42.1926     27.6045
  1675.3000      7.9411      2.7696      0.0116     -7.2499     46.1732     27.0725
  1675.4000      7.9411      2.7996      0.0329     -9.0650     49.1759     27.3088
  1675.5000      7.9522      2.8225      0.0779    -10.4549     51.2365     27.2393
  1675.6000      7.9522      2.8097      0.0953     -9.6766     52.5729     26.3235
  1675.7000      7.9522      2.7647     -0.0100     -6.9485     51.4109     25.2151
  1675.8000      7.9741      2.7309     -0.1062     -4.9047     48.7906     24.6113
  1675.9000      7.9741      2.7401     -0.0532     -5.4619     47.5782     24.3317
  1676.0000      7.9539      2.7761      0.0426     -7.6436     46.7898     24.2178
  1676.1000      7.9539      2.8089      0.0461     -9.6314     45.1076     24.1315
  1676.2000      7.9539      2.8293      0.0435    -10.8691     45.7376     23.6014
  1676.3000      7.9527      2.8473     -0.0325    -11.9558     48.6001     14.7624
  1676.4000      7.9527      2.8758      0.0139    -13.6835     49.7849     14.2779
  1676.5000      7.9472      2.9091      0.0764    -15.7007     49.1903     14.3948
  1676.6000      7.9472      2.9269      0.0882    -16.7838     47.5351     14.3666
  1676.7000      7.9472      2.9200      0.0802    -16.3610     44.7523     13.8499
  1676.8000      7.9620      2.9093     -0.0303    -15.7134     43.2436     13.3015
  1676.9000      7.9620      2.9234      0.0468    -16.5720     44.0576     12.9658
  1677.0000      7.9728      2.9426      0.0571    -17.7331     45.5464     13.0616
  1677.1000      7.9728      2.9297      0.0335    -16.9521     47.2447     13.7467
  1677.2000      7.9728      2.8891     -0.0015    -14.4881     48.8681     14.8399
  1677.3000      7.9687      2.8573     -0.0102    -12.5614     49.0783     15.7164
  1677.4000      7.9687      2.8498      0.0010    -12.1075     49.0195     16.2382
  1677.5000      7.9649      2.8452     -0.0393    -11.8297     50.7123     16.7187
  1677.6000      7.9649      2.8180      0.0428    -10.1828     50.9855     16.7786
  1677.7000      7.9649      2.7611     -0.0223     -6.7331     46.9684     16.0793
  1677.8000      7.9264      2.7028     -0.0441     -3.1975     41.7426     15.1072
  1677.9000      7.9264      2.6841     -0.0470     -2.0690     38.3231     14.4429
  1678.0000      7.9138      2.7248     -0.0665     -4.5345     37.5362     14.1190
  1678.1000      7.9138      2.8094      0.0197     -9.6590     41.2822     14.2651
  1678.2000      7.9138      2.8940      0.0876    -14.7907     51.1711     15.2122
  1678.3000      7.8948      2.9427      0.1573    -17.7422     62.5768     16.7825
  1678.4000      7.8948      2.9552      0.1587    -18.4977     66.3800     18.5147
  1678.5000      7.9235      2.9541      0.2089    -18.4300     61.3075     20.0429
  1678.6000      7.9235      2.9537      0.1491    -18.4051     54.8414     21.0371
  1678.7000      7.9235      2.9440      0.1654    -17.8181     51.9703     21.1249
  1678.8000      7.9383      2.9035      0.0749    -15.3657     50.5587     20.4219
  1678.9000      7.9383      2.8401      0.0151    -11.5191     46.8106     19.5556
  1679.0000      7.9506      2.7873     -0.0144     -8.3233     41.2642     18.9735
  1679.1000      7.9506      2.7644      0.0015     -6.9344     37.6243     18.7602
