~Version Information
VERS.                      2.0: CWLS Log ASCII Standard - VERSION 2.0
WRAP.                       NO: One line per depth step
~Well Information Block
STRT.FT               239.2000: 
STOP.FT              1618.0000: 
STEP.FT                 0.1000: 
NULL.                -999.2500: 
COMP.          Pioneer Natural Resources: COMPANY
WELL.          Daytona 31-14 Tr: WELL
FLD.           Purgatoire River: FIELD
LOC.           683' FNL & 1943' FEL: LOCATION
CNTY.               Las Animas: COUNTY
SRVC.                         : SERVICE COMPANY
DATE.          Fri Jan 27 14:32:28 2006: LOG DATE
UWI.           05 071 08681 00: UNIQUE WELL ID
STAT.                 Colorado: STATE
~Curve Information Block
DEPT.FT            0 000 00 00: Depth
DCAL.in                       : CDL Caliper
RHOB.g/cc                     : CDL Bulk Density
RHOC.g/cc                     : CDL Density Correction
DPOR.pu                       : CDL Density Porosity
GR.GAPI                       : Gamma Ray
~Parameter Information Block
~A  Depth       DCAL        RHOB        RHOC        DPOR         GR     
# ...
  1157.6000      7.9853      2.5124      0.1653      8.3405    157.4092
  1157.7000      7.9853      2.4916      0.2439      9.5989    153.3840
  1157.8000      7.9799      2.4573      0.1649     11.6790    146.6079
  1157.9000      7.9799      2.4242      0.0785     13.6843    139.1856
  1158.0000      7.9957      2.4173      0.1109     14.1031    130.7354
  1158.1000      7.9957      2.4352      0.1606     13.0204    121.2890
  1158.2000      7.9957      2.4560      0.1660     11.7604    117.3403
  1158.3000      7.9904      2.4709      0.1345     10.8553    124.7572
  1158.4000      7.9904      2.4937      0.1275      9.4707    138.4584
  1158.5000      7.9892      2.5333      0.1753      7.0708    145.9903
  1158.6000      7.9892      2.5785      0.2118      4.3342    143.5557
  1158.7000      7.9892      2.6093      0.2567      2.4677    137.8725
  1158.8000      7.9856      2.6136      0.2405      2.2040    135.1557
  1158.9000      7.9856      2.6000      0.1965      3.0330    136.1022
  1159.0000      7.9857      2.5811      0.1727      4.1781    137.8782
  1159.1000      7.9857      2.5662      0.1181      5.0778    138.4291
  1159.2000      7.9857      2.5656      0.0651      5.1178    137.4570
  1159.3000      7.9840      2.5695      0.1235      4.8816    135.2237
  1159.4000      7.9840      2.5615      0.0842      5.3615    131.8477
  1159.5000      7.9748      2.5538      0.0624      5.8325    129.5489
  1159.6000      7.9748      2.5620      0.0943      5.3352    129.0748
  1159.7000      7.9748      2.5769      0.1294      4.4312    127.9857
  1159.8000      7.9825      2.5833      0.1351      4.0452    126.2220
  1159.9000      7.9825      2.5920      0.0634      3.5169    122.7059
  1160.0000      7.9801      2.6225      0.1165      1.6680    114.6913
  1160.1000      7.9801      2.6620      0.1272     -0.7248    107.7148
  1160.2000      7.9801      2.6897      0.1360     -2.4057    110.3035
  1160.3000      7.9785      2.7022      0.1868     -3.1651    119.9477
  1160.4000      7.9785      2.6999      0.1352     -3.0233    127.3551
  1160.5000      7.9830      2.6890      0.0661     -2.3658    128.0743
  1160.6000      7.9830      2.6792      0.1125     -1.7725    123.1433
  1160.7000      7.9830      2.6707      0.0603     -1.2574    115.3712
  1160.8000      7.9827      2.6584      0.0566     -0.5118    109.2593
  1160.9000      7.9827      2.6390      0.0530      0.6640    110.8000
  1161.0000      7.9818      2.6210      0.0502      1.7589    121.6772
  1161.1000      7.9818      2.6124      0.0546      2.2818    131.3958
  1161.2000      7.9818      2.6087      0.0800      2.5041    126.7448
  1161.3000      7.9806      2.6067      0.0801      2.6236    112.7670
  1161.4000      7.9806      2.6023      0.1247      2.8938    106.1570
  1161.5000      7.9813      2.5868      0.1070      3.8312    112.0233
  1161.6000      7.9813      2.5664      0.1085      5.0688    121.0257
  1161.7000      7.9813      2.5545      0.0643      5.7870    124.1857
  1161.8000      7.9811      2.5497      0.0730      6.0817    122.0973
  1161.9000      7.9811      2.5450      0.0308      6.3611    120.7670
  1162.0000      7.9806      2.5499      0.0267      6.0640    120.7748
  1162.1000      7.9806      2.5739      0.0435      4.6149    117.3612
  1162.2000      7.9806      2.6066      0.0916      2.6281    111.3362
  1162.3000      7.9796      2.6380      0.0545      0.7288    106.5282
  1162.4000      7.9796      2.6738      0.0987     -1.4397    102.6893
  1162.5000      7.9790      2.7199      0.0944     -4.2383     98.1552
  1162.6000      7.9790      2.7744      0.1103     -7.5387     92.6796
  1162.7000      7.9790      2.8359      0.0958    -11.2671     86.4399
  1162.8000      7.9800      2.9069      0.1252    -15.5727     77.8764
  1162.9000      7.9800      2.9728      0.1838    -19.5641     68.7608
  1163.0000      7.9755      2.9996      0.1932    -21.1901     65.0017
  1163.1000      7.9755      2.9773      0.0806    -19.8341     67.3624
  1163.2000      7.9755      2.9340      0.0414    -17.2129     71.1790
  1163.3000      7.9663      2.8902      0.0069    -14.5598     72.8194
  1163.4000      7.9663      2.8441     -0.0299    -11.7660     73.0166
  1163.5000      7.9759      2.7920     -0.0311     -8.6064     74.2578
  1163.6000      7.9759      2.7346     -0.0544     -5.1280     77.3916
  1163.7000      7.9759      2.6812     -0.0639     -1.8907     83.1651
  1163.8000      7.9788      2.6376      0.0101      0.7504     88.5128
  1163.9000      7.9788      2.6012     -0.0239      2.9560     88.0056
  1164.0000      7.9778      2.5785     -0.0332      4.3322     82.9038
  1164.1000      7.9778      2.5690     -0.0002      4.9061     78.8586
  1164.2000      7.9778      2.5539     -0.0052      5.8253     78.0514
  1164.3000      7.9763      2.5366     -0.0202      6.8737     79.1421
  1164.4000      7.9763      2.5462     -0.0081      6.2901     79.8774
  1164.5000      7.9781      2.5766      0.1024      4.4507     78.5476
  1164.6000      7.9781      2.5924      0.0866      3.4881     74.0923
  1164.7000      7.9781      2.5964      0.0483      3.2473     67.2727
  1164.8000      7.9691      2.6117      0.0780      2.3231     61.3588
  1164.9000      7.9691      2.6368      0.0765      0.8028     59.4756
  1165.0000      7.9536      2.6557      0.1425     -0.3447     60.0728
  1165.1000      7.9536      2.6607      0.1016     -0.6492     59.1641
  1165.2000      7.9536      2.6577      0.0955     -0.4647     57.5693
  1165.3000      7.9531      2.6487      0.0993      0.0790     56.5922
  1165.4000      7.9531      2.6345      0.0725      0.9419     53.8017
  1165.5000      7.9691      2.6238      0.0920      1.5867     49.2430
  1165.6000      7.9691      2.6206      0.0354      1.7824     45.5429
  1165.7000      7.9691      2.6131      0.0875      2.2348     45.3940
  1165.8000      7.9761      2.5904     -0.0045      3.6098     49.0412
  1165.9000      7.9761      2.5606      0.0532      5.4181     54.7051
  1166.0000      7.9760      2.5353     -0.0061      6.9505     59.7959
  1166.1000      7.9760      2.5168      0.0618      8.0740     62.1647
  1166.2000      7.9760      2.5048      0.0189      8.7991     63.6896
  1166.3000      7.9722      2.5094      0.0111      8.5212     64.9594
  1166.4000      7.9722      2.5262      0.0657      7.5011     64.3681
  1166.5000      7.9663      2.5285      0.0786      7.3624     63.5248
  1166.6000      7.9663      2.5102      0.0689      8.4715     61.7818
  1166.7000      7.9663      2.4962      0.0611      9.3213     55.9007
  1166.8000      7.9415      2.4984      0.0905      9.1897     49.2615
  1166.9000      7.9415      2.5040      0.0855      8.8500     47.3979
  1167.0000      7.9218      2.5058      0.0968      8.7376     48.9951
  1167.1000      7.9218      2.5104      0.0792      8.4633     48.4940
  1167.2000      7.9218      2.5269      0.0663      7.4635     44.7166
  1167.3000      7.9346      2.5503      0.1195      6.0416     41.1485
  1167.4000      7.9346      2.5615      0.1476      5.3653     40.1247
  1167.5000      7.9397      2.5571      0.1018      5.6308     40.2128
  1167.6000      7.9397      2.5519      0.0855      5.9458     38.4165
  1167.7000      7.9397      2.5507      0.0815      6.0152     34.4470
  1167.8000      7.9469      2.5464      0.1085      6.2782     31.1906
  1167.9000      7.9469      2.5324      0.0853      7.1255     30.3391
  1168.0000      7.9532      2.5104      0.0795      8.4585     31.3617
  1168.1000      7.9532      2.4887      0.0387      9.7757     31.9481
  1168.2000      7.9532      2.4708      0.0343     10.8624     30.1663
  1168.3000      7.9538      2.4589      0.0132     11.5790     27.1257
  1168.4000      7.9538      2.4608      0.0326     11.4641     26.4281
  1168.5000      7.9567      2.4745      0.0502     10.6351     29.6888
  1168.6000      7.9567      2.4914      0.0615      9.6149     33.9516
  1168.7000      7.9567      2.5082      0.0747      8.5929     35.4205
