~Version Information
VERS.                      2.0: CWLS Log ASCII Standard - VERSION 2.0
WRAP.                       NO: One line per depth step
~Well Information Block
STRT.FT               410.0000: 
STOP.FT              1253.0000: 
STEP.FT                 0.1000: 
NULL.                -999.2500: 
COMP.          Petrogulf Corporation: COMPANY
WELL.           Parsons 15-23R: WELL
FLD.           Purgatorie River: FIELD
LOC.           2244' FSL & 1932' FWL: LOCATION
PROV.                 Colorado: PROVINCE
CNTY.               Las Animas: COUNTRY
SRVC.                Patterson: SERVICE COMPANY
DATE.          Mon Sep 12 10:28:25 2005: LOG DATE
UWI.                          : UNIQUE WELL ID
~Curve Information Block
DEPT.FT            0 000 00 00: Depth
DCAL.in                       : CDL Caliper
RHOB.g/cc                     : CDL Bulk Density
RHOC.g/cc                     : CDL Density Correction
DPOR.pu                       : CDL Density Porosity
GR.GAPI                       : Gamma Ray
NPOR.pu                       : Neutron Porosity
~Parameter Information Block
~A  Depth       DCAL        RHOB        RHOC        DPOR         GR         NPOR    
# ...
   851.6000      7.9118      2.4798      0.0411     10.3154    156.2410     27.6993
   851.7000      7.9118      2.4627     -0.0048     11.3506    157.7065     27.5051
   851.8000      7.9474      2.4334     -0.0062     13.1295    159.7440     27.4890
   851.9000      7.9474      2.3937      0.0019     15.5359    160.2889     27.6915
   852.0000      7.9658      2.3369      0.0209     18.9777    160.2187     28.1210
   852.1000      7.9658      2.2567     -0.0026     23.8367    157.8474     28.6151
   852.2000      7.9658      2.1519     -0.0176     30.1862    151.6639     28.7213
   852.3000      7.9687      2.0367     -0.1327     37.1689    144.5546     28.5104
   852.4000      7.9687      1.9400     -0.0883     43.0312    138.5085     28.6231
   852.5000      7.9936      1.8813     -0.1203     46.5892    132.8880     29.0213
   852.6000      7.9936      1.8662     -0.0930     47.5015    128.9878     29.1979
   852.7000      7.9936      1.8885     -0.0365     46.1518    126.5420     29.1579
   852.8000      8.0270      1.9461     -0.0006     42.6629    121.6935     29.2745
   852.9000      8.0270      2.0430      0.1451     36.7907    113.0210     29.6483
   853.0000      8.0587      2.1625      0.2203     29.5464    104.8994     30.0433
   853.1000      8.0587      2.2775      0.2494     22.5779    102.5600     30.2447
   853.2000      8.0587      2.3742      0.2187     16.7137    106.0106     30.1205
   853.3000      8.0114      2.4497      0.1786     12.1388    111.2846     29.5426
   853.4000      8.0114      2.4991      0.1600      9.1453    114.1469     28.5936
   853.5000      7.9491      2.5218      0.0407      7.7717    112.6919     27.4761
   853.6000      7.9491      2.5309      0.0161      7.2201    110.1616     26.2019
   853.7000      7.9491      2.5342      0.0381      7.0163    109.7014     24.9229
   853.8000      7.9302      2.5240      0.0683      7.6343    109.6894     24.0001
   853.9000      7.9302      2.5120     -0.0116      8.3646    108.2853     23.3961
   854.0000      7.9159      2.5247      0.0203      7.5933    108.3909     22.8488
   854.1000      7.9159      2.5482      0.0909      6.1697    113.7653     22.4437
   854.2000      7.9159      2.5561      0.0628      5.6882    120.7836     22.2243
   854.3000      7.8784      2.5610      0.0421      5.3953    124.1402     22.1661
   854.4000      7.8784      2.5773      0.0823      4.4068    125.7744     22.1150
   854.5000      7.8631      2.5930      0.0839      3.4542    127.1095     21.7662
   854.6000      7.8631      2.5980      0.0817      3.1498    125.4691     21.2502
   854.7000      7.8631      2.5946      0.0700      3.3561    121.7716     21.0345
   854.8000      7.9035      2.5858      0.0927      3.8881    117.3234     21.4089
   854.9000      7.9035      2.5727      0.0528      4.6856    111.8463     22.2149
   855.0000      7.9037      2.5631      0.0041      5.2658    108.7266     22.8267
   855.1000      7.9037      2.5672      0.0160      5.0153    109.5716     22.6564
   855.2000      7.9037      2.5744      0.0886      4.5824    111.0329     22.1122
   855.3000      7.9093      2.5728     -0.0057      4.6779    111.1431     22.0085
   855.4000      7.9093      2.5753      0.0237      4.5277    110.0586     22.3271
   855.5000      7.9243      2.5846      0.0836      3.9632    108.1650     22.7914
   855.6000      7.9243      2.5889      0.1044      3.7009    108.3488     23.2328
   855.7000      7.9243      2.5967      0.0344      3.2294    112.7416     23.5457
   855.8000      7.9113      2.6185      0.0864      1.9077    117.8078     23.6510
   855.9000      7.9113      2.6339      0.1394      0.9764    120.1117     23.3761
   856.0000      7.9131      2.6307      0.0542      1.1691    119.0123     22.8571
   856.1000      7.9131      2.6249      0.0743      1.5221    116.0219     22.4889
   856.2000      7.9131      2.6201      0.0687      1.8122    116.0595     22.3577
   856.3000      7.9182      2.6076      0.0797      2.5667    120.1999     22.4246
   856.4000      7.9182      2.5906      0.0639      3.6011    122.8322     22.6799
   856.5000      7.8540      2.5801      0.0939      4.2356    121.7378     22.7974
   856.6000      7.8540      2.5710      0.0958      4.7885    121.5780     22.7657
   856.7000      7.8540      2.5474      0.0910      6.2182    124.6685     23.0569
   856.8000      7.8231      2.5209      0.0370      7.8220    128.7263     23.5861
   856.9000      7.8231      2.5184      0.0469      7.9730    132.8767     24.0861
   857.0000      7.8201      2.5400      0.0612      6.6669    138.0332     24.8285
   857.1000      7.8201      2.5718      0.0829      4.7416    143.2778     25.6137
   857.2000      7.8201      2.6021      0.1481      2.9046    145.3135     25.7465
   857.3000      7.8606      2.6189      0.1223      1.8863    144.1547     25.3118
   857.4000      7.8606      2.6216      0.1326      1.7192    144.3690     24.9361
   857.5000      7.8881      2.6167      0.1432      2.0171    147.5569     24.9137
   857.6000      7.8881      2.6075      0.1197      2.5757    150.9515     25.2264
   857.7000      7.8881      2.5983      0.0602      3.1323    152.6765     25.5756
   857.8000      7.8966      2.5913      0.0773      3.5587    152.4534     25.6536
   857.9000      7.8966      2.5862      0.0428      3.8670    153.2048     25.6261
   858.0000      7.9074      2.5862      0.0243      3.8650    155.2509     25.8224
   858.1000      7.9074      2.5888      0.0772      3.7089    153.9830     26.2174
   858.2000      7.9074      2.5915      0.0334      3.5472    148.3609     26.3418
   858.3000      7.9092      2.5960      0.0615      3.2713    142.0731     25.9431
   858.4000      7.9092      2.5944      0.0732      3.3721    137.4779     25.3736
   858.5000      7.9125      2.5885      0.0300      3.7275    134.0800     24.9953
   858.6000      7.9125      2.5967      0.0587      3.2301    132.4679     24.6793
   858.7000      7.9125      2.6231      0.0732      1.6284    130.7937     24.2601
   858.8000      7.8537      2.6508      0.1463     -0.0497    125.9460     23.7469
   858.9000      7.8537      2.6600      0.1141     -0.6080    120.2755     23.1646
   859.0000      7.8338      2.6483      0.0653      0.1030    116.7757     22.6851
   859.1000      7.8338      2.6252      0.0977      1.5010    113.5064     22.2592
   859.2000      7.8338      2.6021      0.0393      2.9021    109.7121     21.6180
   859.3000      7.8214      2.5940      0.0341      3.3963    106.9704     20.9466
   859.4000      7.8214      2.6005      0.0471      3.0011    105.2420     20.6781
   859.5000      7.8230      2.6033      0.0565      2.8313    104.7009     20.8744
   859.6000      7.8230      2.5942      0.0241      3.3839    107.2671     21.1926
   859.7000      7.8230      2.5802      0.0364      4.2283    113.4035     21.3341
   859.8000      7.8231      2.5709      0.0429      4.7946    120.5154     21.5297
   859.9000      7.8231      2.5735      0.0477      4.6359    127.6097     21.9834
   860.0000      7.8247      2.5862      0.1000      3.8679    135.2038     22.3466
   860.1000      7.8247      2.6004      0.0661      3.0065    141.5546     22.6022
   860.2000      7.8247      2.6029      0.1156      2.8574    145.5244     23.3028
   860.3000      7.8602      2.5826      0.0527      4.0854    146.5226     24.4916
   860.4000      7.8602      2.5543      0.0241      5.7988    149.1195     25.6344
   860.5000      7.9277      2.5398      0.0476      6.6770    161.0786     26.4914
   860.6000      7.9277      2.5386      0.0897      6.7522    175.2139     27.1266
   860.7000      7.9277      2.5416      0.0765      6.5696    179.0614     27.5775
   860.8000      7.9160      2.5461      0.1096      6.2957    172.7704     27.7510
   860.9000      7.9160      2.5541      0.0528      5.8094    162.9668     27.7124
   861.0000      7.8303      2.5677      0.0837      4.9909    157.2434     27.7678
   861.1000      7.8303      2.5870      0.0590      3.8178    159.3388     27.9705
