~Version Information
VERS.                      2.0: CWLS Log ASCII Standard - VERSION 2.0
WRAP.                       NO: One line per depth step
~Well Information Block
STRT.FT                10.0000: 
STOP.FT              1665.0000: 
STEP.FT                 0.1000: 
NULL.                -999.2500: 
COMP.          Pioneer Natural Resources: COMPANY
WELL.          Stock Canyon 34-33: WELL
FLD.           Purgatorie River: FIELD
LOC.           980' FSL & 2191' FEL: LOCATION
PROV.                 Colorado: PROVINCE
CNTY.               Las Animas: COUNTRY
SRVC.                Patterson: SERVICE COMPANY
DATE.          Mon Dec 05 10:33:50 2005: LOG DATE
UWI.                          : UNIQUE WELL ID
~Curve Information Block
DEPT.FT            0 000 00 00: Depth
DCAL.in                       : CDL Caliper
RHOB.g/cc                     : CDL Bulk Density
RHOC.g/cc                     : CDL Density Correction
DPOR.pu                       : CDL Density Porosity
GR.GAPI                       : Gamma Ray
NPOR.pu                       : Neutron Porosity
~Parameter Information Block
~A  Depth       DCAL        RHOB        RHOC        DPOR         GR         NPOR    
# ...
   883.6000      8.0335      2.7304      0.1279     -4.8751    114.3013     27.5010
   883.7000      8.0335      2.7043      0.0052     -3.2920    115.4363     27.6445
   883.8000      8.0136      2.6921     -0.0269     -2.5539    116.9488     27.6204
   883.9000      8.0136      2.6843     -0.0159     -2.0815    116.6874     27.4684
   884.0000      8.0133      2.6591     -0.0158     -0.5514    115.9857     27.3446
   884.1000      8.0133      2.6203     -0.0675      1.8022    117.0440     27.3157
   884.2000      8.0133      2.5827     -0.0003      4.0804    132.7692     27.1696
   884.3000      8.0505      2.5457     -0.0035      6.3212    132.4250     26.8262
   884.4000      8.0505      2.5010     -0.0306      9.0305    129.1223     26.3255
   884.5000      8.0469      2.4595     -0.0685     11.5425    127.2898     25.5271
   884.6000      8.0469      2.4528     -0.0748     11.9514    130.7051     24.7099
   884.7000      8.0469      2.4873      0.0053      9.8584    137.0198     24.5332
   884.8000      8.0684      2.5271      0.0758      7.4463    142.2545     24.9667
   884.9000      8.0684      2.5443      0.0906      6.4033    143.5601     25.3897
   885.0000      8.0534      2.5453      0.0677      6.3452    141.5596     25.5722
   885.1000      8.0534      2.5397      0.0617      6.6821    142.0337     25.5458
   885.2000      8.0534      2.5309      0.0621      7.2182    161.1472     25.3493
   885.3000      8.0624      2.5249      0.0743      7.5835    162.4319     25.1247
   885.4000      8.0624      2.5174      0.0797      8.0378    160.0075     24.7936
   885.5000      8.0923      2.4999      0.0665      9.0951    158.2949     24.2136
   885.6000      8.0923      2.4695      0.0443     10.9385    160.1718     23.9098
   885.7000      8.0923      2.4104      0.0781     14.5228    165.9190     24.6042
   885.8000      8.1278      2.3049      0.0301     20.9144    172.6323     25.5732
   885.9000      8.1278      2.1571      0.0199     29.8729    175.5847     25.6527
   886.0000      8.1558      1.9785     -0.0516     40.6964    174.1382     25.6736
   886.1000      8.1558      1.7733     -0.0642     53.1310    172.2200     26.8394
   886.2000      8.1558      1.5360     -0.1508     67.5176    195.1259     27.9656
   886.3000      8.1641      1.2696     -0.2164     83.6624    194.2644     27.0790
   886.4000      8.1641      0.9959     -0.2290    100.2458    199.1111     24.5350
   886.5000      8.1944      0.7586     -0.3642    114.6293    210.1974     22.2310
   886.6000      8.1944      0.6477     -0.5656    121.3506    220.6255     21.1751
   886.7000      8.1944      0.7473     -0.3359    115.3129    224.7749     21.0225
   886.8000      8.2981      1.0402     -0.1011     97.5660    222.6623     21.5896
   886.9000      8.2981      1.4325      0.2628     73.7867    217.0853     22.9148
   887.0000      8.6714      1.8192      0.4746     50.3522    213.1472     23.9812
   887.1000      8.6714      2.1228      0.5925     31.9538    212.9759     23.6697
   887.2000      8.6714      2.3289      0.6720     19.4627    210.2441     21.9699
   887.3000      9.2445      2.4659      0.7061     11.1556    202.1483     20.4455
   887.4000      9.2445      2.5459      0.7279      6.3106    195.7682     21.3362
   887.5000      9.2318      2.5658      0.6839      5.1046    194.5624     25.2533
   887.6000      9.2318      2.5496      0.5767      6.0860    194.7527     30.2772
   887.7000      9.2318      2.5337      0.4465      7.0479    194.7158     33.7781
   887.8000      8.9773      2.5259      0.4337      7.5211    196.1211     34.8761
   887.9000      8.9773      2.5131      0.4043      8.2970    201.6053     34.5655
   888.0000      8.4356      2.5008      0.2577      9.0402    208.7337     34.4533
   888.1000      8.4356      2.5069      0.2655      8.6738    208.4044     35.1149
   888.2000      8.4356      2.5252      0.2768      7.5629    199.1774     35.8197
   888.3000      8.3384      2.5400      0.2163      6.6679    189.9253     35.6072
   888.4000      8.3384      2.5428      0.2655      6.4996    188.7748     33.8543
   888.5000      8.4152      2.5226      0.2593      7.7233    194.2190     29.5517
   888.6000      8.4152      2.4903      0.1175      9.6798    198.1166     28.9920
   888.7000      8.4152      2.4799      0.1726     10.3109    199.1626     29.9546
   888.8000      8.2440      2.4928      0.2127      9.5262    200.4651     31.1474
   888.9000      8.2440      2.4971      0.2176      9.2663    200.2142     31.2707
   889.0000      8.1968      2.4792      0.1727     10.3542    194.2590     30.0572
   889.1000      8.1968      2.4598      0.1227     11.5302    183.5676     28.7066
   889.2000      8.1968      2.4676      0.0904     11.0544    173.9492     28.9746
   889.3000      8.1741      2.5014      0.2061      9.0086    168.6501     30.1905
   889.4000      8.1741      2.5281      0.2255      7.3891    168.9855     30.5619
   889.5000      8.1817      2.5368      0.2095      6.8626    173.7620     29.8834
   889.6000      8.1817      2.5421      0.2382      6.5381    177.7682     29.5393
   889.7000      8.1817      2.5417      0.2553      6.5653    180.5324     30.4194
   889.8000      8.2331      2.5318      0.2084      7.1606    183.7255     31.4197
   889.9000      8.2331      2.5307      0.1639      7.2316    186.7875     31.4776
   890.0000      8.3127      2.5395      0.1993      6.6987    189.9013     30.3012
   890.1000      8.3127      2.5426      0.1384      6.5106    190.6535     27.9224
   890.2000      8.3127      2.5488      0.1095      6.1318    186.1290     25.5665
   890.3000      8.1948      2.5619      0.2010      5.3386    180.3699     26.0056
   890.4000      8.1948      2.5538      0.1973      5.8288    176.6457     28.7088
   890.5000      8.1776      2.5104      0.1925      8.4576    172.0782     30.8099
   890.6000      8.1776      2.4512      0.1065     12.0502    165.7335     31.2315
   890.7000      8.1776      2.3942      0.1783     15.5044    160.1130     30.0965
   890.8000      8.1801      2.3415      0.0338     18.6999    155.3351     28.7187
   890.9000      8.1801      2.2920      0.0213     21.6968    149.4347     28.9937
   891.0000      8.1773      2.2277      0.0172     25.5959    143.4999     30.3374
   891.1000      8.1773      2.1286      0.0208     31.6029    139.9409     31.0697
   891.2000      8.1773      2.0217     -0.0023     38.0815    138.7090     31.2310
   891.3000      8.2071      1.9767      0.0239     40.8082    139.2827     31.3568
   891.4000      8.2071      2.0366      0.2412     37.1784    142.2185     31.2970
   891.5000      8.4064      2.1611      0.4179     29.6325    146.5073     30.7320
   891.6000      8.4064      2.2764      0.4387     22.6423    148.6651     29.6938
   891.7000      8.4064      2.3749      0.3380     16.6755    147.8352     28.2255
   891.8000      8.5744      2.4866      0.4731      9.9029    145.8513     26.0899
   891.9000      8.5744      2.5900      0.5789      3.6392    143.3933     23.9603
   892.0000      8.4990      2.6380      0.5476      0.7286    141.8496     24.5436
   892.1000      8.4990      2.6213      0.3500      1.7369    141.2341     27.9258
   892.2000      8.4990      2.5549      0.2787      5.7630    139.2588     30.8586
   892.3000      8.2251      2.4548      0.1078     11.8319    138.3805     32.2176
   892.4000      8.2251      2.3593     -0.1093     17.6205    143.0378     32.3408
   892.5000      8.1950      2.3170     -0.1803     20.1812    150.0655     31.8014
   892.6000      8.1950      2.3327     -0.0684     19.2293    154.1516     30.7978
   892.7000      8.1950      2.3667      0.0279     17.1709    156.7305     29.6109
   892.8000      8.2543      2.3963      0.0578     15.3782    160.0341     28.9673
   892.9000      8.2543      2.4267      0.1748     13.5316    162.3484     28.7809
   893.0000      8.4111      2.4546      0.2672     11.8417    163.0121     27.7913
   893.1000      8.4111      2.4742      0.2632     10.6530    164.1092     26.0494
