~Version Information
VERS.                      2.0: CWLS Log ASCII Standard - VERSION 2.0
WRAP.                       NO: One line per depth step
~Well Information Block
STRT.FT               480.0000: 
STOP.FT              1946.0000: 
STEP.FT                 0.1000: 
NULL.                -999.2500: 
COMP.          XTO Energy Inc.: COMPANY
WELL.          Golden Eagle 19-15: WELL
FLD.           Purgatoire River: FIELD
LOC.           1121' FSL & 2332' FEL--: LOCATION
CNTY.               Las Animas: COUNTY
SRVC.                Patterson: SERVICE COMPANY
DATE.          Mon Mar 13 10:27:20 2006: LOG DATE
UWI.           05 071 08717 00: UNIQUE WELL ID
STAT.                 Colorado: STATE
~Curve Information Block
DEPT.FT            0 000 00 00: Depth
DCAL.in                       : CDL Caliper
RHOB.g/cc                     : CDL Bulk Density
RHOC.g/cc                     : CDL Density Correction
DPOR.pu                       : CDL Density Porosity
NPOR.pu                       : Neutron Porosity
GR.GAPI                       : Gamma Ray
~Parameter Information Block
~A  Depth       DCAL        RHOB        RHOC        DPOR        NPOR         GR     
# ...
   864.0000      8.0007      2.5028     -0.0449      8.9215     23.4781    136.4064
   864.1000      8.0007      2.5315     -0.0008      7.1795     23.3155    134.9938
   864.2000      8.0007      2.5675      0.0401      5.0000     23.3219    133.1867
   864.3000      8.0026      2.5822      0.0458      4.1069     23.2996    125.4567
   864.4000      8.0026      2.5842      0.0177      3.9907     23.2852    116.7158
   864.5000      8.0029      2.5890      0.0401      3.6964     23.6464    115.9545
   864.6000      8.0029      2.5912      0.0304      3.5626     24.4531    122.6346
   864.7000      8.0029      2.5824      0.0379      4.0971     25.3877    128.0116
   864.8000      8.0027      2.5680     -0.0451      4.9686     25.9465    125.8853
   864.9000      8.0027      2.5629     -0.0279      5.2814     25.9061    121.1222
   865.0000      8.0019      2.5696      0.0133      4.8701     25.7404    121.6357
   865.1000      8.0019      2.5725     -0.0031      4.6988     25.8901    127.6538
   865.2000      8.0019      2.5608     -0.0342      5.4066     26.2426    132.8540
   865.3000      7.9998      2.5472     -0.0215      6.2293     26.3820    133.5907
   865.4000      7.9998      2.5452      0.0152      6.3498     26.1281    132.8676
   865.5000      7.9991      2.5467      0.0153      6.2610     25.6714    134.3523
   865.6000      7.9991      2.5412      0.0145      6.5952     25.2207    137.4284
   865.7000      7.9991      2.5327     -0.0266      7.1078     24.8676    142.0123
   865.8000      7.9987      2.5238      0.0294      7.6461     24.4857    148.0886
   865.9000      7.9987      2.5073     -0.0057      8.6461     24.1645    150.3220
   866.0000      7.9989      2.4862      0.0260      9.9266     24.1461    145.8803
   866.1000      7.9989      2.4745     -0.0226     10.6364     24.1668    140.5379
   866.2000      7.9989      2.4804      0.0199     10.2759     23.7314    137.0981
   866.3000      8.0003      2.4958      0.0365      9.3456     22.9220    135.0231
   866.4000      8.0003      2.5087      0.0536      8.5665     22.2814    136.6454
   866.5000      8.0024      2.5203      0.0385      7.8578     22.1213    138.3611
   866.6000      8.0024      2.5369      0.0411      6.8552     22.2085    136.0446
   866.7000      8.0024      2.5562      0.0552      5.6831     22.1197    132.4952
   866.8000      8.0045      2.5748      0.0538      4.5566     21.7474    129.0346
   866.9000      8.0045      2.5812      0.0964      4.1695     21.4030    124.2623
   867.0000      8.0047      2.5625      0.0274      5.3022     21.4226    120.1394
   867.1000      8.0047      2.5363      0.0187      6.8916     21.6428    121.6093
   867.2000      8.0047      2.5293      0.0314      7.3142     21.7685    127.4990
   867.3000      8.0008      2.5372      0.0785      6.8382     21.8259    130.2453
   867.4000      8.0008      2.5439      0.0627      6.4330     21.9602    127.5309
   867.5000      7.9964      2.5555      0.0201      5.7296     22.2765    123.8174
   867.6000      7.9964      2.5791      0.0006      4.2956     22.8754    122.2652
   867.7000      7.9964      2.6012      0.0425      2.9578     23.7198    122.0208
   867.8000      7.9958      2.6136      0.0535      2.2049     24.3682    120.6770
   867.9000      7.9958      2.6242      0.0494      1.5650     24.7460    118.5508
   868.0000      7.9956      2.6253      0.1001      1.4975     25.2421    118.8788
   868.1000      7.9956      2.6019      0.0765      2.9136     25.5990    120.0646
   868.2000      7.9956      2.5687      0.0406      4.9253     25.5171    117.3010
   868.3000      7.9964      2.5500      0.0484      6.0604     25.3724    111.8890
   868.4000      7.9964      2.5479      0.0506      6.1883     25.3848    108.2079
   868.5000      7.9989      2.5555      0.0205      5.7290     25.4619    109.3000
   868.6000      7.9989      2.5629      0.0423      5.2781     25.5436    113.3374
   868.7000      7.9989      2.5546      0.0089      5.7820     25.4701    116.1237
   868.8000      8.0014      2.5333     -0.0034      7.0718     25.0985    120.3435
   868.9000      8.0014      2.5249     -0.0187      7.5830     24.7586    128.8634
   869.0000      8.0028      2.5403      0.0208      6.6488     24.5382    136.7084
   869.1000      8.0028      2.5534      0.0785      5.8517     24.1372    139.8980
   869.2000      8.0028      2.5446      0.0213      6.3874     23.8554    139.9045
   869.3000      8.0028      2.5337     -0.0075      7.0465     24.0499    139.1702
   869.4000      8.0028      2.5355      0.0637      6.9406     24.2922    138.7950
   869.5000      8.0015      2.5386      0.0472      6.7499     23.7720    140.2246
   869.6000      8.0015      2.5399      0.0398      6.6708     22.5674    144.2810
   869.7000      8.0015      2.5402      0.0816      6.6559     21.6176    148.3851
   869.8000      7.9991      2.5330      0.0611      7.0884     21.2550    152.1788
   869.9000      7.9991      2.5220      0.0297      7.7576     21.1966    157.7984
   870.0000      7.9978      2.5124      0.0084      8.3403     21.1520    160.1130
   870.1000      7.9978      2.4957      0.0386      9.3509     20.8595    155.6120
   870.2000      7.9978      2.4728      0.0010     10.7413     20.2098    151.0287
   870.3000      7.9985      2.4646      0.0252     11.2381     19.5834    151.3981
   870.4000      7.9985      2.4776      0.0387     10.4488     19.4481    154.8417
   870.5000      7.9985      2.4982      0.0496      9.1989     19.6256    154.6982
   870.6000      7.9985      2.5129      0.1060      8.3080     19.5279    145.9663
   870.7000      7.9985      2.5183      0.0678      7.9838     18.9964    135.8042
   870.8000      7.9978      2.5251      0.0560      7.5694     18.5832    132.1543
   870.9000      7.9978      2.5386      0.0729      6.7502     18.7159    129.3806
   871.0000      7.9957      2.5538      0.0709      5.8331     19.0176    123.6998
   871.1000      7.9957      2.5650      0.1017      5.1518     19.0610    121.2917
   871.2000      7.9957      2.5661      0.0960      5.0874     18.8601    122.8379
   871.3000      7.9931      2.5632      0.0558      5.2601     18.8437    124.3283
   871.4000      7.9931      2.5760      0.0658      4.4866     19.3967    121.9202
   871.5000      7.9925      2.6082      0.0788      2.5330     20.3078    114.3952
   871.6000      7.9925      2.6418      0.0875      0.4964     21.1247    106.6819
   871.7000      7.9925      2.6612      0.1089     -0.6787     21.7126    103.0679
   871.8000      7.9948      2.6611      0.0993     -0.6723     22.1836    102.9297
   871.9000      7.9948      2.6387      0.1016      0.6850     22.5941    102.9164
   872.0000      7.9979      2.6039      0.0310      2.7943     22.8918    100.2163
   872.1000      7.9979      2.5889     -0.0029      3.7009     23.1951     96.2318
   872.2000      7.9979      2.6115      0.0392      2.3360     23.7114     95.7476
   872.3000      7.9985      2.6459      0.0794      0.2459     24.4013     98.1871
   872.4000      7.9985      2.6639      0.0728     -0.8399     25.1847     98.6297
   872.5000      7.9968      2.6678      0.0700     -1.0791     25.9157     97.2020
   872.6000      7.9968      2.6704      0.0362     -1.2383     26.4603     96.1371
   872.7000      7.9968      2.6720      0.0623     -1.3364     26.8311     93.0143
   872.8000      7.9970      2.6658      0.0296     -0.9561     26.9090     89.0443
   872.9000      7.9970      2.6474      0.0592      0.1562     26.7428     90.9071
   873.0000      7.9992      2.6184      0.0226      1.9177     26.7756     98.0838
   873.1000      7.9992      2.5911      0.0215      3.5726     27.2565    104.4832
   873.2000      7.9992      2.5762      0.0511      4.4756     27.8154    109.6557
   873.3000      7.9993      2.5685      0.0169      4.9420     27.9130    115.8363
   873.4000      7.9993      2.5594      0.0506      5.4912     27.5246    122.4959
   873.5000      7.9977      2.5475      0.0364      6.2106     26.9376    128.0256
