~Version Information
VERS.                      2.0: CWLS Log ASCII Standard - VERSION 2.0
WRAP.                       NO: One line per depth step
~Well Information Block
STRT.FT               525.0000: 
STOP.FT              2377.2500: 
STEP.FT                 0.2500: 
NULL.                -999.2500: 
COMP.          Pioneer Natural Resources: COMPANY
WELL.          Sparrowhawk 22-12: WELL
FLD.           Purgatoire River: FIELD
LOC.           2049' FNL & 2060' FWL--: LOCATION
CNTY.               Las Animas: COUNTY
SRVC.                Patterson: SERVICE COMPANY
DATE.          Thu Mar 23 10:52:44 2006: LOG DATE
UWI.           05 071 08484 00: UNIQUE WELL ID
STAT.                 Colorado: STATE
~Curve Information Block
DEPT.FT            0 000 00 00: Depth
SN.Ohm-m                      : IEL Short Normal
SP.mV                         : IEL Spontaneous Potential
DIR.Ohm-m                     : IEL Induction Resistivity
GR.GAPI                       : Gamma Ray
~Parameter Information Block
~A  Depth        SN          SP         DIR          GR     
# ...
  1865.0000      7.8766     97.6125      6.4596    127.3544
  1865.2500      7.8206     97.8624      6.5441    130.4135
  1865.5000      7.7914     98.1278      6.6576    135.6054
  1865.7500      7.8305     98.4044      6.8118    138.7949
  1866.0000      7.9815     98.6869      7.0166    142.1573
  1866.2500      8.2807     98.9703      7.2803    143.1198
  1866.5000      8.7449     99.2516      7.6097    142.1155
  1866.7500      9.3633     99.5317      8.0124    139.3512
  1867.0000     10.1075     99.8153      8.4980    131.5743
  1867.2500     10.9546    100.1088      9.0786    124.4449
  1867.5000     11.9106    100.4156      9.7683    113.1785
  1867.7500     13.0108    100.7314     10.5809    106.8484
  1868.0000     14.2907    101.0402     11.5261    100.4314
  1868.2500     15.7403    101.3151     12.6018     97.9684
  1868.5000     17.2679    101.5229     13.7833     95.9159
  1868.7500     18.6996    101.6326     15.0107     95.1302
  1869.0000     19.8311    101.6239     16.1809     94.0680
  1869.2500     20.5106    101.4935     17.1590     92.9444
  1869.5000     20.7036    101.2566     17.8176     90.2928
  1869.7500     20.4975    100.9432     18.0936     88.4052
  1870.0000     20.0475    100.5916     18.0185     87.3880
  1870.2500     19.5054    100.2407     17.6944     89.0212
  1870.5000     18.9688     99.9237     17.2395     95.2322
  1870.7500     18.4708     99.6647     16.7489    100.7803
  1871.0000     18.0074     99.4774     16.2838    107.8756
  1871.2500     17.5782     99.3659     15.8794    109.9987
  1871.5000     17.2114     99.3270     15.5541    108.1768
  1871.7500     16.9618     99.3524     15.3175    104.2660
  1872.0000     16.8878     99.4310     15.1784     96.4629
  1872.2500     17.0240     99.5507     15.1517     91.1235
  1872.5000     17.3681     99.6998     15.2607     84.2515
  1872.7500     17.8931     99.8679     15.5323     80.7899
  1873.0000     18.5688    100.0461     15.9884     77.3209
  1873.2500     19.3700    100.2267     16.6373     76.0312
  1873.5000     20.2633    100.4033     17.4666     75.1741
  1873.7500     21.1937    100.5698     18.4403     74.7699
  1874.0000     22.0943    100.7214     19.4970     73.3611
  1874.2500     22.9128    100.8535     20.5548     71.7622
  1874.5000     23.6336    100.9633     21.5232     69.2447
  1874.7500     24.2789    101.0496     22.3256     68.0893
  1875.0000     24.8872    101.1138     22.9255     67.3979
  1875.2500     25.4852    101.1600     23.3383     67.4157
  1875.5000     26.0695    101.1944     23.6188     67.8710
  1875.7500     26.6054    101.2238     23.8293     68.4891
  1876.0000     27.0379    101.2542     24.0095     69.9928
  1876.2500     27.3071    101.2884     24.1641     71.2873
  1876.5000     27.3650    101.3254     24.2713     73.1887
  1876.7500     27.1885    101.3600     24.3043     74.0623
  1877.0000     26.7887    101.3844     24.2505     74.3234
  1877.2500     26.2118    101.3911     24.1173     73.7817
  1877.5000     25.5304    101.3751     23.9216     72.3296
  1877.7500     24.8217    101.3370     23.6740     71.3117
  1878.0000     24.1354    101.2826     23.3653     70.2282
  1878.2500     23.4692    101.2228     22.9629     69.9427
  1878.5000     22.7733    101.1712     22.4193     70.2247
  1878.7500     21.9868    101.1412     21.6946     70.9434
  1879.0000     21.0832    101.1436     20.7805     73.1133
  1879.2500     20.0909    101.1855     19.7086     75.4355
  1879.5000     19.0760    101.2692     18.5394     80.0230
  1879.7500     18.1035    101.3928     17.3419     83.5236
  1880.0000     17.2086    101.5504     16.1791     89.3097
  1880.2500     16.3932    101.7335     15.0999     93.7045
  1880.5000     15.6429    101.9310     14.1364    101.1721
  1880.7500     14.9460    102.1309     13.3023    106.4090
  1881.0000     14.3032    102.3212     12.5953    113.6620
  1881.2500     13.7239    102.4904     12.0050    117.4911
  1881.5000     13.2152    102.6293     11.5218    121.1379
  1881.7500     12.7730    102.7312     11.1413    122.3339
  1882.0000     12.3830    102.7928     10.8612    123.3482
  1882.2500     12.0270    102.8132     10.6761    124.1410
  1882.5000     11.6908    102.7941     10.5739    125.5755
  1882.7500     11.3681    102.7390     10.5362    126.0724
  1883.0000     11.0659    102.6522     10.5407    125.0473
  1883.2500     10.8081    102.5390     10.5629    123.1875
  1883.5000     10.6301    102.4056     10.5753    119.6050
  1883.7500     10.5582    102.2582     10.5499    117.3421
  1884.0000     10.5868    102.1033     10.4651    115.0588
  1884.2500     10.6719    101.9463     10.3144    114.6447
  1884.5000     10.7498    101.7911     10.1112    115.6096
  1884.7500     10.7696    101.6393      9.8829    116.8359
  1885.0000     10.7107    101.4907      9.6581    118.9303
  1885.2500     10.5730    101.3442      9.4549    120.6079
  1885.5000     10.3562    101.1987      9.2766    123.6877
  1885.7500     10.0510    101.0544      9.1165    125.4901
  1886.0000      9.6494    100.9133      8.9667    125.9680
  1886.2500      9.1609    100.7790      8.8263    124.3441
  1886.5000      8.6280    100.6565      8.7015    120.4057
  1886.7500      8.1317    100.5510      8.6026    118.2092
  1887.0000      7.7772    100.4672      8.5372    116.8180
  1887.2500      7.6518    100.4094      8.5058    116.7206
  1887.5000      7.7759    100.3805      8.5010    116.1731
  1887.7500      8.0814    100.3821      8.5077    114.9558
  1888.0000      8.4426    100.4146      8.5078    112.2069
  1888.2500      8.7406    100.4767      8.4849    110.4712
  1888.5000      8.9147    100.5657      8.4290    108.9582
  1888.7500      8.9684    100.6773      8.3394    108.6901
  1889.0000      8.9401    100.8059      8.2233    108.8864
  1889.2500      8.8683    100.9456      8.0927    109.2408
  1889.5000      8.7750    101.0904      7.9607    110.1468
  1889.7500      8.6683    101.2353      7.8379    110.9557
  1890.0000      8.5543    101.3764      7.7310    112.2519
  1890.2500      8.4443    101.5112      7.6423    113.2377
  1890.5000      8.3538    101.6384      7.5706    115.3831
  1890.7500      8.2954    101.7575      7.5134    117.3045
  1891.0000      8.2748    101.8691      7.4699    120.1167
  1891.2500      8.2916    101.9748      7.4426    121.4459
  1891.5000      8.3430    102.0767      7.4380    122.9692
  1891.7500      8.4246    102.1775      7.4652    124.4501
  1892.0000      8.5283    102.2797      7.5333    127.9960
  1892.2500      8.6420    102.3849      7.6474    130.6147
  1892.5000      8.7525    102.4934      7.8060    132.9398
  1892.7500      8.8456    102.6041      8.0002    132.5567
  1893.0000      8.9077    102.7149      8.2152    128.7635
  1893.2500      8.9323    102.8231      8.4340    124.5045
  1893.5000      8.9293    102.9268      8.6415    117.0579
  1893.7500      8.9242    103.0251      8.8271    112.5965
  1894.0000      8.9467    103.1189      8.9849    108.4815
  1894.2500      9.0159    103.2106      9.1109    107.9270
  1894.5000      9.1311    103.3041      9.2003    110.0545
  1894.7500      9.2701    103.4041      9.2472    112.8655
  1895.0000      9.3939    103.5153      9.2471    118.0136
  1895.2500      9.4571    103.6419      9.2002    121.3823
  1895.5000      9.4236    103.7865      9.1134    125.1716
  1895.7500      9.2807    103.9496      8.9977    126.3240
  1896.0000      9.0441    104.1295      8.8652    125.9771
  1896.2500      8.7479    104.3221      8.7257    125.0352
  1896.5000      8.4291    104.5213      8.5859    124.1010
  1896.7500      8.1208    104.7196      8.4510    124.3047
  1897.0000      7.8529    104.9091      8.3252    125.8950
  1897.2500      7.6531    105.0829      8.2114    127.7703
  1897.5000      7.5398    105.2356      8.1089    131.8851
  1897.7500      7.5092    105.3646      8.0125    135.2244
  1898.0000      7.5307    105.4703      7.9136    139.5474
  1898.2500      7.5546    105.5558      7.8029    140.8046
