~Version Information
VERS.                      2.0: CWLS Log ASCII Standard - VERSION 2.0
WRAP.                       NO: One line per depth step
~Well Information Block
STRT.FT                -8.2500: 
STOP.FT              1653.2500: 
STEP.FT                 0.2500: 
NULL.                -999.2500: 
COMP.          Pioneer Natural Resources: COMPANY
WELL.            Relay 12-7 Tr: WELL
FLD.           Purgatorie River: FIELD
LOC.           2025' FNL & 790' FWL--: LOCATION
PROV.                       CO: PROVINCE
CNTY.               Las Animas: COUNTRY
SRVC.          Patterson Wireline: SERVICE COMPANY
DATE.          Tue Jan 24 10:25:08 2006: LOG DATE
UWI.           05 071 08603 00: UNIQUE WELL ID
~Curve Information Block
DEPT.FT            0 000 00 00: Depth
CCL.                          : Casing Collar Locator
TT3.usec                      : CBL 3' Travel Time
AMP3.mV                       : CBL 3' Amplitude
GR.GAPI                       : Gamma Ray
~Parameter Information Block
~A  Depth       CCL         TT3         AMP3         GR     
# ...
  1633.2500      0.0000    690.7491      3.6998    112.2363
  1633.5000      0.0000    690.5860      3.7063    107.2575
  1633.7500      0.0000    690.2598      3.6816    103.2638
  1634.0000      0.0000    689.1698      3.6357    100.8020
  1634.2500      0.0000    685.5344      3.5825     99.9856
  1634.5000      0.0000    675.5037      3.5332    100.4541
  1634.7500      0.0000    653.3918      3.4916    101.5640
  1635.0000      0.0000    614.7657      3.4594    102.6982
  1635.2500      0.0000    561.4628      3.4421    103.3805
  1635.5000      0.0000    503.4278      3.4456    103.1526
  1635.7500      0.0000    453.5557      3.4678    101.6444
  1636.0000      0.0000    419.6172      3.5006     98.9829
  1636.2500      0.0000    401.1517      3.5371     95.9205
  1636.5000      0.0000    392.9244      3.5741     93.2534
  1636.7500      0.0000    389.7363      3.6105     91.0679
  1637.0000      0.0000    388.4683      3.6473     88.6348
  1637.2500      0.0000    387.7470      3.6887     85.0826
  1637.5000      0.0000    387.1292      3.7358     80.3584
  1637.7500      0.0000    386.6005      3.7825     75.7674
  1638.0000      0.0000    386.3051      3.8191     73.4004
  1638.2500      0.0000    386.4600      3.8402     74.3029
  1638.5000      0.0000    387.4531      3.8463     76.6523
  1638.7500      0.0000    389.9360      3.8396     76.0210
  1639.0000      0.0000    394.4881      3.8211     68.3437
  1639.2500      0.0000    401.0096      3.7912     53.3597
  1639.5000      0.0000    408.9159      3.7556     35.1747
  1639.7500      0.0000    418.7269      3.7310     19.2100
  1640.0000      0.0000    433.4101      3.7410      8.5752
  1640.2500      0.0000    456.6663      3.7990      3.0971
  1640.5000      0.0000    487.8395      3.8944      0.8977
  1640.7500      0.0000    518.0103      3.9978      0.2071
  1641.0000      0.0000    533.4609      4.0836      0.0373
  1641.2500      0.0000    526.4831      4.1445      0.0046
  1641.5000      0.0000    503.1332      4.1854      0.0000
  1641.7500      0.0000    477.8399      4.2060   -999.2500
  1642.0000      0.0000    459.9431      4.1967   -999.2500
  1642.2500      0.0000    447.7418      4.1509   -999.2500
  1642.5000      0.0000    435.3092      4.0765   -999.2500
  1642.7500      0.0000    420.9823      3.9943   -999.2500
  1643.0000      0.0000    407.4823      3.9273   -999.2500
  1643.2500      0.0000    397.2143      3.8916   -999.2500
  1643.5000      0.0000    390.1975      3.8880   -999.2500
  1643.7500      0.0000    384.5948      3.8907   -999.2500
  1644.0000      0.0000    375.7688      3.8348   -999.2500
  1644.2500      0.0000    354.7337      3.6221   -999.2500
  1644.5000      0.0000    311.4760      3.1654   -999.2500
  1644.7500      0.0000    244.0620      2.4660   -999.2500
  1645.0000      0.0000    164.5644      1.6555   -999.2500
  1645.2500      0.0000     92.8445      0.9317   -999.2500
  1645.5000      0.0000     42.9482      0.4306   -999.2500
  1645.7500      0.0000     16.0565      0.1610   -999.2500
  1646.0000      0.0000      4.8018      0.0482   -999.2500
  1646.2500      0.0000      1.1389      0.0114   -999.2500
  1646.5000      0.0000      0.2110      0.0021   -999.2500
  1646.7500      0.0000      0.0281      0.0003   -999.2500
  1647.0000      0.0000   -999.2500   -999.2500   -999.2500
  1647.2500      0.0000   -999.2500   -999.2500   -999.2500
  1647.5000      0.0000   -999.2500   -999.2500   -999.2500
  1647.7500      0.0000   -999.2500   -999.2500   -999.2500
  1648.0000      0.0000   -999.2500   -999.2500   -999.2500
  1648.2500      0.0000   -999.2500   -999.2500   -999.2500
  1648.5000      0.0000   -999.2500   -999.2500   -999.2500
  1648.7500      0.0000   -999.2500   -999.2500   -999.2500
  1649.0000      0.0000   -999.2500   -999.2500   -999.2500
  1649.2500      0.0000   -999.2500   -999.2500   -999.2500
  1649.5000      0.0000   -999.2500   -999.2500   -999.2500
  1649.7500      0.0000   -999.2500   -999.2500   -999.2500
  1650.0000      0.0000   -999.2500   -999.2500   -999.2500
  1650.2500      0.0000   -999.2500   -999.2500   -999.2500
  1650.5000      0.0000   -999.2500   -999.2500   -999.2500
  1650.7500      0.0000   -999.2500   -999.2500   -999.2500
  1651.0000      0.0000   -999.2500   -999.2500   -999.2500
  1651.2500      0.0000   -999.2500   -999.2500   -999.2500
  1651.5000      0.0000   -999.2500   -999.2500   -999.2500
  1651.7500      0.0000   -999.2500   -999.2500   -999.2500
  1652.0000      0.0000   -999.2500   -999.2500   -999.2500
  1652.2500      0.0000   -999.2500   -999.2500   -999.2500
  1652.5000   -999.2500   -999.2500   -999.2500   -999.2500
  1652.7500   -999.2500   -999.2500   -999.2500   -999.2500
  1653.0000   -999.2500   -999.2500   -999.2500   -999.2500
  1653.2500   -999.2500   -999.2500   -999.2500   -999.2500
