~Version Information
 VERS.                                  2.0 : CWLS LAS VERSION
 WRAP.                                   NO : WRAPING MODE
 SWARE .                 MController 2.5.0N : SOFTWARE VERSION
~Well Information
 WELL.                      Whitecoat 14-36 : WELL
 COMP.   Pioneer Natural Resources USA Inc. : COMPANY
 FLD.                      Purgatoire River : FIELD
 LOC.               SW/SW Sec 36 T34S  R65W : LOCATION
 DATE.                            12/4-5/05 : DATE(S) LOGGED
 SRVC.       BLANCO Geological Services LLC : SERVICE COMPANY
 STAT.                                   CO : STATE
 CNTY.                           Las Animas : COUNTY
 CTRY.                                  USA : COUNTRY
 API.                       05-071-08593-00 : API NUMBER
 STRT.FT                             161.00 : START DEPTH
 STOP.FT                            1182.00 : STOP DEPTH
 STEP.FT                               1.00 : DEPTH INCREMENT
 NULL.                                -9999 : NULL VALUE
~Curve information
 DEPTH.FT                                   :
 ROP.MIN/FT                                 :
 GAS.UNITS                                  :
~ASCII Log data
# ...
       361.0         0.23          2.0 
       362.0         0.23          2.3 
       363.0         0.27          2.5 
       364.0         0.17          2.5 
       365.0         0.17          2.5 
       366.0         0.20          2.1 
       367.0         0.30          2.5 
       368.0         0.37          2.6 
       369.0         0.33          2.0 
       370.0         0.33          2.4 
       371.0         0.22          2.3 
       372.0         0.23          1.9 
       373.0         0.37          2.2 
       374.0         0.37          2.6 
       375.0         0.23          2.4 
       376.0         0.33          2.1 
       377.0         0.23          2.1 
       378.0         0.27          2.1 
       379.0         0.37          2.0 
       380.0         0.40          2.0 
       381.0         0.30          2.0 
       382.0         6.30          2.7 
       383.0         0.33          2.2 
       384.0         0.45          2.4 
       385.0         0.30          2.6 
       386.0         0.33          2.9 
       387.0         0.27          2.4 
       388.0         0.27          2.9 
       389.0         0.27          2.7 
       390.0         0.27          3.0 
       391.0         0.30          3.3 
       392.0         0.30          2.6 
       393.0         0.53          2.8 
       394.0         0.35          2.8 
       395.0         0.33          2.9 
       396.0         0.33          2.5 
       397.0         0.37          2.8 
       398.0         0.37          2.7 
       399.0         0.33          3.3 
       400.0         0.30          2.5 
       401.0         0.53          3.1 
       402.0         0.43          3.1 
       403.0         0.42          2.8 
       404.0         0.43          2.8 
       405.0         0.47          2.9 
       406.0         0.33          2.7 
       407.0         0.37          2.9 
       408.0         0.37          2.9 
       409.0         0.33          2.9 
       410.0         0.40          2.8 
       411.0         0.37          2.6 
       412.0         2.32          3.1 
       413.0         0.40          3.0 
       414.0         0.47          3.1 
       415.0         0.45          2.3 
       416.0         0.43          2.5 
       417.0         0.40          2.6 
       418.0         0.40          2.6 
       419.0         0.43          2.9 
       420.0         0.40          2.8 
       421.0         0.43          2.8 
       422.0         0.40          3.2 
       423.0         0.42          3.3 
       424.0         0.43          3.4 
       425.0         0.37          3.6 
       426.0         0.37          3.9 
       427.0         0.27          3.6 
       428.0         0.27          3.8 
       429.0         0.30          4.0 
       430.0         0.27          3.8 
       431.0         0.23          3.3 
       432.0         0.23          3.2 
       433.0         0.27          2.9 
       434.0         0.28          2.8 
       435.0         0.27          3.1 
       436.0         0.27          3.1 
       437.0         0.30          3.3 
       438.0         0.30          3.0 
       439.0         0.27          2.8 
       440.0         0.40          3.3 
       441.0         0.37          3.4 
       442.0         2.38          3.8 
       443.0         0.30          3.5 
       444.0         0.27          3.9 
       445.0         0.23          3.6 
       446.0         0.27          3.6 
       447.0         0.30          3.5 
       448.0         0.33          3.6 
       449.0         0.38          3.9 
       450.0         0.37          3.9 
       451.0         0.37          3.8 
       452.0         0.37          3.9 
       453.0         0.40          4.1 
       454.0         0.37          3.6 
       455.0         0.53          4.1 
       456.0         0.57          4.0 
       457.0         0.58          4.1 
       458.0         0.57          3.8 
       459.0         0.33          4.3 
       460.0         0.37          4.1 
       461.0         0.33          3.9 
       462.0         0.33          4.1 
       463.0         0.30          4.0 
       464.0         0.33          4.0 
       465.0         0.33          4.3 
       466.0         0.38          3.7 
       467.0         0.43          4.2 
       468.0         0.33          4.2 
       469.0         0.30          4.3 
       470.0         0.47          4.0 
       471.0         0.87          4.4 
       472.0         2.28          4.4 
       473.0         0.23          4.2 
       474.0         0.40          4.1 
       475.0         0.37          4.2 
       476.0         0.33          4.4 
       477.0         0.23          4.0 
       478.0         0.20          4.2 
       479.0         0.22          4.0 
       480.0         0.27          4.1 
       481.0         0.33          4.2 
       482.0         0.27          4.1 
       483.0         0.30          4.2 
       484.0         0.40          4.3 
       485.0         0.30          4.3 
       486.0         0.23          3.8 
       487.0         0.27          4.3 
       488.0         0.30          4.0 
       489.0         0.30          4.1 
       490.0         0.25          4.2 
       491.0         0.20          4.0 
       492.0         0.33          4.3 
       493.0         0.30          4.2 
       494.0         0.27          4.3 
       495.0         0.23          4.7 
       496.0         0.33          4.4 
       497.0         0.30          4.5 
       498.0         0.23          4.4 
       499.0         0.27          4.4 
       500.0         0.57          4.2 
       501.0         0.27          4.4 
       502.0         2.98          4.6 
       503.0         0.30          4.4 
       504.0         0.48          4.5 
       505.0         0.37          4.6 
       506.0         0.33          5.1 
       507.0         0.30          5.1 
       508.0         0.30          5.1 
       509.0         0.33          5.2 
       510.0         0.27          4.9 
       511.0         0.30          5.1 
       512.0         0.30          5.1 
       513.0         0.37          5.1 
       514.0         0.22          4.9 
       515.0         0.20          5.0 
       516.0         0.20          4.9 
       517.0         0.20          5.1 
       518.0         0.17          5.2 
       519.0         0.27          5.3 
       520.0         0.33          5.3 
       521.0         0.30          5.1 
       522.0         0.30          5.3 
       523.0         0.23          5.1 
       524.0         0.20          5.2 
       525.0         0.27          5.2 
       526.0         0.27          5.0 
       527.0         0.20          5.2 
       528.0         0.38          5.1 
       529.0         0.33          4.9 
       530.0         0.27          4.9 
       531.0         0.40          5.0 
       532.0         2.85          5.4 
       533.0         0.37          5.2 
       534.0         0.40          5.2 
       535.0         0.40          5.3 
       536.0         0.43          5.4 
       537.0         0.33          5.3 
       538.0         0.30          4.7 
       539.0         0.35          4.9 
       540.0         0.30          5.1 
       541.0         0.27          5.1 
       542.0         0.23          5.2 
       543.0         0.30          5.4 
       544.0         0.27          4.9 
       545.0         0.27          5.1 
       546.0         0.27          4.9 
       547.0         0.20          4.8 
       548.0         0.23          5.0 
       549.0         0.23          5.0 
       550.0         0.30          5.0 
       551.0         0.27          5.1 
       552.0         0.25          4.7 
       553.0         0.30          4.8 
       554.0         0.30          5.1 
       555.0         0.23          4.7 
       556.0         0.23          4.4 
       557.0         0.27          4.4 
       558.0         0.30          4.6 
       559.0         0.27          4.7 
       560.0         0.40          4.2 
