~Version Information
VERS.                      2.0: CWLS Log ASCII Standard - VERSION 2.0
WRAP.                       NO: One line per depth step
~Well Information Block
STRT.FT               410.0000: 
STOP.FT              1253.0000: 
STEP.FT                 0.1000: 
NULL.                -999.2500: 
COMP.          Petrogulf Corporation: COMPANY
WELL.           Parsons 15-23R: WELL
FLD.           Purgatorie River: FIELD
LOC.           2244' FSL & 1932' FWL: LOCATION
PROV.                 Colorado: PROVINCE
CNTY.               Las Animas: COUNTRY
SRVC.                Patterson: SERVICE COMPANY
DATE.          Mon Sep 12 10:28:25 2005: LOG DATE
UWI.                          : UNIQUE WELL ID
~Curve Information Block
DEPT.FT            0 000 00 00: Depth
DCAL.in                       : CDL Caliper
RHOB.g/cc                     : CDL Bulk Density
RHOC.g/cc                     : CDL Density Correction
DPOR.pu                       : CDL Density Porosity
GR.GAPI                       : Gamma Ray
NPOR.pu                       : Neutron Porosity
~Parameter Information Block
~A  Depth       DCAL        RHOB        RHOC        DPOR         GR         NPOR    
# ...
   794.0000      7.8662      2.6968      0.0475     -2.8370    110.2088     26.1865
   794.1000      7.8662      2.7001      0.0163     -3.0360    110.0145     26.2653
   794.2000      7.8662      2.6890      0.0337     -2.3609    114.2352     26.1441
   794.3000      7.8352      2.6787      0.0269     -1.7417    116.3009     25.5803
   794.4000      7.8352      2.6849      0.0766     -2.1133    112.3391     24.8321
   794.5000      7.8251      2.6976      0.1510     -2.8851    107.9741     24.2700
   794.6000      7.8251      2.6931      0.1667     -2.6128    106.9543     23.9997
   794.7000      7.8251      2.6691      0.0584     -1.1552    106.1170     23.8623
   794.8000      7.8193      2.6489      0.0223      0.0639    103.8162     23.9173
   794.9000      7.8193      2.6477      0.0223      0.1412    102.2752     24.1113
   795.0000      7.8744      2.6606      0.0159     -0.6409    102.6263     23.9764
   795.1000      7.8744      2.6731      0.0740     -1.4024    104.6726     23.4300
   795.2000      7.8744      2.6745      0.0883     -1.4852    107.2370     22.8839
   795.3000      7.9046      2.6638      0.1062     -0.8345    107.3846     22.6797
   795.4000      7.9046      2.6428      0.0541      0.4380    103.9785     22.7879
   795.5000      7.9114      2.6252      0.0121      1.5018     99.8077     22.9877
   795.6000      7.9114      2.6263      0.0548      1.4376     97.7284     22.9732
   795.7000      7.9114      2.6363      0.0689      0.8328     96.7869     22.4702
   795.8000      7.9312      2.6381      0.0875      0.7204     94.6112     21.7302
   795.9000      7.9312      2.6318      0.0337      1.1009     91.6004     21.2621
   796.0000      7.9347      2.6273      0.0291      1.3751     89.4985     21.1029
   796.1000      7.9347      2.6247      0.0344      1.5312     88.2546     20.9698
   796.2000      7.9347      2.6167      0.0317      2.0204     87.0341     20.5623
   796.3000      7.9401      2.6041      0.0178      2.7817     84.8971     19.9830
   796.4000      7.9401      2.5941      0.0179      3.3866     81.0225     19.6688
   796.5000      7.9330      2.5880      0.0309      3.7598     77.4521     19.7771
   796.6000      7.9330      2.5838     -0.0005      4.0127     75.3599     20.0108
   796.7000      7.9330      2.5866      0.0151      3.8419     73.4250     20.0025
   796.8000      7.9199      2.6007      0.0389      2.9890     72.7765     19.7226
   796.9000      7.9199      2.6200      0.0744      1.8184     74.3649     19.5263
   797.0000      7.9196      2.6390      0.0300      0.6677     78.2607     19.6293
   797.1000      7.9196      2.6519      0.1480     -0.1182     83.2949     19.8668
   797.2000      7.9196      2.6550      0.0749     -0.3040     86.4554     20.1064
   797.3000      7.9206      2.6692      0.0565     -1.1654     88.1996     20.2751
   797.4000      7.9206      2.6995      0.1433     -3.0022     91.4310     20.2388
   797.5000      7.9092      2.7115      0.1454     -3.7275     94.7031     20.2153
   797.6000      7.9092      2.6977      0.0738     -2.8901     96.2402     20.6553
   797.7000      7.9092      2.6847      0.1096     -2.1019     98.3960     21.5975
   797.8000      7.8861      2.6779      0.0946     -1.6916    102.4837     22.7159
   797.9000      7.8861      2.6689      0.0936     -1.1462    107.2236     23.7396
   798.0000      7.9128      2.6563      0.0658     -0.3799    112.3767     24.4448
   798.1000      7.9128      2.6397      0.0560      0.6252    116.7623     25.0052
   798.2000      7.9128      2.6260      0.0199      1.4538    118.8930     25.6754
   798.3000      7.9260      2.6285      0.0222      1.3049    121.5120     26.2302
   798.4000      7.9260      2.6473      0.0957      0.1642    127.1115     26.6279
   798.5000      7.9280      2.6563      0.2171     -0.3793    132.7039     26.9400
   798.6000      7.9280      2.6324      0.1004      1.0662    134.6482     26.9559
   798.7000      7.9280      2.5950      0.0802      3.3321    134.3437     26.7081
   798.8000      7.9288      2.5728      0.0752      4.6778    135.4244     26.5309
   798.9000      7.9288      2.5725      0.0728      4.6943    138.5690     26.5714
   799.0000      7.8965      2.5896      0.0865      3.6593    142.2444     26.6755
   799.1000      7.8965      2.6116      0.1047      2.3254    146.6433     26.5725
   799.2000      7.8965      2.6241      0.1460      1.5696    149.5070     26.2822
   799.3000      7.8815      2.6250      0.1061      1.5181    146.7990     26.1005
   799.4000      7.8815      2.6242      0.1487      1.5612    141.3077     26.0367
   799.5000      7.8602      2.6323      0.0912      1.0722    138.2597     25.9887
   799.6000      7.8602      2.6561      0.1220     -0.3671    136.8065     25.7945
   799.7000      7.8602      2.6878      0.1123     -2.2897    133.4780     25.3123
   799.8000      7.8926      2.7088      0.1110     -3.5618    126.4822     24.8823
   799.9000      7.8926      2.7086      0.1151     -3.5521    119.0013     24.8359
   800.0000      7.9125      2.6919      0.0767     -2.5392    116.4080     25.0337
   800.1000      7.9125      2.6675      0.0855     -1.0580    119.5508     25.1829
   800.2000      7.9125      2.6346      0.0501      0.9310    125.2578     25.1943
   800.3000      7.8874      2.5959      0.0282      3.2795    131.1655     25.0963
   800.4000      7.8874      2.5675     -0.0231      5.0000    137.1495     24.7697
   800.5000      7.9120      2.5599      0.0130      5.4596    143.2081     24.2888
   800.6000      7.9120      2.5612      0.0084      5.3795    151.0849     23.9120
   800.7000      7.9120      2.5562      0.0461      5.6876    161.6467     23.8709
   800.8000      7.9518      2.5462      0.0446      6.2938    169.6415     24.3575
   800.9000      7.9518      2.5381      0.0741      6.7828    172.9204     25.2507
   801.0000      7.9522      2.5341      0.0789      7.0258    174.9066     26.2529
   801.1000      7.9522      2.5392      0.0913      6.7165    176.3475     27.0596
   801.2000      7.9522      2.5465      0.1207      6.2730    177.1632     27.6629
   801.3000      7.9581      2.5413      0.0798      6.5876    178.8524     28.3340
   801.4000      7.9581      2.5281      0.0640      7.3873    181.7318     29.1077
   801.5000      7.9773      2.5162      0.0558      8.1097    183.6925     29.6090
   801.6000      7.9773      2.4995      0.0638      9.1199    183.5951     29.6568
   801.7000      7.9773      2.4700      0.0377     10.9081    182.5510     29.5937
   801.8000      7.9926      2.4305      0.0323     13.3029    181.0473     29.6519
   801.9000      7.9926      2.3877      0.0251     15.8978    179.0740     29.6877
   802.0000      8.0376      2.3454      0.0334     18.4602    177.4386     29.6606
   802.1000      8.0376      2.3101      0.0075     20.6009    177.6035     29.6836
   802.2000      8.0376      2.2931      0.0410     21.6315    181.4250     29.7572
   802.3000      8.1136      2.2992      0.0209     21.2577    186.6985     29.8409
   802.4000      8.1136      2.3218      0.0554     19.8911    187.0581     29.9931
   802.5000      8.1239      2.3426      0.1470     18.6314    181.8096     30.4474
   802.6000      8.1239      2.3524      0.1218     18.0371    177.2505     31.1026
   802.7000      8.1239      2.3731      0.1127     16.7842    176.2779     31.4994
   802.8000      8.1289      2.4144      0.1507     14.2761    177.0695     31.6819
   802.9000      8.1289      2.4425      0.1423     12.5777    179.4471     31.8339
   803.0000      8.1287      2.4317      0.0571     13.2279    183.7822     31.7651
   803.1000      8.1287      2.4044      0.0339     14.8878    186.2301     31.6317
   803.2000      8.1287      2.3963      0.0331     15.3744    187.0293     31.6948
   803.3000      8.1370      2.4112      0.1048     14.4705    188.7565     31.7136
   803.4000      8.1370      2.4197      0.1077     13.9591    187.7912     31.5352
   803.5000      8.1428      2.4010      0.0448     15.0891    182.5684     31.3794
