~Version Information
VERS.                      2.0: CWLS Log ASCII Standard - VERSION 2.0
WRAP.                       NO: One line per depth step
~Well Information Block
STRT.FT                -7.7500: 
STOP.FT              1420.5000: 
STEP.FT                 0.2500: 
NULL.                -999.2500: 
COMP.          Pioneer Natural Resources: COMPANY
WELL.          Parklane 43-34 Tr: WELL
FLD.           Purgatorie River: FIELD
LOC.           1643' FSL & 966' FEL--: LOCATION
PROV.                       CO: PROVINCE
CNTY.               Las Animas: COUNTRY
SRVC.          Patterson Wireline: SERVICE COMPANY
DATE.          Tue Aug 02 11:35:27 2005: LOG DATE
UWI.           05 071 08452 00: UNIQUE WELL ID
~Curve Information Block
DEPT.FT            0 000 00 00: Depth
CCL.                          : Casing Collar Locator
TT3.usec                      : CBL 3' Travel Time
AMP3.mV                       : CBL 3' Amplitude
GR.GAPI                       : Gamma Ray
~Parameter Information Block
~A  Depth       CCL         TT3         AMP3         GR     
# ...
   260.2500      0.0000    841.3201     12.7147     77.3114
   260.5000      0.0000    841.7529     12.6650     75.7166
   260.7500      0.0000    838.4615     12.6098     72.2110
   261.0000      0.0000    830.5652     12.5436     68.4033
   261.2500      0.0000    820.1467     12.4676     64.8534
   261.5000      0.0000    810.9270     12.3885     61.2687
   261.7500      0.0000    805.9125     12.3132     57.5431
   262.0000      0.0000    805.6462     12.2467     54.3840
   262.2500      0.0000    808.3525     12.1953     52.9049
   262.5000      0.0000    811.8605     12.1666     53.4510
   262.7500      0.0000    815.3516     12.1598     54.8996
   263.0000      0.0000    819.2339     12.1599     55.4594
   263.2500      0.0000    823.8441     12.1451     54.1692
   263.5000      0.0000    828.7205     12.1018     51.4916
   263.7500      0.0000    832.8706     12.0329     48.8064
   264.0000      0.0000    835.5551     11.9539     47.6908
   264.2500      0.0000    837.0702     11.8826     49.2337
   264.5000      0.0000    838.5721     11.8304     53.3163
   264.7500      0.0000    840.5871     11.7988     58.3835
   265.0000      0.0000    841.8539     11.7829     62.2285
   265.2500      0.0000    840.2415     11.7766     63.3488
   265.5000      0.0000    834.8353     11.7754     61.9053
   265.7500      0.0000    826.9553     11.7774     59.6384
   266.0000      0.0000    819.6262     11.7849     58.8260
   266.2500      0.0000    816.3235     11.8018     60.8677
   266.5000      0.0000    819.1979     11.8275     65.3592
   266.7500      0.0000    827.3786     11.8554     70.3903
   267.0000      0.0000    837.2474     11.8793     74.0991
   267.2500      0.0000    845.0292     11.8990     76.2954
   267.5000      0.0000    849.0876     11.9178     78.4834
   267.7500      0.0000    849.9253     11.9375     82.1391
   268.0000      0.0000    849.1075     11.9565     87.0994
   268.2500      0.0000    848.6388     11.9723     91.6917
   268.5000      0.0000    850.2122     11.9840     94.2029
   268.7500      0.0000    854.0381     11.9941     94.1404
   269.0000      0.0000    858.6838     12.0068     92.3514
   269.2500      0.0000    862.4306     12.0244     90.3349
   269.5000      0.0000    864.5732     12.0445     89.5222
   269.7500      0.0000    865.4386     12.0624     90.6049
   270.0000      0.0000    865.6580     12.0794     92.8456
   270.2500      0.0000    865.6602     12.1063     94.3037
   270.5000      0.0000    865.6098     12.1558     93.6357
   270.7500      0.0000    865.5352     12.2278     91.6483
   271.0000      0.0000    865.4358     12.3068     90.3540
   271.2500      0.0000    865.3228     12.3737     90.5444
   271.5000      0.0000    865.2185     12.4193     91.0998
   271.7500      0.0000    865.1423     12.4467     90.7312
   272.0000      0.0000    865.0929     12.4643     89.5872
   272.2500      0.0000    865.0456     12.4817     88.8110
   272.5000      0.0000    864.9781     12.5087     89.0808
   272.7500      0.0000    864.8971     12.5521     90.0555
   273.0000      0.0000    864.8314     12.6116     90.9900
   273.2500      0.0000    864.8005     12.6800     91.3332
   273.5000      0.0000    864.8002     12.7492     90.6180
   273.7500      0.0000    864.8142     12.8146     88.2696
   274.0000      0.0000    864.8311     12.8751     84.0093
   274.2500      0.0000    864.8553     12.9299     78.4364
   274.5000      0.0000    864.9119     12.9748     72.9408
   274.7500      0.0000    865.0299     13.0010     68.9287
   275.0000      0.0000    865.2018     13.0002     67.1825
   275.2500      0.0000    865.3670     12.9704     67.7404
   275.5000      0.0000    865.3968     12.9152     69.9949
   275.7500      0.0000    865.0328     12.8432     72.9376
   276.0000      0.0000    863.7794     12.7691     75.6874
   276.2500      0.0000    861.0548     12.7098     77.9755
   276.5000      0.0000    856.9183     12.6724     80.0637
   276.7500      0.0000    852.8430     12.6467     82.2991
   277.0000      0.0000    851.1674     12.6132     85.0106
   277.2500      0.0000    853.0961     12.5582     88.7211
   277.5000      0.0000    857.4652     12.4805     93.7756
   277.7500      0.0000    861.9105     12.3889     99.3357
   278.0000      0.0000    864.9424     12.2940    103.3493
   278.2500      0.0000    866.6518     12.1995    104.1833
   278.5000      0.0000    868.0167     12.1011    101.9706
   278.7500      0.0000    870.0174     11.9943     98.0217
   279.0000      0.0000    873.0357     11.8840     93.5238
   279.2500      0.0000    876.5804     11.7850     89.2905
   279.5000      0.0000    879.6188     11.7088     86.2020
   279.7500      0.0000    881.3523     11.6518     85.0571
   280.0000      0.0000    881.5339     11.5981     85.9193
   280.2500      0.0000    880.1947     11.5332     88.0817
   280.5000      0.0000    877.6868     11.4512     90.6813
   280.7500      0.0000    875.1162     11.3436     92.9469
   281.0000      0.0000    874.2668     11.1819     93.9782
   281.2500      0.0000    876.8865     10.9313     92.9641
   281.5000      0.0000    884.0531     10.5984     89.8497
   281.7500      0.0000    896.3563     10.2487     85.4119
   282.0000      0.0000    914.9922      9.9417     80.5466
   282.2500      0.0000    941.6830      9.6679     75.6896
   282.5000      0.0000    975.5251      9.3976     70.9340
   282.7500      0.0000   1010.6371      9.1578     66.5708
   283.0000      0.0000   1040.2678      9.0078     63.4852
   283.2500      0.0000   1062.9866      8.9627     62.8861
   283.5000      2.0000   1081.4299      8.9898     65.4718
   283.7500      0.0000   1095.3853      9.0708     70.8296
   284.0000      0.0000   1099.5909      9.2523     77.6159
   284.2500      0.0000   1088.5024      9.6442     84.2335
   284.5000      0.0000   1061.4871     10.3365     89.3966
   284.7500      0.0000   1023.5557     11.2666     92.4095
   285.0000      0.0000    982.2692     12.1894     93.2482
   285.2500      0.0000    944.3821     12.8504     92.4795
   285.5000      0.0000    914.5605     13.1804     90.9324
   285.7500      0.0000    895.3703     13.2799     89.1913
   286.0000      0.0000    887.1378     13.2606     87.4055
   286.2500      0.0000    887.7956     13.1655     85.7294
   286.5000      0.0000    893.5123     13.0109     84.6536
   286.7500      0.0000    900.2030     12.8363     84.4733
   287.0000      0.0000    905.0593     12.6962     84.8094
   287.2500      0.0000    906.9692     12.6253     85.2519
   287.5000      0.0000    905.8950     12.6245     86.2934
   287.7500      0.0000    902.3707     12.6676     89.0856
   288.0000      0.0000    897.7783     12.7206     94.1979
   288.2500      0.0000    894.3217     12.7570    100.6033
   288.5000      0.0000    893.7011     12.7711    105.8808
   288.7500      0.0000    895.5939     12.7826    107.7304
   289.0000      0.0000    898.1088     12.8261    105.5668
   289.2500      0.0000    899.9327     12.9262    100.7985
   289.5000      0.0000    901.4314     13.0745     95.7547
   289.7500      0.0000    903.4634     13.2314     92.2011
   290.0000      0.0000    905.8644     13.3564     90.4223
   290.2500      0.0000    907.5089     13.4361     89.6266
   290.5000      0.0000    907.4260     13.4816     89.2094
   290.7500      0.0000    905.5908     13.5068     89.3599
   291.0000      0.0000    902.8911     13.5216     90.4473
   291.2500      0.0000    900.2495     13.5407     92.2273
   291.5000      0.0000    897.3686     13.5848     93.9016
   291.7500      0.0000    892.6151     13.6625     94.8054
   292.0000      0.0000    884.8288     13.7575     94.9053
   292.2500      0.0000    875.1533     13.8383     94.8137
   292.5000      0.0000    866.2657     13.8836     95.5263
   292.7500      0.0000    859.6276     13.8996     97.8665
   293.0000      0.0000    854.1863     13.9108    101.6698
   293.2500      0.0000    848.0467     13.9378    105.4340
   293.5000      0.0000    840.6966     13.9837    107.0200
