~Version Information
VERS.                      2.0: CWLS Log ASCII Standard - VERSION 2.0
WRAP.                       NO: One line per depth step
~Well Information Block
STRT.FT               550.0000: 
STOP.FT              1500.5000: 
STEP.FT                 0.2500: 
NULL.                -999.2500: 
COMP.          Pioneer Natural Resources: COMPANY
WELL.          Surtees 23-34 Tr: WELL
FLD.           Purgatoire River: FIELD
LOC.           1559' FSL & 1997' FWL: LOCATION
PROV.                 Colorado: PROVINCE
CNTY.               Las Animas: COUNTRY
SRVC.                Patterson: SERVICE COMPANY
DATE.          Tue Jul 26 23:47:42 2005: LOG DATE
UWI.           05 071 08449 00: UNIQUE WELL ID
~Curve Information Block
DEPT.FT            0 000 00 00: Depth
SN.Ohm-m                      : IEL Short Normal
SP.mV                         : IEL Spontaneous Potential
DIR.Ohm-m                     : IEL Induction Resistivity
GR.GAPI                       : Gamma Ray
~Parameter Information Block
~A  Depth        SN          SP         DIR          GR     
   550.0000   2000.0000   2000.0000      8.6385     77.9303
   550.2500   2000.0000   2000.0000      8.5650     75.0669
   550.5000   2000.0000   2000.0000      8.4929     72.0718
   550.7500   2000.0000   2000.0000      8.4515     71.1379
   551.0000   2000.0000   2000.0000      8.4619     71.4307
   551.2500   2000.0000   2000.0000      8.5317     72.7832
   551.5000   2000.0000   2000.0000      8.6526     76.9842
   551.7500   2000.0000   2000.0000      8.8014     81.4728
   552.0000   2000.0000   2000.0000      8.9460     89.9631
   552.2500   2000.0000   2000.0000      9.0539     95.4293
   552.5000   2000.0000   2000.0000      9.1042    100.5033
   552.7500   2000.0000   2000.0000      9.0957    100.7525
   553.0000   2000.0000   2000.0000      9.0466     96.6484
   553.2500   2000.0000   2000.0000      8.9853     92.1728
   553.5000   2000.0000   2000.0000      8.9392     85.7795
   553.7500   2000.0000   2000.0000      8.9259     83.0359
   554.0000   2000.0000   2000.0000      8.9531     81.6578
   554.2500   2000.0000   2000.0000      9.0209     81.8766
   554.5000   2000.0000   2000.0000      9.1241     82.1736
   554.7500   2000.0000   2000.0000      9.2516     81.6077
   555.0000   2000.0000   2000.0000      9.3846     79.3207
   555.2500   2000.0000   2000.0000      9.4979     77.1441
   555.5000   2000.0000   2000.0000      9.5660     73.6976
   555.7500   2000.0000   2000.0000      9.5736     71.6270
   556.0000   2000.0000   2000.0000      9.5238     69.0552
   556.2500   2000.0000   2000.0000      9.4392     67.6518
   556.5000   2000.0000   2000.0000      9.3530     65.9782
   556.7500   2000.0000   2000.0000      9.2955     65.2404
   557.0000   2000.0000   2000.0000      9.2848     64.8683
   557.2500   2000.0000   2000.0000      9.3222     65.0893
   557.5000   2000.0000   2000.0000      9.3942     65.8995
   557.7500   2000.0000   2000.0000      9.4773     62.1410
   558.0000   2000.0000   2000.0000      9.5456     62.9288
   558.2500   2000.0000   2000.0000      9.5797     63.0826
   558.5000   2000.0000   2000.0000      9.5728     62.4639
   558.7500   2000.0000   2000.0000      9.5309     57.2226
   559.0000   2000.0000   2000.0000      9.4686     56.1335
   559.2500   2000.0000   2000.0000      9.4027     55.7981
   559.5000   2000.0000   2000.0000      9.3457     55.9349
   559.7500   2000.0000   2000.0000      9.2984     52.0624
   560.0000   2000.0000   2000.0000      9.2440     53.6690
   560.2500   2000.0000   2000.0000      9.1516     55.9252
   560.5000   2000.0000   2000.0000      8.9958     61.5878
   560.7500   2000.0000   2000.0000      8.7816     60.9127
   561.0000   2000.0000   2000.0000      8.5524     67.5546
   561.2500   2000.0000   2000.0000      8.3704     71.2674
   561.5000   2000.0000   2000.0000      8.2853     75.9188
   561.7500   2000.0000   2000.0000      8.3135     71.8321
   562.0000   2000.0000   2000.0000      8.4341     76.6174
   562.2500   2000.0000   2000.0000      8.6008     79.9702
   562.5000   2000.0000   2000.0000      8.7649     84.3600
   562.7500   2000.0000   2000.0000      8.9025     86.4704
   563.0000   2000.0000   2000.0000      9.0285     88.5350
   563.2500   2000.0000   2000.0000      9.1932     89.7292
   563.5000   2000.0000   2000.0000      9.4729     92.2958
   563.7500   2000.0000   2000.0000      9.9647     94.6373
   564.0000   2000.0000   2000.0000     10.7779     98.1672
   564.2500   2000.0000   2000.0000     12.0025     99.8150
   564.5000   2000.0000   2000.0000     13.6199    100.7215
   564.7500   2000.0000   2000.0000     15.3581    100.4867
   565.0000   2000.0000   2000.0000     16.6660     99.4502
   565.2500   2000.0000   2000.0000     17.0995     98.3771
   565.5000   2000.0000   2000.0000     16.7940     95.6404
   565.7500   2000.0000   2000.0000     16.3199     92.6084
   566.0000   2000.0000   2000.0000     16.2744     86.2106
   566.2500   2000.0000   2000.0000     17.3086     81.4333
   566.5000   2000.0000   2000.0000     20.9085     75.3223
   566.7500   2000.0000   2000.0000     34.0368     72.5665
   567.0000   2000.0000   2000.0000    489.3423     70.0574
   567.2500   2000.0000   2000.0000 100000.0000     68.9123
   567.5000   2000.0000   2000.0000 100000.0000     67.6541
   567.7500   2000.0000   2000.0000 100000.0000     67.3406
   568.0000   2000.0000   2000.0000 100000.0000     67.8457
   568.2500   2000.0000   2000.0000 100000.0000     68.5839
   568.5000   2000.0000   2000.0000 100000.0000     69.8643
   568.7500   2000.0000   2000.0000 100000.0000     70.9380
   569.0000   2000.0000   2000.0000 100000.0000     73.3599
   569.2500   2000.0000   2000.0000 100000.0000     75.5708
   569.5000   2000.0000   2000.0000 100000.0000     79.3876
   569.7500   2000.0000   2000.0000 100000.0000     82.0436
   570.0000   2000.0000   2000.0000 100000.0000     86.1914
   570.2500   2000.0000   2000.0000 100000.0000     89.1551
   570.5000   2000.0000   2000.0000 100000.0000     93.7750
   570.7500   2000.0000   2000.0000 100000.0000     96.7283
   571.0000   2000.0000   2000.0000     12.8618    100.6363
   571.2500   2000.0000   2000.0000      5.2824    102.8061
   571.5000   2000.0000   2000.0000      3.6657    105.1253
   571.7500   2000.0000   2000.0000      3.2580    105.7680
   572.0000   2000.0000   2000.0000      3.3951    105.1630
   572.2500   2000.0000   2000.0000      3.9414    103.9624
   572.5000   2000.0000   2000.0000      4.9433    101.8735
   572.7500   2000.0000   2000.0000      6.6752    100.8584
   573.0000   2000.0000   2000.0000     10.0479    100.6751
   573.2500   2000.0000   2000.0000     18.4190    101.6815
   573.5000   2000.0000   2000.0000     51.5317    104.7097
   573.7500   2000.0000   2000.0000   2478.8083    107.3596
   574.0000   2000.0000   2000.0000 100000.0000    111.5882
   574.2500   2000.0000   2000.0000     84.3650    114.2567
   574.5000   2000.0000   2000.0000     31.0758    117.4062
   574.7500   2000.0000   2000.0000     19.3122    118.4945
   575.0000   2000.0000   2000.0000     15.2823    118.0817
   575.2500   2000.0000   2000.0000     13.8436    116.4784
   575.5000   2000.0000   2000.0000     13.5130    112.6533
   575.7500   2000.0000   2000.0000     13.6993    109.5113
   576.0000   2000.0000   2000.0000     14.1433    104.2013
   576.2500   2000.0000   2000.0000     14.7541    100.3818
   576.5000   2000.0000   2000.0000     15.5396     94.7288
   576.7500   2000.0000   2000.0000     16.5928     91.4480
   577.0000   2000.0000   2000.0000     18.0935     87.9340
   577.2500   2000.0000   2000.0000     20.2872     86.7671
   577.5000   2000.0000   2000.0000     23.3625     86.8737
   577.7500   2000.0000   2000.0000     27.1666     88.0211
   578.0000   2000.0000   2000.0000     30.8553     90.7155
   578.2500   2000.0000   2000.0000     33.1110     92.6989
   578.5000   2000.0000   2000.0000     33.3012     95.4622
   578.7500   2000.0000   2000.0000     32.0354     97.1460
   579.0000   2000.0000   2000.0000     30.2610     99.4741
   579.2500   2000.0000   2000.0000     28.4824    100.7317
   579.5000   2000.0000   2000.0000     26.8070    101.9114
   579.7500   2000.0000   2000.0000     25.2551    102.4077
   580.0000   2000.0000   2000.0000     23.9199    103.2794
   580.2500   2000.0000   2000.0000     22.9332    103.8169
   580.5000   2000.0000   2000.0000     22.3695    103.3143
   580.7500   2000.0000   2000.0000     22.1999    101.4700
   581.0000   2000.0000   2000.0000     22.3085     96.9539
   581.2500   2000.0000   2000.0000     22.5454     94.0843
   581.5000   2000.0000   2000.0000     22.7884     92.6183
   581.7500   2000.0000   2000.0000     22.9799     94.3100
   582.0000   2000.0000   2000.0000     23.1203     99.9990
   582.2500   2000.0000   2000.0000     23.2276    104.4435
   582.5000   2000.0000   2000.0000     23.3021    109.4100
   582.7500   2000.0000   2000.0000     23.3235    110.6158
   583.0000   2000.0000   2000.0000     23.2741    109.3099
   583.2500   2000.0000   2000.0000     23.1591    107.3048
