~Version Information
VERS.                      2.0: CWLS Log ASCII Standard - VERSION 2.0
WRAP.                       NO: One line per depth step
~Well Information Block
STRT.FT                10.0000: 
STOP.FT              1044.5000: 
STEP.FT                 0.1000: 
NULL.                -999.2500: 
COMP.          Pioneer Natural Resources: COMPANY
WELL.          Stags Leap 13-30: WELL
FLD.           Purgatorie River: FIELD
LOC.           1813' FSL & 117' FWL: LOCATION
PROV.                 Colorado: PROVINCE
CNTY.               Las Animas: COUNTRY
SRVC.                Patterson: SERVICE COMPANY
DATE.          Fri Dec 09 09:46:17 2005: LOG DATE
UWI.                          : UNIQUE WELL ID
~Curve Information Block
DEPT.FT            0 000 00 00: Depth
DCAL.in                       : CDL Caliper
RHOB.g/cc                     : CDL Bulk Density
RHOC.g/cc                     : CDL Density Correction
DPOR.pu                       : CDL Density Porosity
GR.GAPI                       : Gamma Ray
NPOR.pu                       : Neutron Porosity
~Parameter Information Block
~A  Depth       DCAL        RHOB        RHOC        DPOR         GR         NPOR    
# ...
   960.4000      7.9097      2.4994      0.0333      9.1285     89.4736     24.2957
   960.5000      7.9217      2.5093      0.0587      8.5297     94.4095     24.3466
   960.6000      7.9217      2.5098      0.0511      8.4985     98.7292     24.3878
   960.7000      7.9217      2.5040     -0.0108      8.8455    100.6185     24.3683
   960.8000      7.9403      2.5057      0.0209      8.7436    101.6199     24.0842
   960.9000      7.9403      2.5202      0.0521      7.8677    103.7674     23.9069
   961.0000      7.9473      2.5405      0.0636      6.6374    107.6797     24.2280
   961.1000      7.9473      2.5586      0.0419      5.5390    110.9524     24.5451
   961.2000      7.9473      2.5703      0.0835      4.8277    110.9219     24.2249
   961.3000      7.9342      2.5743      0.1026      4.5860    107.5886     23.5855
   961.4000      7.9342      2.5721      0.0684      4.7185    104.9001     23.3110
   961.5000      7.9279      2.5646      0.0902      5.1786    105.9465     23.4817
   961.6000      7.9279      2.5490      0.0645      6.1223    106.9718     23.7967
   961.7000      7.9279      2.5274      0.0290      7.4321    104.3907     24.0848
   961.8000      7.9371      2.5043      0.0100      8.8305    100.8836     24.3018
   961.9000      7.9371      2.4812      0.0076     10.2316     96.7883     24.5132
   962.0000      7.9693      2.4628     -0.0226     11.3479     90.8290     24.8312
   962.1000      7.9693      2.4559      0.0029     11.7632     88.0270     25.1732
   962.2000      7.9693      2.4611      0.0129     11.4460     92.1204     25.3375
   962.3000      7.9575      2.4774      0.0160     10.4584     99.0216     25.3239
   962.4000      7.9575      2.4971      0.0335      9.2647    103.2321     25.2147
   962.5000      7.9939      2.5061      0.0290      8.7233    102.3089     24.9931
   962.6000      7.9939      2.5052      0.0331      8.7779     97.5183     24.5977
   962.7000      7.9939      2.5097      0.0225      8.5026     93.7194     24.2141
   962.8000      7.9557      2.5264      0.0466      7.4927     93.8563     24.0163
   962.9000      7.9557      2.5469      0.0877      6.2460     96.3293     23.7494
   963.0000      7.9325      2.5616      0.1032      5.3559     98.3889     23.3207
   963.1000      7.9325      2.5688      0.0859      4.9231    100.6764     23.1373
   963.2000      7.9325      2.5718      0.0478      4.7412    105.2723     23.3804
   963.3000      7.9014      2.5721      0.0696      4.7238    110.0879     23.8099
   963.4000      7.9014      2.5663      0.0763      5.0734    111.8700     24.0979
   963.5000      7.9097      2.5527      0.0804      5.8998    111.2862     24.0944
   963.6000      7.9097      2.5370      0.0588      6.8500    110.9097     24.1361
   963.7000      7.9097      2.5328      0.0427      7.1042    111.2955     24.6005
   963.8000      7.9387      2.5467      0.0639      6.2624    111.1750     25.2419
   963.9000      7.9387      2.5674      0.1054      5.0067    109.5695     25.6325
   964.0000      7.9795      2.5753      0.1030      4.5299    107.8963     25.8658
   964.1000      7.9795      2.5645      0.0503      5.1796    107.6019     26.1940
   964.2000      7.9795      2.5499      0.0735      6.0697    106.8260     26.4616
   964.3000      7.9694      2.5412      0.0721      6.5951    104.1696     26.3757
   964.4000      7.9694      2.5414      0.0476      6.5834    101.9788     25.8988
   964.5000      7.8939      2.5525      0.1034      5.9110    102.2047     25.3612
   964.6000      7.8939      2.5706      0.0887      4.8146    104.4623     25.1836
   964.7000      7.8939      2.5911      0.1384      3.5676    108.1385     25.3494
   964.8000      7.8819      2.6066      0.1653      2.6326    111.0236     25.5593
   964.9000      7.8819      2.6133      0.1283      2.2213    111.0486     25.6605
   965.0000      7.8824      2.6169      0.1160      2.0088    108.9747     25.7738
   965.1000      7.8824      2.6125      0.2012      2.2756    106.4016     26.0513
   965.2000      7.8824      2.5900      0.1164      3.6366    104.5187     26.3127
   965.3000      7.8562      2.5512      0.0787      5.9862    102.9579     26.3236
   965.4000      7.8562      2.5068      0.0053      8.6798    100.9270     26.2499
   965.5000      7.9077      2.4751     -0.0207     10.5996     99.0933     26.3339
   965.6000      7.9077      2.4657      0.0338     11.1684     98.1716     26.3948
   965.7000      7.9077      2.4738     -0.0125     10.6764     97.9939     26.1638
   965.8000      7.9806      2.4930      0.0648      9.5153     98.1576     25.8325
   965.9000      7.9806      2.5068      0.0641      8.6771     98.1183     25.6293
   966.0000      7.9642      2.5011      0.0460      9.0238     97.0680     25.3545
   966.1000      7.9642      2.4810      0.0304     10.2406     96.3254     24.8501
   966.2000      7.9642      2.4637     -0.0088     11.2920     97.1663     24.3567
   966.3000      7.9738      2.4612      0.0271     11.4405     98.0642     24.1629
   966.4000      7.9738      2.4725      0.0254     10.7566     97.5378     24.1397
   966.5000      7.9620      2.4942      0.0221      9.4407     96.5961     23.9484
   966.6000      7.9620      2.5211      0.0495      7.8120     95.9283     23.4987
   966.7000      7.9620      2.5422      0.0597      6.5319     95.6756     23.0692
   966.8000      7.9283      2.5532      0.0277      5.8683     97.1539     22.7899
   966.9000      7.9283      2.5613      0.0311      5.3728     98.3941     22.5342
   967.0000      7.9294      2.5715      0.0634      4.7599     97.3982     22.5291
   967.1000      7.9294      2.5778      0.0776      4.3751     96.8063     22.8646
   967.2000      7.9294      2.5727      0.0531      4.6874     97.9005     23.1215
   967.3000      7.9360      2.5583      0.0217      5.5551    100.9912     23.2770
   967.4000      7.9360      2.5462      0.0060      6.2927    106.2653     23.5161
   967.5000      7.9572      2.5431      0.0182      6.4784    112.2534     23.6956
   967.6000      7.9572      2.5519     -0.0096      5.9462    117.1817     23.7727
   967.7000      7.9572      2.5710      0.0340      4.7879    120.1440     23.9449
   967.8000      7.9336      2.5890      0.0714      3.6989    122.1851     24.3471
   967.9000      7.9336      2.5950      0.0661      3.3333    124.1231     24.8361
   968.0000      7.9115      2.5898      0.0521      3.6485    125.9700     25.2787
   968.1000      7.9115      2.5791      0.0493      4.2958    127.2429     25.5815
   968.2000      7.9115      2.5634      0.0178      5.2469    126.3209     25.5891
   968.3000      7.9987      2.5434     -0.0163      6.4597    123.5694     25.4700
   968.4000      7.9987      2.5201      0.0072      7.8727    121.5005     25.6430
   968.5000      7.9915      2.4924     -0.0225      9.5489    121.2431     26.0153
   968.6000      7.9915      2.4701     -0.0445     10.9017    121.5115     26.0933
   968.7000      7.9915      2.4702     -0.0274     10.8943    120.7738     25.8706
   968.8000      7.9933      2.4964     -0.0188      9.3065    119.9383     25.7450
   968.9000      7.9933      2.5284      0.0691      7.3670    120.8771     25.9171
   969.0000      8.0159      2.5398      0.0617      6.6769    122.2213     26.1876
   969.1000      8.0159      2.5298      0.0352      7.2852    121.5212     26.2714
   969.2000      8.0159      2.5217      0.0017      7.7785    119.0417     26.1584
   969.3000      7.9448      2.5279      0.0827      7.3977    116.4813     26.0115
   969.4000      7.9448      2.5378      0.0651      6.7990    113.9452     25.8764
   969.5000      7.9532      2.5393      0.1017      6.7093    111.2212     25.7845
   969.6000      7.9532      2.5294      0.0650      7.3065    109.8039     25.8310
   969.7000      7.9532      2.5161      0.0575      8.1125    110.0739     25.9378
   969.8000      7.9509      2.5088      0.0515      8.5605    111.2721     25.9800
   969.9000      7.9509      2.5118      0.0440      8.3753    113.7161     25.9483
