~Version Information
VERS.                      2.0: CWLS Log ASCII Standard - VERSION 2.0
WRAP.                       NO: One line per depth step
~Well Information Block
STRT.FT                -6.7500: 
STOP.FT              2034.2500: 
STEP.FT                 0.2500: 
NULL.                -999.2500: 
COMP.          Evergreen Operating Corp.: COMPANY
WELL.           Big Pine 32-15: WELL
FLD.           Purgatorie River: FIELD
LOC.           2590 FNL & 1442 FEL--: LOCATION
STAT.                       CO: State
CNTY.               Las Animas: COUNTY
CTRY. USA : Country
SECT. 15 : Section
TOWN. 33S : township
RANG. 67W : Range
SRVC.          Patterson Wireline, Inc.: SERVICE COMPANY
DATE.          Mon Mar 24 12:45:01 2003: LOG DATE
API.           05 071 07772 00: UNIQUE WELL ID
~Curve Information Block
DEPT.FT            0 000 00 00: Depth
HVOLTA.V                      : Head Voltage Apparent
CCL.                          : Casing Collar Locator
TT3.usec                      : CBL 3' Travel Time
AMP3.mV                       : CBL 3' Amplitude
GR.GAPI                       : Gamma Ray
~Parameter Information Block
~A  Depth      HVOLTA       CCL         TT3         AMP3         GR     
# ...
   525.2500    121.4971      0.0000    732.6981      5.2893    144.6288
   525.5000    121.2808      0.0000    731.6033      5.5835    149.1752
   525.7500    121.3364      0.0000    731.6724      5.8437    152.1999
   526.0000    121.4161      0.0000    732.0734      5.9909    153.4626
   526.2500    121.3618      0.0000    732.5068      6.1605    153.6114
   526.5000    121.2794      0.0000    732.9611      6.5697    153.4359
   526.7500    121.3570      0.0000    733.4532      7.2175    153.3744
   527.0000    121.3007      0.0000    733.8607      7.9306    153.8099
   527.2500    121.5795      0.0000    734.0511      8.6055    155.1883
   527.5000    121.2252      0.0000    734.0636      9.1902    157.2596
   527.7500    121.3584      0.0000    734.0271      9.6128    158.6717
   528.0000    121.2733      0.0000    734.0054      9.8930    158.1395
   528.2500    121.3584      0.0000    733.9932     10.1801    156.0898
   528.5000    121.3110      0.0000    733.9630     10.6030    154.7012
   528.7500    121.4436      0.0000    733.8831     11.1649    156.0803
   529.0000    121.3653      0.0000    733.7512     11.8084    160.4173
   529.2500    121.4456      0.0000    733.6269     12.4501    165.7837
   529.5000    121.2554      0.0000    733.5914     12.8999    169.6013
   529.7500    121.3639      0.0000    733.7128     13.0420    170.5302
   530.0000    121.2740      0.0000    734.0483     13.1385    169.3710
   530.2500    121.3076      0.0000    734.5560     13.5325    168.1413
   530.5000    121.2046      0.0000    734.9894     14.1424    168.1531
   530.7500    121.2252      0.0000    734.9993     14.5486    169.0653
   531.0000    121.1971      0.0000    734.2993     14.5062    169.5481
   531.2500    121.3564      0.0000    732.3051     14.2347    168.5492
   531.5000    121.1092      0.0000    727.7036     14.0765    166.1459
   531.7500    121.3660      0.0000    720.2590     14.0626    163.5237
   532.0000    121.4436      0.0000    713.9023     14.0486    162.1446
   532.2500    121.3069      0.0000    714.1805     14.0032    162.8250
   532.5000    121.3845      0.0000    720.9623     13.9575    165.3723
   532.7500    121.2849      0.0000    728.4841     13.8536    168.7096
   533.0000    121.3364      0.0000    732.7202     13.6535    171.2383
   533.2500    121.3900      0.0000    734.0856     13.4849    171.5491
   533.5000    121.2314      0.0000    734.3572     13.4827    169.1846
   533.7500    121.4971      0.0000    734.4600     13.6331    164.8428
   534.0000    121.3646      0.0000    734.5886     13.8330    160.1313
   534.2500    121.3639      0.0000    734.7434     13.9155    157.1533
   534.5000    121.2534      0.0000    734.8820     13.7520    157.6788
   534.7500    121.3907      0.0000    734.9630     13.5009    161.9317
   535.0000    121.3083      0.0000    734.9923     13.4403    168.1931
   535.2500    121.3653      0.0000    734.9980     13.5622    173.9243
   535.5000    121.4209      0.0000    734.9924     13.6480    177.2619
   535.7500    121.2513      0.0000    734.9642     13.4925    177.7162
   536.0000    121.2534      0.0000    734.8917     12.9485    176.3719
   536.2500    121.3131      0.0000    734.7946     12.0716    175.6586
   536.5000    121.2293      0.0000    734.7690     11.1451    177.9958
   536.7500    121.3866      0.0000    734.8877     10.4241    183.7369
   537.0000    121.2259      0.0000    735.0591      9.9616    190.5482
   537.2500    121.3653      0.0000    735.0781      9.6572    195.3263
   537.5000    121.2293      0.0000    734.8547      9.3857    196.6920
   537.7500    121.2568      0.0000    734.5585      9.1237    195.3357
   538.0000    121.1703      0.0000    734.4835      8.9866    192.3770
   538.2500    121.4964      0.0000    734.8676      9.0790    188.2428
   538.5000    121.2280      0.0000    736.1158      9.3634    183.0439
   538.7500    121.2252      0.0000    739.2195      9.7181    177.0518
   539.0000    121.2568      0.0000    744.9742      9.9782    170.6301
   539.2500    121.3351      0.0000    752.1155     10.0347    164.2399
   539.5000    121.1710      0.0000    757.8206     10.0802    158.3719
   539.7500    121.4175      0.0000    760.5950     10.4396    153.2039
   540.0000    121.3406      0.0000    760.8064     11.0811    148.7786
   540.2500    121.3618      0.0000    758.9302     11.6239    145.4314
   540.5000    121.1675      0.0000    755.3939     11.8234    143.3900
   540.7500    121.1964      0.0000    751.3815     11.8602    142.1923
   541.0000    121.3062      0.0000    748.0602     12.0360    141.2172
   541.2500    121.3103      0.0000    746.5215     12.3493    140.4869
   541.5000    121.3406      0.0000    748.2567     12.5788    140.4483
   541.7500    121.2815      0.0000    752.4576     12.5903    141.2286
   542.0000    121.2781      0.0000    755.3821     12.4528    142.4946
   542.2500    121.3879      0.0000    755.2365     12.3306    144.0052
   542.5000    121.3364      0.0000    754.4796     12.2870    146.0992
   542.7500    121.3591      0.0000    755.4927     12.2590    149.4428
   543.0000    121.3090      0.0000    756.6732     12.1872    154.1696
   543.2500    121.3330      0.0000    754.2172     12.0297    159.3174
   543.5000    121.1758      0.0000    746.0075     11.6729    163.3432
   543.7500    121.1964      0.0000    734.6180     11.0549    165.3484
   544.0000    121.4456      0.0000    726.6719     10.3536    165.8738
   544.2500    121.3055      0.0000    725.9954      9.7593    166.4427
   544.5000    121.4147      0.0000    729.5230      9.1852    168.2963
   544.7500    121.2554      0.0000    732.5762      8.4702    171.4260
   545.0000    121.4209      0.0000    733.7580      7.6964    174.5352
   545.2500    121.4422      0.0000    733.7930      7.0694    175.8201
   545.5000    121.1984      0.0000    733.5030      6.6438    174.0684
   545.7500    121.3921      0.0000    733.5980      6.3791    169.4200
   546.0000    121.3646      0.0000    735.3478      6.3060    163.2321
   546.2500    121.4168      0.0000    740.4594      6.4587    157.0553
   546.5000    121.2540      0.0000    747.8702      6.6704    151.6553
   546.7500    121.4147      0.0000    751.5723      6.6556    147.1347
   547.0000    121.3364      0.0000    747.4033      6.4191    144.0372
   547.2500    121.4099      0.0000    739.4745      6.2850    143.8229
   547.5000    121.3062      0.0000    733.8898      6.4136    147.6736
   547.7500    121.3344      0.0000    731.8242      6.5725    155.0970
   548.0000    121.3097      0.0000    731.4861      6.5099    164.3150
   548.2500    121.4161      0.0000    731.3175      6.3684    173.6309
   548.5000    121.4188      0.0000    730.2536      6.4604    181.7732
   548.7500    121.7265      0.0000    727.4190      6.8086    187.2404
   549.0000    121.3612      0.0000    723.2512      7.2152    188.3037
   549.2500    121.3612      0.0000    720.1804      7.6098    184.1700
   549.5000    121.3069      0.0000    719.3671      8.1007    176.0218
   549.7500    121.4978      0.0000    719.2456      8.7698    166.6794
   550.0000    121.3309      0.0000    719.9943      9.5614    159.1699
   550.2500    121.4209      0.0000    723.3196     10.3039    155.4168
   550.5000    121.3927      0.0000    727.8830     10.7727    155.8062
   550.7500    121.1957      0.0000    731.0354     10.8849    159.5116
   551.0000    121.2794      0.0000    731.8799     10.9010    165.0430
   551.2500    121.3879      0.0000    728.6174     11.1842    170.5830
   551.5000    121.3639      0.0000    713.2636     11.7162    174.3322
   551.7500    121.3371      0.0000    670.8282     12.1489    175.4987
   552.0000    121.2808      0.0000    593.0518     12.3335    175.3213
   552.2500    121.2836      0.0000    496.9703     12.5635    176.2325
   552.5000    121.1394      0.0000    414.1071     13.2224    179.2649
   552.7500    121.3618      0.0000    359.7838     14.3166    182.7866
   553.0000    121.4195      0.0000    329.3028     15.4276    184.4196
