~Version Information
VERS.                      2.0: CWLS Log ASCII Standard - VERSION 2.0
WRAP.                       NO: One line per depth step
~Well Information Block
STRT.FT               340.0000: 
STOP.FT              2342.7000: 
STEP.FT                 0.1000: 
NULL.                -999.2500: 
COMP.          Pioneer Natural Resources: COMPANY
WELL.          Pinkerton 41-12: WELL
FLD.           Purgatoire River: FIELD
LOC.           1222' FNL & 670' FEL--: LOCATION
CNTY.               Las Animas: COUNTY
SRVC.                Patterson: SERVICE COMPANY
DATE.          Thu Mar 16 06:39:17 2006: LOG DATE
UWI.           05 071 08500 00: UNIQUE WELL ID
STAT.                 Colorado: STATE
~Curve Information Block
DEPT.FT            0 000 00 00: Depth
DCAL.in                       : CDL Caliper
RHOB.g/cc                     : CDL Bulk Density
RHOC.g/cc                     : CDL Density Correction
DPOR.pu                       : CDL Density Porosity
NPOR.pu                       : Neutron Porosity
GR.GAPI                       : Gamma Ray
~Parameter Information Block
~A  Depth       DCAL        RHOB        RHOC        DPOR        NPOR         GR     
# ...
   992.8000      7.8992      2.5814      0.0918      4.1564     22.4322     99.0093
   992.9000      7.8992      2.5733      0.0194      4.6499     22.4114     99.0350
   993.0000      7.8868      2.5607      0.0446      5.4150     22.1659     96.9700
   993.1000      7.8868      2.5522     -0.0218      5.9250     21.9998     95.8289
   993.2000      7.8868      2.5684      0.0650      4.9448     22.0092     94.9094
   993.3000      7.8728      2.6024      0.0665      2.8837     22.0445     89.6982
   993.4000      7.8728      2.6272      0.0822      1.3831     21.8074     81.1682
   993.5000      7.8623      2.6308      0.1035      1.1608     21.3318     74.8162
   993.6000      7.8623      2.6202      0.0436      1.8066     20.9120     72.6085
   993.7000      7.8623      2.6050      0.0704      2.7264     20.8059     72.2418
   993.8000      7.8567      2.5883      0.0349      3.7378     20.8746     70.8412
   993.9000      7.8567      2.5734      0.0317      4.6436     20.8861     68.2944
   994.0000      7.8546      2.5563      0.0477      5.6791     20.9094     66.4697
   994.1000      7.8546      2.5356     -0.0100      6.9335     20.8544     65.1425
   994.2000      7.8546      2.5205      0.0152      7.8481     20.4803     63.9994
   994.3000      7.8555      2.5100      0.0217      8.4819     19.8275     64.1322
   994.4000      7.8555      2.5056     -0.0339      8.7528     19.0483     64.2446
   994.5000      7.8554      2.5150      0.0089      8.1803     18.4551     63.1792
   994.6000      7.8554      2.5254      0.0735      7.5501     18.2596     64.1330
   994.7000      7.8554      2.5212      0.0190      7.8055     18.3950     68.3082
   994.8000      7.8502      2.5099      0.0478      8.4939     18.7346     71.1892
   994.9000      7.8502      2.5048     -0.0008      8.7974     18.9197     69.7879
   995.0000      7.8423      2.5124      0.0128      8.3369     18.7416     67.2065
   995.1000      7.8423      2.5197      0.0690      7.8968     18.4824     66.4889
   995.2000      7.8423      2.5082      0.0571      8.5961     18.1897     65.7581
   995.3000      7.8407      2.4862      0.0228      9.9252     17.6548     63.7783
   995.4000      7.8407      2.4728     -0.0117     10.7404     17.1144     62.4506
   995.5000      7.8489      2.4698      0.0079     10.9184     16.9864     62.6361
   995.6000      7.8489      2.4701      0.0426     10.9020     17.2665     62.9775
   995.7000      7.8489      2.4741      0.0249     10.6576     17.5705     63.9876
   995.8000      7.8645      2.4879      0.0613      9.8250     17.6811     66.7116
   995.9000      7.8645      2.5039      0.0509      8.8568     17.8758     67.3638
   996.0000      7.8789      2.5082      0.0795      8.5969     18.3703     62.9973
   996.1000      7.8789      2.5031      0.0442      8.9047     18.9094     57.2958
   996.2000      7.8789      2.5005      0.0557      9.0603     19.3447     55.6383
   996.3000      7.8817      2.5103      0.0153      8.4658     19.8240     58.4370
   996.4000      7.8817      2.5406      0.0622      6.6329     20.4060     61.9139
   996.5000      7.8717      2.5814      0.0727      4.1563     21.0128     62.2190
   996.6000      7.8717      2.6108      0.1279      2.3760     21.4650     59.5524
   996.7000      7.8717      2.6142      0.1309      2.1698     21.7317     56.4536
   996.8000      7.8557      2.5990      0.0548      3.0916     21.8026     55.7059
   996.9000      7.8557      2.5929      0.0360      3.4631     21.8681     58.5077
   997.0000      7.8375      2.6111      0.0576      2.3565     22.4239     63.0495
   997.1000      7.8375      2.6374      0.0568      0.7615     23.3836     65.9715
   997.2000      7.8375      2.6474      0.0748      0.1547     24.0578     64.5650
   997.3000      7.8214      2.6367      0.0418      0.8054     24.1739     61.3238
   997.4000      7.8214      2.6223      0.0117      1.6811     23.9695     60.3651
   997.5000      7.8159      2.6180      0.0750      1.9371     23.6675     62.2034
   997.6000      7.8159      2.6208      0.0607      1.7692     23.4457     64.8210
   997.7000      7.8159      2.6308      0.0696      1.1653     23.3178     64.7772
   997.8000      7.8277      2.6515      0.0645     -0.0912     23.1336     63.3864
   997.9000      7.8277      2.6726      0.0823     -1.3726     22.9452     65.4304
   998.0000      7.8560      2.6837      0.0501     -2.0417     23.0220     70.0126
   998.1000      7.8560      2.6838      0.0805     -2.0514     23.1447     72.4287
   998.2000      7.8560      2.6677      0.0455     -1.0716     22.9345     70.9920
   998.3000      7.8894      2.6330      0.0270      1.0323     22.5923     67.5902
   998.4000      7.8894      2.5931     -0.0323      3.4499     22.4120     65.5189
   998.5000      7.9127      2.5689     -0.0451      4.9135     22.1782     66.6248
   998.6000      7.9127      2.5667     -0.0287      5.0466     21.6386     68.6139
   998.7000      7.9127      2.5706     -0.0002      4.8125     21.0982     67.2047
   998.8000      7.9237      2.5648     -0.0036      5.1626     20.7526     63.3582
   998.9000      7.9237      2.5542      0.0033      5.8047     20.3480     62.2023
   999.0000      7.9248      2.5523     -0.0188      5.9204     19.7886     64.3034
   999.1000      7.9248      2.5586      0.0249      5.5374     19.1602     67.4298
   999.2000      7.9248      2.5574      0.0425      5.6094     18.4486     69.9969
   999.3000      7.9139      2.5494     -0.0066      6.0951     17.8653     70.1838
   999.4000      7.9139      2.5492      0.0322      6.1081     17.8164     68.2428
   999.5000      7.8931      2.5496      0.0327      6.0839     18.3468     65.3932
   999.6000      7.8931      2.5395      0.0353      6.6991     18.9609     61.6032
   999.7000      7.8931      2.5218      0.0192      7.7706     19.3335     59.7111
   999.8000      7.8767      2.5008      0.0163      9.0451     19.7663     61.8026
   999.9000      7.8767      2.4800      0.0006     10.3017     20.2376     65.2124
  1000.0000      7.8713      2.4693     -0.0359     10.9516     20.4258     68.4663
  1000.1000      7.8713      2.4818     -0.0224     10.1946     20.5314     71.7311
  1000.2000      7.8713      2.5124      0.0441      8.3395     20.6874     73.4056
  1000.3000      7.8709      2.5363      0.0684      6.8889     20.7129     72.0544
  1000.4000      7.8709      2.5448      0.0674      6.3750     20.6033     70.1342
  1000.5000      7.8738      2.5479      0.0280      6.1895     20.5174     71.2556
  1000.6000      7.8738      2.5514     -0.0232      5.9779     20.6658     73.3718
  1000.7000      7.8738      2.5563      0.0584      5.6793     20.9714     73.0190
  1000.8000      7.8797      2.5653      0.0148      5.1321     20.9480     71.4701
  1000.9000      7.8797      2.5718      0.0645      4.7403     20.4966     70.6547
  1001.0000      7.8871      2.5614      0.0336      5.3701     20.0610     68.6024
  1001.1000      7.8871      2.5449      0.0089      6.3703     19.8058     64.2023
  1001.2000      7.8871      2.5439     -0.0035      6.4282     19.4062     60.5668
  1001.3000      7.8943      2.5544      0.0652      5.7939     18.8210     62.6638
  1001.4000      7.8943      2.5620      0.0023      5.3337     18.4859     70.1762
  1001.5000      7.8988      2.5654      0.0601      5.1285     18.5848     76.9024
  1001.6000      7.8988      2.5652      0.0375      5.1413     18.8418     78.3730
  1001.7000      7.8988      2.5624      0.0076      5.3103     18.9607     76.4523
  1001.8000      7.9000      2.5506      0.0572      6.0263     18.9060     73.7286
  1001.9000      7.9000      2.5299      0.0050      7.2805     18.7449     70.9265
  1002.0000      7.8984      2.5239      0.0001      7.6441     18.6454     69.6733
  1002.1000      7.8984      2.5397      0.0356      6.6836     18.6508     71.3778
  1002.2000      7.8984      2.5524      0.0760      5.9160     18.5977     73.1853
  1002.3000      7.8915      2.5448      0.0513      6.3782     18.4900     71.1097
