~Version Information
VERS.                      2.0: CWLS Log ASCII Standard - VERSION 2.0
WRAP.                       NO: One line per depth step
~Well Information Block
STRT.FT               645.0000: 
STOP.FT              2133.5000: 
STEP.FT                 0.2500: 
NULL.                -999.2500: 
COMP.          Pioneer Natural Resources: COMPANY
WELL.          Gunslinger 13-24: WELL
FLD.           Purgatoire River: FIELD
LOC.           1968' FSL & 633' FWL: LOCATION
PROV.                 Colorado: PROVINCE
CNTY.               Las Animas: COUNTRY
SRVC.                Patterson: SERVICE COMPANY
DATE.          Fri Jul 29 15:04:35 2005: LOG DATE
UWI.           05 071 08442 00: UNIQUE WELL ID
~Curve Information Block
DEPT.FT            0 000 00 00: Depth
SN.Ohm-m                      : IEL Short Normal
SP.mV                         : IEL Spontaneous Potential
DIR.Ohm-m                     : IEL Induction Resistivity
GR.GAPI                       : Gamma Ray
~Parameter Information Block
~A  Depth        SN          SP         DIR          GR     
# ...
  1616.5000     25.9497     94.2782     19.0912    110.7596
  1616.7500     27.8498     94.6050     20.2017    102.5908
  1617.0000     30.3672     94.9117     21.3794     90.8276
  1617.2500     33.5730     95.1903     22.5958     83.6822
  1617.5000     37.2659     95.4539     23.7899     74.2553
  1617.7500     41.1302     95.7222     24.8447     68.7833
  1618.0000     44.7371     96.0129     25.5933     61.5833
  1618.2500     47.5616     96.3375     25.8807     57.4734
  1618.5000     49.1706     96.7000     25.6490     53.0942
  1618.7500     49.3652     97.0924     24.9685     52.2933
  1619.0000     48.1139     97.4931     23.9856     56.0825
  1619.2500     45.4106     97.8733     22.8464     62.5090
  1619.5000     41.3148     98.2108     21.6558     77.2737
  1619.7500     36.1617     98.5000     20.4741     89.1826
  1620.0000     30.6564     98.7472     19.3311    107.2800
  1620.2500     25.6589     98.9606     18.2411    118.1069
  1620.5000     21.7783     99.1470     17.2146    131.1423
  1620.7500     19.1615     99.3118     16.2623    137.5810
  1621.0000     17.6145     99.4600     15.3939    144.5736
  1621.2500     16.7975     99.5945     14.6149    148.0565
  1621.5000     16.3404     99.7167     13.9243    152.2063
  1621.7500     15.9836     99.8226     13.3176    154.4126
  1622.0000     15.6699     99.9025     12.7886    157.0315
  1622.2500     15.4522     99.9531     12.3323    158.3932
  1622.5000     15.3332     99.9970     11.9458    159.7601
  1622.7500     15.2284    100.0765     11.6285    160.0088
  1623.0000     15.0865    100.2190     11.3822    159.1868
  1623.2500     14.9425    100.4125     11.2112    158.0361
  1623.5000     14.7971    100.6187     11.1241    156.1178
  1623.7500     14.5783    100.8047     11.1335    155.0947
  1624.0000     14.2771    100.9537     11.2525    154.2503
  1624.2500     14.0049    101.0533     11.4879    154.0284
  1624.5000     13.8782    101.0776     11.8319    153.3209
  1624.7500     13.9389    100.9890     12.2604    151.8218
  1625.0000     14.2069    100.7668     12.7382    147.0503
  1625.2500     14.6969    100.4367     13.2319    142.0722
  1625.5000     15.3798    100.0655     13.7225    132.1717
  1625.7500     16.2341     99.7251     14.2103    124.1693
  1626.0000     17.3349     99.4586     14.7082    110.7670
  1626.2500     18.8483     99.2705     15.2286    101.6183
  1626.5000     20.8948     99.1370     15.7698     88.9992
  1626.7500     23.3720     99.0228     16.3125     82.0403
  1627.0000     25.8866     98.8986     16.8264     74.6119
  1627.2500     27.9295     98.7561     17.2786     71.7709
  1627.5000     29.2072     98.6155     17.6346     70.1776
  1627.7500     29.7167     98.5124     17.8573     70.6269
  1628.0000     29.5369     98.4692     17.9179     73.9936
  1628.2500     28.7346     98.4774     17.8231     78.5918
  1628.5000     27.4003     98.5086     17.6302     89.2748
  1628.7500     25.6897     98.5398     17.4210     98.3431
  1629.0000     23.8265     98.5643     17.2457    113.1451
  1629.2500     22.0153     98.5825     17.0807    122.7268
  1629.5000     20.4245     98.5904     16.8399    134.8563
  1629.7500     19.2418     98.5847     16.4388    140.4902
  1630.0000     18.5464     98.5836     15.8607    144.2039
  1630.2500     18.1312     98.6386     15.1638    143.4723
  1630.5000     17.6355     98.8120     14.4343    138.5323
  1630.7500     16.8477     99.1227     13.7425    133.7292
  1631.0000     15.8033     99.5129     13.1326    126.3200
  1631.2500     14.6817     99.8779     12.6320    122.2123
  1631.5000     13.7199    100.1394     12.2598    118.1543
  1631.7500     13.1259    100.2939     12.0280    116.9666
  1632.0000     12.9565    100.3945     11.9373    117.3943
  1632.2500     13.1138    100.4923     11.9737    119.0062
  1632.5000     13.4408    100.5966     12.1053    122.5735
  1632.7500     13.8190    100.6843     12.2835    124.6731
  1633.0000     14.2234    100.7326     12.4497    125.0347
  1633.2500     14.6893    100.7360     12.5495    122.3658
  1633.5000     15.1731    100.6952     12.5499    113.9317
  1633.7500     15.4853    100.6042     12.4517    106.4755
  1634.0000     15.5395    100.4525     12.2862     95.7562
  1634.2500     15.5225    100.2352     12.0993     90.9599
  1634.5000     15.6326     99.9538     11.9341     89.9167
  1634.7500     15.8818     99.6008     11.8191     93.7117
  1635.0000     16.1757     99.1514     11.7650    104.3057
  1635.2500     16.3608     98.5768     11.7644    112.5969
  1635.5000     16.2684     97.8700     11.7958    123.7766
  1635.7500     15.8357     97.0569     11.8317    129.6755
  1636.0000     15.1659     96.1844     11.8483    136.7375
  1636.2500     14.4641     95.3024     11.8322    140.7794
  1636.5000     13.8917     94.4552     11.7817    145.7361
  1636.7500     13.4898     93.6828     11.7033    147.6917
  1637.0000     13.2468     93.0190     11.6087    147.8917
  1637.2500     13.1745     92.4830     11.5115    146.5121
  1637.5000     13.2936     92.0737     11.4264    143.6545
  1637.7500     13.5833     91.7711     11.3689    142.1083
  1638.0000     13.9428     91.5475     11.3548    141.0896
  1638.2500     14.2171     91.3819     11.4003    141.1613
  1638.5000     14.3172     91.2704     11.5201    141.5396
  1638.7500     14.3245     91.2236     11.7250    141.4513
  1639.0000     14.4067     91.2503     12.0193    140.3529
  1639.2500     14.6127     91.3460     12.4006    138.9580
  1639.5000     14.8716     91.4950     12.8627    135.9660
  1639.7500     15.1956     91.6805     13.3983    133.3603
  1640.0000     15.7248     91.8906     13.9986    128.3191
  1640.2500     16.5572     92.1243     14.6482    124.1051
  1640.5000     17.6576     92.3979     15.3213    116.7160
  1640.7500     18.9491     92.7439     15.9870    111.4521
  1641.0000     20.3586     93.1890     16.6250    103.9664
  1641.2500     21.7957     93.7318     17.2402     99.9225
  1641.5000     23.2418     94.3382     17.8619     96.5307
  1641.7500     24.7360     94.9580     18.5293     96.5300
  1642.0000     26.1808     95.5410     19.2750     99.6012
  1642.2500     27.3941     96.0451     20.1165    102.7612
  1642.5000     28.3033     96.4391     21.0527    107.0670
  1642.7500     28.8735     96.7060     22.0628    108.8277
  1643.0000     29.0312     96.8407     23.1042    109.7822
  1643.2500     28.8356     96.8452     24.1128    109.7745
  1643.5000     28.5524     96.7239     25.0088    109.2488
  1643.7500     28.4638     96.4824     25.7152    108.3037
  1644.0000     28.7107     96.1289     26.1862    105.2718
  1644.2500     29.3040     95.6818     26.4309    102.0560
  1644.5000     30.2105     95.1734     26.5133     96.0287
  1644.7500     31.3551     94.6428     26.5266     91.9392
  1645.0000     32.5998     94.1160     26.5632     87.3083
  1645.2500     33.9009     93.5955     26.6979     86.0188
  1645.5000     35.3568     93.0708     26.9800     87.1089
  1645.7500     36.8749     92.5390     27.4244     89.4158
  1646.0000     38.0940     92.0132     27.9994     94.1760
  1646.2500     38.8533     91.5138     28.6291     97.6236
  1646.5000     39.3064     91.0571     29.2178    101.8502
  1646.7500     39.5647     90.6533     29.6868    103.0918
  1647.0000     39.6269     90.3136     29.9907    101.9499
  1647.2500     39.5474     90.0580     30.1042     99.8796
  1647.5000     39.5050     89.9160     30.0144     96.8908
  1647.7500     39.7076     89.9158     29.7442     95.7992
  1648.0000     40.1832     90.0649     29.3842     95.8100
  1648.2500     40.7801     90.3379     29.0821     96.7959
  1648.5000     41.3452     90.6816     28.9773     99.4978
  1648.7500     41.6991     91.0328     29.1242    101.8916
  1649.0000     41.6159     91.3401     29.4478    105.7074
  1649.2500     41.0960     91.5831     29.7637    107.8488
  1649.5000     40.4616     91.7761     29.8621    109.3827
  1649.7500     39.9736     91.9511     29.6117    108.7781
