~Version Information
VERS.                      2.0: CWLS Log ASCII Standard - VERSION 2.0
WRAP.                       NO: One line per depth step
~Well Information Block
STRT.FT                15.0000: 
STOP.FT              1532.0000: 
STEP.FT                 0.2500: 
NULL.                -999.2500: 
COMP.          Pioneer Natural Resources: COMPANY
WELL.           Bobsy 34-11 Tr: WELL
FLD.           Purgatoire River: FIELD
LOC.           514' FSL & 1784' FEL: LOCATION
PROV.                 Colorado: PROVINCE
CNTY.               Las Animas: COUNTRY
SRVC.                Patterson: SERVICE COMPANY
DATE.          Fri Jul 22 12:22:14 2005: LOG DATE
UWI.           05 071 08438 00: UNIQUE WELL ID
~Curve Information Block
DEPT.FT            0 000 00 00: Depth
GR.GAPI                       : Gamma Ray
CCL.                          : Casing Collar Locator
TT3.usec                      : CBL 3' Travel Time
AMP3.mV                       : CBL 3' Amplitude
~Parameter Information Block
~A  Depth        GR         CCL         TT3         AMP3    
# ...
  1288.0000    143.3270      0.0000    753.7947      9.9680
  1288.2500    146.8655      0.0000    755.3443      9.9036
  1288.5000    149.4116      0.0000    754.0511      9.7617
  1288.7500    149.7955      0.0000    749.6289      9.5670
  1289.0000    147.4572      0.0000    742.1091      9.3197
  1289.2500    143.0936      0.0000    731.8696      9.0037
  1289.5000    138.4363      0.0000    720.4586      8.6098
  1289.7500    135.3175      0.0000    711.0093      8.1391
  1290.0000    134.4284      0.0000    706.6487      7.5907
  1290.2500    134.8651      0.0000    708.0070      6.9705
  1290.5000    135.2046      0.0000    713.0475      6.3264
  1290.7500    134.8556      0.0000    719.8758      5.7578
  1291.0000    133.8940      0.0000    728.9954      5.3545
  1291.2500    131.8162      0.0000    742.0753      5.1227
  1291.5000    127.3605      0.0000    758.7919      5.0027
  1291.7500    119.9564      0.0000    775.5417      4.9524
  1292.0000    110.8564      0.0000    787.6863      4.9790
  1292.2500    102.3822      0.0000    793.4460      5.0984
  1292.5000     96.3542     -3.0000    795.4381      5.3038
  1292.7500     93.5425     -3.0000    797.8739      5.5818
  1293.0000     94.0189      0.0000    801.9008      5.9525
  1293.2500     97.2445      0.0000    803.4868      6.4823
  1293.5000    102.0007      0.0000    796.2255      7.2187
  1293.7500    106.9819      0.0000    777.3243      8.0830
  1294.0000    111.6345      0.0000    751.4731      8.8672
  1294.2500    116.1276      0.0000    728.3267      9.3930
  1294.5000    120.6215      0.0000    715.3847      9.6528
  1294.7500    124.8907      0.0000    712.7742      9.7666
  1295.0000    128.6199      0.0000    714.3842      9.8444
  1295.2500    131.7448      0.0000    713.8887      9.9214
  1295.5000    134.4356      0.0000    709.8011      9.9811
  1295.7500    136.8463      0.0000    704.8549      9.9975
  1296.0000    138.9482      0.0000    701.3430      9.9607
  1296.2500    140.5997      0.0000    698.5388      9.8810
  1296.5000    141.7154      0.0000    694.6776      9.7813
  1296.7500    142.2654      0.0000    689.7935      9.6848
  1297.0000    142.1658      0.0000    685.7172      9.6070
  1297.2500    141.2453      0.0000    684.3653      9.5541
  1297.5000    139.2219      0.0000    686.8480      9.5275
  1297.7500    135.7851      0.0000    693.4154      9.5216
  1298.0000    131.0131      0.0000    703.2596      9.5203
  1298.2500    125.6617      0.0000    714.3484      9.5048
  1298.5000    120.7359      0.0000    723.7841      9.4687
  1298.7500    116.7591      0.0000    728.7146      9.4270
  1299.0000    113.4869      0.0000    728.0226      9.4125
  1299.2500    110.1435      0.0000    723.8826      9.4575
  1299.5000    105.9598      0.0000    720.6388      9.5702
  1299.7500    100.7932      0.0000    721.3187      9.7209
  1300.0000     95.3579      0.0000    725.9409      9.8583
  1300.2500     90.8194      0.0000    732.9927      9.9417
  1300.5000     88.2473      0.0000    740.8485      9.9633
  1300.7500     88.4385      0.0000    747.5591      9.9425
  1301.0000     91.8276      0.0000    750.8009      9.9056
  1301.2500     98.0592      0.0000    748.8246      9.8675
  1301.5000    105.7704      0.0000    741.3433      9.8285
  1301.7500    113.2586      0.0000    729.9724      9.7849
  1302.0000    119.5465      0.0000    718.3120      9.7421
  1302.2500    124.6432      0.0000    710.7374      9.7161
  1302.5000    128.8390      0.0000    709.4918      9.7199
  1302.7500    132.1227      0.0000    712.5393      9.7490
  1303.0000    134.3724      0.0000    715.4229      9.7814
  1303.2500    135.7281      0.0000    715.6760      9.7947
  1303.5000    136.4844      0.0000    714.6293      9.7817
  1303.7500    136.8185      0.0000    714.9916      9.7526
  1304.0000    136.8954      0.0000    717.8797      9.7229
  1304.2500    137.1116      0.0000    722.4500      9.6970
  1304.5000    137.9671      0.0000    727.3480      9.6619
  1304.7500    139.7260      0.0000    731.5226      9.6011
  1305.0000    142.2195      0.0000    733.7191      9.5165
  1305.2500    144.8205      0.0000    732.3729      9.4320
  1305.5000    146.7164      0.0000    727.0245      9.3700
  1305.7500    147.4587      0.0000    719.4275      9.3309
  1306.0000    147.2199      0.0000    712.1944      9.3002
  1306.2500    146.3290      0.0000    706.6844      9.2724
  1306.5000    144.8108      0.0000    703.0534      9.2572
  1306.7500    142.5079      0.0000    701.2944      9.2643
  1307.0000    139.2083      0.0000    700.7468      9.2866
  1307.2500    134.5564      0.0000    699.4873      9.2999
  1307.5000    128.4185      0.0000    695.8965      9.2759
  1307.7500    121.5739      0.0000    690.5174      9.2001
  1308.0000    115.6015      0.0000    685.3914      9.0807
  1308.2500    111.8235      0.0000    681.9672      8.9424
  1308.5000    110.6786      0.0000    680.2682      8.8139
  1308.7500    112.1514      0.0000    679.5857      8.7218
  1309.0000    116.0753      0.0000    679.2945      8.6900
  1309.2500    121.4770      0.0000    679.1038      8.7305
  1309.5000    126.0809      0.0000    678.9280      8.8297
  1309.7500    127.2419      0.0000    678.7217      8.9471
  1310.0000    123.6787      0.0000    678.4078      9.0358
  1310.2500    116.3634      0.0000    677.9294      9.0665
  1310.5000    107.8494      0.0000    677.3208      9.0310
  1310.7500    100.5539      0.0000    676.7238      8.9279
  1311.0000     95.2121      0.0000    676.3269      8.7512
  1311.2500     90.8316      0.0000    676.3416      8.4931
  1311.5000     86.2327      0.0000    677.1383      8.1566
  1311.7500     81.5224      0.0000    679.5113      7.7618
  1312.0000     77.9371      0.0000    684.7324      7.3424
  1312.2500     76.4723      0.0000    693.8110      6.9355
  1312.5000     77.0127      0.0000    706.1216      6.5748
  1312.7500     78.7436      0.0000    719.0011      6.2866
  1313.0000     81.0049      0.0000    729.4167      6.0833
  1313.2500     83.4388      0.0000    735.9730      5.9580
  1313.5000     85.5789      0.0000    738.9216      5.8879
  1313.7500     86.8777      0.0000    739.0416      5.8439
  1314.0000     87.3339      0.0000    737.3799      5.8023
  1314.2500     87.7009      0.0000    735.3259      5.7585
  1314.5000     88.7714      0.0000    733.8737      5.7372
  1314.7500     90.6173      0.0000    732.7930      5.7827
  1315.0000     92.6837      0.0000    730.6033      5.9296
  1315.2500     94.4688      0.0000    725.2631      6.1788
  1315.5000     95.9787      0.0000    715.6085      6.4953
  1315.7500     97.6507      0.0000    702.9108      6.8226
  1316.0000     99.8644      0.0000    690.5714      7.1075
  1316.2500    102.4014      0.0000    681.6750      7.3253
  1316.5000    104.4610      0.0000    677.0557      7.4854
  1316.7500    105.3839      0.0000    675.7200      7.6117
  1317.0000    105.1832      0.0000    676.5261      7.7229
  1317.2500    104.1575      0.0000    679.4119      7.8306
  1317.5000    102.3258      0.0000    685.5574      7.9408
  1317.7500     99.7452      0.0000    696.4075      8.0456
  1318.0000     97.2222      0.0000    711.8340      8.1215
  1318.2500     96.0349      0.0000    728.9619      8.1490
  1318.5000     96.7053      0.0000    743.2805      8.1287
  1318.7500     98.4205      0.0000    751.2957      8.0753
  1319.0000     99.8635      0.0000    752.2289      8.0026
  1319.2500    100.3902      0.0000    747.7435      7.9207
  1319.5000    100.3487      0.0000    740.6913      7.8415
  1319.7500    100.4954      0.0000    733.8135      7.7787
  1320.0000    101.2210      0.0000    728.7587      7.7407
  1320.2500    102.3124      0.0000    725.8669      7.7264
  1320.5000    103.3903      0.0000    724.7803      7.7279
  1320.7500    104.4402      0.0000    725.1962      7.7336
  1321.0000    105.8451      0.0000    727.0194      7.7328
  1321.2500    108.0286      0.0000    729.8832      7.7273
