~Version Information
VERS.                      2.0: CWLS Log ASCII Standard - VERSION 2.0
WRAP.                       NO: One line per depth step
~Well Information Block
STRT.FT                -6.0000: 
STOP.FT               783.7500: 
STEP.FT                 0.2500: 
NULL.                -999.2500: 
COMP.          Pioneer Natural Resources: COMPANY
WELL.           Weissach 32-32: WELL
FLD.           Purgatorie River: FIELD
LOC.           --2193' FNL & 2256' FEL--: LOCATION
STAT.                       CO: State
CNTY.               Las Animas: COUNTY
CTRY. USA : Country
SECT. 32 : Section
TOWN. 33S : Township
RANG. 65W : Range
SRVC.          Patterson Wireline: SERVICE COMPANY
DATE.          Thu Sep 29 12:52:09 2005: LOG DATE
API.           05 071 08523 00: UNIQUE WELL ID
~Curve Information Block
DEPT.FT            0 000 00 00: Depth
CCL.                          : Casing Collar Locator
TT3.usec                      : CBL 3' Travel Time
AMP3.mV                       : CBL 3' Amplitude
GR.GAPI                       : Gamma Ray
~Parameter Information Block
~A  Depth       CCL         TT3         AMP3         GR     
# ...
    61.0000      0.0000    748.4205     10.1160     86.6496
    61.2500      0.0000    750.6844     10.1491     87.5687
    61.5000      0.0000    755.3886     10.1661     86.8543
    61.7500      0.0000    760.4241     10.1850     85.5807
    62.0000      0.0000    762.3475     10.2285     85.8551
    62.2500      0.0000    760.2440     10.2892     89.1398
    62.5000      0.0000    757.7566     10.3250     94.7770
    62.7500      0.0000    759.8618     10.2998     99.9204
    63.0000      0.0000    767.7946     10.2233    101.4221
    63.2500      0.0000    778.1727     10.1409     98.4150
    63.5000      0.0000    786.6422     10.0924     93.0241
    63.7500      0.0000    791.0192     10.0868     88.4392
    64.0000      0.0000    791.0331     10.1076     86.3965
    64.2500      0.0000    786.7042     10.1312     86.4383
    64.5000      0.0000    778.3438     10.1404     87.1270
    64.7500      0.0000    768.2375     10.1245     87.5210
    65.0000      0.0000    761.0701     10.0734     87.4654
    65.2500      0.0000    761.0282      9.9766     87.1392
    65.5000      0.0000    768.1028      9.8349     86.7320
    65.7500      0.0000    778.1252      9.6697     86.2747
    66.0000      0.0000    786.5577      9.5139     85.6222
    66.2500      0.0000    791.5563      9.3917     84.8059
    66.5000      0.0000    793.7698      9.3074     84.3306
    66.7500      0.0000    794.5448      9.2494     85.0053
    67.0000      0.0000    794.7953      9.2024     87.6372
    67.2500      0.0000    794.9001      9.1551     92.8283
    67.5000      0.0000    794.9627      9.1018    100.5057
    67.7500      0.0000    795.0047      9.0435    109.2692
    68.0000      0.0000    795.0336      8.9889    116.6346
    68.2500      0.0000    795.0510      8.9501    120.5753
    68.5000      0.0000    795.0618      8.9357    120.8977
    68.7500      0.0000    795.0785      8.9447    118.9498
    69.0000      0.0000    795.1140      8.9660    116.1896
    69.2500      0.0000    795.1686      8.9846    113.3816
    69.5000      0.0000    795.2325      8.9908    110.8989
    69.7500      0.0000    795.2996      8.9838    109.2058
    70.0000      0.0000    795.3700      8.9673    108.8497
    70.2500      0.0000    795.4368      8.9420    110.1251
    70.5000      0.0000    795.4833      8.9060    112.5801
    70.7500      0.0000    795.4941      8.8622    114.7990
    71.0000      0.0000    795.4658      8.8219    115.2147
    71.2500      0.0000    795.4097      8.8000    113.4877
    71.5000      0.0000    795.3517      8.8057    110.6837
    71.7500      0.0000    795.3205      8.8390    107.9040
    72.0000      0.0000    795.3210      8.8912    105.1049
    72.2500      0.0000    795.3180      8.9510    101.5004
    72.5000      0.0000    795.2535      9.0109     96.9376
    72.7500      0.0000    795.0246      9.0695     92.4940
    73.0000      0.0000    794.3741      9.1240     89.5180
    73.2500      0.0000    792.7489      9.1637     88.4532
    73.5000      0.0000    789.4921      9.1789     88.9510
    73.7500      0.0000    784.6882      9.1738     90.6811
    74.0000      0.0000    780.0203      9.1653     93.5210
    74.2500      0.0000    778.1135      9.1688     97.2776
    74.5000      0.0000    780.2769      9.1876    101.5525
    74.7500      0.0000    785.1555      9.2128    105.6956
    75.0000      0.0000    790.0719      9.2292    108.8254
    75.2500      0.0000    793.3097      9.2198    110.1941
    75.5000      0.0000    794.8266      9.1723    109.8606
    75.7500      0.0000    795.4186      9.0890    109.0230
    76.0000      0.0000    795.8021      8.9923    109.2102
    76.2500      0.0000    796.2191      8.9117    110.9089
    76.5000      0.0000    796.3876      8.8591    113.2256
    76.7500      0.0000    795.6108      8.8239    114.8459
    77.0000      0.0000    793.3078      8.7953    114.9037
    77.2500      0.0000    789.9308      8.7833    113.1093
    77.5000      0.0000    787.3486      8.8081    109.6265
    77.7500      0.0000    787.3713      8.8700    104.9095
    78.0000      0.0000    789.4258      8.9373     99.5723
    78.2500      0.0000    790.7357      8.9692     94.5884
    78.5000      0.0000    789.6456      8.9493     91.3164
    78.7500      0.0000    787.7628      8.8982     90.5620
    79.0000      0.0000    787.8514      8.8567     91.6208
    79.2500      0.0000    790.5660      8.8513     92.8315
    79.5000      0.0000    794.2623      8.8741     93.0362
    79.7500      0.0000    797.1749      8.8960     92.2221
    80.0000      0.0000    798.7085      8.9049     91.2164
    80.2500      0.0000    798.9221      8.9190     91.1160
    80.5000      0.0000    797.4658      8.9499     92.5769
    80.7500      0.0000    792.8996      8.9486     95.2236
    81.0000      0.0000    782.9138      8.7986     97.7051
    81.2500      0.0000    766.3491      8.3943     98.3614
    81.5000      0.0000    746.4894      7.7551     96.2096
    81.7500      0.0000    732.0233      7.0643     91.8488
    82.0000      0.0000    732.4963      6.5649     87.3094
    82.2500      0.0000    751.3748      6.3994     84.3479
    82.5000      0.0000    783.2913      6.5360     82.7482
    82.7500      0.0000    817.5098      6.8243     80.6627
    83.0000      0.0000    844.0084      7.1059     76.5670
    83.2500      0.0000    857.8566      7.2945     70.5405
    83.5000     -2.0000    859.1179      7.3831     63.8995
    83.7500      0.0000    848.9981      7.4101     58.1734
    84.0000      0.0000    827.3190      7.4389     54.4591
    84.2500      0.0000    795.0603      7.5569     53.1686
    84.5000      0.0000    758.2827      7.8484     53.9731
    84.7500      0.0000    726.8717      8.3255     55.9919
    85.0000      0.0000    708.3759      8.8894     58.2734
    85.2500      0.0000    703.9730      9.3853     60.3027
    85.5000      0.0000    710.3691      9.7004     62.1483
    85.7500      0.0000    723.8248      9.8165     64.1509
    86.0000      0.0000    741.1874      9.7931     66.4699
    86.2500      0.0000    758.5213      9.7125     68.8321
    86.5000      0.0000    771.2101      9.6297     70.7584
    86.7500      0.0000    776.5791      9.5603     72.3424
    87.0000      0.0000    775.7198      9.5015     74.8327
    87.2500      0.0000    771.9323      9.4526     80.0610
    87.5000      0.0000    767.3751      9.4198     88.9216
    87.7500      0.0000    761.7260      9.4099    100.2915
    88.0000      0.0000    753.7618      9.4218    111.3597
    88.2500      0.0000    743.3249      9.4421    118.9977
    88.5000      0.0000    731.7950      9.4513    121.3153
    88.7500      0.0000    721.3379      9.4369    118.7175
    89.0000      0.0000    713.6572      9.4004    113.7215
    89.2500      0.0000    709.1128      9.3521    109.2141
    89.5000      0.0000    706.9235      9.3007    106.4541
    89.7500      0.0000    706.0547      9.2473    104.8995
    90.0000      0.0000    705.8240      9.1884    103.9404
    90.2500      0.0000    705.9108      9.1258    104.1625
    90.5000      0.0000    706.1513      9.0716    106.4864
    90.7500      0.0000    706.4305      9.0418    110.4151
    91.0000      0.0000    706.6791      9.0425    113.8235
    91.2500      0.0000    706.9073      9.0653    114.7514
    91.5000      0.0000    707.2678      9.0954    113.0356
    91.7500      0.0000    708.1808      9.1209    109.8305
    92.0000      0.0000    710.4667      9.1354    105.8125
    92.2500      0.0000    715.0472      9.1369    100.4449
    92.5000      0.0000    721.7961      9.1287     93.0676
    92.7500      0.0000    728.3939      9.1190     84.2292
    93.0000      0.0000    731.2338      9.1132     75.6224
    93.2500      0.0000    728.4957      9.1102     68.8366
    93.5000      0.0000    721.9802      9.1035     64.3391
    93.7500      0.0000    715.2915      9.0868     61.6186
    94.0000      0.0000    710.7622      9.0572     60.1126
    94.2500      0.0000    708.5309      9.0165     59.7246
