~Version Information
 VERS.                                  2.0 : CWLS LAS VERSION
 WRAP.                                   NO : WRAPING MODE
 SWARE .                 MController 2.5.0N : SOFTWARE VERSION
~Well Information
 WELL.                            AMX 13-13 : WELL
 COMP.  Pioneer Natural Resources USA, Inc. : COMPANY
 FLD.                      Purgatoire River : FIELD
 LOC.                      NW/SW 13-32S-68W : LOCATION
 DATE.                          12/18-19/05 : DATE(S) LOGGED
 SRVC.       BLANCO Geological Services LLC : SERVICE COMPANY
 STAT.                                   CO : STATE
 CNTY.                           Las Animas : COUNTY
 CTRY.                                  USA : COUNTRY
 API.                          05-071-08630 : API NUMBER
 STRT.FT                             496.00 : START DEPTH
 STOP.FT                            2875.00 : STOP DEPTH
 STEP.FT                               1.00 : DEPTH INCREMENT
 NULL.                                -9999 : NULL VALUE
~Curve information
 DEPTH.FT                                   :
 ROP.MIN/FT                                 :
 GAS.UNITS                                  :
~ASCII Log data
# ...
       896.0         2.47         10.4 
       897.0         0.33          5.9 
       898.0         0.38          5.1 
       899.0         0.33          4.4 
       900.0         0.37          4.3 
       901.0         0.33          4.2 
       902.0         0.33          4.2 
       903.0         0.27          4.2 
       904.0         0.23          4.1 
       905.0         0.20          4.1 
       906.0         0.23          4.2 
       907.0         0.23          4.2 
       908.0         0.27          4.3 
       909.0         0.28          4.3 
       910.0         0.33          4.4 
       911.0         0.40          4.5 
       912.0         0.40          4.5 
       913.0         0.27          4.4 
       914.0         0.40          4.3 
       915.0         0.27          4.2 
       916.0         0.27          4.2 
       917.0         0.23          4.1 
       918.0         0.30          4.2 
       919.0         0.23          4.2 
       920.0         0.22          4.6 
       921.0         0.20          4.5 
       922.0         0.27          4.9 
       923.0         0.27          4.7 
       924.0         0.27          5.1 
       925.0         0.23          5.6 
       926.0         1.07          8.4 
       927.0         0.27          7.8 
       928.0         0.47          6.9 
       929.0         0.38          5.4 
       930.0         0.37          4.7 
       931.0         0.33          4.6 
       932.0         0.30          4.4 
       933.0         0.33          4.4 
       934.0         0.30          4.4 
       935.0         0.30          4.4 
       936.0         0.43          4.6 
       937.0         0.40          4.4 
       938.0         0.48          4.6 
       939.0         0.37          4.6 
       940.0         0.33          4.6 
       941.0         0.30          4.6 
       942.0         0.37          4.7 
       943.0         0.47          4.6 
       944.0         0.27          4.6 
       945.0         0.33          4.7 
       946.0         0.27          4.5 
       947.0         0.30          4.7 
       948.0         0.28          4.8 
       949.0         0.27          4.6 
       950.0         0.27          4.5 
       951.0         0.27          4.5 
       952.0         0.27          4.5 
       953.0         0.23          4.4 
       954.0         0.27          4.3 
       955.0         0.30          4.4 
       956.0         2.45          8.1 
       957.0         0.57          5.2 
       958.0         0.57          4.5 
       959.0         0.47          4.4 
       960.0         0.43          4.3 
       961.0         0.38          4.1 
       962.0         0.37          4.0 
       963.0         0.40          4.3 
       964.0         0.50          4.0 
       965.0         0.27          4.0 
       966.0         0.23          3.8 
       967.0         0.23          3.8 
       968.0         0.20          3.8 
       969.0         0.17          3.7 
       970.0         0.17          3.7 
       971.0         0.23          3.6 
       972.0         0.23          3.9 
       973.0         0.17          3.6 
       974.0         0.28          3.7 
       975.0         0.23          4.1 
       976.0         0.27          4.2 
       977.0         0.37          4.2 
       978.0         0.37          4.3 
       979.0         0.23          4.3 
       980.0         0.27          4.3 
       981.0         0.30          4.5 
       982.0         0.27          4.4 
       983.0         0.37          4.8 
       984.0         0.33          5.4 
       985.0         0.32          6.8 
       986.0         1.67         10.4 
       987.0         0.40          6.8 
       988.0         0.40          6.4 
       989.0         0.33          4.6 
       990.0         0.30          6.2 
       991.0         0.38          7.3 
       992.0         0.40          8.6 
       993.0         0.33          6.8 
       994.0         0.33          7.6 
       995.0         0.33          7.7 
       996.0         0.47          7.4 
       997.0         0.53          6.7 
       998.0         0.37          6.7 
       999.0         0.23          6.9 
      1000.0         0.25          6.9 
      1001.0         0.27          6.1 
      1002.0         0.27          7.3 
      1003.0         0.23          7.7 
      1004.0         0.20          8.7 
      1005.0         0.20          6.1 
      1006.0         0.23          7.6 
      1007.0         0.30          5.7 
      1008.0         0.27          6.1 
      1009.0         0.27          7.1 
      1010.0         0.23          6.0 
      1011.0         0.23          6.7 
      1012.0         0.20          6.4 
      1013.0         0.23          5.7 
      1014.0         0.32          6.5 
      1015.0         0.27          5.3 
      1016.0         2.82         13.0 
      1017.0         0.40          9.5 
      1018.0         0.43          8.0 
      1019.0         0.30          9.1 
      1020.0         0.30          6.7 
      1021.0         0.13          6.2 
      1022.0         0.10          6.1 
      1023.0         0.10          6.1 
      1024.0         0.27          7.0 
      1025.0         0.30          5.5 
      1026.0         0.27          5.1 
      1027.0         0.37          5.3 
      1028.0         0.27          5.2 
      1029.0         0.32          4.7 
      1030.0         0.27          4.6 
      1031.0         0.30          4.8 
      1032.0         0.23          4.6 
      1033.0         0.20          4.7 
      1034.0         0.23          4.7 
      1035.0         0.13          5.4 
      1036.0         0.20          4.5 
      1037.0         0.20          4.4 
      1038.0         0.17          4.3 
      1039.0         0.20          4.3 
      1040.0         0.20          4.4 
      1041.0         0.20          4.4 
      1042.0         0.30          4.6 
      1043.0         0.23          4.7 
      1044.0         0.22          4.9 
      1045.0         0.17          5.2 
      1046.0         2.07         10.2 
      1047.0         0.43          5.9 
      1048.0         0.33          8.1 
      1049.0         0.38          8.4 
      1050.0         0.37          7.3 
      1051.0         0.40          6.3 
      1052.0         0.40         16.8 
      1053.0         0.33         39.5 
      1054.0         0.20         53.6 
      1055.0         0.17         60.8 
      1056.0         0.13         63.2 
      1057.0         0.10         63.5 
      1058.0         0.07         63.4 
      1059.0         0.27         62.9 
      1060.0         0.30         59.3 
      1061.0         0.27         52.7 
      1062.0         0.22         48.8 
      1063.0         0.23         46.5 
      1064.0         0.17         43.3 
      1065.0         0.30         41.3 
      1066.0         0.23         38.0 
      1067.0         0.20         36.4 
      1068.0         0.27         35.3 
      1069.0         0.23         33.1 
      1070.0         0.27         31.6 
      1071.0         0.23         31.1 
      1072.0         0.23         30.8 
      1073.0         0.20         29.5 
      1074.0         0.33         27.7 
      1075.0         0.27         31.8 
      1076.0         1.72         76.7 
      1077.0         0.23         49.7 
      1078.0         0.23         39.5 
      1079.0         0.30         32.8 
      1080.0         0.27         28.2 
      1081.0         0.23         27.1 
      1082.0         0.20         26.1 
      1083.0         0.18         25.9 
      1084.0         0.13         24.9 
      1085.0         0.17         23.8 
      1086.0         0.17         23.0 
      1087.0         0.20         22.1 
      1088.0         0.27         21.1 
      1089.0         0.20         20.4 
      1090.0         0.20         19.9 
      1091.0         0.20         19.6 
      1092.0         0.27         19.5 
      1093.0         0.23         19.1 
      1094.0         0.27         19.1 
      1095.0         0.27         18.5 
