~Version Information
VERS.                      2.0: CWLS Log ASCII Standard - VERSION 2.0
WRAP.                       NO: One line per depth step
~Well Information Block
STRT.FT               460.0000: 
STOP.FT              2311.7500: 
STEP.FT                 0.2500: 
NULL.                -999.2500: 
COMP.          Pioneer Natural Resources: COMPANY
WELL.          McDonald 33-31 R: WELL
FLD.           Purgatoire River: FIELD
LOC.           1386' FSL & 1926' FEL: LOCATION
STAT.                 Colorado: State
CNTY.               Las Animas: COUNTY
CTRY.                      USA: Country
SECT.                       31: Section
TOWN.                      32S: Township
RANG.                      66W: Range
SRVC.                Patterson: SERVICE COMPANY
DATE.          Fri Sep 23 00:08:18 2005: LOG DATE
API.           05 071 08533 00: API#
~Curve Information Block
DEPT.FT            0 000 00 00: Depth
SN.Ohm-m                      : IEL Short Normal
SP.mV                         : IEL Spontaneous Potential
DIR.Ohm-m                     : IEL Induction Resistivity
GR.GAPI                       : Gamma Ray
~Parameter Information Block
~A  Depth        SN          SP         DIR          GR     
# ...
  1063.0000      3.4767   -350.6056 100000.0000    116.7905
  1063.2500      3.5823   -349.7432 100000.0000    117.7689
  1063.5000      3.6823   -349.2357      3.4447    118.8488
  1063.7500      3.7239   -349.0905      0.6894    118.7729
  1064.0000      3.6947   -349.2872      0.2565    117.1029
  1064.2500      3.6314   -349.7830      0.1107    114.8884
  1064.5000      3.5824   -350.5218      0.0629    109.6966
  1064.7500      3.5720   -351.4378      0.0544    104.8833
  1065.0000      3.5944   -352.4556      0.0740     95.9506
  1065.2500      3.6224   -353.4874      0.1455     89.4003
  1065.5000      3.6235   -354.4305      0.3435     79.8132
  1065.7500      3.5863   -355.1707      0.8964     74.0118
  1066.0000      3.5335   -355.6005      3.8010     66.1960
  1066.2500      3.5063   -355.6443 100000.0000     61.2992
  1066.5000      3.5400   -355.2903 100000.0000     54.1151
  1066.7500      3.6546   -354.6145 100000.0000     49.5944
  1067.0000      3.8515   -353.7802 100000.0000     44.0470
  1067.2500      4.1006   -353.0101 100000.0000     41.7583
  1067.5000      4.3403   -352.5318 100000.0000     41.0365
  1067.7500      4.5073   -352.5164      3.3979     42.2328
  1068.0000      4.5658   -353.0290      1.0089     45.5891
  1068.2500      4.5147   -354.0051      0.4145     48.1926
  1068.5000      4.3854   -355.2648      0.1765     51.7983
  1068.7500      4.2335   -356.5542      0.0774     53.7578
  1069.0000      4.1124   -357.6027      0.0412     55.9806
  1069.2500      4.0456   -358.1818      0.0299     57.1279
  1069.5000      4.0307   -358.1480      0.0302     58.8283
  1069.7500      4.0658   -357.4616      0.0403     60.3590
  1070.0000      4.1597   -356.1826      0.0637     64.2696
  1070.2500      4.3103   -354.4466      0.1006     68.5962
  1070.5000      4.4799   -352.4324      0.1335     77.9609
  1070.7500      4.6120   -350.3327      0.1350     85.4035
  1071.0000      4.6777   -348.3335      0.1056     96.2459
  1071.2500      4.6990   -346.5999      0.0721    102.4110
  1071.5000      4.7184   -345.2681      0.0509    110.0563
  1071.7500      4.7560   -344.4345      0.0432    114.4453
  1072.0000      4.8005   -344.1439      0.0479    120.1486
  1072.2500      4.8226   -344.3809      0.0702    123.2165
  1072.5000      4.7824   -345.0741      0.1294    126.5604
  1072.7500      4.6421   -346.1110      0.2668    128.0429
  1073.0000      4.3998   -347.3641      0.5648    129.5594
  1073.2500      4.1149   -348.7178      1.2943    130.3804
  1073.5000      3.8805   -350.0830      3.7177    131.4430
  1073.7500      3.7622   -351.3956     16.3449    131.7451
  1074.0000      3.7610   -352.6068     46.4894    130.9095
  1074.2500      3.8212   -353.6645     15.3237    129.4804
  1074.5000      3.8654   -354.5131      7.4268    127.0937
  1074.7500      3.8408   -355.1006      5.4894    126.3027
  1075.0000      3.7561   -355.3970      5.4714    127.3948
  1075.2500      3.6721   -355.4131      7.1284    129.4873
  1075.5000      3.6493   -355.2077     12.8854    133.1990
  1075.7500      3.7004   -354.8800     50.4055    134.9875
  1076.0000      3.7850   -354.5490 100000.0000    135.5031
  1076.2500      3.8391   -354.3259 100000.0000    134.4654
  1076.5000      3.8202   -354.2902 100000.0000    132.0029
  1076.7500      3.7384   -354.4733 100000.0000    130.5713
  1077.0000      3.6429   -354.8544 100000.0000    129.4789
  1077.2500      3.5808   -355.3679 100000.0000    129.4154
  1077.5000      3.5680   -355.9153 100000.0000    129.9260
  1077.7500      3.5831   -356.3838 100000.0000    130.4540
  1078.0000      3.5844   -356.6674 100000.0000    131.1625
  1078.2500      3.5426   -356.6868 100000.0000    131.3865
  1078.5000      3.4645   -356.4041 100000.0000    131.1471
  1078.7500      3.3846   -355.8311 100000.0000    130.4080
  1079.0000      3.3387   -355.0258   2129.8669    127.7425
  1079.2500      3.3461   -354.0798     26.7902    124.7480
  1079.5000      3.4008   -353.1010     13.6915    119.6251
  1079.7500      3.4693   -352.1965      9.7838    117.2321
  1080.0000      3.5065   -351.4607      8.1803    117.1175
  1080.2500      3.4925   -350.9677      7.5038    119.3545
  1080.5000      3.4539   -350.7688      7.2837    124.4716
  1080.7500      3.4405   -350.8894      7.2929    127.9206
  1081.0000      3.4838   -351.3245      7.3894    132.2314
  1081.2500      3.5777   -352.0348      7.4793    134.6330
  1081.5000      3.6854   -352.9480      7.5160    138.1035
  1081.7500      3.7587   -353.9666      7.4983    140.4877
  1082.0000      3.7700   -354.9846      7.4553    143.6222
  1082.2500      3.7345   -355.9052      7.4241    144.7567
  1082.5000      3.6967   -356.6609      7.4346    144.4329
  1082.7500      3.6949   -357.2227      7.5041    143.2758
  1083.0000      3.7378   -357.6033      7.6408    141.3907
  1083.2500      3.8024   -357.8508      7.8492    140.3812
  1083.5000      3.8507   -358.0360      8.1347    138.9026
  1083.7500      3.8595   -358.2367      8.5050    137.5937
  1084.0000      3.8380   -358.5198      8.9687    134.6746
  1084.2500      3.8142   -358.9250      9.5308    131.7874
  1084.5000      3.8099   -359.4532     10.1883    125.6350
  1084.7500      3.8292   -360.0628     10.9271    120.4600
  1085.0000      3.8603   -360.6769     11.7207    112.1725
  1085.2500      3.8832   -361.2008     12.5352    107.1883
  1085.5000      3.8857   -361.5464     13.3368    101.9893
  1085.7500      3.8741   -361.6566     14.0987    100.6631
  1086.0000      3.8598   -361.5220     14.8016    102.1330
  1086.2500      3.8383   -361.1819     15.4270    104.9160
  1086.5000      3.7926   -360.7130     15.9529    110.0814
  1086.7500      3.7187   -360.2072     16.3591    113.1794
  1087.0000      3.6360   -359.7474     16.6406    116.3868
  1087.2500      3.5687   -359.3905     16.8166    117.4712
  1087.5000      3.5298   -359.1599     16.9250    117.5576
  1087.7500      3.5218   -359.0501     17.0056    116.6863
  1088.0000      3.5342   -359.0367     17.0861    114.6271
  1088.2500      3.5377   -359.0898     17.1780    113.2800
  1088.5000      3.4990   -359.1830     17.2840    111.6826
  1088.7500      3.4147   -359.2969     17.4068    110.7044
  1089.0000      3.3192   -359.4190     17.5513    109.0551
  1089.2500      3.2545   -359.5412     17.7179    107.9915
  1089.5000      3.2383   -359.6574     17.8937    106.8382
  1089.7500      3.2608   -359.7624     18.0491    106.1742
  1090.0000      3.2977   -359.8525     18.1477    104.2082
  1090.2500      3.3210   -359.9270     18.1612    101.5776
  1090.5000      3.3110   -359.9897     18.0803     95.4413
  1090.7500      3.2694   -360.0475     17.9125     90.5633
  1091.0000      3.2196   -360.1095     17.6722     84.2659
  1091.2500      3.1897   -360.1844     17.3720     82.1069
  1091.5000      3.1962   -360.2782     17.0212     83.2438
  1091.7500      3.2388   -360.3947     16.6267     86.7449
  1092.0000      3.2973   -360.5358     16.1940     94.4779
  1092.2500      3.3381   -360.7045     15.7260    100.0584
  1092.5000      3.3384   -360.9062     15.2214    107.2060
  1092.7500      3.3082   -361.1480     14.6775    110.4395
  1093.0000      3.2816   -361.4350     14.0957    112.9575
  1093.2500      3.2869   -361.7652     13.4886    113.8950
  1093.5000      3.3260   -362.1250     12.8813    115.9881
  1093.7500      3.3737   -362.4894     12.3063    118.2388
  1094.0000      3.3945   -362.8251     11.7947    122.0350
  1094.2500      3.3715   -363.0976     11.3676    124.0053
  1094.5000      3.3266   -363.2786     11.0327    125.1839
  1094.7500      3.3048   -363.3510     10.7851    124.6833
  1095.0000      3.3337   -363.3108     10.6106    122.4577
  1095.2500      3.3998   -363.1656     10.4898    120.5111
  1095.5000      3.4588   -362.9320     10.4015    117.9411
  1095.7500      3.4692   -362.6322     10.3291    116.9506
  1096.0000      3.4256   -362.2918     10.2662    116.7553
  1096.2500      3.3623   -361.9363     10.2197    117.1234
