~Version Information
VERS.                      2.0: CWLS Log ASCII Standard - VERSION 2.0
WRAP.                       NO: One line per depth step
~Well Information Block
STRT.FT                -7.0000: 
STOP.FT              3030.2500: 
STEP.FT                 0.2500: 
NULL.                -999.2500: 
COMP.          Pioneer Natural Resources: COMPANY
WELL.            Cleaver 24-12: WELL
FLD.           Purgatorie River: FIELD
LOC.           204' FSL & 2351' FWL--: LOCATION
CNTY.               Las Animas: COUNTY
SRVC.          Patterson Wireline: SERVICE COMPANY
DATE.          Thu Feb 02 12:17:57 2006: LOG DATE
UWI.           05 071 08634 00: UNIQUE WELL ID
STAT.                       CO: STATE
~Curve Information Block
DEPT.FT            0 000 00 00: Depth
CCL.                          : Casing Collar Locator
TT3.usec                      : CBL 3' Travel Time
AMP3.mV                       : CBL 3' Amplitude
GR.GAPI                       : Gamma Ray
~Parameter Information Block
~A  Depth       CCL         TT3         AMP3         GR     
# ...
   998.0000      0.0000    301.3354     36.0550    145.5920
   998.2500      0.0000    301.3321     36.3145    140.9778
   998.5000      0.0000    301.3460     36.5138    137.2447
   998.7500      0.0000    301.3211     36.6936    134.4156
   999.0000      0.0000    301.0720     36.8815    132.2131
   999.2500      0.0000    300.1778     37.0861    130.4897
   999.5000      0.0000    297.9638     37.3070    129.1183
   999.7500      0.0000    293.8079     37.5440    128.0877
  1000.0000      0.0000    287.7720     37.7885    127.7945
  1000.2500      0.0000    280.9645     38.0117    128.7496
  1000.5000      0.0000    275.0133     38.1781    130.6498
  1000.7500      0.0000    271.0164     38.2718    132.0910
  1001.0000      0.0000    269.0554     38.3037    131.7154
  1001.2500      0.0000    268.6496     38.2940    129.6866
  1001.5000      0.0000    269.5107     38.2491    127.7738
  1001.7500      0.0000    271.8666     38.1540    127.9316
  1002.0000      0.0000    276.1262     37.9839    130.6714
  1002.2500      0.0000    282.1601     37.7250    134.6266
  1002.5000      0.0000    288.8971     37.3839    137.8654
  1002.7500      0.0000    294.8033     36.9772    139.7673
  1003.0000      0.0000    298.8644     36.5122    141.4381
  1003.2500      0.0000    301.0629     35.9782    144.1116
  1003.5000      0.0000    302.0205     35.3552    147.2990
  1003.7500      0.0000    302.3916     34.6289    148.9322
  1004.0000      0.0000    302.5706     33.7964    147.5993
  1004.2500      0.0000    302.7190     32.8652    144.2305
  1004.5000      0.0000    302.8803     31.8569    141.1646
  1004.7500      0.0000    303.0576     30.8089    139.8901
  1005.0000      0.0000    303.2515     29.7599    140.1013
  1005.2500      0.0000    303.4709     28.7289    140.5378
  1005.5000      0.0000    303.7289     27.7127    140.2074
  1005.7500      0.0000    304.0284     26.7105    139.1006
  1006.0000      0.0000    304.3565     25.7469    138.2978
  1006.2500      0.0000    304.6948     24.8627    139.1628
  1006.5000      0.0000    305.0287     24.0850    141.7701
  1006.7500      0.0000    305.3449     23.4093    144.0872
  1007.0000      0.0000    305.6259     22.8117    143.4355
  1007.2500      0.0000    305.8525     22.2757    139.1133
  1007.5000      0.0000    306.0105     21.8107    133.2715
  1007.7500      0.0000    306.0918     21.4459    129.1063
  1008.0000      0.0000    306.0990     21.2023    128.3773
  1008.2500      0.0000    306.0554     21.0671    130.4329
  1008.5000      0.0000    306.0012     20.9961    133.2288
  1008.7500      0.0000    305.9746     20.9428    135.2416
  1009.0000      0.0000    305.9976     20.8837    136.4040
  1009.2500      0.0000    306.0759     20.8198    137.2481
  1009.5000      0.0000    306.2023     20.7583    137.7810
  1009.7500      0.0000    306.3547     20.6996    137.7382
  1010.0000      0.0000    306.4948     20.6430    137.4002
  1010.2500      0.0000    306.5723     20.6052    137.2455
  1010.5000      0.0000    306.5407     20.6253    136.9189
  1010.7500      0.0000    306.3824     20.7385    135.3820
  1011.0000      0.0000    306.1269     20.9392    132.3214
  1011.2500      0.0000    305.8417     21.1727    128.7270
  1011.5000      0.0000    305.5953     21.3735    125.7829
  1011.7500      0.0000    305.4211     21.5140    123.8695
  1012.0000      0.0000    305.3140     21.6123    123.0885
  1012.2500      0.0000    305.2570     21.6945    124.0909
  1012.5000      0.0000    305.2431     21.7628    127.5391
  1012.7500      0.0000    305.2665     21.8078    132.8146
  1013.0000      0.0000    305.3048     21.8389    137.8853
  1013.2500      0.0000    305.3281     21.8798    140.7078
  1013.5000      0.0000    305.3314     21.9272    140.7054
  1013.7500      0.0000    305.3511     21.9257    138.8605
  1014.0000      0.0000    305.4418     21.8027    136.4742
  1014.2500      0.0000    305.6313     21.5363    133.9601
  1014.5000      0.0000    305.8886     21.1882    130.7441
  1014.7500      0.0000    306.1355     20.8585    126.0292
  1015.0000      0.0000    306.3068     20.6053    119.5585
  1015.2500      0.0000    306.4149     20.4063    111.8178
  1015.5000      0.0000    306.5501     20.1916    103.6742
  1015.7500      0.0000    306.8369     19.9016     95.8085
  1016.0000      0.0000    307.4525     19.5128     88.4463
  1016.2500      0.0000    308.7588     19.0243     81.5445
  1016.5000      0.0000    311.3798     18.4359     75.1423
  1016.7500      0.0000    315.9060     17.7552     69.6164
  1017.0000      0.0000    322.2286     17.0319     65.7151
  1017.2500      0.0000    329.1781     16.3684     64.0212
  1017.5000      0.0000    335.1265     15.8647     64.0954
  1017.7500      0.0000    339.0945     15.5422     64.5193
  1018.0000      0.0000    341.2671     15.3312     64.2537
  1018.2500      0.0000    342.6205     15.1344     63.7537
  1018.5000      0.0000    344.5903     14.8962     64.3249
  1018.7500      0.0000    349.5028     14.6173     66.4129
  1019.0000      0.0000    361.5729     14.3245     68.8170
  1019.2500      0.0000    386.8387     14.0349     69.6915
  1019.5000      0.0000    429.6695     13.7396     68.2570
  1019.7500      0.0000    485.7523     13.4126     65.4073
  1020.0000      0.0000    538.1685     13.0381     62.6605
  1020.2500      0.0000    565.3171     12.6321     60.8527
  1020.5000      0.0000    558.1018     12.2350     60.0151
  1020.7500      0.0000    529.2281     11.8813     59.9636
  1021.0000      0.0000    502.5770     11.5829     60.3615
  1021.2500      0.0000    494.1059     11.3377     60.3660
  1021.5000      0.0000    505.8553     11.1406     59.0284
  1021.7500      0.0000    534.7911     10.9830     56.4616
  1022.0000      0.0000    577.6868     10.8550     54.1740
  1022.2500      0.0000    624.2112     10.7593     53.7709
  1022.5000      0.0000    653.5290     10.7193     55.4467
  1022.7500      0.0000    645.7094     10.7649     57.9867
  1023.0000      0.0000    597.3561     10.9043     60.0441
  1023.2500      0.0000    525.0558     11.1074     61.1374
  1023.5000      0.0000    454.0009     11.3130     61.5260
  1023.7500      0.0000    402.9635     11.4483     61.3789
  1024.0000      0.0000    377.8381     11.4450     60.3098
  1024.2500      0.0000    375.3999     11.2486     57.9920
  1024.5000      0.0000    389.7457     10.8392     55.2734
  1024.7500      0.0000    415.0283     10.2728     54.3079
  1025.0000      0.0000    445.9949      9.6990     57.1445
  1025.2500      0.0000    480.8749      9.2801     64.0350
  1025.5000      0.0000    524.3544      9.0514     73.1244
  1025.7500      0.0000    582.7618      8.9075     81.6666
  1026.0000      0.0000    653.5455      8.7605     87.4176
  1026.2500      0.0000    722.7034      8.6495     89.2050
  1026.5000      0.0000    774.8192      8.6559     87.1807
  1026.7500      0.0000    804.0771      8.7819     83.3232
  1027.0000     -2.0000    815.7657      8.9636     81.1624
  1027.2500      2.0000    819.0629      9.1675     83.7622
  1027.5000      0.0000    817.2194      9.4596     91.3883
  1027.7500      0.0000    803.1357      9.9955    101.1632
  1028.0000      0.0000    765.7897     10.9164    108.9784
  1028.2500      0.0000    702.3966     12.2062    111.9147
  1028.5000      0.0000    622.5262     13.6692    109.5839
  1028.7500      0.0000    540.4620     15.0725    103.8804
  1029.0000      0.0000    467.4426     16.2664     97.4813
  1029.2500      0.0000    410.6392     17.1656     92.1475
  1029.5000      0.0000    373.3032     17.7202     88.0238
  1029.7500      0.0000    353.4290     17.9572     84.2528
  1030.0000      0.0000    344.9439     17.9896     80.1238
  1030.2500      0.0000    341.4502     17.9475     75.7621
  1030.5000      0.0000    338.6790     17.9139     72.0143
  1030.7500      0.0000    334.6561     17.9194     69.8920
  1031.0000      0.0000    329.3007     17.9600     69.9579
  1031.2500      0.0000    324.0777     18.0011     71.7830
