~Version Information
VERS.                      2.0: CWLS Log ASCII Standard - VERSION 2.0
WRAP.                       NO: One line per depth step
~Well Information Block
STRT.FT               310.0000: 
STOP.FT               815.0000: 
STEP.FT                 0.2500: 
NULL.                -999.2500: 
COMP.          Pioneer Natural Resources: COMPANY
WELL.           Weissach 32-32: WELL
FLD.           Purgatorie River: FIELD
LOC.           2193' FNL & 2256' FEL: LOCATION
STAT.                 Colorado: State
CNTY.               Las Animas: COUNTY
CTRY. USA : Country
SECT. 32 : Section
TOWN. 33S : Township
RANG. 65W : Range
SRVC.                Patterson: SERVICE COMPANY
DATE.          Mon Sep 26 09:20:51 2005: LOG DATE
API. 05-071-08523                         : UNIQUE WELL ID
~Curve Information Block
DEPT.FT            0 000 00 00: Depth
SN.Ohm-m                      : IEL Short Normal
SP.mV                         : IEL Spontaneous Potential
DIR.Ohm-m                     : IEL Induction Resistivity
GR.GAPI                       : Gamma Ray
~Parameter Information Block
~A  Depth        SN          SP         DIR          GR     
# ...
   712.0000     28.2577    171.8224     26.8040     66.5284
   712.2500     28.6184    171.5553     27.6300     67.2468
   712.5000     28.9549    170.7754     30.4169     69.0951
   712.7500     28.8964    170.6960     28.0915     55.4614
   713.0000     28.4090    169.9277     36.7657     57.0262
   713.2500     28.2947    169.4540     28.3649     51.2129
   713.5000     27.6417    169.1220     25.4475     60.7948
   713.7500     27.1210    169.0464     25.7364     66.7926
   714.0000     26.6661    169.2918     25.3457     58.6933
   714.2500     26.4710    170.1674     24.9484     68.1331
   714.5000     26.2564    170.7025     24.9538     59.3491
   714.7500     26.0918    171.2023     26.1266     68.1502
   715.0000     25.7627    171.3152     24.5736     78.8330
   715.2500     25.4579    171.8718     24.2129     68.1293
   715.5000     25.1074    172.6968     24.4426     62.9270
   715.7500     25.3475    172.5917     26.7380     69.6696
   716.0000     25.9381    172.2899     38.8070     81.1144
   716.2500     27.1085    172.4360     29.4424     80.2630
   716.5000     26.1487    173.1926     43.7286     92.9181
   716.7500     26.4272    172.3313     40.8053     83.9838
   717.0000     27.2437    171.7981     25.9292     84.6844
   717.2500     26.6139    171.2785     24.5625     72.0131
   717.5000     26.5558    170.5466     24.3001     67.5618
   717.7500     27.2256    170.1816     24.5300     64.0397
   718.0000     26.4097    170.1206     25.7916     67.1012
   718.2500     26.4026    170.3815     30.0436     43.5649
   718.5000     26.4440    170.1164     25.1820     45.4529
   718.7500     26.4795    170.3534     24.6370     56.3558
   719.0000     26.2750    170.4190     25.0197     57.3539
   719.2500     26.4541    170.3632     25.0299     60.7030
   719.5000     26.0659    170.5228     25.3101     66.0049
   719.7500     26.6278    171.0067     29.5805     86.6884
   720.0000     25.3331    171.5962     31.5468     79.4353
   720.2500     25.0629    172.1477     24.5245     93.5898
   720.5000     25.0656    172.7923     24.0935     82.9170
   720.7500     25.0555    172.6918     26.9801     72.4082
   721.0000     25.0664    172.6631     43.6569     65.9224
   721.2500     24.9357    172.7443     30.0593     80.0284
   721.5000     25.0397    173.1006     27.8921     73.9068
   721.7500     25.1290    173.3090     40.2720     89.4334
   722.0000     25.4106    173.1694     25.9080     77.5972
   722.2500     26.1576    172.8822     24.2860     85.7211
   722.5000     25.9387    172.4515     24.3710     91.5583
   722.7500     27.0816    172.0438     25.1296     70.0282
   723.0000     27.2309    171.7916     25.2703     77.2223
   723.2500     26.2895    171.5133     24.8749     83.7648
   723.5000     26.1805    171.4763     26.2943     79.1054
   723.7500     26.3587    171.8081     28.8953     87.3833
   724.0000     26.5855    172.3700     30.4841     61.1840
   724.2500     26.7009    172.1080     28.2003     61.0376
   724.5000     27.0747    172.2987     32.5798     67.8087
   724.7500     26.8749    172.8611     26.7006     63.9653
   725.0000     26.8153    173.6457     26.1953     57.3113
   725.2500     26.8637    172.8750     27.0347     67.7788
   725.5000     27.6056    173.1172     30.6510     67.4823
   725.7500     26.8461    172.8321     28.6022     64.5003
   726.0000     26.9647    172.1243     30.5140     88.8407
   726.2500     27.1143    171.9742     28.1369     85.9092
   726.5000     26.8047    172.1895     31.7816     75.8506
   726.7500     26.9245    172.5124     26.5226     81.8340
   727.0000     27.1987    172.8118     25.8173     75.4277
   727.2500     28.1501    172.7828     26.7470     72.1109
   727.5000     27.7582    173.0151     29.1499     84.2939
   727.7500     27.8439    172.7560     27.3603     79.2791
   728.0000     28.4863    172.8351     26.9241     72.8921
   728.2500     28.3191    173.2756     27.5911     52.8533
   728.5000     28.5210    173.6411     32.9254     69.7281
   728.7500     28.8863    173.9339     59.0841     70.2723
   729.0000     29.3525    174.0388     37.2811     63.3196
   729.2500     29.7393    174.3595     30.1085     66.6131
   729.5000     30.0498    174.9474     29.4338     80.4899
   729.7500     30.3885    174.9523     30.2908     75.9265
   730.0000     30.8646    174.5269     30.3436     78.8811
   730.2500     31.1983    174.5635     29.6834     77.8132
   730.5000     31.2685    173.7925     31.6590     86.3056
   730.7500     31.8622    173.4405     32.8348     76.4572
   731.0000     31.9309    173.2269     31.9296     67.2286
   731.2500     32.0869    173.3105     34.7275     85.5522
   731.5000     32.1768    173.1402     32.3143     77.6789
   731.7500     32.1986    172.9781     33.8567     73.3731
   732.0000     32.2920    172.7440     31.4969     76.2395
   732.2500     33.0868    172.3533     31.9118     92.3613
   732.5000     32.3874    172.0422     35.2772    104.2493
   732.7500     32.8541    171.7570     51.0032     84.9374
   733.0000     31.8412    171.8266     31.7351     78.0071
   733.2500     31.5515    172.3201     29.7580     78.2289
   733.5000     31.5845    172.3872     29.0873     67.4120
   733.7500     31.6242    172.4917     28.5222     68.1795
   734.0000     32.3895    172.7902     28.2246     72.2051
   734.2500     31.0376    173.4528     28.3868     58.4457
   734.5000     30.5477    174.0040     30.5979     68.1768
   734.7500     30.4913    173.8230     44.6649     76.6456
   735.0000     30.8241    173.2971     28.4373     59.0417
   735.2500     30.5178    173.1391     25.6403     60.4252
   735.5000     29.3024    173.0745     25.3773     78.0587
   735.7500     28.7844    172.9414     27.0713     66.6714
   736.0000     28.5347    172.7107     30.2654     71.9281
   736.2500     28.5063    172.3378     26.6419     81.6365
   736.5000     28.5967    172.5897     25.7415     70.3587
   736.7500     28.4641    172.5731     25.5335     80.1233
   737.0000     28.7173    172.6839     25.2750     73.2276
   737.2500     28.9029    172.1398     25.3801     68.5386
   737.5000     29.5783    172.2053     25.5753     75.1929
   737.7500     30.1005    172.5441     27.1808     63.3933
   738.0000     30.1593    172.9312     29.2879     76.9417
   738.2500     30.9709    173.5678     29.0029     76.1462
   738.5000     31.9072    173.7945     30.4337     78.7757
   738.7500     32.8284    174.1735     28.5862     59.0491
   739.0000     34.4857    174.6492     29.2998     71.7901
   739.2500     34.7641    174.7747     31.2117     76.2990
   739.5000     35.6035    174.6352     37.8624     73.9255
   739.7500     36.7148    174.4818     30.1239     68.6970
   740.0000     37.8364    174.3972     30.4734     59.0013
   740.2500     38.7396    174.4915     35.4505     61.0912
   740.5000     39.5920    174.7062     33.4711     72.7029
   740.7500     40.4491    174.1880     33.0802     62.8714
   741.0000     41.5042    173.9810     37.2103     70.9013
   741.2500     41.8949    173.9875     79.3898     72.8950
   741.5000     42.4239    174.2374     37.0783     64.6047
   741.7500     42.8473    174.7302     38.3821     59.0954
   742.0000     42.9371    174.6013     62.0528     70.6691
   742.2500     42.6590    174.8668     37.4299     69.8883
   742.5000     41.7866    175.2801     42.6640     57.8275
   742.7500     40.9163    175.6248     34.9784     69.2998
   743.0000     40.0078    176.0766     33.8731     82.6999
   743.2500     39.0180    176.6599     34.9980     89.1718
   743.5000     38.2966    177.3502     37.5840     67.4630
   743.7500     37.4908    177.9873     31.7503     68.6100
   744.0000     36.7886    177.8538     30.4175     88.8348
   744.2500     36.4352    177.9407     30.3182     96.6524
   744.5000     35.7321    177.4016     28.5845     90.9504
   744.7500     35.5342    177.1298     29.2635     75.5584
   745.0000     35.8321    177.0733     29.8637     77.3744
   745.2500     35.0300    176.6723     29.1269     83.7332
