~Version Information
 VERS.                                  2.0 : CWLS LAS VERSION
 WRAP.                                   NO : WRAPING MODE
 SWARE .                 MController 2.5.0J : SOFTWARE VERSION
~Well Information
 WELL.                     Montoya 18-11V B : WELL
 COMP.                 Petrogulf Corporation: COMPANY
 FLD.                      Purgatoire River : FIELD
 LOC.                NW/NW Sec 18 T33S R67W : LOCATION
 DATE.                            10/3-4/05 : DATE(S) LOGGED
 SRVC.       BLANCO Geological Services LLC : SERVICE COMPANY
 STAT.                                   CO : STATE
 CNTY.                           Las Animas : COUNTY
 CTRY.                                  USA : COUNTRY
 API.                       05-071-08539-00 : API NUMBER
 STRT.FT                              86.00 : START DEPTH
 STOP.FT                            2495.00 : STOP DEPTH
 STEP.FT                               1.00 : DEPTH INCREMENT
 NULL.                                9999 : NULL VALUE
~Curve information
 DEPTH.FT                                   :
 ROP.MIN/FT                                 :
 GAS.UNITS                                  :
~ASCII Log data 
        86.0     9999.00          10.0 
        87.0         0.20          9.4 
        88.0         0.27          9.4 
        89.0         0.23          6.0 
        90.0         0.23          1.7 
        91.0         0.23          2.6 
        92.0         0.23          3.7 
        93.0         0.23          3.8 
        94.0         0.22          3.5 
        95.0         0.23          4.0 
        96.0         0.20          4.6 
        97.0         0.27          4.4 
        98.0         0.27          4.6 
        99.0         0.23          4.6 
       100.0         0.20          4.3 
       101.0         0.20          4.5 
       102.0         0.20          4.6 
       103.0         0.20          4.5 
       104.0         0.23          4.4 
       105.0         0.23          4.3 
       106.0         0.23          4.5 
       107.0         0.23          4.3 
       108.0         0.27          4.4 
       109.0         0.25          4.2 
       110.0         0.23          4.2 
       111.0         0.23          4.5 
       112.0         0.23          4.3 
       113.0         0.23          4.6 
       114.0         0.27          4.6 
       115.0         0.23          4.3 
       116.0         1.38          4.3 
       117.0         0.27          4.4 
       118.0         0.23          4.4 
       119.0         0.33          4.3 
       120.0         0.27          4.2 
       121.0         0.30          4.3 
       122.0         0.27          4.2 
       123.0         0.27          3.9 
       124.0         0.27          3.9 
       125.0         0.23          4.4 
       126.0         0.25          4.0 
       127.0         0.27          4.2 
       128.0         0.27          4.0 
       129.0         0.27          4.4 
       130.0         0.27          4.2 
       131.0         0.20          4.3 
       132.0         0.23          4.1 
       133.0         0.27          4.3 
       134.0         0.23          4.1 
       135.0         0.22          4.0 
       136.0         0.27          4.7 
       137.0         0.23          4.5 
       138.0         0.23          4.6 
       139.0         0.27          4.4 
       140.0         0.23          4.4 
       141.0         0.23          4.2 
       142.0         0.27          4.3 
       143.0         0.27          4.0 
       144.0         0.27          4.0 
       145.0         0.27          4.3 
       146.0         1.05          4.7 
       147.0         0.23          4.0 
       148.0         0.20          4.1 
       149.0         0.23          4.3 
       150.0         0.23          3.9 
       151.0         0.23          4.0 
       152.0         0.23          4.3 
       153.0         0.20          4.0 
       154.0         0.23          4.3 
       155.0         0.23          4.1 
       156.0         0.23          4.2 
       157.0         0.27          4.5 
       158.0         0.23          4.3 
       159.0         0.18          4.3 
       160.0         0.20          4.3 
       161.0         0.23          4.6 
       162.0         0.20          4.5 
       163.0         0.20          4.5 
       164.0         0.27          4.6 
       165.0         0.23          4.6 
       166.0         0.27          4.3 
       167.0         0.23          3.8 
       168.0         0.30          4.2 
       169.0         0.23          3.9 
       170.0         0.23          3.9 
       171.0         0.23          3.8 
       172.0         0.28          3.6 
       173.0         0.33          3.7 
       174.0         0.27          3.9 
       175.0         0.23          3.8 
       176.0         1.30          4.3 
       177.0         0.27          4.5 
       178.0         0.18          4.3 
       179.0         0.20          5.0 
       180.0         0.23          5.0 
       181.0         0.23          5.7 
       182.0         0.23          6.3 
       183.0         0.20          8.5 
       184.0         0.23         50.9 
       185.0         0.23         59.2 
       186.0         0.23         46.2 
       187.0         0.23         26.4 
       188.0         0.20         20.2 
       189.0         0.17         15.4 
       190.0         0.17         12.2 
       191.0         0.20          9.6 
       192.0         0.17          8.4 
       193.0         0.20          7.1 
       194.0         0.25          7.1 
       195.0         0.23          7.0 
       196.0         0.20          7.6 
       197.0         0.23          8.2 
       198.0         0.20          8.7 
       199.0         0.23          9.0 
       200.0         0.30          9.1 
       201.0         0.30          9.6 
       202.0         0.27          9.8 
       203.0         0.27         10.5 
       204.0         0.23         10.8 
       205.0         0.23         10.3 
       206.0         2.32         11.5 
       207.0         0.17         11.0 
       208.0         0.20         10.7 
       209.0         0.23         10.5 
       210.0         0.23         11.0 
       211.0         0.23         11.2 
       212.0         0.20         10.9 
       213.0         0.25         11.2 
       214.0         0.23         11.3 
       215.0         0.23         11.1 
       216.0         0.20         11.5 
       217.0         0.23         11.5 
       218.0         0.20         11.4 
       219.0         0.23         11.6 
       220.0         0.20         10.6 
       221.0         0.27         11.3 
       222.0         0.30         11.5 
       223.0         0.23         10.7 
       224.0         0.20         11.4 
       225.0         0.23         11.6 
       226.0         0.23         11.4 
       227.0         0.25         11.2 
       228.0         0.23         11.9 
       229.0         0.23         12.0 
       230.0         0.23         11.9 
       231.0         0.23         12.5 
       232.0         0.23         12.5 
       233.0         0.30         12.3 
       234.0         0.27         12.2 
       235.0         0.27         12.5 
       236.0         1.85         13.0 
       237.0         0.27         12.5 
       238.0         0.27         12.3 
       239.0         0.20         12.9 
       240.0         0.20         12.8 
       241.0         0.23         12.3 
       242.0         0.23         12.5 
       243.0         0.23         12.2 
       244.0         0.20         12.7 
       245.0         0.20         12.9 
       246.0         0.23         13.1 
       247.0         0.23         13.4 
       248.0         0.28         13.4 
       249.0         0.23         13.5 
       250.0         0.23         13.1 
       251.0         0.23         13.6 
       252.0         0.23         13.7 
       253.0         0.23         13.5 
       254.0         0.20         13.2 
       255.0         0.23         13.9 
       256.0         0.27         13.9 
       257.0         0.23         14.0 
       258.0         0.17         14.1 
       259.0         0.23         13.9 
       260.0         0.20         13.7 
       261.0         0.23         13.8 
       262.0         0.25         13.8 
       263.0         0.27         14.1 
       264.0         0.23         14.4 
       265.0         0.17         14.2 
       266.0         1.67         15.0 
       267.0         0.23         15.2 
       268.0         0.23         15.2 
       269.0         0.20         15.6 
       270.0         0.28         15.4 
       271.0         0.33         15.4 
       272.0         0.23         15.1 
       273.0         0.23         15.2 
       274.0         0.23         14.9 
       275.0         0.17         15.1 
       276.0         0.20         15.0 
       277.0         0.30         15.0 
       278.0         0.33         15.0 
       279.0         0.23         15.2 
       280.0         0.20         15.4 
       281.0         0.17         15.2 
       282.0         0.20         15.1 
       283.0         0.22         15.0 
       284.0         0.20         15.1 
       285.0         0.23         15.3 
