~Version Information
VERS.                      2.0: CWLS Log ASCII Standard - VERSION 2.0
WRAP.                       NO: One line per depth step
~Well Information Block
STRT.FT                 0.0000: 
STOP.FT              2062.2500: 
STEP.FT                 0.2500: 
NULL.                -999.2500: 
COMP.          Petrogulf Corporation: COMPANY
WELL.           Montoya 12-44R: WELL
FLD.           Purgatorie River: FIELD
LOC.           713' FSL & 798' FEL: LOCATION
PROV.                 Colorado: PROVINCE
CNTY.               Las Animas: COUNTRY
SRVC.                Patterson: SERVICE COMPANY
DATE.          Wed Nov 09 13:30:24 2005: LOG DATE
UWI.           05-071-08538               : UNIQUE WELL ID
~Curve Information Block
DEPT.FT            0 000 00 00: Depth
CCL.                          : Casing Collar Locator
TT3.usec                      : CBL 3' Travel Time
AMP3.mV                       : CBL 3' Amplitude
GR.GAPI                       : Gamma Ray
~Parameter Information Block
~A  Depth       CCL         TT3         AMP3         GR     
# ...
  1909.5000      0.0000    620.9664      1.4975     56.1398
  1909.7500      0.0000    626.4887      1.4591     54.2528
  1910.0000      0.0000    633.5082      1.4698     52.4295
  1910.2500      0.0000    638.9252      1.5182     51.4194
  1910.5000      0.0000    641.4719      1.5562     51.3827
  1910.7500      0.0000    642.1797      1.5467     51.9071
  1911.0000      0.0000    642.7040      1.5272     52.4386
  1911.2500      0.0000    644.7577      1.5578     52.9157
  1911.5000      0.0000    650.0517      1.6241     54.1165
  1911.7500      0.0000    657.4367      1.6631     57.2136
  1912.0000      0.0000    659.4025      1.6163     62.6667
  1912.2500      0.0000    647.6768      1.4541     69.2550
  1912.5000      0.0000    625.2873      1.2239     74.3539
  1912.7500      0.0000    604.9558      1.0315     75.7297
  1913.0000      0.0000    594.8807      0.9519     73.3729
  1913.2500      0.0000    595.6970      0.9861     69.4085
  1913.5000      0.0000    608.9950      1.0698     66.0797
  1913.7500      0.0000    637.5490      1.1213     63.8889
  1914.0000      0.0000    674.3102      1.1146     61.6805
  1914.2500      0.0000    701.0363      1.0753     58.3807
  1914.5000      0.0000    705.4487      1.0301     54.3771
  1914.7500      0.0000    692.9870      1.0035     51.0091
  1915.0000      0.0000    680.4095      1.0322     49.0899
  1915.2500      0.0000    680.9813      1.1362     48.4842
  1915.5000      0.0000    690.4406      1.2772     48.8116
  1915.7500      0.0000    693.0312      1.3725     49.7597
  1916.0000      0.0000    683.1830      1.3794     50.7676
  1916.2500      0.0000    670.1384      1.3472     51.2075
  1916.5000      0.0000    665.4785      1.3559     51.0246
  1916.7500      0.0000    672.9506      1.4263     50.6955
  1917.0000      0.0000    686.1371      1.5338     50.5262
  1917.2500      0.0000    694.2316      1.6621     50.4181
  1917.5000      0.0000    693.1442      1.7845     50.3484
  1917.7500      0.0000    689.6336      1.8506     50.7495
  1918.0000     -2.0000    691.3584      1.8355     52.3547
  1918.2500      2.0000    697.2963      1.7668     55.8071
  1918.5000      0.0000    701.5084      1.6941     61.3517
  1918.7500      0.0000    701.7253      1.6627     68.5723
  1919.0000      0.0000    699.0905      1.7192     76.0951
  1919.2500      0.0000    691.2446      1.8747     81.7655
  1919.5000      0.0000    675.0628      2.0288     83.7432
  1919.7500      0.0000    657.8892      2.0560     81.7613
  1920.0000      0.0000    652.9073      1.9677     77.2946
  1920.2500      0.0000    661.9265      1.8430     72.5803
  1920.5000      0.0000    676.5847      1.7217     69.4582
  1920.7500      0.0000    690.0323      1.6389     68.6320
  1921.0000      0.0000    696.5746      1.6204     69.3706
  1921.2500      0.0000    692.6727      1.6527     69.9035
  1921.5000      0.0000    684.1198      1.7156     68.6801
  1921.7500      0.0000    679.9780      1.8146     65.6095
  1922.0000      0.0000    678.1523      1.9961     62.0927
  1922.2500      0.0000    670.3700      2.3287     59.9463
  1922.5000      0.0000    659.9479      2.8696     60.5740
  1922.7500      0.0000    657.8149      3.6780     65.0492
  1923.0000      0.0000    663.8138      4.7930     74.1467
  1923.2500      0.0000    665.1521      6.1915     87.3993
  1923.5000      0.0000    642.6682      7.8646    102.2027
  1923.7500      0.0000    579.1321      9.8854    114.5843
  1924.0000      0.0000    484.9991     12.3157    121.3644
  1924.2500      0.0000    400.1044     15.0849    121.7384
  1924.5000      0.0000    351.2900     18.0202    117.1529
  1924.7500      0.0000    332.3531     20.9131    110.2274
  1925.0000      0.0000    325.7982     23.3960    103.7280
  1925.2500      0.0000    322.1480     24.8726     99.6494
  1925.5000      0.0000    320.7322     24.9102     98.3736
  1925.7500      0.0000    322.5453     23.7334     98.3952
  1926.0000      0.0000    325.7979     22.0653     97.1997
  1926.2500      0.0000    328.1358     20.4421     93.0781
  1926.5000      0.0000    329.2441     18.9549     86.4235
  1926.7500      0.0000    329.8494     17.5704     79.0919
  1927.0000      0.0000    330.3434     16.3357     72.6594
  1927.2500      0.0000    330.9079     15.2857     67.7024
  1927.5000      0.0000    332.4368     14.3618     64.3810
  1927.7500      0.0000    336.9531     13.4745     62.7446
  1928.0000      0.0000    345.7959     12.6132     62.2957
  1928.2500      0.0000    357.0048     11.8327     61.9068
  1928.5000      0.0000    367.7878     11.1101     60.5641
  1928.7500      0.0000    382.3065     10.3125     58.0286
  1929.0000      0.0000    414.3724      9.3633     54.7830
  1929.2500      0.0000    474.1289      8.3536     51.6246
  1929.5000      0.0000    548.2805      7.4517     49.3027
  1929.7500      0.0000    607.6838      6.7569     48.1490
  1930.0000      0.0000    638.4760      6.2433     47.7717
  1930.2500      0.0000    649.2484      5.8220     47.2450
  1930.5000      0.0000    653.7881      5.4519     46.0037
  1930.7500      0.0000    662.3390      5.1630     44.6497
  1931.0000      0.0000    681.7897      4.9727     44.5206
  1931.2500      0.0000    710.5851      4.8364     46.2435
  1931.5000      0.0000    733.5560      4.6966     49.0090
  1931.7500      0.0000    734.2474      4.5507     51.5221
  1932.0000      0.0000    715.9397      4.4416     53.4280
  1932.2500      0.0000    696.7296      4.3944     55.4289
  1932.5000      0.0000    686.3140      4.3788     58.1592
  1932.7500      0.0000    681.5013      4.3336     61.4097
  1933.0000      0.0000    677.6984      4.2226     64.5504
  1933.2500      0.0000    676.6060      4.0641     67.2566
  1933.5000      0.0000    680.3474      3.9127     69.4892
  1933.7500      0.0000    683.1227      3.8193     71.0516
  1934.0000      0.0000    678.6201      3.8197     71.7127
  1934.2500      0.0000    669.8755      3.9223     71.8285
  1934.5000      0.0000    664.3033      4.0853     72.4340
  1934.7500      0.0000    664.0760      4.2612     74.4881
  1935.0000      0.0000    665.9955      4.4561     78.0694
  1935.2500      0.0000    667.3205      4.6809     82.1949
  1935.5000      0.0000    669.6440      4.8538     85.2624
  1935.7500      0.0000    676.2336      4.8298     85.9600
  1936.0000      0.0000    683.3624      4.5342     84.1519
  1936.2500      0.0000    681.8225      4.0297     80.8526
  1936.5000      0.0000    670.6726      3.4731     77.2933
  1936.7500      0.0000    659.6893      3.0178     74.1330
  1937.0000      0.0000    657.9176      2.7246     71.4253
  1937.2500      0.0000    666.5345      2.5536     68.9839
  1937.5000      0.0000    679.1693      2.4135     66.7458
  1937.7500      0.0000    686.2411      2.2228     64.9668
  1938.0000      0.0000    682.1395      1.9764     64.0328
  1938.2500      0.0000    668.6635      1.7323     63.9355
  1938.5000      0.0000    652.0589      1.5168     64.0446
  1938.7500      0.0000    638.0264      1.3216     63.6153
  1939.0000      0.0000    628.7303      1.1759     62.4788
  1939.2500      0.0000    624.6898      1.1178     61.1558
  1939.5000      0.0000    627.3267      1.1198     60.3235
  1939.7500      0.0000    635.3040      1.1105     60.1485
  1940.0000      0.0000    643.1665      1.0618     60.0969
  1940.2500      0.0000    647.5527      1.0193     59.4995
  1940.5000      0.0000    650.3788      1.0297     58.3184
  1940.7500      0.0000    655.9398      1.0698     57.1753
  1941.0000      0.0000    666.8943      1.0803     56.6541
  1941.2500      0.0000    681.3883      1.0418     56.7848
  1941.5000      0.0000    694.6732      0.9948     57.2116
  1941.7500      0.0000    703.7642      0.9996     57.7682
  1942.0000      0.0000    707.6623      1.0895     58.8104
  1942.2500      0.0000    705.1143      1.2494     60.8601
  1942.5000      0.0000    697.2142      1.4159     63.9602
  1942.7500      0.0000    690.5451      1.5194     67.6554
