~Version Information
VERS.                      2.0: CWLS Log ASCII Standard - VERSION 2.0
WRAP.                       NO: One line per depth step
~Well Information Block
STRT.FT                -9.0000: 
STOP.FT              1841.0000: 
STEP.FT                 0.2500: 
NULL.                -999.2500: 
COMP.          Pioneer Natural Resources: COMPANY
WELL.          Cooper 11-13 Tr: WELL
FLD.           Purgatorie River: FIELD
LOC.           476' FNL & 738' FWL: LOCATION
STAT.                       CO: State
CNTY.               Las Animas: COUNTY
CTRY. USA : Country
SECT. 13 : Section
TOWN. 32S : Township
RANG. 67W : Range
SRVC.          Patterson Wireline: SERVICE COMPANY
DATE.          Thu Sep 29 08:59:13 2005: LOG DATE
API.           05 071 08525 00: UNIQUE WELL ID
~Curve Information Block
DEPT.FT            0 000 00 00: Depth
CCL.                          : Casing Collar Locator
TT3.usec                      : CBL 3' Travel Time
AMP3.mV                       : CBL 3' Amplitude
GR.GAPI                       : Gamma Ray
~Parameter Information Block
~A  Depth       CCL         TT3         AMP3         GR     
# ...
   828.5000      0.0000    322.4375     23.3940     88.3165
   828.7500      0.0000    322.5270     23.2028     86.1023
   829.0000      0.0000    322.6117     22.9699     83.5195
   829.2500      0.0000    322.6738     22.7264     80.3838
   829.5000      0.0000    322.7055     22.5021     76.7633
   829.7500      0.0000    322.7104     22.3225     73.1646
   830.0000      0.0000    322.7002     22.2055     69.9306
   830.2500      0.0000    322.6912     22.1505     66.8710
   830.5000      0.0000    322.6993     22.1350     63.8524
   830.7500      0.0000    322.7296     22.1261     61.3894
   831.0000      0.0000    322.7717     22.0999     60.3656
   831.2500      0.0000    322.8058     22.0530     61.3988
   831.5000      0.0000    322.8172     22.0007     64.5255
   831.7500      0.0000    322.8019     21.9709     69.2846
   832.0000      0.0000    322.7614     21.9988     74.9256
   832.2500      0.0000    322.6995     22.1136     80.3760
   832.5000      0.0000    322.6241     22.3147     84.0433
   832.7500      0.0000    322.5495     22.5618     84.2085
   833.0000      0.0000    322.4912     22.7966     80.1806
   833.2500      0.0000    322.4578     22.9813     73.1288
   833.5000      0.0000    322.4445     23.1198     65.6834
   833.7500      0.0000    322.4333     23.2440     60.6733
   834.0000      0.0000    322.4048     23.3802     59.8003
   834.2500      0.0000    322.3555     23.5254     62.8797
   834.5000      0.0000    322.3013     23.6506     68.0991
   834.7500      0.0000    322.2640     23.7230     73.1676
   835.0000      0.0000    322.2525     23.7234     76.4710
   835.2500      0.0000    322.2595     23.6498     77.4782
   835.5000      0.0000    322.2733     23.5113     76.4419
   835.7500      0.0000    322.2899     23.3252     73.9768
   836.0000      0.0000    322.3131     23.1184     70.8666
   836.2500      0.0000    322.3452     22.9314     67.8670
   836.5000      0.0000    322.3785     22.8108     65.2796
   836.7500      0.0000    322.3997     22.7824     62.8750
   837.0000      0.0000    322.4024     22.8247     60.5600
   837.2500      0.0000    322.3973     22.8720     58.9008
   837.5000      0.0000    322.4077     22.8568     58.5987
   837.7500      0.0000    322.4508     22.7511     59.6194
   838.0000      0.0000    322.5262     22.5730     61.2705
   838.2500      0.0000    322.6161     22.3644     62.9687
   838.5000      0.0000    322.6981     22.1690     64.4596
   838.7500      0.0000    322.7561     22.0213     65.4614
   839.0000      0.0000    322.7845     21.9384     65.7308
   839.2500      0.0000    322.7853     21.9157     65.6692
   839.5000      0.0000    322.7662     21.9330     66.3937
   839.7500      0.0000    322.7373     21.9702     68.8826
   840.0000      0.0000    322.7079     22.0226     73.0903
   840.2500      0.0000    322.6815     22.1024     77.7955
   840.5000      0.0000    322.6558     22.2213     81.1863
   840.7500      0.0000    322.6304     22.3637     82.0262
   841.0000      0.0000    322.6131     22.4794     80.8041
   841.2500      0.0000    322.6154     22.5118     79.7981
   841.5000      0.0000    322.6416     22.4381     81.7178
   841.7500      0.0000    322.6826     22.2819     87.8543
   842.0000      0.0000    322.7220     22.0955     97.0126
   842.2500      0.0000    322.7474     21.9407    105.9520
   842.5000      0.0000    322.7542     21.8799    111.2542
   842.7500      0.0000    322.7433     21.9639    111.4757
   843.0000      0.0000    322.7177     22.2044    107.7983
   843.2500      0.0000    322.6837     22.5561    102.5083
   843.5000      0.0000    322.6489     22.9346     96.9233
   843.7500      0.0000    322.6166     23.2595     91.0060
   844.0000      0.0000    322.5848     23.4812     84.6665
   844.2500      0.0000    322.5550     23.5774     78.5864
   844.5000      0.0000    322.5378     23.5425     73.4162
   844.7500      0.0000    322.5461     23.3926     68.7624
   845.0000      0.0000    322.5826     23.1729     63.6008
   845.2500      0.0000    322.6395     22.9417     57.6151
   845.5000      0.0000    322.7086     22.7372     51.8117
   845.7500      0.0000    322.7861     22.5580     47.8038
   846.0000      0.0000    322.8662     22.3799     46.5810
   846.2500      0.0000    322.9359     22.1921     47.8302
   846.5000      0.0000    322.9805     22.0168     50.2853
   846.7500      0.0000    322.9952     21.8889     52.7690
   847.0000      0.0000    322.9886     21.8255     55.0001
   847.2500      0.0000    322.9716     21.8254     57.5602
   847.5000      0.0000    322.9459     21.8896     61.1954
   847.7500      0.0000    322.9061     22.0289     65.9965
   848.0000      0.0000    322.8483     22.2499     71.1505
   848.2500      0.0000    322.7770     22.5415     75.5084
   848.5000      0.0000    322.7014     22.8765     78.2362
   848.7500      0.0000    322.6295     23.2218     78.7786
   849.0000      0.0000    322.5674     23.5432     76.6312
   849.2500      0.0000    322.5207     23.8068     71.6871
   849.5000      0.0000    322.4937     23.9888     64.7995
   849.7500      0.0000    322.4811     24.0962     57.7723
   850.0000      0.0000    322.4665     24.1751     52.7726
   850.2500      0.0000    322.4343     24.2852     51.6288
   850.5000      0.0000    322.3812     24.4675     55.3164
   850.7500      0.0000    322.3123     24.7335     63.6768
   851.0000      0.0000    322.2318     25.0727     75.3196
   851.2500      0.0000    322.1418     25.4532     87.8083
   851.5000      0.0000    322.0490     25.8254     98.4394
   851.7500      0.0000    321.9638     26.1374    105.4779
   852.0000      0.0000    321.8967     26.3515    109.0174
   852.2500      0.0000    321.8541     26.4502    110.6685
   852.5000      0.0000    321.8359     26.4396    112.2802
   852.7500      0.0000    321.8343     26.3532    114.7004
   853.0000      0.0000    321.8380     26.2414    117.5198
   853.2500      0.0000    321.8414     26.1444    119.8869
   853.5000      0.0000    321.8480     26.0746    121.5144
   853.7500      0.0000    321.8647     26.0197    122.7917
   854.0000      0.0000    321.8964     25.9567    124.0057
   854.2500      0.0000    321.9449     25.8643    124.6991
   854.5000      0.0000    322.0076     25.7308    123.9297
   854.7500      0.0000    322.0751     25.5598    121.1331
   855.0000      0.0000    322.1335     25.3699    116.7533
   855.2500      0.0000    322.1744     25.1889    112.0504
   855.5000      0.0000    322.1996     25.0398    108.1702
   855.7500      0.0000    322.2170     24.9278    105.2438
   856.0000      0.0000    322.2310     24.8493    102.3973
   856.2500      0.0000    322.2382     24.8175     98.8962
   856.5000      0.0000    322.2337     24.8635     95.6169
   856.7500      0.0000    322.2204     25.0049     95.1404
   857.0000      0.0000    322.2082     25.2188     99.6809
   857.2500      0.0000    322.2042     25.4530    108.7483
   857.5000      0.0000    322.2044     25.6639    119.3275
   857.7500      0.0000    322.1960     25.8500    128.4131
   858.0000      0.0000    322.1661     26.0505    134.9223
   858.2500      0.0000    322.1140     26.2996    139.1683
   858.5000      0.0000    322.0579     26.5760    141.4032
   858.7500      0.0000    322.0264     26.8109    141.6315
   859.0000      0.0000    322.0359     26.9593    140.6255
   859.2500      0.0000    322.0760     27.0499    140.4378
   859.5000      0.0000    322.1172     27.1552    143.2912
   859.7500      0.0000    322.1291     27.3218    149.4563
   860.0000      0.0000    322.0897     27.5417    156.3226
   860.2500      0.0000    321.9797     27.7860    160.3069
   860.5000      0.0000    321.7566     28.0465    159.9189
   860.7500      0.0000    321.5448     28.3265    156.5183
   861.0000      0.0000    322.2000     28.5706    152.3202
   861.2500      0.0000    326.3790     28.5851    148.5490
   861.5000      0.0000    338.6975     28.0761    145.3958
   861.7500      0.0000    363.0254     26.8781    142.6753
