~Version Information
VERS.                      2.0: CWLS Log ASCII Standard - VERSION 2.0
WRAP.                       NO: One line per depth step
~Well Information Block
STRT.FT                -0.5000: 
STOP.FT              1417.0000: 
STEP.FT                 0.2500: 
NULL.                -999.2500: 
COMP.          Pioneer Natural Resources: COMPANY
WELL.              Darren 11-7: WELL
FLD.           Purgatoire River: FIELD
LOC.           230' FNL & 596' FWL: LOCATION
CNTY.               Las Animas: COUNTY
SRVC.                Patterson: SERVICE COMPANY
DATE.          Thu Mar 30 10:43:52 2006: LOG DATE
UWI.           05 071 08720 00: UNIQUE WELL ID
STAT.                 Colorado: STATE
~Curve Information Block
DEPT.FT            0 000 00 00: Depth
GR.GAPI                       : Gamma Ray
CCL.                          : Casing Collar Locator
TT3.usec                      : CBL 3' Travel Time
AMP3.mV                       : CBL 3' Amplitude
~Parameter Information Block
~A  Depth        GR         CCL         TT3         AMP3    
# ...
  1105.0000     84.1692      0.0000    761.1579      7.6224
  1105.2500     83.7884      0.0000    758.9945      8.0582
  1105.5000     86.6893      0.0000    755.0729      8.1955
  1105.7500     90.9133      0.0000    749.9927      7.9257
  1106.0000     94.2796      0.0000    744.2875      7.3206
  1106.2500     95.8021      0.0000    735.3752      6.6346
  1106.5000     95.3916      0.0000    720.5025      6.1493
  1106.7500     92.7727      0.0000    702.3239      5.9784
  1107.0000     87.3498      0.0000    689.1035      6.0276
  1107.2500     79.2151      0.0000    688.4643      6.1386
  1107.5000     69.8776      0.0000    701.2137      6.2207
  1107.7500     61.6634      0.0000    721.1970      6.2345
  1108.0000     56.3903      0.0000    740.8606      6.1329
  1108.2500     54.5378      3.0000    756.2904      5.8961
  1108.5000     55.3918      0.0000    766.8379      5.6051
  1108.7500     57.8201      0.0000    771.9855      5.4345
  1109.0000     60.9255      0.0000    770.9514      5.5493
  1109.2500     64.0353      0.0000    764.7971      5.9785
  1109.5000     66.3753      0.0000    756.7198      6.5592
  1109.7500     67.2422      0.0000    749.5678      7.0210
  1110.0000     66.6125      0.0000    743.9291      7.1682
  1110.2500     65.2553      0.0000    738.9087      6.9927
  1110.5000     64.0549      0.0000    733.5571      6.6205
  1110.7500     63.3331      0.0000    727.3379      6.1885
  1111.0000     63.0203      0.0000    720.5375      5.7901
  1111.2500     63.3690      0.0000    714.3904      5.4854
  1111.5000     65.1255      0.0000    709.5648      5.3023
  1111.7500     68.8425      0.0000    704.7864      5.2175
  1112.0000     74.2581      0.0000    697.9755      5.1660
  1112.2500     80.3019      0.0000    687.8065      5.0860
  1112.5000     85.4120      0.0000    672.4512      4.9566
  1112.7500     88.0878      0.0000    647.6136      4.8020
  1113.0000     87.7977      0.0000    608.6942      4.6689
  1113.2500     85.5486      0.0000    556.7831      4.5967
  1113.5000     83.2754      0.0000    501.6209      4.5914
  1113.7500     82.5078      0.0000    456.3050      4.6237
  1114.0000     83.5918      0.0000    428.2174      4.6547
  1114.2500     86.0242      0.0000    415.6273      4.6641
  1114.5000     89.2501      0.0000    412.0023      4.6519
  1114.7500     93.0303      0.0000    411.6438      4.6246
  1115.0000     97.1951      0.0000    411.5373      4.5884
  1115.2500    101.2955      0.0000    410.3831      4.5529
  1115.5000    104.6545      0.0000    407.6971      4.5284
  1115.7500    106.7181      0.0000    403.9245      4.5158
  1116.0000    107.3672      0.0000    400.5440      4.5029
  1116.2500    107.0465      0.0000    399.3081      4.4750
  1116.5000    106.6581      0.0000    401.1620      4.4247
  1116.7500    107.0673      0.0000    406.0974      4.3551
  1117.0000    108.4581      0.0000    414.0736      4.2782
  1117.2500    110.2121      0.0000    426.3494      4.2120
  1117.5000    111.5650      0.0000    446.1816      4.1721
  1117.7500    112.1951      0.0000    477.2504      4.1626
  1118.0000    112.0599      0.0000    519.6277      4.1768
  1118.2500    111.0347      0.0000    567.2250      4.2062
  1118.5000    109.0998      0.0000    610.8763      4.2450
  1118.7500    106.7299      0.0000    644.4584      4.2903
  1119.0000    104.6654      0.0000    667.1572      4.3400
  1119.2500    103.2920      0.0000    680.5313      4.3893
  1119.5000    102.5206      0.0000    685.6743      4.4296
  1119.7500    102.1998      0.0000    683.8397      4.4561
  1120.0000    102.3414      0.0000    678.2325      4.4832
  1120.2500    102.9140      0.0000    673.8254      4.5448
  1120.5000    103.4798      0.0000    675.2500      4.6647
  1120.7500    103.0183      0.0000    684.5068      4.8259
  1121.0000    100.3466      0.0000    699.6642      4.9768
  1121.2500     95.1504      0.0000    715.3824      5.0669
  1121.5000     88.6298      0.0000    725.6915      5.0739
  1121.7500     82.8400      0.0000    727.7241      5.0081
  1122.0000     79.3851      0.0000    723.6460      4.9006
  1122.2500     78.6601      0.0000    718.8522      4.7850
  1122.5000     79.9409      0.0000    717.4244      4.6825
  1122.7500     82.0099      0.0000    718.8716      4.6052
  1123.0000     83.9043      0.0000    719.5264      4.5696
  1123.2500     85.2468      0.0000    716.8360      4.5928
  1123.5000     86.1788      0.0000    711.4561      4.6697
  1123.7500     87.4074      0.0000    705.4172      4.7596
  1124.0000     90.0847      0.0000    699.5703      4.8037
  1124.2500     94.9699      0.0000    693.4158      4.7605
  1124.5000    101.4384      0.0000    686.7035      4.6308
  1124.7500    107.5753      0.0000    680.2565      4.4561
  1125.0000    111.4884      0.0000    675.0101      4.2909
  1125.2500    112.6031      0.0000    670.8597      4.1731
  1125.5000    111.6681      0.0000    667.0754      4.1126
  1125.7500    109.5666      0.0000    663.4677      4.0979
  1126.0000    106.3153      0.0000    660.5147      4.1088
  1126.2500    101.3924      0.0000    658.5766      4.1228
  1126.5000     95.0002      0.0000    657.5159      4.1224
  1126.7500     88.7906      0.0000    656.9637      4.1042
  1127.0000     85.1166      0.0000    656.5490      4.0808
  1127.2500     85.3094      0.0000    655.7561      4.0677
  1127.5000     88.6434      0.0000    653.5828      4.0689
  1127.7500     93.0517      0.0000    648.4418      4.0783
  1128.0000     96.7182      0.0000    638.8638      4.0901
  1128.2500     98.8888      0.0000    624.9714      4.1050
  1128.5000     99.5416      0.0000    609.3610      4.1276
  1128.7500     98.8915      0.0000    596.0112      4.1590
  1129.0000     97.3585      0.0000    587.9520      4.1941
  1129.2500     95.6312      0.0000    585.8047      4.2284
  1129.5000     94.3609      0.0000    588.0687      4.2648
  1129.7500     93.7296      0.0000    592.4016      4.3108
  1130.0000     93.3959      0.0000    597.4451      4.3674
  1130.2500     92.7282      0.0000    604.6147      4.4253
  1130.5000     91.0068      0.0000    617.9171      4.4748
  1130.7500     87.7359      0.0000    640.1919      4.5156
  1131.0000     83.1860      0.0000    668.5565      4.5550
  1131.2500     78.4546      0.0000    694.8298      4.5976
  1131.5000     74.5607      0.0000    711.9054      4.6430
  1131.7500     71.4193      0.0000    719.4339      4.6873
  1132.0000     67.8603      0.0000    722.6102      4.7228
  1132.2500     62.7499      0.0000    725.8467      4.7414
  1132.5000     56.2110      0.0000    728.3370      4.7490
  1132.7500     49.8376      0.0000    725.8845      4.7729
  1133.0000     45.6871      0.0000    716.4257      4.8434
  1133.2500     44.9421      0.0000    702.9326      4.9640
  1133.5000     47.3851      0.0000    690.8715      5.1059
  1133.7500     51.8131      0.0000    683.4164      5.2369
  1134.0000     56.6835      0.0000    679.4142      5.3433
  1134.2500     60.5511      0.0000    675.6330      5.4229
  1134.5000     62.4786      0.0000    670.3961      5.4679
  1134.7500     62.4081      0.0000    664.6630      5.4675
  1135.0000     61.1091      0.0000    660.2136      5.4213
  1135.2500     59.6710      0.0000    657.7480      5.3417
  1135.5000     58.9464      0.0000    656.8134      5.2449
  1135.7500     59.2460      0.0000    656.7885      5.1446
  1136.0000     60.3063      0.0000    657.5641      5.0511
  1136.2500     61.4889      0.0000    659.4905      4.9714
  1136.5000     62.1495      0.0000    662.8628      4.9081
  1136.7500     61.9975      0.0000    667.6409      4.8584
  1137.0000     61.1670      0.0000    674.0691      4.8149
  1137.2500     59.9672      0.0000    683.4487      4.7699
  1137.5000     58.6329      0.0000    697.0712      4.7195
  1137.7500     57.2225      0.0000    713.5076      4.6651
  1138.0000     55.5806      0.0000    728.1055      4.6088
  1138.2500     53.4592      0.0000    736.6404      4.5512
