~Version Information
VERS.                      2.0: CWLS Log ASCII Standard - VERSION 2.0
WRAP.                       NO: One line per depth step
~Well Information Block
STRT.FT               410.0000: 
STOP.FT              1252.0000: 
STEP.FT                 0.2500: 
NULL.                -999.2500: 
COMP.          Petrogulf Corporation: COMPANY
WELL.           Parsons 15-23R: WELL
FLD.           Purgatorie River: FIELD
LOC.           2244' FSL & 1932' FWL: LOCATION
PROV.                 Colorado: PROVINCE
CNTY.               Las Animas: COUNTRY
SRVC.                Patterson: SERVICE COMPANY
DATE.          Mon Sep 12 10:30:11 2005: LOG DATE
UWI.                          : UNIQUE WELL ID
~Curve Information Block
DEPT.FT            0 000 00 00: Depth
SP.mV                         : DIL Spontaneous Potential
RILD.Ohm-m                    : DIL Deep Resistivity
RILM.Ohm-m                    : DIL Medium Resistivity
RLL3.Ohm-m                    : DIL Shallow Resistivity
GR.GAPI                       : Gamma Ray
~Parameter Information Block
~A  Depth        SP         RILD        RILM        RLL3         GR     
# ...
   522.0000    205.0466     30.7097     39.9026     71.4649     78.0160
   522.2500    205.7342     30.6441     37.6399     68.3472     87.9538
   522.5000    206.7020     29.1104     34.9113     50.1382    108.2502
   522.7500    207.1361     29.8021     33.8174     38.1005    117.0214
   523.0000    207.4828     29.2020     31.1460     34.8781    101.3522
   523.2500    207.8579     29.3597     31.2120     33.2726     97.3560
   523.5000    208.1482     29.2841     29.9398     31.8846    121.1668
   523.7500    208.4651     29.8007     30.2270     32.7787    123.9396
   524.0000    208.9281     29.3202     30.6672     37.2574    117.7316
   524.2500    209.5046     28.2386     30.6825     39.6317    116.1995
   524.5000    210.0646     28.0526     29.3889     39.5875    120.7118
   524.7500    210.6602     28.3062     29.1997     33.1165    105.4828
   525.0000    211.3143     27.5744     30.1303     32.7339    106.4294
   525.2500    212.5320     28.2298     32.4976     36.0496    104.0725
   525.5000    213.9291     28.2657     33.7817     48.0334     75.8453
   525.7500    215.1181     29.3636     34.8131     60.7826     83.4467
   526.0000    216.6844     29.2155     35.3570     73.3200     74.7243
   526.2500    218.1005     29.1111     39.2077     70.7348     85.6502
   526.5000    219.5304     28.2067     37.2024     65.4712     80.1239
   526.7500    220.6497     28.8404     35.6316     59.8055     95.5584
   527.0000    222.1017     27.8032     35.2185     51.8737    104.8238
   527.2500    223.9573     27.5507     34.7751     45.9829    104.2033
   527.5000    225.3113     26.0739     32.0647     40.8707    107.7631
   527.7500    226.3897     24.6884     30.4395     37.9133    118.4097
   528.0000    227.4126     22.0171     29.6637     32.0284    113.5735
   528.2500    228.3248     20.8051     27.7624     26.9752    118.4694
   528.5000    229.1532     19.8363     24.4094     27.8708    125.4222
   528.7500    229.9151     18.0192     23.3373     29.9905    111.4976
   529.0000    230.9002     16.9719     20.4445     27.7872    126.8906
   529.2500    231.7553     16.2078     18.1233     18.2159    148.4373
   529.5000    232.6223     15.1077     15.7872     16.2922    139.1744
   529.7500    233.3069     14.3187     14.3328     13.4508    149.8237
   530.0000    233.7754     13.5265     13.2578     10.5482    146.2560
   530.2500    234.0972     12.9632     12.4028     10.0886    148.6907
   530.5000    234.2510     12.0997     11.7233     10.0521    167.3221
   530.7500    234.4792     11.5936     11.5927     10.3212    175.4234
   531.0000    235.1527     10.9938     11.1518     11.6922    155.3168
   531.2500    235.4945     10.5982     10.8157     13.0591    140.6771
   531.5000    235.8459     10.1126     10.2833     14.8922    163.4759
   531.7500    236.0143      9.8118      9.8776     14.8033    167.7685
   532.0000    235.8831      9.6628      9.3526     11.7672    165.2231
   532.2500    235.6216      9.5936      8.8252     10.0508    159.9216
   532.5000    235.2838      9.5528      8.7740      9.1186    146.1117
   532.7500    234.8791      9.5603      8.7609      9.0656    121.0284
   533.0000    234.4329      9.5878      8.7083      9.9267    131.2883
   533.2500    234.1797      9.7123      8.9598      9.9151    137.0159
   533.5000    233.7896      9.7619      9.1595     10.4110    157.7514
   533.7500    233.3513      9.8719      9.3283     10.0363    146.5023
   534.0000    233.1752      9.8931      9.4141     11.6155    138.8657
   534.2500    232.9369     10.0264      9.6374     13.4723    140.8794
   534.5000    232.5083     10.3301      9.8610     11.8153    144.0085
   534.7500    232.2583     10.6626     10.3068     12.5983    155.6927
   535.0000    231.9968     10.8700     10.6972     13.4455    162.4553
   535.2500    231.5511     11.4073     11.2540     14.0526    159.8076
   535.5000    231.1286     11.8299     11.9852     14.3500    137.5546
   535.7500    230.7909     12.3213     12.5317     14.9204    150.0110
   536.0000    230.3504     12.7479     13.4096     13.0667    117.7624
   536.2500    229.7658     12.9512     14.3825     17.4313    103.9310
   536.5000    228.9843     13.2104     15.5048     21.7477     96.4850
   536.7500    228.0306     13.4309     16.6324     26.8815     89.4104
   537.0000    226.8850     13.7660     16.7665     29.3012     95.4334
   537.2500    225.8703     13.7691     16.8768     29.4390    105.8549
   537.5000    224.6106     13.4431     16.8286     27.4596    103.3976
   537.7500    223.2564     13.3498     16.6668     23.8399    117.0649
   538.0000    221.7278     13.4350     16.1854     20.3142    128.6330
   538.2500    220.1684     13.5386     15.2642     17.5084    126.4580
   538.5000    218.7388     13.2395     14.4507     15.9408    161.3077
   538.7500    217.2379     12.9917     14.3235     14.8897    154.2195
   539.0000    215.9605     12.7272     13.4555     14.0258    137.1017
   539.2500    214.4551     12.6019     12.9066     13.8645    145.6303
   539.5000    213.1416     12.3253     12.3415     13.3493    160.3784
   539.7500    211.9928     12.0873     11.9439     12.6444    134.6704
   540.0000    211.0247     11.9052     11.7519     12.2509    126.9333
   540.2500    210.2072     11.4804     11.5276     11.7553    152.8209
   540.5000    209.6174     11.3525     11.3369     11.5102    143.3112
   540.7500    209.0513     11.2291     11.0800     11.7797    136.6840
   541.0000    208.5423     11.0477     10.9900     12.4402    147.7276
   541.2500    207.9890     10.9944     11.1043     12.5795    157.3839
   541.5000    207.3462     10.9536     11.1591     11.9509    166.1613
   541.7500    206.6170     11.2074     11.1643     11.8003    156.9361
   542.0000    205.9452     11.5323     11.1331     11.4880    154.7977
   542.2500    205.2849     11.5637     11.2681     12.6009    147.9793
   542.5000    204.7819     11.6628     11.7077     12.8057    136.9814
   542.7500    204.2585     11.8729     12.2424     12.0925    142.0945
   543.0000    204.0975     11.9587     12.5290     13.8209    135.1896
   543.2500    204.0516     12.0076     12.7938     15.0364    146.1679
   543.5000    204.0634     12.3953     13.0951     15.2603    139.4185
   543.7500    204.0430     12.2910     12.9957     15.4918    128.9809
   544.0000    204.1543     12.7029     13.2790     15.8926    114.6223
   544.2500    204.3619     13.0445     13.1632     14.5595    128.5753
   544.5000    204.6288     12.9615     13.4687     14.5277    131.9664
   544.7500    204.9255     12.9911     13.6472     14.3512    122.3716
   545.0000    205.4436     13.4281     14.0509     16.0384    115.2491
   545.2500    205.9963     13.5393     14.2962     18.8192    129.1754
   545.5000    206.5984     13.8590     14.1699     19.6357    118.4894
   545.7500    206.9145     13.8277     14.1401     17.2398    129.2531
   546.0000    206.9642     13.9768     14.1810     15.5594    133.7482
   546.2500    206.9708     13.9807     14.4716     16.2581    134.5395
   546.5000    206.8920     14.1368     14.4200     17.1086    146.5049
   546.7500    206.8136     14.1671     14.6058     17.0265    144.7305
   547.0000    206.8023     14.6336     14.9937     18.1947    153.3003
   547.2500    206.9909     14.8766     15.1774     18.1683    161.3406
   547.5000    207.0146     14.7881     16.1986     19.2656    153.9308
   547.7500    207.1294     15.3409     16.0426     20.8708    144.2703
   548.0000    207.3917     15.4850     16.1031     21.0093    123.0112
   548.2500    207.6803     15.4929     16.1617     22.5136    131.6062
   548.5000    208.1820     15.2700     16.3594     23.6125    122.9717
   548.7500    208.7288     15.7094     16.0154     21.0516    138.4543
   549.0000    209.4608     15.9059     16.0083     19.3660    157.6766
   549.2500    210.6586     16.1787     15.9456     18.8901    161.1197
   549.5000    211.4041     16.8284     16.1870     19.0599    157.5500
   549.7500    211.9320     17.5382     16.3573     19.3118    164.3762
