~Version Information
VERS.                      2.0: CWLS Log ASCII Standard - VERSION 2.0
WRAP.                       NO: One line per depth step
~Well Information Block
STRT.FT               -14.0000: 
STOP.FT               951.0000: 
STEP.FT                 0.2500: 
NULL.                -999.2500: 
COMP.          Pioneer Natural Resources: COMPANY
WELL.             Giggle 21-22: WELL
FLD.           Purgatoire River: FIELD
LOC.           950' FNL & 2094' FWL: LOCATION
CNTY.               Las Animas: COUNTY
SRVC.                         : SERVICE COMPANY
DATE.          Mon Apr 17 17:51:33 2006: LOG DATE
UWI.           05 071 08726 00: UNIQUE WELL ID
STAT.                       CO: STATE
~Curve Information Block
DEPT.FT            0 000 00 00: Depth
CCL.                          : Casing Collar Locator
TT3.usec                      : CBL 3' Travel Time
AMP3.mV                       : CBL 3' Amplitude
GR.GAPI                       : Gamma Ray
~Parameter Information Block
~A  Depth       CCL         TT3         AMP3         GR     
# ...
   488.5000      0.0000    730.0341      8.2656     88.7071
   488.7500      0.0000    724.9039      8.0059    100.4287
   489.0000      0.0000    717.9804      7.8370    111.4989
   489.2500      0.0000    712.0372      7.8162    121.1935
   489.5000      0.0000    708.2191      7.9070    129.5519
   489.7500      0.0000    706.2598      8.0128    136.0607
   490.0000      0.0000    705.6678      8.0429    139.9277
   490.2500      0.0000    705.9954      7.9527    141.2210
   490.5000      0.0000    706.6862      7.7541    140.9047
   490.7500      0.0000    707.6213      7.5131    140.1460
   491.0000      0.0000    709.4488      7.3213    140.1599
   491.2500      0.0000    712.5222      7.2326    141.9878
   491.5000      0.0000    715.6489      7.2213    145.5704
   491.7500      0.0000    716.6494      7.2167    149.3432
   492.0000      0.0000    714.4243      7.1796    151.1707
   492.2500      0.0000    710.2557      7.1321    149.4428
   492.5000      0.0000    707.0050      7.1232    143.8595
   492.7500      0.0000    707.0803      7.1830    136.2712
   493.0000      0.0000    710.9177      7.2984    130.2684
   493.2500      0.0000    716.9290      7.4187    128.4394
   493.5000      0.0000    722.7571      7.4987    129.9412
   493.7500      0.0000    726.7585      7.5461    131.7449
   494.0000      0.0000    728.5634      7.6117    132.1508
   494.2500      0.0000    728.5245      7.7268    132.0721
   494.5000      0.0000    726.9578      7.8625    132.9954
   494.7500      0.0000    723.9678      7.9490    134.8919
   495.0000      0.0000    719.7562      7.9231    136.5729
   495.2500      0.0000    714.7833      7.7623    137.3056
   495.5000      0.0000    709.6068      7.4999    137.3876
   495.7500      0.0000    704.8178      7.2174    137.4598
   496.0000      0.0000    701.1512      7.0096    137.8410
   496.2500      0.0000    699.4078      6.9371    138.4836
   496.5000      0.0000    700.1807      7.0016    139.3519
   496.7500      0.0000    703.6261      7.1482    140.8032
   497.0000      0.0000    709.1807      7.2870    143.3905
   497.2500      0.0000    715.3410      7.3314    147.0195
   497.5000      0.0000    720.0247      7.2532    150.5984
   497.7500      0.0000    721.4801      7.1102    152.9501
   498.0000      0.0000    719.0607      7.0011    153.8428
   498.2500      0.0000    713.4615      6.9814    153.8641
   498.5000      0.0000    706.4284      7.0224    153.7225
   498.7500      0.0000    699.9280      7.0438    154.0889
   499.0000      0.0000    695.1921      6.9728    155.7034
   499.2500      0.0000    692.4071      6.7872    158.8450
   499.5000      0.0000    691.1669      6.5290    162.4662
   499.7500      0.0000    691.0089      6.2842    164.3408
   500.0000      0.0000    691.5914      6.1377    162.7241
   500.2500      0.0000    692.7108      6.1337    158.0831
   500.5000      0.0000    694.4384      6.2648    152.8754
   500.7500      0.0000    697.2259      6.4818    149.3815
   501.0000      0.0000    701.5504      6.7092    147.9065
   501.2500      0.0000    707.0516      6.8762    147.0550
   501.5000      0.0000    712.0009      6.9578    145.0948
   501.7500      0.0000    714.1313      6.9851    140.8879
   502.0000      0.0000    712.4637      7.0087    134.4382
   502.2500      0.0000    708.3234      7.0572    127.3335
   502.5000      0.0000    704.3270      7.1272    122.4768
   502.7500      0.0000    702.2554      7.1901    122.6752
   503.0000      0.0000    701.8497      7.2039    128.6743
   503.2500      0.0000    701.5421      7.1371    138.1942
   503.5000      0.0000    700.1825      6.9934    147.3557
   503.7500      0.0000    697.9539      6.8146    153.4642
   504.0000      0.0000    695.7956      6.6579    156.1769
   504.2500      0.0000    694.3761      6.5621    156.2368
   504.5000      0.0000    693.7620      6.5308    154.0650
   504.7500      0.0000    693.7019      6.5497    149.8866
   505.0000      0.0000    693.9155      6.6093    144.6516
   505.2500      0.0000    694.1954      6.6993    140.1771
   505.5000      0.0000    694.4376      6.7891    137.9974
   505.7500      0.0000    694.6390      6.8353    138.0914
   506.0000      0.0000    694.8312      6.8119    139.1476
   506.2500      0.0000    695.0025      6.7327    140.1952
   506.5000      0.0000    695.0704      6.6471    141.6478
   506.7500      0.0000    694.9420      6.6133    144.6747
   507.0000      0.0000    694.6022      6.6653    149.7676
   507.2500      0.0000    694.1259      6.7934    156.0349
   507.5000      0.0000    693.6136      6.9515    161.8479
   507.7500      0.0000    693.1553      7.0830    165.8987
   508.0000      0.0000    692.8472      7.1437    167.4491
   508.2500      0.0000    692.7593      7.1171    166.0965
   508.5000      0.0000    692.8597      7.0220    161.9509
   508.7500      0.0000    693.0372      6.9092    156.0696
   509.0000      0.0000    693.2296      6.8377    150.4282
   509.2500      0.0000    693.4761      6.8452    147.1317
   509.5000      0.0000    693.8226      6.9308    147.1120
   509.7500      0.0000    694.2197      7.0567    149.2187
   510.0000      0.0000    694.5463      7.1649    150.9579
   510.2500      0.0000    694.7123      7.2024    150.5553
   510.5000      0.0000    694.7131      7.1426    148.2756
   510.7500      0.0000    694.5849      6.9926    145.8818
   511.0000      0.0000    694.3359      6.7914    145.2427
   511.2500      0.0000    693.9486      6.5947    147.2148
   511.5000      0.0000    693.4341      6.4489    150.8930
   511.7500      0.0000    692.8504      6.3698    153.7773
   512.0000      0.0000    692.2665      6.3444    153.5964
   512.2500      0.0000    691.7198      6.3500    150.4404
   512.5000      0.0000    691.1988      6.3717    146.6315
   512.7500      0.0000    690.6606      6.4058    144.2078
   513.0000      0.0000    690.1043      6.4511    142.9895
   513.2500      0.0000    689.6672      6.4980    141.2954
   513.5000      0.0000    689.6100      6.5281    138.0395
   513.7500      0.0000    690.1227      6.5364    133.8233
   514.0000      0.0000    691.1650      6.5518    130.2573
   514.2500      0.0000    692.5796      6.6198    128.3140
   514.5000      0.0000    694.3521      6.7502    127.2329
   514.7500      0.0000    696.6001      6.8843    125.1824
   515.0000      0.0000    699.1376      6.9270    121.2403
   515.2500      0.0000    701.0901      6.8206    116.6184
   515.5000      0.0000    701.0715      6.5878    113.6127
   515.7500      0.0000    697.8315      6.3111    113.2765
   516.0000      0.0000    690.4984      6.0883    114.1449
   516.2500      0.0000    678.6738      6.0068    113.2039
   516.5000      0.0000    663.8238      6.1163    108.2692
   516.7500      0.0000    650.6710      6.3810     99.8342
   517.0000      0.0000    644.7201      6.6733     90.7640
   517.2500      0.0000    646.9933      6.8659     83.9984
   517.5000      0.0000    653.5013      6.9316     80.5434
   517.7500      0.0000    660.6202      6.9339     79.6415
   518.0000      3.4296    667.9836      6.9386     80.4143
   518.2500     -2.2147    675.8759      6.9655     82.7296
   518.5000     -5.0000    683.5023      7.0135     86.5896
   518.7500      0.0000    689.6300      7.1068     91.3911
   519.0000      0.0000    691.9042      7.2983     96.2042
   519.2500      0.0000    687.4046      7.6132    100.4991
   519.5000      0.0000    677.7612      7.9851    104.2243
   519.7500      0.0000    671.1102      8.2786    107.2742
   520.0000      0.0000    674.3596      8.4021    109.2776
   520.2500      0.0000    685.7161      8.3708    110.1694
   520.5000      0.0000    697.8338      8.2480    110.7983
   520.7500      0.0000    705.4870      8.0776    112.6767
   521.0000      0.0000    707.9688      7.8916    116.9557
   521.2500      0.0000    706.8260      7.7282    123.4289
   521.5000      0.0000    704.0446      7.6077    130.4098
   521.7500      0.0000    701.5505      7.5123    135.9509
