~Version Information
VERS.                      2.0: CWLS Log ASCII Standard - VERSION 2.0
WRAP.                       NO: One line per depth step
~Well Information Block
STRT.FT               480.0000: 
STOP.FT              1817.0000: 
STEP.FT                 0.1000: 
NULL.                -999.2500: 
COMP.          Pioneer Natural Resources: COMPANY
WELL.           Bobsy 34-11 Tr: WELL
FLD.           Purgatoire River: FIELD
LOC.           514' FSL & 1784' FEL: LOCATION
PROV.                 Colorado: PROVINCE
CNTY.               Las Animas: COUNTRY
SRVC.                Patterson: SERVICE COMPANY
DATE.          Tue Jul 19 10:30:09 2005: LOG DATE
UWI.           05 071 08438 00: UNIQUE WELL ID
~Curve Information Block
DEPT.FT            0 000 00 00: Depth
DCAL.in                       : CDL Caliper
DPOR.pu                       : CDL Density Porosity
GR.GAPI                       : Gamma Ray
NPOR.pu                       : Neutron Porosity
RHOB.g/cc                     : CDL Bulk Density
RHOC.g/cc                     : CDL Density Correction
~Parameter Information Block
~A  Depth       DCAL        DPOR         GR         NPOR        RHOB        RHOC    
# ...
  1449.6000      7.9826      3.4818     83.0059     21.1226      2.5926      0.0457
  1449.7000      7.9826      2.0230     83.4398     20.6027      2.6166      0.0754
  1449.8000      7.9671      1.4516     83.7094     19.2141      2.6260      0.0551
  1449.9000      7.9671      2.1885     82.3297     17.8298      2.6139      0.0584
  1450.0000      7.9941      3.6676     78.6241     16.8557      2.5895      0.0300
  1450.1000      7.9941      4.5663     74.3404     16.5773      2.5747      0.0237
  1450.2000      7.9941      3.9598     71.2711     17.5174      2.5847      0.0173
  1450.3000      8.0572      2.4365     66.6555     19.4887      2.6098      0.0391
  1450.4000      8.0572      1.8560     60.9552     20.7448      2.6194      0.0343
  1450.5000      8.0699      3.0718     59.6812     20.0797      2.5993      0.0397
  1450.6000      8.0699      4.9326     61.4894     19.1931      2.5686      0.0194
  1450.7000      8.0699      6.7636     61.9706     19.9044      2.5384      0.0187
  1450.8000      8.0481      8.8770     63.0196     21.2935      2.5035     -0.0549
  1450.9000      8.0481     10.3649     67.6052     20.8207      2.4790     -0.0644
  1451.0000      8.0289     10.2529     73.1972     18.7748      2.4808      0.0488
  1451.1000      8.0289      8.9556     78.4824     17.6701      2.5022      0.0334
  1451.2000      8.0289      7.3542     86.1288     18.1861      2.5287      0.0812
  1451.3000      8.0181      6.5170     95.7040     19.7020      2.5425      0.0673
  1451.4000      8.0181      7.1700    104.3102     21.2667      2.5317      0.0803
  1451.5000      7.9777      9.6281    110.0638     22.4745      2.4911      0.1037
  1451.6000      7.9777     14.2728    110.0433     23.5559      2.4145      0.0984
  1451.7000      7.9777     20.8613    106.3347     23.9987      2.3058      0.0359
  1451.8000      7.9689     28.1962    106.3991     23.6913      2.1848     -0.0092
  1451.9000      7.9689     35.3720    112.1936     23.5728      2.0664     -0.0122
  1452.0000      7.9707     41.7726    115.8074     23.8900      1.9608     -0.0687
  1452.1000      7.9707     46.2117    110.4614     24.4523      1.8875     -0.0989
  1452.2000      7.9707     48.4710    100.7620     25.5313      1.8502     -0.0837
  1452.3000      7.9802     49.5357     94.6590     26.9985      1.8327     -0.0255
  1452.4000      7.9802     49.3943     94.7196     28.1530      1.8350     -0.0373
  1452.5000      8.0347     47.4985     99.6514     28.9284      1.8663      0.1268
  1452.6000      8.0347     44.0758    102.4877     29.6221      1.9227      0.1506
  1452.7000      8.0347     38.7470     96.8629     29.8597      2.0107      0.1541
  1452.8000      8.1019     31.6546     90.2945     29.4281      2.1277      0.2007
  1452.9000      8.1019     25.2794     92.8114     28.6957      2.2329      0.1917
  1453.0000      8.2072     21.4145    101.3294     28.1670      2.2967      0.0850
  1453.1000      8.2072     18.9353    109.1737     28.2923      2.3376      0.0342
  1453.2000      8.2072     16.4450    113.0520     28.6018      2.3787      0.0017
  1453.3000      8.1117     14.0137    113.4967     27.3835      2.4188      0.0331
  1453.4000      8.1117     11.6769    114.0390     24.6872      2.4573      0.0673
  1453.5000      8.0366      8.8943    113.9806     22.8653      2.5032      0.0906
  1453.6000      8.0366      6.4040    111.7672     22.7114      2.5443      0.1286
  1453.7000      8.0366      5.7455    109.6658     23.5816      2.5552      0.1010
  1453.8000      8.0162      6.6417    108.4020     24.9966      2.5404      0.0831
  1453.9000      8.0162      7.5708    106.0473     26.2474      2.5251      0.0813
  1454.0000      8.0154      7.7132    104.3385     26.5649      2.5227      0.0779
  1454.1000      8.0154      7.2675    108.5904     25.7498      2.5301      0.0909
  1454.2000      8.0154      6.7958    120.9491     24.5424      2.5379      0.1190
  1454.3000      8.0044      6.2918    132.7859     24.1963      2.5462      0.1042
  1454.4000      8.0044      5.3119    134.2910     25.4038      2.5624      0.1091
  1454.5000      8.0366      4.3155    130.3608     27.3031      2.5788      0.1647
  1454.6000      8.0366      4.0702    130.0392     28.1619      2.5828      0.1180
  1454.7000      8.0366      4.2596    133.3325     27.7389      2.5797      0.1421
  1454.8000      8.1488      4.3029    139.2302     27.0849      2.5790      0.1431
  1454.9000      8.1488      3.9633    146.2349     27.1010      2.5846      0.1083
  1455.0000      8.2116      2.9813    148.1530     27.6174      2.6008      0.1022
  1455.1000      8.2116      1.3885    143.1591     27.6876      2.6271      0.1279
  1455.2000      8.2116     -0.1778    136.1519     27.3822      2.6529      0.1542
  1455.3000      8.1971     -1.1224    132.3799     27.4662      2.6685      0.1252
  1455.4000      8.1971     -1.0641    133.6253     27.7412      2.6676      0.1185
  1455.5000      8.0764      0.0903    137.8923     27.6109      2.6485      0.1191
  1455.6000      8.0764      1.9458    144.6511     27.2648      2.6179      0.1191
  1455.7000      8.0764      4.2530    151.9987     27.1525      2.5798      0.1020
  1455.8000      8.0069      6.5445    153.1591     26.9995      2.5420      0.0674
  1455.9000      8.0069      7.9086    147.2994     26.0474      2.5195      0.0306
  1456.0000      8.0499      8.0556    139.1572     24.6946      2.5171      0.0780
  1456.1000      8.0499      7.5517    132.0984     24.1826      2.5254      0.0891
  1456.2000      8.0499      6.7819    128.6077     25.0135      2.5381      0.0421
  1456.3000      8.0694      6.2905    128.8792     26.3234      2.5462      0.1076
  1456.4000      8.0694      6.9799    129.4209     26.4973      2.5348      0.0892
  1456.5000      8.0307      8.1973    129.3120     25.5519      2.5147      0.0438
  1456.6000      8.0307      8.7033    133.8857     24.9064      2.5064      0.0925
  1456.7000      8.0307      8.3645    142.8337     24.9364      2.5120      0.0718
  1456.8000      8.0251      7.5652    145.0951     25.3232      2.5252      0.1170
  1456.9000      8.0251      7.4291    139.3955     25.9525      2.5274      0.1591
  1457.0000      8.0952      8.5893    135.1660     26.9755      2.5083      0.0634
  1457.1000      8.0952      9.5150    133.7949     28.1890      2.4930      0.0648
  1457.2000      8.0952      8.2125    131.1070     28.7864      2.5145      0.0846
  1457.3000      8.1268      4.9907    129.6485     28.2862      2.5677      0.1676
  1457.4000      8.1268      2.5288    133.9481     27.5037      2.6083      0.1664
  1457.5000      8.0861      2.3867    142.2043     27.7361      2.6106      0.0774
  1457.6000      8.0861      3.8125    149.7309     28.7152      2.5871      0.1309
  1457.7000      8.0861      5.6729    150.6553     28.8904      2.5564      0.1018
  1457.8000      8.0563      6.7276    141.7484     27.7647      2.5390      0.0669
  1457.9000      8.0563      6.1604    129.5354     26.2236      2.5484      0.1104
  1458.0000      8.0383      4.7851    126.1287     25.0911      2.5710      0.1752
  1458.1000      8.0383      3.8105    131.2589     25.0437      2.5871      0.1038
  1458.2000      8.0383      3.1300    133.9357     26.0593      2.5984      0.0977
  1458.3000      8.1194      2.8281    129.8461     26.8118      2.6033      0.1278
  1458.4000      8.1194      3.3473    122.6061     26.3520      2.5948      0.0904
  1458.5000      8.1515      3.6281    115.7772     25.2058      2.5901      0.1028
  1458.6000      8.1515      2.3760    112.4322     24.3197      2.6108      0.0684
  1458.7000      8.1515      0.0923    113.6225     24.0089      2.6485      0.1960
  1458.8000      8.1194     -1.3881    115.2977     24.2483      2.6729      0.2470
  1458.9000      8.1194     -1.3128    112.2480     24.5653      2.6717      0.2018
  1459.0000      7.9184     -0.7599    109.0887     24.3852      2.6625      0.1935
  1459.1000      7.9184     -0.7783    111.3612     24.3544      2.6628      0.2126
