~Version Information
VERS.                      2.0: CWLS Log ASCII Standard - VERSION 2.0
WRAP.                       NO: One line per depth step
~Well Information Block
STRT.FT                -9.5000: 
STOP.FT              1304.7500: 
STEP.FT                 0.2500: 
NULL.                -999.2500: 
COMP.          Pioneer Natural Resources: COMPANY
WELL.            Hamburg 43-35: WELL
FLD.           Purgatorie River: FIELD
LOC.           2444' FSL & 950' FEL--: LOCATION
PROV.                       CO: PROVINCE
CNTY.               Las Animas: COUNTRY
SRVC.          Patterson Wireline: SERVICE COMPANY
DATE.          Thu Dec 08 14:29:45 2005: LOG DATE
UWI.           08 071 08607 00: UNIQUE WELL ID
~Curve Information Block
DEPT.FT            0 000 00 00: Depth
CCL.                          : Casing Collar Locator
TT3.usec                      : CBL 3' Travel Time
AMP3.mV                       : CBL 3' Amplitude
GR.GAPI                       : Gamma Ray
~Parameter Information Block
~A  Depth       CCL         TT3         AMP3         GR     
# ...
   325.5000      0.0000    820.1544     10.5730     47.2166
   325.7500      0.0000    815.4037     10.5001     45.7667
   326.0000      0.0000    809.2364     10.4376     44.2492
   326.2500      0.0000    802.7183     10.4188     43.2972
   326.5000      0.0000    796.7806     10.4686     43.8285
   326.7500      0.0000    791.1243     10.5854     46.3613
   327.0000      0.0000    784.5914     10.7443     50.3930
   327.2500      0.0000    776.5779     10.9195     54.5478
   327.5000      0.0000    767.9331     11.0997     57.5623
   327.7500      0.0000    760.3966     11.2810     59.0714
   328.0000      0.0000    755.2270     11.4548     59.4595
   328.2500      0.0000    752.4732     11.6104     59.1662
   328.5000      0.0000    751.3757     11.7438     58.2265
   328.7500      0.0000    751.1156     11.8579     56.4403
   329.0000      0.0000    751.1727     11.9610     53.9035
   329.2500      0.0000    751.3408     12.0696     51.2249
   329.5000      0.0000    751.6793     12.2071     49.1449
   329.7500      0.0000    752.4763     12.3905     48.1366
   330.0000      0.0000    754.0708     12.6135     48.4737
   330.2500      0.0000    756.4232     12.8464     50.5017
   330.5000      0.0000    758.7101     13.0523     54.5670
   330.7500      0.0000    759.6357     13.2087     60.7071
   331.0000      0.0000    758.5134     13.3185     68.6591
   331.2500      0.0000    755.9543     13.3986     78.2441
   331.5000      0.0000    753.2778     13.4598     89.5148
   331.7500      0.0000    751.4146     13.4982    102.1433
   332.0000      0.0000    750.5111     13.5075    114.5369
   332.2500      0.0000    750.2812     13.4914    124.0524
   332.5000      0.0000    750.4124     13.4595    128.7111
   332.7500      0.0000    750.6856     13.4119    128.5920
   333.0000      0.0000    750.9425     13.3375    125.1660
   333.2500      0.0000    751.0806     13.2295    119.6632
   333.5000      0.0000    751.0762     13.0936    112.8490
   333.7500      0.0000    750.9792     12.9369    106.0790
   334.0000      0.0000    750.8610     12.7552    101.3454
   334.2500      0.0000    750.7648     12.5329     99.6234
   334.5000      0.0000    750.6872     12.2550     99.6384
   334.7500      0.0000    750.5901     11.9245     99.1323
   335.0000      0.0000    750.4383     11.5843     97.6578
   335.2500      0.0000    750.2434     11.3233     97.4617
   335.5000      0.0000    750.0754     11.2438    100.7875
   335.7500      0.0000    750.0546     11.4041    106.5688
   336.0000      0.0000    750.3676     11.7859    110.7874
   336.2500      0.0000    751.3125     12.3082    110.3734
   336.5000      0.0000    753.1918     12.8648    106.0832
   336.7500      0.0000    755.8950     13.3544    101.2572
   337.0000      0.0000    758.4965     13.7026     98.2694
   337.2500      0.0000    759.6190     13.8746     96.6976
   337.5000      0.0000    758.5842     13.8788     94.8449
   337.7500      0.0000    756.0881     13.7613     92.3127
   338.0000      0.0000    753.5112     13.5964     90.4561
   338.2500      0.0000    751.7380     13.4634     90.7337
   338.5000      0.0000    750.7857     13.4095     93.5476
   338.7500      0.0000    750.2627     13.4195     98.5206
   339.0000      0.0000    749.8726     13.4261    105.0016
   339.2500      0.0000    749.5450     13.3575    112.1501
   339.5000      0.0000    749.3171     13.1867    118.8123
   339.7500      0.0000    749.2102     12.9452    123.2511
   340.0000      0.0000    749.1948     12.6939    123.5050
   340.2500      0.0000    749.2243     12.4845    119.0194
   340.5000      0.0000    749.2645     12.3407    111.8174
   340.7500      0.0000    749.2985     12.2665    105.2245
   341.0000      0.0000    749.3145     12.2580    101.3123
   341.2500      0.0000    749.2945     12.3072     99.8010
   341.5000      0.0000    749.2213     12.3993     99.1517
   341.7500      0.0000    749.0957     12.5144     98.2312
   342.0000      0.0000    748.9444     12.6338     96.8756
   342.2500      0.0000    748.8019     12.7467     95.1944
   342.5000      0.0000    748.6860     12.8511     92.7776
   342.7500      0.0000    748.5922     12.9506     88.8339
   343.0000      0.0000    748.5038     13.0470     83.1103
   343.2500      0.0000    748.4044     13.1374     76.4838
   343.5000      0.0000    748.2836     13.2220     70.4716
   343.7500      0.0000    748.1403     13.3135     66.2445
   344.0000      0.0000    747.9822     13.4301     64.1855
   344.2500      0.0000    747.8189     13.5746     63.9382
   344.5000      0.0000    747.6567     13.7273     64.4230
   344.7500      0.0000    747.4980     13.8630     64.0786
   345.0000      0.0000    747.3430     13.9685     61.7419
   345.2500      0.0000    747.1938     14.0429     57.6648
   345.5000      0.0000    747.0591     14.0906     53.5504
   345.7500      0.0000    746.9501     14.1180     51.2228
   346.0000      0.0000    746.8726     14.1361     51.1516
   346.2500      0.0000    746.8256     14.1677     52.3976
   346.5000      0.0000    746.8069     14.2486     53.9318
   346.7500      0.0000    746.8143     14.4076     55.5751
   347.0000      0.0000    746.8412     14.6342     57.5552
   347.2500      0.0000    746.8771     14.8692     59.5779
   347.5000      0.0000    746.9153     15.0404     60.9198
   347.7500      0.0000    746.9543     15.1124     61.4787
   348.0000      0.0000    746.9921     15.1077     62.1187
   348.2500      0.0000    747.0208     15.0799     63.6605
   348.5000      0.0000    747.0300     15.0668     66.0296
   348.7500      0.0000    747.0190     15.0660     68.7567
   349.0000      0.0000    746.9806     15.0534     71.8357
   349.2500      0.0000    746.8551     15.0238     75.3316
   349.5000      0.0000    746.2128     15.0074     78.2485
   349.7500      0.0000    743.6760     15.0481     78.7886
   350.0000      0.0000    736.1702     15.1677     76.1169
   350.2500      0.0000    719.4219     15.3481     71.3644
   350.5000      0.0000    691.2116     15.5427     66.8230
   350.7500      0.0000    656.0230     15.6995     64.3895
   351.0000      0.0000    625.8156     15.7794     64.4294
   351.2500      0.0000    613.8398     15.7647     65.7575
   351.5000      0.0000    625.8506     15.6648     67.0031
   351.7500      0.0000    656.0956     15.5191     68.2288
   352.0000      0.0000    691.3291     15.3819     71.1014
   352.2500      0.0000    719.5984     15.2934     77.2757
   352.5000      0.0000    736.4240     15.2612     86.4832
   352.7500      0.0000    744.0262     15.2716     96.3759
   353.0000      0.0000    746.6827     15.3109    104.4853
   353.2500      0.0000    747.4753     15.3717    110.1422
   353.5000      0.0000    747.7845     15.4466    114.4275
   353.7500      0.0000    748.0355     15.5183    118.7794
   354.0000      0.0000    748.2813     15.5602    123.8078
   354.2500      0.0000    748.5157     15.5515    128.9304
   354.5000      0.0000    748.7092     15.4999    132.9549
   354.7500      0.0000    748.8273     15.4452    135.1990
   355.0000      0.0000    748.8465     15.4312    135.9607
   355.2500      0.0000    748.7781     15.4708    136.0804
   355.5000      0.0000    748.6714     15.5436    136.5258
   355.7500      0.0000    748.5850     15.6214    138.1203
   356.0000      0.0000    748.5485     15.6892    141.0049
   356.2500      0.0000    748.5471     15.7460    144.4404
   356.5000      0.0000    748.5453     15.7955    147.5493
   356.7500      0.0000    748.5247     15.8378    149.9874
   357.0000      0.0000    748.4954     15.8665    151.4459
   357.2500      0.0000    748.4799     15.8731    150.8770
   357.5000      0.0000    748.4962     15.8512    147.0125
   357.7500      0.0000    748.5557     15.7890    139.8024
   358.0000      0.0000    748.6535     15.6598    131.0494
   358.2500      0.0000    748.7521     15.4341    123.6199
   358.5000      0.0000    748.7969     15.1152    119.9596
   358.7500      0.0000    748.7669     14.7562    120.8228
