~Version Information
VERS.                      2.0: CWLS Log ASCII Standard - VERSION 2.0
WRAP.                       NO: One line per depth step
~Well Information Block
STRT.FT               880.0000: 
STOP.FT              1995.0000: 
STEP.FT                 0.2500: 
NULL.                -999.2500: 
COMP.          Petrogulf Corporation: COMPANY
WELL.          Collister 17-31R: WELL
FLD.           Purgatorie River: FIELD
LOC.           962' FNL & 1520' FEL: LOCATION
PROV.                 Colorado: PROVINCE
CNTY.               Las Animas: COUNTRY
SRVC.                Patterson: SERVICE COMPANY
DATE.          Mon Sep 26 09:32:26 2005: LOG DATE
UWI.                          : UNIQUE WELL ID
~Curve Information Block
DEPT.FT            0 000 00 00: Depth
SP.mV                         : DIL Spontaneous Potential
RILD.Ohm-m                    : DIL Deep Resistivity
RILM.Ohm-m                    : DIL Medium Resistivity
RLL3.Ohm-m                    : DIL Shallow Resistivity
GR.GAPI                       : Gamma Ray
~Parameter Information Block
~A  Depth        SP         RILD        RILM        RLL3         GR     
# ...
  1104.0000    169.3316     41.7475     41.2102     47.8236     62.1123
  1104.2500    168.4131     42.4810     42.0853     48.1312     69.4127
  1104.5000    167.2063     41.8851     41.9785     47.2124     67.8725
  1104.7500    165.5657     43.6395     42.6173     46.7613     65.6178
  1105.0000    164.2097     44.7963     42.7427     47.2958     68.2459
  1105.2500    163.3288     45.5262     43.0824     48.8459     59.4794
  1105.5000    162.2363     45.9687     43.0821     49.1938     59.9245
  1105.7500    161.0971     47.3331     42.5332     50.0882     64.4423
  1106.0000    159.6498     47.8724     43.5692     49.0459     67.8455
  1106.2500    158.2381     48.3837     44.4897     50.2247     76.5587
  1106.5000    156.4643     48.2488     44.8436     51.9995     57.0509
  1106.7500    154.9643     46.5210     44.6499     52.7911     55.5357
  1107.0000    153.9344     46.7360     46.0023     52.6443     66.7448
  1107.2500    153.0821     47.0432     47.9720     52.5725     61.3982
  1107.5000    152.2528     48.7889     46.5294     52.5876     59.8101
  1107.7500    151.2106     50.5494     49.2740     54.9747     67.4199
  1108.0000    150.4414     50.1504     50.4096     55.9234     80.6781
  1108.2500    149.3860     48.8697     49.0590     58.1338     69.2042
  1108.5000    148.2355     50.2504     51.4676     59.2552     70.3071
  1108.7500    147.2604     51.1957     50.8187     60.9705     84.4488
  1109.0000    146.5608     49.7521     49.7082     62.6720     61.8835
  1109.2500    145.9276     50.5070     49.3044     60.8329     50.8179
  1109.5000    145.3660     50.8361     50.5775     60.7759     45.6187
  1109.7500    144.7515     48.4776     53.5084     58.5666     60.4876
  1110.0000    144.2748     49.3052     48.5663     55.8505     58.4135
  1110.2500    144.0701     48.2255     47.4016     55.0170     48.5945
  1110.5000    143.9765     46.3145     49.1151     56.9382     57.3368
  1110.7500    143.9020     45.7192     47.1305     56.2987     63.3593
  1111.0000    144.3907     45.7242     46.3120     55.7778     62.3805
  1111.2500    145.2610     45.2139     47.8994     55.6255     76.2722
  1111.5000    146.3083     45.1725     48.7503     57.9842     68.4040
  1111.7500    147.2349     43.5022     49.9971     58.9959     64.2152
  1112.0000    148.2419     41.2577     49.4719     60.6829     55.9554
  1112.2500    149.5027     40.9698     49.8648     63.7146     56.2301
  1112.5000    150.6732     41.8741     46.8639     59.3511     64.4054
  1112.7500    152.0511     41.4863     45.8249     52.4313     83.4788
  1113.0000    153.3095     42.5408     43.4924     49.3455     90.5061
  1113.2500    153.8967     42.5045     42.6100     45.4179     86.5093
  1113.5000    154.1920     42.9082     43.1427     46.4100    107.8455
  1113.7500    154.1472     42.1796     42.5770     47.5169    118.7099
  1114.0000    154.2319     43.9854     42.7327     47.2952    101.8403
  1114.2500    154.1682     43.8361     42.4227     48.9967     91.2351
  1114.5000    154.1375     44.0844     44.5952     50.3498     78.9496
  1114.7500    153.9456     44.6546     43.4381     49.6231     81.6102
  1115.0000    154.0135     45.1407     42.6729     48.2193     90.2174
  1115.2500    154.3002     44.6699     43.7152     49.4619     91.2290
  1115.5000    154.8001     46.0421     45.1716     50.3071     88.9716
  1115.7500    155.3983     47.3473     47.0401     51.9134    102.4142
  1116.0000    155.9780     47.6902     48.5630     53.0647     96.1619
  1116.2500    157.0114     47.4138     49.6463     56.1347    101.5543
  1116.5000    158.1346     48.8370     53.1785     60.6345    135.6294
  1116.7500    159.5917     49.2451     54.3547     65.3981    122.4165
  1117.0000    161.3834     49.2402     54.9770     67.5835    101.0570
  1117.2500    163.5842     50.5172     55.6075     68.8535     92.0731
  1117.5000    166.0337     46.2612     58.7759     69.4190     76.0883
  1117.7500    169.0631     46.9672     56.2345     70.3055     79.0099
  1118.0000    171.7457     44.1639     55.9337     82.1511     62.4778
  1118.2500    174.6144     41.9381     56.5940     95.2594     55.3131
  1118.5000    177.7381     41.0058     53.7910     75.8051     60.3423
  1118.7500    180.8065     38.9699     51.5261     53.7230     64.5075
  1119.0000    183.7995     35.5754     48.9225     40.7029     79.3221
  1119.2500    186.3767     32.2392     47.6544     37.1443     74.9730
  1119.5000    188.8535     29.0470     43.7922     52.9357     74.5252
  1119.7500    190.8361     26.0916     39.7838     81.0126     79.4487
  1120.0000    192.6306     23.7175     32.9711     91.4379     89.6476
  1120.2500    194.2701     21.2423     26.8175     68.5899     95.9363
  1120.5000    195.6280     19.4179     22.1179     37.5544     84.3437
  1120.7500    196.7445     17.9350     18.7028     20.9655     88.1055
  1121.0000    197.8577     16.9899     16.8527     14.8423     94.5802
  1121.2500    198.7702     16.0961     14.9510     15.1331    103.5128
  1121.5000    199.4265     15.4843     13.6546     14.9675    113.1899
  1121.7500    199.8293     14.8358     12.8175     15.1850    123.3685
  1122.0000    200.1801     14.0555     12.1845     14.0939    158.2336
  1122.2500    200.4713     13.5577     11.5449     12.1781    148.2823
  1122.5000    200.3555     13.0986     11.2028     12.5440    144.9301
  1122.7500    200.2117     12.7048     10.9193     10.7184    156.9669
  1123.0000    199.6962     12.5863     10.8485     12.3503    173.0065
  1123.2500    199.0841     12.6145     10.5951     13.7895    156.4321
  1123.5000    198.5182     12.7601     10.6104     13.9344    158.3010
  1123.7500    197.7196     12.7101     10.8994     13.2394    179.7513
  1124.0000    196.8023     13.0533     11.3797     13.4586    143.5134
  1124.2500    195.6184     13.2955     11.9136     17.3090    148.6949
  1124.5000    194.4118     13.8619     12.2566     22.8798    133.3151
  1124.7500    192.9412     14.5056     13.3202     22.5810    129.6298
  1125.0000    191.4660     15.0715     14.1614     23.3991    129.7971
  1125.2500    190.0650     15.7401     14.9169     23.2226    146.6554
  1125.5000    188.6247     16.8830     15.6199     22.4280    125.7413
  1125.7500    187.1718     17.7297     16.7837     23.1802    110.8994
  1126.0000    185.2003     18.8736     17.9576     23.8497    118.5554
  1126.2500    182.6099     20.4500     19.5530     26.3943    118.8643
  1126.5000    179.4379     22.6474     21.1776     26.0432    125.6883
  1126.7500    176.3803     24.2412     23.6816     30.5343    107.0487
  1127.0000    173.0809     26.1034     26.1472     36.7380    111.7270
  1127.2500    169.9707     27.5890     28.6327     48.3628    116.3519
  1127.5000    166.6449     29.2186     31.7996     60.0582    109.7503
  1127.7500    163.7594     30.6618     34.4535     64.6099    116.8785
  1128.0000    161.0096     32.5583     39.1377     69.4219    110.2299
  1128.2500    158.4612     34.4718     41.3022     72.6457     91.7644
  1128.5000    156.6388     34.5655     42.4523     67.5758     71.7262
  1128.7500    155.1082     34.9297     44.8250     65.0591     68.0042
  1129.0000    153.5489     36.9715     46.5416     73.0013     72.2378
  1129.2500    152.1610     38.5756     50.8091     80.1098     65.8813
  1129.5000    151.3192     42.1540     52.2496     81.9316     60.6589
  1129.7500    150.5608     42.1055     54.3374     79.5340     64.9018
  1130.0000    150.3688     44.4016     55.0622     75.2945     64.9768
  1130.2500    150.4207     45.2277     53.4991     70.6932     59.8286
  1130.5000    150.6668     45.5779     55.4621     68.7074     65.5911
  1130.7500    151.2623     44.6896     55.2914     67.3512     66.8455
  1131.0000    151.9691     45.2500     58.2961     64.4925     63.0499
  1131.2500    152.7372     45.0453     58.0113     66.7918     69.3909
  1131.5000    153.3608     44.5184     60.0273     75.0085     72.3972
  1131.7500    153.8704     43.2030     60.9697     83.7448     75.9482
