~Version Information
VERS.                      2.0: CWLS Log ASCII Standard - VERSION 2.0
WRAP.                       NO: One line per depth step
~Well Information Block
STRT.FT               -14.7500: 
STOP.FT              1106.0000: 
STEP.FT                 0.2500: 
NULL.                -999.2500: 
COMP.          Pioneer Natural Resources: COMPANY
WELL.          Black Cat 13-32 Tr: WELL
FLD.           Purgatorie River: FIELD
LOC.           1679' FSL & 1150' FWL--: LOCATION
CNTY.               Las Animas: COUNTY
SRVC.          Patterson Wireline: SERVICE COMPANY
DATE.          Wed Mar 15 15:59:24 2006: LOG DATE
UWI.           05 071 08721 00: UNIQUE WELL ID
STAT.                       CO: STATE
~Curve Information Block
DEPT.FT            0 000 00 00: Depth
CCL.                          : Casing Collar Locator
TT3.usec                      : CBL 3' Travel Time
AMP3.mV                       : CBL 3' Amplitude
GR.GAPI                       : Gamma Ray
~Parameter Information Block
~A  Depth       CCL         TT3         AMP3         GR     
# ...
   119.2500      0.0000    762.0805      4.5858    107.7135
   119.5000      0.0000    762.3708      4.5263    103.2898
   119.7500      0.0000    761.0787      4.4953     97.9925
   120.0000      0.0000    759.6325      4.5007     93.5871
   120.2500      0.0000    756.9097      4.5243     91.5092
   120.5000      0.0000    752.0433      4.5359     91.5233
   120.7500      0.0000    746.8155      4.5177     91.9509
   121.0000      0.0000    743.6566      4.4758     91.4006
   121.2500      0.0000    742.2024      4.4319     89.9652
   121.5000      0.0000    739.7610      4.4040     88.6177
   121.7500      0.0000    734.6121      4.3940     87.7927
   122.0000      0.0000    726.9219      4.3924     86.8409
   122.2500      0.0000    717.1384      4.3924     84.7859
   122.5000      0.0000    705.9536      4.3977     81.4302
   122.7500      0.0000    695.8115      4.4140     77.7368
   123.0000      0.0000    690.6416      4.4356     75.3079
   123.2500      0.0000    693.6127      4.4461     75.3152
   123.5000      0.0000    705.3160      4.4341     77.6122
   123.7500      0.0000    723.2918      4.4058     80.8975
   124.0000      0.0000    742.8277      4.3833     83.8877
   124.2500      0.0000    759.0400      4.3884     86.3086
   124.5000      0.0000    769.0195      4.4272     88.7381
   124.7500      0.0000    772.1003      4.4855     91.6053
   125.0000      0.0000    768.3788      4.5402     94.4452
   125.2500      0.0000    757.9540      4.5742     96.2505
   125.5000      0.0000    742.3067      4.5816     96.5876
   125.7500      0.0000    725.7908      4.5615     96.2419
   126.0000      0.0000    714.0782      4.5149     96.6065
   126.2500      0.0000    710.0584      4.4504     98.3973
   126.5000      0.0000    711.7212      4.3886    101.1081
   126.7500      0.0000    714.6765      4.3527    103.8307
   127.0000      0.0000    716.4893      4.3539    106.3382
   127.2500      0.0000    718.1042      4.3871    108.9793
   127.5000      0.0000    721.2186      4.4410    111.6318
   127.7500      0.0000    724.9940      4.5086    113.2706
   128.0000      0.0000    726.2192      4.5861    112.7656
   128.2500      0.0000    722.8557      4.6661    109.9234
   128.5000      0.0000    716.6630      4.7339    105.8773
   128.7500      0.0000    711.7390      4.7738    102.5206
   129.0000      0.0000    710.7549      4.7768    101.1938
   129.2500      0.0000    712.9609      4.7452    101.8381
   129.5000      0.0000    715.8115      4.6913    103.6149
   129.7500      0.0000    718.2126      4.6336    105.9686
   130.0000      0.0000    721.3940      4.5885    108.7323
   130.2500      0.0000    726.2004      4.5622    111.6268
   130.5000      0.0000    730.7737      4.5513    114.1278
   130.7500      0.0000    732.5042      4.5503    115.5660
   131.0000      0.0000    731.6943      4.5557    115.1520
   131.2500      0.0000    731.5557      4.5625    112.2182
   131.5000      0.0000    734.6603      4.5651    106.9040
   131.7500      0.0000    740.7537      4.5637    100.7202
   132.0000      0.0000    747.5586      4.5665     95.9530
   132.2500      0.0000    752.0117      4.5800     93.9022
   132.5000      0.0000    751.2874      4.6037     93.6980
   132.7500      0.0000    745.0350      4.6338     93.0202
   133.0000      0.0000    737.2611      4.6667     89.9220
   133.2500      0.0000    734.3605      4.6981     84.1153
   133.5000      0.0000    740.0873      4.7209     76.9026
   133.7500      0.0000    752.5736      4.7302     69.9931
   134.0000      0.0000    766.3572      4.7280     64.3313
   134.2500      0.0000    776.6203      4.7218     59.9940
   134.5000      0.0000    781.3403      4.7210     56.9113
   134.7500      0.0000    780.9265      4.7335     55.2003
   135.0000      0.0000    777.5333      4.7623     54.7323
   135.2500      0.0000    774.3118      4.8030     54.8681
   135.5000      0.0000    773.3553      4.8434     55.0274
   135.7500      0.0000    773.5758      4.8685     55.2407
   136.0000      0.0000    771.1957      4.8668     55.7404
   136.2500      0.0000    762.7930      4.8357     56.2267
   136.5000      0.0000    748.2250      4.7824     56.1167
   136.7500      0.0000    731.2155      4.7207     55.5393
   137.0000      0.0000    717.2046      4.6653     55.5363
   137.2500      0.0000    710.0358      4.6278     57.0044
   137.5000      0.0000    710.1577      4.6206     59.6874
   137.7500      0.0000    715.3077      4.6580     62.4828
   138.0000      0.0000    722.1080      4.7498     64.6098
   138.2500      0.0000    726.9478      4.8895     66.2798
   138.5000      0.0000    726.8268      5.0533     68.3799
   138.7500      0.0000    721.0517      5.2113     71.6342
   139.0000      0.0000    712.1237      5.3420     75.7763
   139.2500      0.0000    704.0402      5.4402     79.2781
   139.5000      0.0000    699.7643      5.5144     80.1564
   139.7500      0.0000    700.6826      5.5771     77.4481
   140.0000      0.0000    707.6346      5.6360     71.9669
   140.2500      0.0000    720.9012      5.6946     65.6541
   140.5000      0.0000    738.4561      5.7578     60.3292
   140.7500      0.0000    754.9471      5.8312     57.0107
   141.0000      0.0000    763.8395      5.9137     55.9604
   141.2500      0.0000    761.4077      5.9933     56.7276
   141.5000      0.0000    749.0278      6.0542     58.0398
   141.7500      0.0000    732.0465      6.0866     58.4301
   142.0000      0.0000    716.5178      6.0908     57.5243
   142.2500      0.0000    706.3507      6.0720     56.2611
   142.5000      0.0000    702.8343      6.0336     55.5261
   142.7500      0.0000    706.1059      5.9765     55.1389
   143.0000      0.0000    716.1008      5.9045     54.4735
   143.2500      0.0000    731.6512      5.8274     53.3753
   143.5000      0.0000    749.4011      5.7541     52.0752
   143.7500      0.0000    764.8788      5.6829     50.7165
   144.0000      0.0000    775.0561      5.6003     49.4056
   144.2500      0.0000    779.5762      5.4923     48.5924
   144.5000      0.0000    779.6393      5.3550     49.0700
   144.7500      0.0000    776.4047      5.1965     51.3513
   145.0000      0.0000    770.7480      5.0308     55.0722
   145.2500      0.0000    763.8146      4.8719     59.4326
   145.5000      0.0000    756.6442      4.7311     64.3031
   145.7500      0.0000    749.0714      4.6178     70.3091
   146.0000      0.0000    740.2274      4.5381     77.5454
   146.2500      0.0000    730.6528      4.4881     84.8130
   146.5000      0.0000    722.9143      4.4534     90.5423
   146.7500      0.0000    719.7228      4.4176     94.0207
   147.0000      0.0000    722.1131      4.3742     95.5672
   147.2500      0.0000    729.1777      4.3289     96.0961
   147.5000      0.0000    738.6524      4.2916     96.7088
   147.7500      0.0000    748.0375      4.2678     98.1562
   148.0000      0.0000    755.7084      4.2575    100.3462
   148.2500      0.0000    760.9867      4.2596    102.3785
   148.5000      0.0000    763.5422      4.2753    103.0462
   148.7500      0.0000    763.3519      4.3059    101.4733
   149.0000      0.0000    761.0742      4.3492     97.6991
   149.2500      0.0000    757.6897      4.4006     92.8959
   149.5000      0.0000    752.9916      4.4563     88.7916
   149.7500      0.0000    744.7770      4.5092     86.5205
   150.0000      0.0000    730.9824      4.5453     85.9350
   150.2500      0.0000    713.1599      4.5554     86.2068
   150.5000      0.0000    697.3338      4.5523     87.0873
   150.7500      0.0000    691.0069      4.5626     89.1735
   151.0000      0.0000    698.6588      4.5998     92.6265
   151.2500      0.0000    718.4692      4.6586     95.9358
   151.5000      0.0000    742.7545      4.7315     96.6575
   151.7500      0.0000    763.2584      4.8152     93.6344
   152.0000      0.0000    778.0333      4.9023     88.2225
   152.2500      0.0000    792.3508      4.9860     83.1383
   152.5000      0.0000    810.5410      5.0783     80.3549
