~Version Information
 VERS.                                  2.0 : CWLS LAS VERSION
 WRAP.                                   NO : WRAPING MODE
 SWARE .                 MController 2.5.0J : SOFTWARE VERSION
~Well Information
 WELL.                         Kraft 17-23R : WELL
 COMP.                Petrogulf Corporation : COMPANY
 FLD.                      Purgatoire River : FIELD
 LOC.                NE/SW Sec 17 T33S R67W : LOCATION
 DATE.                          10/10-11/05 : DATE(S) LOGGED
 SRVC.       BLANCO Geological Services LLC : SERVICE COMPANY
 STAT.                                   CO : STATE
 CNTY.                           Las Animas : COUNTY
 CTRY.                                  USA : COUNTRY
 API.                       05-071-08560-00 : API NUMBER
 STRT.FT                             101.00 : START DEPTH
 STOP.FT                            1920.00 : STOP DEPTH
 STEP.FT                               1.00 : DEPTH INCREMENT
 NULL.                                -9999 : NULL VALUE
~Curve information
 DEPTH.FT                                   :
 ROP.MIN/FT                                 :
 GAS.UNITS                                  :
~ASCII Log data
# ...
      1101.0         0.13          6.6 
      1102.0         0.13          6.7 
      1103.0         0.17          6.4 
      1104.0         0.20          5.8 
      1105.0         0.20          5.9 
      1106.0         0.23          5.6 
      1107.0         0.23          5.2 
      1108.0         1.72          7.5 
      1109.0         0.33          6.2 
      1110.0         0.27          5.8 
      1111.0         0.27          5.6 
      1112.0         0.23          5.8 
      1113.0         0.20          5.4 
      1114.0         0.20          5.3 
      1115.0         0.20          5.4 
      1116.0         0.23          5.6 
      1117.0         0.28          6.3 
      1118.0         0.20          5.8 
      1119.0         0.23          5.9 
      1120.0         0.10          5.6 
      1121.0         0.20          5.6 
      1122.0         0.23          5.2 
      1123.0         0.20          5.0 
      1124.0         0.23          5.1 
      1125.0         0.27          5.5 
      1126.0         0.20          5.2 
      1127.0         0.23          5.1 
      1128.0         0.17          5.1 
      1129.0         0.17          5.0 
      1130.0         0.20          8.6 
      1131.0         0.20         14.3 
      1132.0         0.22         15.4 
      1133.0         0.13         14.3 
      1134.0         0.10         12.6 
      1135.0         0.10         12.5 
      1136.0         0.13         11.9 
      1137.0         0.13         10.7 
      1138.0         1.70         28.5 
      1139.0         0.23         19.1 
      1140.0         0.27         15.6 
      1141.0         0.27         13.3 
      1142.0         0.28         12.4 
      1143.0         0.27         11.6 
      1144.0         0.33         10.4 
      1145.0         0.30         10.1 
      1146.0         0.33          9.4 
      1147.0         0.30          8.9 
      1148.0         0.27          8.7 
      1149.0         0.20          8.5 
      1150.0         0.27          8.8 
      1151.0         0.23          9.1 
      1152.0         0.27          8.9 
      1153.0         0.23          8.7 
      1154.0         0.22          8.9 
      1155.0         0.20          9.0 
      1156.0         0.20          9.6 
      1157.0         0.20          9.1 
      1158.0         0.23          9.1 
      1159.0         0.20          9.0 
      1160.0         0.17          8.9 
      1161.0         0.20          8.9 
      1162.0         0.20          9.1 
      1163.0         0.20          8.6 
      1164.0         0.20          8.8 
      1165.0         0.20          8.9 
      1166.0         0.17          7.9 
      1167.0         0.20          7.7 
      1168.0         1.25         23.4 
      1169.0         0.30         20.9 
      1170.0         0.33         17.3 
      1171.0         0.27         13.2 
      1172.0         0.23         11.4 
      1173.0         0.20         10.6 
      1174.0         0.23          9.7 
      1175.0         0.23          9.4 
      1176.0         0.20          8.9 
      1177.0         0.25          8.8 
      1178.0         0.20          9.2 
      1179.0         0.20         10.6 
      1180.0         0.20         10.3 
      1181.0         0.20         10.4 
      1182.0         0.10          9.5 
      1183.0         0.13          9.5 
      1184.0         0.10         13.8 
      1185.0         0.17         38.8 
      1186.0         0.17         92.0 
      1187.0         0.13        125.8 
      1188.0         0.17        149.1 
      1189.0         0.10        155.9 
      1190.0         0.10        159.0 
      1191.0         0.17        160.2 
      1192.0         0.17        159.8 
      1193.0         0.20        157.8 
      1194.0         0.18        154.4 
      1195.0         0.17        148.9 
      1196.0         0.13        138.3 
      1197.0         0.17        131.3 
      1198.0         1.17        410.0 
      1199.0         0.23        402.5 
      1200.0         0.27        364.5 
      1201.0         0.23        296.5 
      1202.0         0.23        246.8 
      1203.0         0.23        208.8 
      1204.0         0.23        182.1 
      1205.0         0.22        163.6 
      1206.0         0.20        149.6 
      1207.0         0.17        140.5 
      1208.0         0.20        134.3 
      1209.0         0.17        128.4 
      1210.0         0.20        124.4 
      1211.0         0.20        122.7 
      1212.0         0.17        213.1 
      1213.0         0.20        439.6 
      1214.0         0.20       1561.0 
      1215.0         0.17       1698.5 
      1216.0         0.20       1780.0 
      1217.0         0.17       1819.1 
      1218.0         0.23       1840.3 
      1219.0         0.23       1842.6 
      1220.0         0.35       1837.8 
      1221.0         0.40       1796.9 
      1222.0         0.20       1803.8 
      1223.0         0.13       1800.3 
      1224.0         0.17       1774.6 
      1225.0         0.17       1662.3 
      1226.0         0.13       1564.2 
      1227.0         0.13       1551.8 
      1228.0         1.43       3858.6 
      1229.0         0.22       3401.5 
      1230.0         0.23       2952.4 
      1231.0         0.23       2553.5 
      1232.0         0.20       2268.5 
      1233.0         0.20       2085.4 
      1234.0         0.20       1960.0 
      1235.0         0.20       1865.4 
      1236.0         0.20       1805.7 
      1237.0         0.20       1751.2 
      1238.0         0.20       1708.6 
      1239.0         0.17       1672.4 
      1240.0         0.17       1643.6 
      1241.0         0.17       1620.1 
      1242.0         0.17       1603.9 
      1243.0         0.17       1586.7 
      1244.0         0.22       1566.8 
      1245.0         0.17       1544.5 
      1246.0         0.17       1533.4 
      1247.0         0.17       1519.8 
      1248.0         0.27       1509.9 
      1249.0         0.20       1493.8 
      1250.0         0.17       1482.0 
      1251.0         0.17       1476.6 
      1252.0         0.20       1467.1 
      1253.0         0.17       1458.2 
      1254.0         0.20       1453.4 
      1255.0         0.17       1416.6 
      1256.0         0.20       1333.8 
      1257.0         0.20       1268.7 
      1258.0         2.88       5260.8 
      1259.0         0.20       2088.2 
      1260.0         0.30       1918.1 
      1261.0         0.28       1714.7 
      1262.0         0.27       1569.6 
      1263.0         0.20       1484.2 
      1264.0         0.27       1436.3 
      1265.0         0.37       1385.8 
      1266.0         0.33       1343.6 
      1267.0         0.43       1311.6 
      1268.0         0.33       1235.4 
      1269.0         0.27       1231.0 
      1270.0         0.15       1237.9 
      1271.0         0.17       1235.1 
      1272.0         0.13       1229.4 
      1273.0         0.13       1225.9 
      1274.0         0.17       1219.5 
      1275.0         0.17       1210.3 
      1276.0         0.20       1202.7 
      1277.0         0.17       1186.2 
      1278.0         0.20       1164.3 
      1279.0         0.20       1172.2 
      1280.0         0.20       1177.0 
      1281.0         0.13       1175.7 
      1282.0         0.10       1173.5 
      1283.0         0.27       1170.3 
      1284.0         0.23       1166.2 
      1285.0         0.23       1154.2 
      1286.0         0.27       1124.3 
      1287.0         0.20       1039.9 
      1288.0         1.62       2631.9 
      1289.0         0.33       2157.7 
      1290.0         0.37       1816.2 
      1291.0         0.23       1506.5 
      1292.0         0.23       1369.3 
      1293.0         0.30       1285.2 
      1294.0         0.42       1210.3 
      1295.0         0.33       1142.4 
      1296.0         0.23       1103.4 
      1297.0         0.37       1090.0 
      1298.0         0.30       1067.8 
      1299.0         0.17       1043.7 
      1300.0         0.20       1019.6 
