~Version Information
VERS.                      2.0: CWLS Log ASCII Standard - VERSION 2.0
WRAP.                       NO: One line per depth step
~Well Information Block
STRT.FT                31.2500: 
STOP.FT               700.7500: 
STEP.FT                 0.2500: 
NULL.                -999.2500: 
COMP.          XTO Energy Inc.: COMPANY
WELL.          Golden Eagle 20-14: WELL
FLD.           Purgatrorie River: FIELD
LOC.           587' FSL & 2478' FWL--: LOCATION
STAT.                       CO: State
CNTY.               Las Animas: COUNTY
CTRY. USA : Country
SECT. 20 : Section
TOWN. 33S : Township
RANG. 67W : Range
SRVC.          Patterson Wireline: SERVICE COMPANY
DATE.          Sat Dec 10 15:54:00 2005: LOG DATE
API.           05 071 08614 00: UNIQUE WELL ID
~Curve Information Block
DEPT.FT            0 000 00 00: Depth
CCL.                          : Casing Collar Locator
TT3.usec                      : CBL 3' Travel Time
AMP3.mV                       : CBL 3' Amplitude
GR.GAPI                       : Gamma Ray
~Parameter Information Block
~A  Depth       CCL         TT3         AMP3         GR     
# ...
   667.7500      0.0000    685.7227      6.4713    132.7866
   668.0000      0.0000    684.4132      6.5825    118.9021
   668.2500      0.0000    683.5762      6.7680    107.2759
   668.5000      0.0000    682.8878      6.9329     99.4097
   668.7500      0.0000    682.2701      6.9335     94.6762
   669.0000      0.0000    681.7903      6.6807     91.4575
   669.2500      0.0000    681.6624      6.2109     88.4685
   669.5000      0.0000    682.3217      5.6556     85.6382
   669.7500      0.0000    684.4633      5.1446     84.1369
   670.0000      0.0000    688.9070      4.7322     85.1254
   670.2500      0.0000    696.2651      4.4045     88.0907
   670.5000      0.0000    706.5383      4.1318     90.6711
   670.7500      0.0000    718.7195      3.9002     90.4497
   671.0000      0.0000    730.6429      3.7023     87.0085
   671.2500      0.0000    739.6249      3.5184     82.1563
   671.5000      0.0000    743.9030      3.3215     78.1821
   671.7500      0.0000    743.7849      3.1076     76.1643
   672.0000      0.0000    741.4943      2.9198     75.9948
   672.2500      0.0000    739.7903      2.8314     77.3558
   672.5000      0.0000    740.2959      2.8970     80.0585
   672.7500      0.0000    742.7877      3.1180     83.8066
   673.0000      0.0000    745.8965      3.4435     88.2428
   673.2500      0.0000    748.1868      3.7901     93.1741
   673.5000      0.0000    748.4213      4.0650     98.3548
   673.7500      0.0000    745.2453      4.1934    103.1071
   674.0000      0.0000    737.4891      4.1468    106.4957
   674.2500      0.0000    725.3930      3.9516    107.8299
   674.5000      0.0000    711.3872      3.6709    106.7919
   674.7500      0.0000    698.9578      3.3749    103.3257
   675.0000      0.0000    690.3849      3.1161     97.8549
   675.2500      0.0000    685.6800      2.9075     91.5776
   675.5000      0.0000    683.5673      2.7187     86.1708
   675.7500      0.0000    683.0972      2.5092     82.8221
   676.0000      0.0000    684.5139      2.2745     81.4013
   676.2500      0.0000    689.1310      2.0592     80.6336
   676.5000      0.0000    698.3019      1.9267     79.1754
   676.7500      0.0000    711.8071      1.9192     76.5067
   677.0000      0.0000    726.9996      2.0404     72.9492
   677.2500      0.0000    740.1519      2.2578     69.3028
   677.5000      0.0000    749.1407      2.5137     66.5388
   677.7500      0.0000    754.8357      2.7417     65.3631
   678.0000      0.0000    759.7755      2.8965     65.8441
   678.2500      0.0000    765.2295      2.9788     67.5679
   678.5000      0.0000    769.2963      3.0254     70.0484
   678.7500      0.0000    768.4695      3.0597     72.7881
   679.0000      0.0000    762.1171      3.0552     75.1575
   679.2500      0.0000    755.0392      2.9639     76.5850
   679.5000      0.0000    753.8458      2.7854     76.9586
   679.7500      0.0000    760.1509      2.5989     76.6225
   680.0000      0.6326    768.4956      2.5180     75.8818
   680.2500      0.0000    771.8126      2.6158     74.6951
   680.5000      0.0000    767.7267      2.8784     73.0721
   680.7500      0.0000    758.5985      3.2028     71.7194
   681.0000      0.0000    747.4080      3.4411     71.9633
   681.2500      0.0000    735.7477      3.4968     74.6438
   681.5000      0.0000    724.8733      3.4178     79.1050
   681.7500      0.0000    716.5477      3.3706     83.5986
   682.0000      0.0000    711.8877      3.4840     86.6464
   682.2500      0.0000    709.6351      3.7195     87.8088
   682.5000      0.0000    706.5228      3.9145     87.4707
   682.7500      0.0000    700.1315      3.9397     86.4504
   683.0000      0.0000    691.1867      3.7992     85.7406
   683.2500      0.0000    682.6028      3.5972     85.9365
   683.5000     -0.5823    676.6978      3.4393     86.5568
   683.7500      0.0000    673.8109      3.3666     86.2429
   684.0000      0.0000    672.9874      3.3560     84.0701
   684.2500      0.0000    673.3667      3.3609     80.6482
   684.5000      0.0000    675.2514      3.3526     77.5699
   684.7500      0.0000    680.8317      3.3400     75.7612
   685.0000      0.0000    694.0356      3.3621     74.7178
   685.2500      0.0000    718.0967      3.4545     73.3934
   685.5000      0.0000    751.1644      3.6090     71.3793
   685.7500      0.0000    784.1015      3.7576     68.9006
   686.0000      0.0000    804.9951      3.8073     65.8081
   686.2500      0.5316    808.1505      3.7100     60.9532
   686.5000      0.0000    799.0313      3.5092     52.8566
   686.7500      0.0000    789.6777      3.3127     41.2298
   687.0000      0.0000    788.9431      3.2161     27.8890
   687.2500      0.0000    797.1369      3.2524     15.8786
   687.5000      0.0000    809.0151      3.4052      7.4385
   687.7500      0.0000    819.7631      3.6477      2.8204
   688.0000      0.0000    827.5217      3.9611      0.8551
   688.2500      0.0000    832.1749      4.3291      0.2055
   688.5000      0.0000    833.8875      4.7357      0.0384
   688.7500      0.0000    833.2194      5.1732      0.0054
   689.0000      0.0000    831.5573      5.6490      0.0000
   689.2500      0.0000    830.5817      6.1686   -999.2500
   689.5000      0.0000    831.3711      6.6972   -999.2500
   689.7500      0.0000    834.0539      7.1345   -999.2500
   690.0000      0.0000    837.9354      7.3578   -999.2500
   690.2500      0.0000    841.8096      7.3163   -999.2500
   690.5000      0.0000    844.6889      7.0940   -999.2500
   690.7500      0.0000    846.5728      6.8689   -999.2500
   691.0000      0.0000    847.5733      6.7947   -999.2500
   691.2500      0.0000    844.4765      6.8934   -999.2500
   691.5000      0.0000    826.3924      7.0226   -999.2500
   691.7500      0.0000    774.5844      6.9309   -999.2500
   692.0000      0.0000    671.9907      6.3913   -999.2500
   692.2500      0.0000    520.0206      5.3651   -999.2500
   692.5000      0.0000    347.0512      4.0743   -999.2500
   692.7500      0.0000    194.3461      2.8762   -999.2500
   693.0000      0.0000     89.4472      2.0290   -999.2500
   693.2500      0.0000     33.3296      1.5670   -999.2500
   693.5000      0.0000      9.9450      1.3719   -999.2500
   693.7500      0.0000      2.3544      1.3079   -999.2500
   694.0000      0.0000      0.4357      1.2916   -999.2500
   694.2500      0.0000      0.0579      1.2884   -999.2500
   694.5000      0.0000   -999.2500   -999.2500   -999.2500
   694.7500      0.0000   -999.2500   -999.2500   -999.2500
   695.0000      0.0000   -999.2500   -999.2500   -999.2500
   695.2500      0.0000   -999.2500   -999.2500   -999.2500
   695.5000      0.0000   -999.2500   -999.2500   -999.2500
   695.7500      0.0000   -999.2500   -999.2500   -999.2500
   696.0000      0.0000   -999.2500   -999.2500   -999.2500
   696.2500      0.0000   -999.2500   -999.2500   -999.2500
   696.5000      0.0000   -999.2500   -999.2500   -999.2500
   696.7500      0.0000   -999.2500   -999.2500   -999.2500
   697.0000      0.0000   -999.2500   -999.2500   -999.2500
   697.2500      0.0000   -999.2500   -999.2500   -999.2500
   697.5000      0.0000   -999.2500   -999.2500   -999.2500
   697.7500      0.0000   -999.2500   -999.2500   -999.2500
   698.0000      0.0000   -999.2500   -999.2500   -999.2500
   698.2500      0.0000   -999.2500   -999.2500   -999.2500
   698.5000      0.0000   -999.2500   -999.2500   -999.2500
   698.7500      0.0000   -999.2500   -999.2500   -999.2500
   699.0000      0.0000   -999.2500   -999.2500   -999.2500
   699.2500      0.0000   -999.2500   -999.2500   -999.2500
   699.5000      0.0000   -999.2500   -999.2500   -999.2500
   699.7500      0.0000   -999.2500   -999.2500   -999.2500
   700.0000      0.0000   -999.2500   -999.2500   -999.2500
   700.2500   -999.2500   -999.2500   -999.2500   -999.2500
   700.5000   -999.2500   -999.2500   -999.2500   -999.2500
   700.7500   -999.2500   -999.2500   -999.2500   -999.2500
