~Version Information
VERS.                      2.0: CWLS Log ASCII Standard - VERSION 2.0
WRAP.                       NO: One line per depth step
~Well Information Block
STRT.FT                -1.5000: 
STOP.FT              2898.5000: 
STEP.FT                 0.2500: 
NULL.                -999.2500: 
COMP.          Pioneer Natural Resources: COMPANY
WELL.          Hanginstone 21-27: WELL
FLD.           Purgatoire River: FIELD
LOC.           1186' FNL & 1606' FWL--: LOCATION
PROV.                 Colorado: PROVINCE
CNTY.               Las Animas: COUNTRY
SRVC.                Patterson: SERVICE COMPANY
DATE.          Mon Jan 23 11:03:53 2006: LOG DATE
UWI.           05 071 08632 00: UNIQUE WELL ID
~Curve Information Block
DEPT.FT            0 000 00 00: Depth
CCL.                          : Casing Collar Locator
TT3.usec                      : CBL 3' Travel Time
AMP3.mV                       : CBL 3' Amplitude
GR.GAPI                       : Gamma Ray
~Parameter Information Block
~A  Depth       CCL         TT3         AMP3         GR     
# ...
  2879.5000      0.0000    611.9401     13.9696    118.2049
  2879.7500      0.0000    641.2048     13.2161    110.4127
  2880.0000      0.0000    648.9969     12.7279    102.4907
  2880.2500      0.0000    629.6139     12.5663     94.8313
  2880.5000      0.0000    599.2776     12.6132     88.5593
  2880.7500      0.0000    581.2853     12.6661     85.4380
  2881.0000      0.0000    592.7153     12.5852     86.2578
  2881.2500      0.0000    638.0472     12.3896     89.5366
  2881.5000      0.0000    707.2186     12.2297     91.8405
  2881.7500      0.0000    778.1751     12.2640     89.3882
  2882.0000      0.0000    826.1843     12.5547     79.7420
  2882.2500     -2.0000    837.4470     13.0605     62.7228
  2882.5000     -2.0000    816.9252     13.7033     40.6183
  2882.7500      2.0000    780.9733     14.4445     17.6992
  2883.0000     -2.0000    739.7433     15.3437     -1.4520
  2883.2500      0.0000    688.6430     16.5457    -14.2409
  2883.5000      0.0000    619.5756     18.1224    -20.9992
  2883.7500      0.0000    538.2333     19.8558    -23.8053
  2884.0000      0.0000    467.7704     21.2371    -24.7167
  2884.2500      0.0000    436.2072     21.7597    -24.9475
  2884.5000      0.0000    459.4761     21.2206    -24.9929
  2884.7500      0.0000    531.1557     19.7789    -25.0000
  2885.0000      0.0000    625.2502     17.8407   -999.2500
  2885.2500      0.0000    713.4667     15.8872   -999.2500
  2885.5000      0.0000    785.1967     14.2667   -999.2500
  2885.7500      0.0000    852.0135     13.0359   -999.2500
  2886.0000      0.0000    933.4161     11.9843   -999.2500
  2886.2500      0.0000   1039.1144     10.8290   -999.2500
  2886.5000      0.0000   1161.5433      9.4255   -999.2500
  2886.7500      0.0000   1278.9381      7.8486   -999.2500
  2887.0000      0.0000   1363.3052      6.3176   -999.2500
  2887.2500      0.0000   1386.6172      5.0323   -999.2500
  2887.5000      0.0000   1322.9255      4.0455   -999.2500
  2887.7500      0.0000   1155.5178      3.2701   -999.2500
  2888.0000      0.0000    896.4303      2.5995   -999.2500
  2888.2500      0.0000    598.9390      2.0089   -999.2500
  2888.5000      0.0000    335.6329      1.5448   -999.2500
  2888.7500      0.0000    154.5494      1.2443   -999.2500
  2889.0000      0.0000     57.6038      1.0892   -999.2500
  2889.2500      0.0000     17.1908      1.0262   -999.2500
  2889.5000      0.0000      4.0707      1.0061   -999.2500
  2889.7500      0.0000      0.7534      1.0011   -999.2500
  2890.0000      0.0000      0.1002      1.0001   -999.2500
  2890.2500      0.0000   -999.2500   -999.2500   -999.2500
  2890.5000      0.0000   -999.2500   -999.2500   -999.2500
  2890.7500      0.0000   -999.2500   -999.2500   -999.2500
  2891.0000      0.0000   -999.2500   -999.2500   -999.2500
  2891.2500      0.0000   -999.2500   -999.2500   -999.2500
  2891.5000      2.0000   -999.2500   -999.2500   -999.2500
  2891.7500      0.0000   -999.2500   -999.2500   -999.2500
  2892.0000      0.0000   -999.2500   -999.2500   -999.2500
  2892.2500      0.0000   -999.2500   -999.2500   -999.2500
  2892.5000      0.0000   -999.2500   -999.2500   -999.2500
  2892.7500      0.0000   -999.2500   -999.2500   -999.2500
  2893.0000     -2.0000   -999.2500   -999.2500   -999.2500
  2893.2500      0.0000   -999.2500   -999.2500   -999.2500
  2893.5000      0.0000   -999.2500   -999.2500   -999.2500
  2893.7500      0.0000   -999.2500   -999.2500   -999.2500
  2894.0000      2.0000   -999.2500   -999.2500   -999.2500
  2894.2500      0.0000   -999.2500   -999.2500   -999.2500
  2894.5000      0.0000   -999.2500   -999.2500   -999.2500
  2894.7500      0.0000   -999.2500   -999.2500   -999.2500
  2895.0000      0.0000   -999.2500   -999.2500   -999.2500
  2895.2500      0.0000   -999.2500   -999.2500   -999.2500
  2895.5000      0.0000   -999.2500   -999.2500   -999.2500
  2895.7500   -999.2500   -999.2500   -999.2500   -999.2500
  2896.0000   -999.2500   -999.2500   -999.2500   -999.2500
  2896.2500   -999.2500   -999.2500   -999.2500   -999.2500
  2896.5000   -999.2500   -999.2500   -999.2500   -999.2500
  2896.7500   -999.2500   -999.2500   -999.2500   -999.2500
  2897.0000   -999.2500   -999.2500   -999.2500   -999.2500
  2897.2500   -999.2500   -999.2500   -999.2500   -999.2500
  2897.5000   -999.2500   -999.2500   -999.2500   -999.2500
  2897.7500   -999.2500   -999.2500   -999.2500   -999.2500
  2898.0000   -999.2500   -999.2500   -999.2500   -999.2500
  2898.2500   -999.2500   -999.2500   -999.2500   -999.2500
  2898.5000   -999.2500   -999.2500   -999.2500   -999.2500
