~Version Information
VERS.                      2.0: CWLS Log ASCII Standard - VERSION 2.0
WRAP.                       NO: One line per depth step
~Well Information Block
STRT.FT                 0.0000: 
STOP.FT              1193.0000: 
STEP.FT                 0.1000: 
NULL.                -999.2500: 
COMP.          Pioneer Natural Resources: COMPANY
WELL.          Big Pine 32-15 Tr: WELL
FLD.           Purgatorie River: FIELD
LOC.           2546' FNL & 1451' FEL: LOCATION
STAT.                 Colorado: State
CNTY.               Las Animas: COUNTY
CTRY. USA : Country
SECT. 15 : Section
TOWN. 33S : Township
RANG. 67W : Range
SRVC.                Patterson: SERVICE COMPANY
DATE.          Tue Nov 08 07:11:35 2005: LOG DATE
API. 05-071-08604                         : UNIQUE WELL ID
~Curve Information Block
DEPT.FT            0 000 00 00: Depth
DCAL.in                       : CDL Caliper
RHOB.g/cc                     : CDL Bulk Density
RHOC.g/cc                     : CDL Density Correction
DPOR.pu                       : CDL Density Porosity
GR.GAPI                       : Gamma Ray
NPOR.pu                       : Neutron Porosity
~Parameter Information Block
~A  Depth       DCAL        RHOB        RHOC        DPOR         GR         NPOR    
# ...
  1008.0000      7.9155      2.5419     -0.0007      6.5521    121.3873     24.8554
  1008.1000      7.9155      2.5201     -0.0229      7.8749    124.3356     24.4287
  1008.2000      7.9155      2.5057      0.0172      8.7432    131.4195     24.0158
  1008.3000      7.9520      2.4924     -0.0053      9.5495    139.4819     23.8012
  1008.4000      7.9520      2.4872     -0.0018      9.8647    145.3409     23.8153
  1008.5000      7.9586      2.4938      0.0457      9.4648    148.9786     23.9848
  1008.6000      7.9586      2.5015      0.0566      8.9997    150.6570     24.1253
  1008.7000      7.9586      2.4981      0.0499      9.2077    151.4348     24.0052
  1008.8000      7.9840      2.4791      0.0386     10.3583    151.6302     23.5746
  1008.9000      7.9840      2.4452      0.0732     12.4114    149.8073     23.0167
  1009.0000      8.0191      2.4034     -0.0033     14.9467    146.1492     22.4809
  1009.1000      8.0191      2.3617      0.0304     17.4758    141.8762     21.9475
  1009.2000      8.0191      2.3181     -0.0198     20.1145    137.5333     21.3819
  1009.3000      8.0290      2.2710     -0.0229     22.9676    135.7114     20.6806
  1009.4000      8.0290      2.2258     -0.0459     25.7116    137.5617     19.8135
  1009.5000      8.0637      2.1864     -0.0659     28.0968    139.5106     18.9812
  1009.6000      8.0637      2.1268      0.0535     31.7065    138.0547     18.3962
  1009.7000      8.0637      2.0121     -0.0357     38.6618    132.6886     18.1056
  1009.8000      8.1647      1.8642     -0.0799     47.6258    125.1595     17.9463
  1009.9000      8.1647      1.7286     -0.1215     55.8399    117.8033     17.7349
  1010.0000      8.1841      1.6186     -0.1334     62.5107    111.2069     17.3294
  1010.1000      8.1841      1.5400     -0.2049     67.2703    105.2401     16.6768
  1010.2000      8.1841      1.5042     -0.0870     69.4427    101.1382     16.0372
  1010.3000      8.1710      1.5076     -0.0792     69.2357    100.1738     15.5840
  1010.4000      8.1710      1.5546     -0.0188     66.3905    101.0929     15.1383
  1010.5000      8.2462      1.6609      0.0766     59.9438    101.8489     14.7990
  1010.6000      8.2462      1.8116      0.3248     50.8151    103.6136     14.9208
  1010.7000      8.2462      1.9612      0.4083     41.7439    107.2009     15.5872
  1010.8000      8.4134      2.0837      0.4209     34.3215    111.0084     16.6210
  1010.9000      8.4134      2.1724      0.4086     28.9439    114.9791     17.7882
  1011.0000      8.5500      2.2398      0.2424     24.8617    120.5177     19.0889
  1011.1000      8.5500      2.3250      0.1436     19.6953    127.2455     20.8393
  1011.2000      8.5500      2.4327      0.2038     13.1676    134.8801     22.9382
  1011.3000      8.1996      2.5144      0.1971      8.2208    142.7636     24.7945
  1011.4000      8.1996      2.5484      0.1111      6.1573    147.7825     26.2110
  1011.5000      7.9995      2.5654      0.0795      5.1268    149.6506     27.4087
  1011.6000      7.9995      2.5795      0.1156      4.2745    150.4532     28.3688
  1011.7000      7.9995      2.5699      0.1098      4.8571    150.7900     28.8544
  1011.8000      7.9328      2.5396      0.0070      6.6889    150.3462     28.7800
  1011.9000      7.9328      2.5191      0.0224      7.9335    149.9171     28.3752
  1012.0000      7.9231      2.5205      0.0108      7.8510    151.3690     27.9751
  1012.1000      7.9231      2.5335      0.0276      7.0611    153.8491     27.6175
  1012.2000      7.9231      2.5405      0.0870      6.6363    154.1455     27.0268
  1012.3000      7.9174      2.5308      0.0550      7.2256    153.2400     26.1129
  1012.4000      7.9174      2.5138      0.0165      8.2545    154.9800     25.2974
  1012.5000      7.9115      2.5072     -0.0052      8.6537    159.0963     25.0139
  1012.6000      7.9115      2.5109      0.0743      8.4325    162.9074     25.2002
  1012.7000      7.9115      2.5121      0.0308      8.3597    165.4778     25.6328
  1012.8000      7.8703      2.5137      0.0112      8.2624    166.4209     26.0671
  1012.9000      7.8703      2.5213      0.0500      7.8019    166.9326     26.2703
  1013.0000      7.8414      2.5245      0.0781      7.6088    166.9041     26.2837
  1013.1000      7.8414      2.5150      0.0726      8.1812    163.8020     26.3988
  1013.2000      7.8414      2.5008      0.0531      9.0420    158.7629     26.6065
  1013.3000      7.8077      2.4956      0.0387      9.3562    155.5974     26.7345
  1013.4000      7.8077      2.5089      0.0052      8.5532    154.9301     26.6946
  1013.5000      7.7810      2.5324      0.0481      7.1255    155.2790     26.4250
  1013.6000      7.7810      2.5422      0.0958      6.5345    155.5271     26.2558
  1013.7000      7.7810      2.5387      0.0286      6.7445    154.7390     26.4048
  1013.8000      7.7773      2.5513      0.0372      5.9798    153.7106     26.6182
  1013.9000      7.7773      2.5788      0.1416      4.3135    154.1082     26.6476
  1014.0000      7.7942      2.5908      0.0739      3.5873    156.8999     26.6069
  1014.1000      7.7942      2.5844      0.0540      3.9753    158.7993     26.7524
  1014.2000      7.7942      2.5743      0.0523      4.5866    155.4718     27.0792
  1014.3000      7.8247      2.5684      0.0598      4.9467    149.2575     27.3738
  1014.4000      7.8247      2.5703      0.0552      4.8322    145.3990     27.3729
  1014.5000      7.8924      2.5746      0.0682      4.5672    145.0971     27.1141
  1014.6000      7.8924      2.5705      0.0882      4.8199    145.9270     26.9549
  1014.7000      7.8924      2.5541      0.1180      5.8140    146.3708     27.1038
  1014.8000      7.9102      2.5338      0.0497      7.0421    145.8625     27.3739
  1014.9000      7.9102      2.5179      0.0566      8.0044    143.9072     27.5206
  1015.0000      7.9143      2.5060      0.0296      8.7293    142.0748     27.5803
  1015.1000      7.9143      2.5001     -0.0325      9.0860    141.0756     27.6771
  1015.2000      7.9143      2.5047      0.0383      8.8081    139.9459     27.8274
  1015.3000      7.9457      2.5219     -0.0106      7.7640    138.3054     27.8915
  1015.4000      7.9457      2.5510      0.0520      5.9970    137.4964     27.7313
  1015.5000      7.9526      2.5827      0.0622      4.0777    137.7012     27.4670
  1015.6000      7.9526      2.6104      0.0866      2.4013    138.1770     27.1901
  1015.7000      7.9526      2.6292      0.1158      1.2634    140.1065     26.8757
  1015.8000      7.9107      2.6305      0.1098      1.1826    143.5804     26.5929
  1015.9000      7.9107      2.6119      0.1351      2.3095    146.5805     26.4194
  1016.0000      7.8746      2.5817      0.0896      4.1383    148.3585     26.2263
  1016.1000      7.8746      2.5617      0.0245      5.3520    149.2862     25.8184
  1016.2000      7.8746      2.5696      0.0637      4.8753    149.0555     25.3746
  1016.3000      7.8884      2.5984      0.0617      3.1284    149.6989     25.2344
  1016.4000      7.8884      2.6307      0.0935      1.1723    153.2151     25.4327
  1016.5000      7.8996      2.6546      0.1320     -0.2758    155.7459     25.7971
  1016.6000      7.8996      2.6632      0.1105     -0.8018    155.0638     26.1829
  1016.7000      7.8996      2.6547      0.0754     -0.2864    154.6472     26.5573
  1016.8000      7.9050      2.6330      0.0578      1.0275    154.5128     26.9069
  1016.9000      7.9050      2.6022      0.0595      2.8987    150.4008     27.2048
  1017.0000      7.8872      2.5722      0.0077      4.7157    142.5494     27.4348
  1017.1000      7.8872      2.5631      0.0006      5.2678    137.6171     27.5374
  1017.2000      7.8872      2.5767      0.0454      4.4424    138.8714     27.4665
  1017.3000      7.8766      2.5905      0.0361      3.6059    141.5865     27.3439
  1017.4000      7.8766      2.5970      0.0141      3.2118    141.0043     27.2712
  1017.5000      7.8906      2.6106      0.0095      2.3864    137.7194     27.1397
