~Version Information
VERS.                      2.0: CWLS Log ASCII Standard - VERSION 2.0
WRAP.                       NO: One line per depth step
~Well Information Block
STRT.FT               525.0000: 
STOP.FT              2377.2000: 
STEP.FT                 0.1000: 
NULL.                -999.2500: 
COMP.          Pioneer Natural Resources: COMPANY
WELL.          Sparrowhawk 22-12: WELL
FLD.           Purgatoire River: FIELD
LOC.           2049' FNL & 2060' FWL--: LOCATION
CNTY.               Las Animas: COUNTY
SRVC.                Patterson: SERVICE COMPANY
DATE.          Thu Mar 23 13:24:48 2006: LOG DATE
UWI.           05 071 08484 00: UNIQUE WELL ID
STAT.                 Colorado: STATE
~Curve Information Block
DEPT.FT            0 000 00 00: Depth
DCAL.in                       : CDL Caliper
RHOB.g/cc                     : CDL Bulk Density
RHOC.g/cc                     : CDL Density Correction
DPOR.pu                       : CDL Density Porosity
NPOR.pu                       : Neutron Porosity
GR.GAPI                       : Gamma Ray
~Parameter Information Block
~A  Depth       DCAL        RHOB        RHOC        DPOR        NPOR         GR     
# ...
  1494.6000      8.5802      1.2724     -0.0011     83.4922     34.7313     27.6771
  1494.7000      8.5802      1.2777      0.0108     83.1711     34.7048     28.9682
  1494.8000      8.5301      1.2781      0.0120     83.1480     34.1780     30.4834
  1494.9000      8.5301      1.2768      0.0238     83.2242     33.6269     30.5391
  1495.0000      8.5838      1.2832      0.0046     82.8337     33.5371     31.3168
  1495.1000      8.5838      1.3090      0.0057     81.2757     33.8309     33.2050
  1495.2000      8.5838      1.3569      0.0474     78.3686     33.9750     34.9847
  1495.3000      8.7802      1.4245      0.0346     74.2756     33.6868     38.9690
  1495.4000      8.7802      1.5182      0.0769     68.5940     33.2785     48.8866
  1495.5000      8.9207      1.6377      0.1260     61.3525     33.2241     62.0873
  1495.6000      8.9207      1.7575      0.2037     54.0905     33.5046     70.1593
  1495.7000      8.9207      1.8552      0.2173     48.1710     33.6906     70.9864
  1495.8000      8.7990      1.9430      0.1877     42.8485     33.7930     71.8865
  1495.9000      8.7990      2.0385      0.2282     37.0588     34.1205     76.2308
  1496.0000      8.5638      2.1235      0.2739     31.9083     34.2688     81.1727
  1496.1000      8.5638      2.1819      0.1917     28.3714     33.7080     87.5189
  1496.2000      8.5638      2.2385      0.1188     24.9368     32.9471     96.1027
  1496.3000      8.3996      2.3092      0.1626     20.6542     32.7460    102.9798
  1496.4000      8.3996      2.3702      0.1506     16.9579     33.0471    103.7302
  1496.5000      8.3441      2.4054      0.1149     14.8250     33.2458     99.6562
  1496.6000      8.3441      2.4229      0.1577     13.7640     33.0447     98.2222
  1496.7000      8.3441      2.4268      0.1947     13.5248     32.4914     99.0990
  1496.8000      8.3657      2.4202      0.1859     13.9248     31.8329     94.7990
  1496.9000      8.3657      2.4120      0.2128     14.4216     31.6259     87.8168
  1497.0000      8.4190      2.4030      0.1754     14.9697     31.9949     84.8864
  1497.1000      8.4190      2.3915      0.1522     15.6681     32.5235     87.8125
  1497.2000      8.4190      2.3789      0.1520     16.4309     32.7738     95.3846
  1497.3000      8.4314      2.3765      0.0677     16.5753     32.4168    103.9156
  1497.4000      8.4314      2.3992      0.1189     15.1978     31.4496    109.8040
  1497.5000      8.3672      2.4374      0.1770     12.8849     30.2391    110.6608
  1497.6000      8.3672      2.4689      0.1969     10.9750     29.4084    108.3419
  1497.7000      8.3672      2.4898      0.1761      9.7083     29.4132    106.3063
  1497.8000      8.3020      2.5134      0.1768      8.2773     29.8708    102.7909
  1497.9000      8.3020      2.5461      0.2163      6.2989     30.0225     97.7088
  1498.0000      8.2767      2.5764      0.2125      4.4636     29.7778     96.6391
  1498.1000      8.2767      2.5912      0.2031      3.5616     29.5715    101.1648
  1498.2000      8.2767      2.5894      0.1644      3.6709     29.5344    106.2751
  1498.3000      8.2706      2.5859      0.0577      3.8837     29.4823    108.7496
  1498.4000      8.2706      2.6000      0.0685      3.0275     29.5551    108.2935
  1498.5000      8.2737      2.6286      0.1240      1.2993     29.8873    103.6934
  1498.6000      8.2737      2.6472      0.1010      0.1721     30.1914     98.6376
  1498.7000      8.2737      2.6363      0.1286      0.8296     30.3378     97.4515
  1498.8000      8.2878      2.6027      0.0382      2.8679     30.5458     97.4514
  1498.9000      8.2878      2.5720      0.0618      4.7287     30.8301     96.8458
  1499.0000      8.3038      2.5457      0.1024      6.3213     30.9747     96.9971
  1499.1000      8.3038      2.5099      0.0364      8.4901     31.1095     97.5026
  1499.2000      8.3038      2.4752     -0.0042     10.5931     31.4449     98.0109
  1499.3000      8.3083      2.4449      0.0724     12.4299     31.7749    100.1448
  1499.4000      8.3083      2.3982     -0.0022     15.2610     31.8838    102.8109
  1499.5000      8.3067      2.3304     -0.0040     19.3671     31.8468    103.5509
  1499.6000      8.3067      2.2583     -0.0370     23.7421     31.8674    104.6239
  1499.7000      8.3067      2.2064     -0.0154     26.8858     32.0253    109.0402
  1499.8000      8.3029      2.1894      0.0303     27.9142     32.0501    114.6545
  1499.9000      8.3029      2.2016      0.0544     27.1751     31.7689    117.4822
  1500.0000      8.3122      2.2358      0.0634     25.1006     31.4112    117.3515
  1500.1000      8.3122      2.2908      0.1044     21.7687     31.2200    118.0426
  1500.2000      8.3122      2.3608      0.1860     17.5288     31.1719    117.9424
  1500.3000      8.3411      2.4356      0.2920     12.9923     31.0152    112.3986
  1500.4000      8.3411      2.5032      0.3690      8.8992     30.6731    105.0316
  1500.5000      8.3452      2.5502      0.4165      6.0514     30.3812    102.0448
  1500.6000      8.3452      2.5704      0.4063      4.8269     30.1901    103.0870
  1500.7000      8.3452      2.5764      0.3054      4.4588     29.7810    106.3759
  1500.8000      8.2914      2.5862      0.2812      3.8640     29.1057    110.8475
  1500.9000      8.2914      2.5954      0.2546      3.3115     28.5049    114.1555
  1501.0000      8.2299      2.5893      0.1909      3.6763     28.2220    114.9307
  1501.1000      8.2299      2.5683      0.1508      4.9502     28.1717    113.1457
  1501.2000      8.2299      2.5453      0.0766      6.3458     28.2230    109.7390
  1501.3000      8.2045      2.5256      0.0756      7.5384     28.3446    105.9955
  1501.4000      8.2045      2.4983      0.0932      9.1931     28.5732    104.1898
  1501.5000      8.2001      2.4677      0.0041     11.0488     28.9552    105.2218
  1501.6000      8.2001      2.4584      0.0078     11.6138     29.0971    107.1077
  1501.7000      8.2001      2.4689      0.0525     10.9758     28.6578    108.2483
  1501.8000      8.1984      2.4809      0.0182     10.2493     28.0578    110.5745
  1501.9000      8.1984      2.4977      0.0237      9.2296     27.8549    113.2673
  1502.0000      8.1974      2.5187      0.0983      7.9575     28.0049    114.2214
  1502.1000      8.1974      2.5317      0.0920      7.1692     28.0150    116.5332
  1502.2000      8.1974      2.5438      0.0637      6.4375     27.7503    121.7658
  1502.3000      8.1987      2.5575      0.1324      5.6067     27.6935    125.1175
  1502.4000      8.1987      2.5566      0.0935      5.6624     28.0901    121.1183
  1502.5000      8.1991      2.5399      0.0935      6.6740     28.5509    112.9693
  1502.6000      8.1991      2.5260      0.0624      7.5165     28.7708    109.6836
  1502.7000      8.1991      2.5307      0.0843      7.2313     28.9134    113.5450
  1502.8000      8.1987      2.5503      0.0777      6.0451     29.0560    118.3498
  1502.9000      8.1987      2.5626      0.0987      5.2968     29.1931    120.8333
  1503.0000      8.1989      2.5521      0.0683      5.9328     29.2329    124.9821
  1503.1000      8.1989      2.5340      0.0411      7.0320     28.9027    129.8404
  1503.2000      8.1989      2.5288      0.0307      7.3453     28.3280    131.3712
  1503.3000      8.1990      2.5249      0.0848      7.5822     28.0598    131.1995
  1503.4000      8.1990      2.5076      0.0338      8.6292     28.1537    129.8015
  1503.5000      8.1988      2.4950      0.0207      9.3962     28.4150    126.1392
  1503.6000      8.1988      2.5048      0.0426      8.7996     29.0230    123.1088
  1503.7000      8.1988      2.5240      0.0775      7.6372     29.9447    119.8599
  1503.8000      8.1992      2.5275      0.0635      7.4225     30.6869    113.8674
  1503.9000      8.1992      2.5059      0.0642      8.7317     30.9564    110.4002
  1504.0000      8.1994      2.4698      0.0495     10.9219     30.7433    112.4302
  1504.1000      8.1994      2.4334      0.0405     13.1261     30.2907    114.3864
