~Version Information
VERS.                      2.0: CWLS Log ASCII Standard - VERSION 2.0
WRAP.                       NO: One line per depth step
~Well Information Block
STRT.FT               340.0000: 
STOP.FT              2342.7000: 
STEP.FT                 0.1000: 
NULL.                -999.2500: 
COMP.          Pioneer Natural Resources: COMPANY
WELL.          Pinkerton 41-12: WELL
FLD.           Purgatoire River: FIELD
LOC.           1222' FNL & 670' FEL--: LOCATION
CNTY.               Las Animas: COUNTY
SRVC.                Patterson: SERVICE COMPANY
DATE.          Thu Mar 16 06:39:17 2006: LOG DATE
UWI.           05 071 08500 00: UNIQUE WELL ID
STAT.                 Colorado: STATE
~Curve Information Block
DEPT.FT            0 000 00 00: Depth
DCAL.in                       : CDL Caliper
RHOB.g/cc                     : CDL Bulk Density
RHOC.g/cc                     : CDL Density Correction
DPOR.pu                       : CDL Density Porosity
NPOR.pu                       : Neutron Porosity
GR.GAPI                       : Gamma Ray
~Parameter Information Block
~A  Depth       DCAL        RHOB        RHOC        DPOR        NPOR         GR     
# ...
   733.6000      8.0766      2.5655      0.0157      5.1220     20.9807     76.1372
   733.7000      8.0766      2.5579      0.0050      5.5841     21.4063     75.1450
   733.8000      8.0745      2.5535      0.0175      5.8477     21.6467     76.0134
   733.9000      8.0745      2.5611      0.0259      5.3906     21.7226     78.8221
   734.0000      8.0728      2.5790      0.0193      4.3047     21.9643     80.4668
   734.1000      8.0728      2.5961      0.0320      3.2696     22.3439     78.3722
   734.2000      8.0728      2.5960      0.0402      3.2746     22.7586     79.1822
   734.3000      8.0742      2.5787      0.0012      4.3218     23.2536     86.6518
   734.4000      8.0742      2.5649     -0.0361      5.1589     23.7025     92.6800
   734.5000      8.0769      2.5740     -0.0037      4.6063     24.1067     92.1524
   734.6000      8.0769      2.6092     -0.0060      2.4709     24.6584     90.6522
   734.7000      8.0769      2.6495      0.0792      0.0309     25.2116     92.2447
   734.8000      8.0780      2.6632      0.0224     -0.7998     25.4901     94.3099
   734.9000      8.0780      2.6470      0.0329      0.1805     25.6866     95.2897
   735.0000      8.0771      2.6232     -0.0036      1.6249     26.1246     93.5706
   735.1000      8.0771      2.6106      0.0251      2.3857     26.8523     88.1272
   735.2000      8.0771      2.6152      0.0359      2.1099     27.8291     82.3859
   735.3000      8.0752      2.6348      0.0365      0.9234     28.6933     83.7809
   735.4000      8.0752      2.6509      0.0718     -0.0529     28.9337     94.4293
   735.5000      8.0747      2.6366      0.0434      0.8135     28.6629    106.7094
   735.6000      8.0747      2.5968      0.0182      3.2261     28.4582    113.2421
   735.7000      8.0747      2.5527      0.0098      5.8973     28.4500    116.9716
   735.8000      8.0766      2.5065      0.0012      8.6999     28.2010    123.9363
   735.9000      8.0766      2.4675     -0.0440     11.0591     27.6784    129.3272
   736.0000      8.0826      2.4643      0.0039     11.2539     27.1028    126.8779
   736.1000      8.0826      2.4998      0.0246      9.1030     26.6147    122.8378
   736.2000      8.0826      2.5414      0.0554      6.5789     26.4129    124.7573
   736.3000      8.0940      2.5578      0.0956      5.5863     26.3119    131.2050
   736.4000      8.0940      2.5450      0.0373      6.3657     26.0936    139.1971
   736.5000      8.1052      2.5215      0.0403      7.7864     25.9788    147.1527
   736.6000      8.1052      2.5095      0.0311      8.5177     26.0646    147.8513
   736.7000      8.1052      2.5163      0.0762      8.1054     26.1834    139.1915
   736.8000      8.1060      2.5314      0.0730      7.1888     26.1265    132.5497
   736.9000      8.1060      2.5483      0.0827      6.1634     25.5727    135.2399
   737.0000      8.0951      2.5641      0.1542      5.2032     24.5456    139.9184
   737.1000      8.0951      2.5721      0.1343      4.7241     23.7281    138.9808
   737.2000      8.0951      2.5734      0.1055      4.6430     23.5538    137.1410
   737.3000      8.0836      2.5740      0.0642      4.6059     23.7558    137.7319
   737.4000      8.0836      2.5710      0.1114      4.7871     23.8924    134.7222
   737.5000      8.0743      2.5655      0.0162      5.1217     24.0287    127.6502
   737.6000      8.0743      2.5720      0.0392      4.7278     24.3080    124.7159
   737.7000      8.0743      2.5879      0.0808      3.7633     24.4433    128.1977
   737.8000      8.0723      2.5940      0.0673      3.3949     24.2099    130.5214
   737.9000      8.0723      2.5874      0.0542      3.7934     23.9098    126.3076
   738.0000      8.0761      2.5810      0.0587      4.1817     24.0048    119.8172
   738.1000      8.0761      2.5803      0.0622      4.2248     24.3890    116.1719
   738.2000      8.0761      2.5813      0.0420      4.1614     24.7961    112.4457
   738.3000      8.0862      2.5831      0.0357      4.0538     25.2541    103.4408
   738.4000      8.0862      2.5833      0.0428      4.0450     25.6858     93.5683
   738.5000      8.1058      2.5800      0.0217      4.2443     25.8857     93.8808
   738.6000      8.1058      2.5851     -0.0118      3.9363     25.8468    102.4359
   738.7000      8.1058      2.6024      0.0191      2.8867     25.7653    107.9042
   738.8000      8.1178      2.6161      0.0603      2.0563     25.7844    109.4014
   738.9000      8.1178      2.6155      0.0399      2.0939     25.8698    113.9162
   739.0000      8.1060      2.5992      0.0989      3.0784     25.9015    120.2000
   739.1000      8.1060      2.5744      0.0165      4.5794     25.7805    122.0319
   739.2000      8.1060      2.5669      0.0228      5.0370     25.3283    118.7070
   739.3000      8.0847      2.5843      0.0993      3.9790     24.6890    114.1144
   739.4000      8.0847      2.5986      0.1331      3.1171     24.4065    109.9652
   739.5000      8.0782      2.5984      0.0327      3.1264     24.6019    105.8030
   739.6000      8.0782      2.5974      0.0993      3.1906     24.7832    104.3428
   739.7000      8.0782      2.5935      0.0766      3.4232     24.5444    107.5466
   739.8000      8.0794      2.5842      0.0475      3.9886     24.2146    111.9043
   739.9000      8.0794      2.5788      0.0422      4.3177     24.2573    113.7480
   740.0000      8.0766      2.5775      0.0657      4.3960     24.6209    111.8678
   740.1000      8.0766      2.5749      0.0117      4.5496     24.9920    107.2247
   740.2000      8.0766      2.5742      0.0194      4.5938     25.0786    102.0875
   740.3000      8.0710      2.5769      0.0517      4.4280     24.7992     99.9882
   740.4000      8.0710      2.5772      0.0484      4.4149     24.3574    101.9126
   740.5000      8.0687      2.5768      0.0185      4.4364     23.9078    105.7057
   740.6000      8.0687      2.5857      0.0431      3.8944     23.5944    111.4050
   740.7000      8.0687      2.6028      0.0306      2.8583     23.6172    118.9272
   740.8000      8.0720      2.6149      0.0902      2.1263     23.7477    120.7907
   740.9000      8.0720      2.6127      0.0462      2.2627     23.5785    113.2083
   741.0000      8.0744      2.6054      0.0588      2.7024     23.2837    103.2799
   741.1000      8.0744      2.6109      0.0383      2.3703     23.3798     96.5198
   741.2000      8.0744      2.6303      0.0588      1.1946     23.9637     93.3065
   741.3000      8.0744      2.6478      0.0502      0.1350     24.5742     91.0591
   741.4000      8.0744      2.6518      0.0491     -0.1077     24.7797     87.4449
   741.5000      8.0739      2.6440      0.0008      0.3635     24.8546     84.7841
   741.6000      8.0739      2.6342      0.0393      0.9553     25.5208     85.1561
   741.7000      8.0739      2.6289      0.0386      1.2797     26.6924     86.4219
   741.8000      8.0711      2.6209      0.0700      1.7608     27.4691     87.5459
   741.9000      8.0711      2.6062     -0.0257      2.6516     27.3885     90.3131
   742.0000      8.0681      2.5947      0.0002      3.3542     26.8934     95.3455
   742.1000      8.0681      2.5850      0.0084      3.9418     26.7102     99.2754
   742.2000      8.0681      2.5710      0.0081      4.7893     26.7528     98.1841
   742.3000      8.0783      2.5565     -0.0008      5.6664     26.5434     95.1619
   742.4000      8.0783      2.5494     -0.0230      6.0943     26.0638     95.3301
   742.5000      8.1038      2.5481     -0.0080      6.1748     25.4385     98.2913
   742.6000      8.1038      2.5402      0.0078      6.6558     24.7828    100.0891
   742.7000      8.1038      2.5200     -0.0185      7.8802     24.4869    100.0330
   742.8000      8.1324      2.4987     -0.0351      9.1667     24.5717    102.8768
   742.9000      8.1324      2.4956     -0.0313      9.3553     24.4825    107.4005
   743.0000      8.1587      2.5114      0.0179      8.3997     24.1757    107.1955
   743.1000      8.1587      2.5322     -0.0078      7.1397     24.0662    102.1990
