~Version Information
VERS.                      2.0: CWLS Log ASCII Standard - VERSION 2.0
WRAP.                       NO: One line per depth step
~Well Information Block
STRT.FT                -8.0000: 
STOP.FT              1060.7500: 
STEP.FT                 0.2500: 
NULL.                -999.2500: 
COMP.          Pioneer Natural Resources: COMPANY
WELL.          Pavillion 44-25: WELL
FLD.           Purgatorie River: FIELD
LOC.           719' FSL & 650' FEL--: LOCATION
PROV.                       CO: PROVINCE
CNTY.               Las Animas: COUNTRY
SRVC.          Patterson Wireline: SERVICE COMPANY
DATE.          Mon Dec 19 11:59:26 2005: LOG DATE
UWI.           05 071 08624 00: UNIQUE WELL ID
~Curve Information Block
DEPT.FT            0 000 00 00: Depth
CCL.                          : Casing Collar Locator
TT3.usec                      : CBL 3' Travel Time
AMP3.mV                       : CBL 3' Amplitude
GR.GAPI                       : Gamma Ray
~Parameter Information Block
~A  Depth       CCL         TT3         AMP3         GR     
# ...
   628.5000      0.0000    763.6022      7.9981    115.9573
   628.7500      0.0000    754.4993      7.7997    121.1573
   629.0000      0.0000    749.0103      7.6317    123.9239
   629.2500      0.0000    745.7668      7.4993    125.9724
   629.5000      0.0000    743.2075      7.3987    128.1962
   629.7500      0.0000    739.6798      7.3229    130.6503
   630.0000      0.0000    733.8090      7.2675    133.2106
   630.2500      0.0000    725.8095      7.2300    135.6239
   630.5000      0.0000    716.7831      7.2055    136.9753
   630.7500      0.0000    706.1339      7.1849    135.9507
   631.0000      0.0000    692.1425      7.1577    131.9647
   631.2500      0.0000    676.1852      7.1183    125.5940
   631.5000      0.0000    664.0839      7.0683    117.9736
   631.7500      0.0000    661.2640      7.0106    110.3392
   632.0000      0.0000    667.1738      6.9459    103.9385
   632.2500      0.0000    675.9417      6.8766     99.8356
   632.5000      0.0000    682.1537      6.8136     98.8316
   632.7500      0.0000    684.7057      6.7747    101.4776
   633.0000      0.0000    685.8120      6.7770    107.6421
   633.2500      0.0000    688.5771      6.8261    116.0603
   633.5000      0.0000    695.8010      6.9105    124.8321
   633.7500      0.0000    708.8879      7.0075    132.4732
   634.0000      0.0000    725.7618      7.0980    138.2765
   634.2500      0.0000    740.1271      7.1760    142.0365
   634.5000      0.0000    744.9413      7.2443    143.9432
   634.7500      0.0000    738.0329      7.3013    144.5587
   635.0000      0.0000    724.0180      7.3335    144.4548
   635.2500      0.0000    709.9963      7.3207    143.5937
   635.5000      0.0000    699.1280      7.2519    141.0160
   635.7500      0.0000    687.9391      7.1421    135.4643
   636.0000      0.0000    669.7058      7.0336    126.8923
   636.2500      0.0000    641.3503      6.9718    117.3821
   636.5000      0.0000    607.7039      6.9720    110.0676
   636.7500      0.0000    578.6713      7.0106    106.8893
   637.0000      0.0000    562.0803      7.0501    107.5619
   637.2500      0.0000    559.6919      7.0700    110.4303
   637.5000      0.0000    569.3718      7.0743    113.5809
   637.7500      0.0000    589.0044      7.0764    115.2439
   638.0000      0.0000    616.9405      7.0813    114.4855
   638.2500      0.0000    649.3849      7.0816    112.3449
   638.5000      0.0000    679.2299      7.0681    111.4476
   638.7500      0.0000    698.7706      7.0432    113.5395
   639.0000      0.0000    704.5631      7.0237    117.6491
   639.2500      0.0000    700.5338      7.0266    121.2771
   639.5000      0.0000    696.1441      7.0554    123.3451
   639.7500      0.0000    699.8472      7.0986    125.3519
   640.0000      0.0000    712.7999      7.1415    129.2488
   640.2500      0.0000    728.6482      7.1743    134.4786
   640.5000      0.0000    739.3060      7.1930    137.8425
   640.7500      0.0000    740.8321      7.1979    136.6193
   641.0000      0.0000    734.9320      7.1944    131.4455
   641.2500      0.0000    726.6160      7.1932    125.6553
   641.5000      0.0000    720.7676      7.2069    122.1628
   641.7500      0.0000    720.1578      7.2418    121.6427
   642.0000      0.0000    725.5940      7.2921    123.3795
   642.2500      0.0000    736.3343      7.3394    126.6620
   642.5000      0.0000    749.6968      7.3657    130.8649
   642.7500      0.0000    761.3321      7.3673    134.9890
   643.0000      0.0000    766.8940      7.3545    137.9998
   643.2500      0.0000    763.9307      7.3376    139.4622
   643.5000      0.0000    753.7440      7.3184    139.3734
   643.7500      0.0000    742.3915      7.2961    137.7616
   644.0000      0.0000    738.0099      7.2727    134.9290
   644.2500      0.0000    744.7173      7.2489    131.7096
   644.5000      0.0000    758.7799      7.2162    128.9485
   644.7500      0.0000    771.3104      7.1531    126.9658
   645.0000      0.0000    774.6312      7.0287    125.8320
   645.2500      0.0000    766.2640      6.8134    125.6550
   645.5000      0.0000    748.4370      6.5047    126.0608
   645.7500      0.0000    725.8922      6.1559    125.6823
   646.0000      0.0000    704.8505      5.8645    122.6852
   646.2500      0.0000    692.4445      5.7038    115.9015
   646.5000      0.0000    693.9253      5.6668    105.4858
   646.7500      0.0000    707.8544      5.7000     92.7431
   647.0000      0.0000    723.4885      5.7684     79.5179
   647.2500      0.0000    725.0974      5.8606     67.6546
   647.5000      2.0000    703.6206      5.9551     58.6593
   647.7500      0.0000    667.4156      6.0173     53.4260
   648.0000      0.0000    639.8615      6.0176     51.9490
   648.2500      0.0000    642.0671      5.9509     53.2823
   648.5000      0.0000    675.7701      5.8543     55.8817
   648.7500      0.0000    722.9949      5.7993     58.2185
   649.0000      0.0000    760.9687      5.8375     59.4397
   649.2500      0.0000    776.7197      5.9617     59.7906
   649.5000      0.0000    771.0424      6.1468     60.4834
   649.7500      0.0000    753.4813      6.3956     62.9162
   650.0000      0.0000    734.3452      6.7075     67.7073
   650.2500      0.0000    718.2365      7.0348     74.4045
   650.5000      0.0000    702.2404      7.3070     82.0951
   650.7500      0.0000    680.8231      7.4821     90.0258
   651.0000      0.0000    654.2020      7.5573     97.5722
   651.2500      0.0000    630.8836      7.5546    104.2278
   651.5000      0.0000    619.4354      7.5134    110.1502
   651.7500      0.0000    618.2101      7.4853    116.3974
   652.0000      0.0000    615.9564      7.5135    124.0581
   652.2500      0.0000    602.5670      7.6102    132.9802
   652.5000      0.0000    577.3832      7.7537    141.3345
   652.7500      0.0000    547.7319      7.9150    146.5467
   653.0000      0.0000    521.0301      8.0882    147.0513
   653.2500      0.0000    498.1440      8.2943    143.5270
   653.5000      0.0000    474.4752      8.5595    138.3457
   653.7500      0.0000    447.3611      8.8923    133.7021
   654.0000      0.0000    420.0287      9.2770    130.4888
   654.2500      0.0000    397.4519      9.6818    128.8785
   654.5000      0.0000    381.0568     10.0681    129.0872
   654.7500      0.0000    368.9317     10.4007    130.8258
   655.0000      0.0000    359.2741     10.6548    132.4250
   655.2500      0.0000    351.9926     10.8173    131.5649
   655.5000      0.0000    348.0451     10.8836    127.2315
   655.7500      0.0000    348.9478     10.8550    120.6881
   656.0000      0.0000    357.4152     10.7385    114.7362
   656.2500      0.0000    377.2838     10.5479    112.4124
   656.5000      0.0000    410.4519     10.3002    115.7265
   656.7500      0.0000    452.6037     10.0092    124.4464
   657.0000      0.0000    493.2024      9.6801    135.8464
   657.2500      0.0000    521.3068      9.3160    146.1802
   657.5000      0.0000    531.2269      8.9309    152.6933
   657.7500      0.0000    523.9509      8.5536    154.3161
   658.0000      0.0000    507.0497      8.2134    151.1540
   658.2500      0.0000    493.8546      7.9241    144.2789
   658.5000      0.0000    498.6270      7.6834    135.8781
   658.7500      0.0000    528.8392      7.4831    128.6511
   659.0000      0.0000    580.1097      7.3170    124.4577
   659.2500      0.0000    637.5532      7.1800    123.3647
   659.5000      0.0000    683.6060      7.0663    123.9024
   659.7500      0.0000    707.5951      6.9688    124.3231
   660.0000      0.0000    709.8365      6.8817    123.8899
   660.2500      0.0000    698.0331      6.8027    123.2333
   660.5000      0.0000    680.9556      6.7307    123.5098
   660.7500      0.0000    664.5456      6.6636    125.0864
   661.0000      0.0000    650.9758      6.5989    127.0266
   661.2500      0.0000    638.9710      6.5369    127.8830
   661.5000      0.0000    624.9008      6.4818    126.8359
   661.7500      0.0000    605.1929      6.4357    123.9914
