~Version Information
VERS.                      2.0: CWLS Log ASCII Standard - VERSION 2.0
WRAP.                       NO: One line per depth step
~Well Information Block
STRT.FT                -8.2500: 
STOP.FT               686.7500: 
STEP.FT                 0.2500: 
NULL.                -999.2500: 
COMP.          Pioneer Natural Resources: COMPANY
WELL.           Quintessa 23-7: WELL
FLD.           Purgatorie River: FIELD
LOC.           1964' FSL & 2589' FWL--: LOCATION
PROV.                       CO: PROVINCE
CNTY.               Las Animas: COUNTRY
SRVC.          Patterson Wireline: SERVICE COMPANY
DATE.          Wed Nov 23 10:31:07 2005: LOG DATE
UWI.           05 071 08558 00: UNIQUE WELL ID
~Curve Information Block
DEPT.FT            0 000 00 00: Depth
CCL.                          : Casing Collar Locator
TT3.usec                      : CBL 3' Travel Time
AMP3.mV                       : CBL 3' Amplitude
GR.GAPI                       : Gamma Ray
~Parameter Information Block
~A  Depth       CCL         TT3         AMP3         GR     
# ...
   226.2500      0.0000    467.8013     19.0702    111.1850
   226.5000      0.0000    405.0477     19.2788    111.9006
   226.7500      0.0000    363.2254     19.3177    111.9692
   227.0000      0.0000    340.4069     19.2346    110.8863
   227.2500      0.0000    330.4726     19.1020    108.7729
   227.5000      0.0000    327.0964     18.9713    106.7372
   227.7500      0.0000    326.4122     18.8636    105.8364
   228.0000      0.0000    326.9651     18.7873    105.7481
   228.2500      0.0000    328.4703     18.7484    105.1632
   228.5000      0.0000    330.7133     18.7437    103.5378
   228.7500      0.0000    332.8556     18.7582    101.8294
   229.0000      0.0000    333.6968     18.7743    101.3279
   229.2500      0.0000    332.6529     18.7766    102.2281
   229.5000      0.0000    330.3625     18.7486    103.7311
   229.7500      0.0000    328.0763     18.6776    105.2147
   230.0000      0.0000    326.6042     18.5710    106.6071
   230.2500      0.0000    325.9754     18.4657    107.5684
   230.5000      0.0000    325.8214     18.4162    107.3034
   230.7500      0.0000    325.8037     18.4686    105.8027
   231.0000      0.0000    325.7552     18.6356    104.5596
   231.2500      0.0000    325.6354     18.8855    105.2187
   231.5000      0.0000    325.4541     19.1557    107.7031
   231.7500      0.0000    325.2182     19.3897    110.1002
   232.0000      0.0000    324.9290     19.5702    110.3028
   232.2500      0.0000    324.6021     19.7193    107.5995
   232.5000      0.0000    324.2775     19.8692    102.7893
   232.7500      0.0000    324.0003     20.0385     97.0930
   233.0000      0.0000    323.7924     20.2324     91.2228
   233.2500      0.0000    323.6452     20.4519     85.4660
   233.5000      0.0000    323.5363     20.6951     80.3039
   233.7500      0.0000    323.4471     20.9516     76.5563
   234.0000      0.0000    323.3703     21.1979     74.9019
   234.2500      0.0000    323.3087     21.3986     75.4408
   234.5000      0.0000    323.2703     21.5193     77.6857
   234.7500      0.0000    323.2597     21.5465     80.8715
   235.0000      0.0000    323.2746     21.4978     84.4111
   235.2500      0.0000    323.3069     21.4135     88.3106
   235.5000      0.0000    323.3468     21.3384     93.0266
   235.7500      0.0000    323.3847     21.3083     98.5587
   236.0000      0.0000    323.4123     21.3396    103.7579
   236.2500      0.0000    323.4257     21.4238    106.9161
   236.5000      0.0000    323.4311     21.5344    107.0030
   236.7500      0.0000    323.4517     21.6428    104.1726
   237.0000      0.0000    323.5196     21.7318     99.3707
   237.2500      0.0000    323.6419     21.7989     93.8904
   237.5000      0.0000    323.7665     21.8519     89.2415
   237.7500      0.0000    323.8041     21.9033     86.9079
   238.0000      0.0000    323.7096     21.9617     87.6852
   238.2500      0.0000    323.5290     22.0275     91.0649
   238.5000      0.0000    323.3521     22.0924     95.4560
   238.7500      0.0000    323.2379     22.1406     99.1911
   239.0000      0.0000    323.1982     22.1457    101.2085
   239.2500      0.0000    323.2323     22.0717    100.9598
   239.5000      0.0000    323.3544     21.8895     98.3982
   239.7500      0.0000    323.6049     21.6007     94.4261
   240.0000      0.0000    324.1087     21.2473     90.7385
   240.2500      0.0000    325.3682     20.8963     88.5937
   240.5000      0.0000    329.1117     20.6066     87.8008
   240.7500      0.0000    339.8559     20.4021     87.0266
   241.0000      0.0000    366.2496     20.2654     84.7979
   241.2500      0.0000    419.5764     20.1529     80.3321
   241.5000      0.0000    506.6822     20.0161     74.1131
   241.7500      0.0000    619.7081     19.8187     67.8386
   242.0000      0.0000    731.9988     19.5459     63.2383
   242.2500      0.0000    809.9713     19.2053     60.6945
   242.5000      0.0000    836.8386     18.8070     59.3289
   242.7500      0.0000    827.0708     18.3394     58.4694
   243.0000      0.0000    814.8282     17.7726     58.5960
   243.2500      0.0000    827.5141     17.0884     60.7198
   243.5000      0.0000    871.1060     16.3001     65.2245
   243.7500      0.0000    934.4953     15.4624     71.3896
   244.0000      0.0000    999.8452     14.6822     77.5663
   244.2500      0.0000   1051.7133     14.0850     81.6874
   244.5000      0.0000   1084.7075     13.7332     82.2268
   244.7500      0.0000   1104.2792     13.5908     79.3415
   245.0000      2.0000   1117.8970     13.5856     75.0321
   245.2500      0.0000   1125.4019     13.6806     71.6632
   245.5000      0.0000   1116.9548     13.8924     70.1216
   245.7500      0.0000   1078.6697     14.2608     69.6295
   246.0000      0.0000   1004.2086     14.7935     69.3668
   246.2500      0.0000    908.7502     15.4165     69.8620
   246.5000      0.0000    830.0157     15.9964     72.6169
   246.7500      0.0000    803.4768     16.4463     78.7023
   247.0000      0.0000    829.9349     16.7851     87.7933
   247.2500      0.0000    872.7732     17.0706     98.1947
   247.5000      0.0000    891.3799     17.3233    107.6048
   247.7500      0.0000    874.0624     17.5360    114.1059
   248.0000      0.0000    838.0233     17.7059    116.9006
   248.2500      0.0000    805.4918     17.8330    116.4960
   248.5000      0.0000    786.1799     17.9116    114.2905
   248.7500      0.0000    778.0788     17.9389    111.6217
   249.0000      0.0000    776.0134     17.9227    108.7028
   249.2500      0.0000    776.6727     17.8764    104.5861
   249.5000      0.0000    778.6010     17.8121     98.5982
   249.7500      0.0000    780.7444     17.7358     91.4571
   250.0000      0.0000    781.9785     17.6515     84.5903
   250.2500      0.0000    781.6720     17.5687     79.0199
   250.5000      0.0000    779.9568     17.5015     75.3655
   250.7500      0.0000    777.1793     17.4609     74.1028
   251.0000      0.0000    773.7495     17.4507     75.0934
   251.2500      0.0000    770.8096     17.4769     77.3611
   251.5000      0.0000    770.1957     17.5531     79.9772
   251.7500      0.0000    772.9759     17.6911     82.9753
   252.0000      0.0000    778.2558     17.8832     87.0286
   252.2500      0.0000    783.8624     18.1016     92.5398
   252.5000      0.0000    788.0601     18.3143     99.3367
   252.7500      0.0000    790.4445     18.4952    106.7175
   253.0000      0.0000    791.5211     18.6200    113.3429
   253.2500      0.0000    791.8757     18.6605    117.5027
   253.5000      0.0000    791.7059     18.5938    118.0248
   253.7500      0.0000    790.7307     18.4185    114.9930
   254.0000      0.0000    788.3260     18.1662    109.6296
   254.2500      0.0000    784.0074     17.8942    103.7140
   254.5000      0.0000    778.2751     17.6627     98.9513
   254.7500      0.0000    773.0732     17.5119     96.3036
   255.0000      0.0000    770.9083     17.4509     95.7315
   255.2500      0.0000    772.9575     17.4563     96.7876
   255.5000      0.0000    777.9987     17.4799     99.2504
   255.7500      0.0000    783.0680     17.4808    102.8326
   256.0000      0.0000    784.7540     17.4593    106.6542
   256.2500      0.0000    779.5829     17.4561    109.5759
   256.5000      0.0000    764.6973     17.5152    110.7726
   256.7500      0.0000    741.2089     17.6511    109.5656
   257.0000      0.0000    717.8869     17.8449    105.3201
   257.2500      0.0000    707.8498     18.0630     98.2200
   257.5000      0.0000    717.6286     18.2763     89.7363
   257.7500      0.0000    740.6415     18.4727     81.6814
   258.0000      0.0000    763.3996     18.6574     74.9945
   258.2500      0.0000    775.6150     18.8411     69.7824
   258.5000      0.0000    772.0540     19.0257     66.1368
   258.7500      0.0000    748.3749     19.2027     64.3640
   259.0000      0.0000    701.6699     19.3642     64.5690
   259.2500      0.0000    638.7524     19.5089     66.4160
   259.5000      0.0000    581.6791     19.6337     69.2851
