~Version Information
VERS.                      2.0: CWLS Log ASCII Standard - VERSION 2.0
WRAP.                       NO: One line per depth step
~Well Information Block
STRT.FT               670.0000: 
STOP.FT              2110.0000: 
STEP.FT                 0.2500: 
NULL.                -999.2500: 
COMP.          Petrogulf Corporation: COMPANY
WELL.           Montoya 12-44R: WELL
FLD.           Purgatorie River: FIELD
LOC.           713' FSL & 798' FEL: LOCATION
PROV.                 Colorado: PROVINCE
CNTY.               Las Animas: COUNTRY
SRVC.                Patterson: SERVICE COMPANY
DATE.          Sun Oct 02 01:06:45 2005: LOG DATE
UWI.           05-071-08538               : UNIQUE WELL ID
~Curve Information Block
DEPT.FT            0 000 00 00: Depth
SP.mV                         : DIL Spontaneous Potential
RILD.Ohm-m                    : DIL Deep Resistivity
RILM.Ohm-m                    : DIL Medium Resistivity
RLL3.Ohm-m                    : DIL Shallow Resistivity
GR.GAPI                       : Gamma Ray
~Parameter Information Block
~A  Depth        SP         RILD        RILM        RLL3         GR     
# ...
  1790.0000    230.8554     10.0162      9.7871     12.4878    137.6793
  1790.2500    229.0955     10.2160      9.8938     12.4304    139.6374
  1790.5000    227.0687     10.4779     10.0559     12.3822    140.3369
  1790.7500    224.8487     10.8017     10.2851     12.3974    139.5949
  1791.0000    222.5397     11.1863     10.5949     12.5554    138.4032
  1791.2500    220.2405     11.6306     11.0008     12.9548    138.2684
  1791.5000    218.0084     12.1354     11.5200     13.6985    138.8795
  1791.7500    215.8478     12.7028     12.1715     14.8873    139.3423
  1792.0000    213.7299     13.3362     12.9757     16.6667    139.7395
  1792.2500    211.6271     14.0409     13.9533     19.3223    139.9450
  1792.5000    209.5412     14.8257     15.1241     23.2987    140.3677
  1792.7500    207.5138     15.7044     16.5049     28.9865    140.5087
  1793.0000    205.6181     16.6926     18.1065     36.2953    139.6851
  1793.2500    203.9341     17.8005     19.9309     44.3273    138.0536
  1793.5000    202.5215     19.0245     21.9680     51.5828    133.8005
  1793.7500    201.4027     20.3433     24.1925     56.7495    129.7616
  1794.0000    200.5680     21.7183     26.5606     59.5016    121.9644
  1794.2500    199.9931     23.0938     29.0043     60.6299    116.0442
  1794.5000    199.6546     24.3922     31.4221     61.4911    107.7207
  1794.7500    199.5365     25.5103     33.6672     63.3123    103.3531
  1795.0000    199.6282     26.3306     35.5408     66.7117     98.3566
  1795.2500    199.9199     26.7517     36.8064     71.4397     95.2403
  1795.5000    200.3966     26.7258     37.2437     76.3111     90.0513
  1795.7500    201.0333     26.2808     36.7330     79.3899     86.6931
  1796.0000    201.7914     25.5143     35.3263     78.5681     83.5485
  1796.2500    202.6166     24.5624     33.2471     72.5781     83.5099
  1796.5000    203.4376     23.5587     30.8104     61.9580     86.6867
  1796.7500    204.1720     22.6028     28.3181     49.0821     90.5449
  1797.0000    204.7414     21.7502     25.9904     36.9737     98.3326
  1797.2500    205.0955     21.0179     23.9509     27.7780    104.8134
  1797.5000    205.2346     20.3997     22.2459     22.0452    116.4566
  1797.7500    205.2149     19.8788     20.8728     19.1099    125.0974
  1798.0000    205.1311     19.4364     19.8042     17.9367    138.0032
  1798.2500    205.0846     19.0571     19.0034     17.7183    145.8879
  1798.5000    205.1560     18.7340     18.4334     18.0009    156.1071
  1798.7500    205.3899     18.4711     18.0618     18.5395    161.4590
  1799.0000    205.7945     18.2823     17.8624     19.1634    166.0985
  1799.2500    206.3484     18.1854     17.8152     19.7679    166.6272
  1799.5000    207.0114     18.1954     17.9067     20.3702    164.6676
  1799.7500    207.7355     18.3199     18.1280     21.1252    162.4398
  1800.0000    208.4748     18.5588     18.4735     22.2516    158.2210
  1800.2500    209.1921     18.9067     18.9395     23.8876    154.7209
  1800.5000    209.8612     19.3565     19.5222     25.9470    148.9715
  1800.7500    210.4638     19.9032     20.2165     28.1046    145.6306
  1801.0000    210.9821     20.5433     21.0148     29.9802    142.5735
  1801.2500    211.3902     21.2725     21.9055     31.4142    141.9500
  1801.5000    211.6527     22.0815     22.8730     32.6161    142.3442
  1801.7500    211.7320     22.9537     23.8973     34.0322    142.7818
  1802.0000    211.6022     23.8650     24.9549     35.9591    142.4349
  1802.2500    211.2623     24.7829     26.0219     38.1708    140.8675
  1802.5000    210.7485     25.6634     27.0765     39.9542    136.1715
  1802.7500    210.1354     26.4503     28.1011     40.6670    132.2265
  1803.0000    209.5219     27.0845     29.0803     40.4236    127.4583
  1803.2500    209.0035     27.5240     29.9950     40.3240    125.9007
  1803.5000    208.6464     27.7615     30.8140     41.9520    125.1995
  1803.7500    208.4768     27.8280     31.4881     46.3197    124.6489
  1804.0000    208.4855     27.7765     31.9528     52.8729    122.4068
  1804.2500    208.6419     27.6601     32.1429     59.4025    119.9097
  1804.5000    208.9068     27.5185     32.0157     63.2066    115.0094
  1804.7500    209.2411     27.3820     31.5736     62.6864    111.2593
  1805.0000    209.6088     27.2787     30.8733     58.0572    105.8616
  1805.2500    209.9752     27.2367     30.0143     50.8293    103.2301
  1805.5000    210.3031     27.2767     29.1155     42.8799    101.8132
  1805.7500    210.5545     27.4031     28.2896     35.8344    102.6588
  1806.0000    210.6990     27.6021     27.6258     30.7597    106.0607
  1806.2500    210.7237     27.8484     27.1833     28.0592    109.3557
  1806.5000    210.6329     28.1172     26.9926     27.6148    115.1721
  1806.7500    210.4391     28.3955     27.0604     29.0319    119.0484
  1807.0000    210.1549     28.6886     27.3763     31.7139    123.5149
  1807.2500    209.7909     29.0199     27.9202     34.8229    124.9615
  1807.5000    209.3557     29.4255     28.6705     37.4612    124.5715
  1807.7500    208.8504     29.9452     29.6109     39.1327    122.8945
  1808.0000    208.2626     30.6126     30.7358     40.0922    119.2273
  1808.2500    207.5646     31.4465     32.0499     41.2884    116.6743
  1808.5000    206.7235     32.4468     33.5635     44.0219    113.1992
  1808.7500    205.7204     33.5956     35.2824     49.4625    110.6231
  1809.0000    204.5710     34.8615     37.1960     57.9863    104.4176
  1809.2500    203.3315     36.2037     39.2657     68.5934     97.6976
  1809.5000    202.0812     37.5731     41.4183     79.0434     83.5412
  1809.7500    200.8890     38.9128     43.5469     86.8949     72.3212
  1810.0000    199.7909     40.1565     45.5228     90.7262     55.4449
  1810.2500    198.7913     41.2282     47.2173     90.6354     45.6895
  1810.5000    197.8834     42.0462     48.5255     87.8414     35.0938
  1810.7500    197.0695     42.5395     49.3846     83.8643     31.0662
  1811.0000    196.3722     42.6713     49.7773     79.8196     28.8268
  1811.2500    195.8355     42.4557     49.7224     76.1241     28.8190
  1811.5000    195.5177     41.9558     49.2610     72.6573     29.3468
  1811.7500    195.4745     41.2636     48.4457     69.1578     29.8279
  1812.0000    195.7354     40.4737     47.3390     65.4885     31.8190
  1812.2500    196.2827     39.6615     46.0148     61.6029     34.8185
  1812.5000    197.0449     38.8700     44.5592     57.4282     42.1166
  1812.7500    197.9067     38.1114     43.0651     52.9562     48.0056
  1813.0000    198.7314     37.3818     41.6213     48.4645     55.5710
  1813.2500    199.3935     36.6814     40.3011     44.5142     58.0179
  1813.5000    199.8122     36.0259     39.1543     41.6317     56.3981
  1813.7500    199.9737     35.4404     38.2042     39.9892     52.5264
  1814.0000    199.9261     34.9458     37.4511     39.3648     45.5709
  1814.2500    199.7500     34.5489     36.8791     39.3331     41.7446
  1814.5000    199.5226     34.2460     36.4654     39.4824     38.2041
  1814.7500    199.2924     34.0328     36.1885     39.5425     37.1268
  1815.0000    199.0740     33.9126     36.0347     39.4224     36.8520
  1815.2500    198.8550     33.8936     35.9993     39.1927     37.2883
  1815.5000    198.6118     33.9768     36.0846     39.0382     38.3397
  1815.7500    198.3260     34.1455     36.2938     39.1884     38.8445
  1816.0000    197.9975     34.3661     36.6265     39.8442     38.4134
  1816.2500    197.6483     34.6020     37.0741     41.1233     37.0700
  1816.5000    197.3172     34.8341     37.6208     43.0138     33.9639
  1816.7500    197.0465     35.0714     38.2459     45.3220     31.8827
  1817.0000    196.8642     35.3439     38.9287     47.6618     29.7720
  1817.2500    196.7690     35.6831     39.6536     49.5694     29.0946
  1817.5000    196.7240     36.1010     40.4122     50.7086     28.4262
  1817.7500    196.6677     36.5848     41.2043     50.9916     27.7421
