~Version Information
VERS.                      2.0: CWLS Log ASCII Standard - VERSION 2.0
WRAP.                       NO: One line per depth step
~Well Information Block
STRT.FT               680.0000: 
STOP.FT              1585.5000: 
STEP.FT                 0.1000: 
NULL.                -999.2500: 
COMP.          Pioneer Natural Resources: COMPANY
WELL.          Screamin' 12-29: WELL
FLD.           Purgatoire River: FIELD
LOC.           2038' FNL & 612' FWL: LOCATION
CNTY.               Las Animas: COUNTY
SRVC.                Patterson: SERVICE COMPANY
DATE.          Wed Mar 29 10:01:18 2006: LOG DATE
UWI.           05 071 08661 00: UNIQUE WELL ID
STAT.                 Colorado: STATE
~Curve Information Block
DEPT.FT            0 000 00 00: Depth
DCAL.in                       : CDL Caliper
RHOB.g/cc                     : CDL Bulk Density
RHOC.g/cc                     : CDL Density Correction
DPOR.pu                       : CDL Density Porosity
GR.GAPI                       : Gamma Ray
NPOR.pu                       : Neutron Porosity
~Parameter Information Block
~A  Depth       DCAL        RHOB        RHOC        DPOR         GR         NPOR    
   680.0000      6.4065      3.4080      0.8787    -45.9400    123.0233     20.2112
   680.1000      6.4065      3.1529      0.7762    -30.4818    116.8558     19.4007
   680.2000      6.4065      2.7927     -0.1308     -8.6475    110.8785     18.8280
   680.3000      7.7941      2.5141     -0.3984      8.2369    111.0035     18.4915
   680.4000      7.7941      2.3963     -0.3706     15.3766    113.9972     17.9044
   680.5000      8.2315      2.3653     -0.3783     17.2574    114.3919     17.3239
   680.6000      8.2315      2.3577     -0.3946     17.7140    110.9063     17.0618
   680.7000      8.2315      2.3716     -0.4315     16.8714    106.8971     17.0135
   680.8000      8.2961      2.4158     -0.4027     14.1910    105.5310     17.1755
   680.9000      8.2961      2.4825     -0.3023     10.1491    106.8119     17.2997
   681.0000      8.3005      2.5539     -0.3232      5.8270    110.0496     16.9857
   681.1000      8.3005      2.6150     -0.2765      2.1215    110.2519     16.4228
   681.2000      8.3005      2.6428     -0.1898      0.4335    103.0923     16.1584
   681.3000      8.3000      2.6222     -0.3110      1.6829     94.8702     16.4021
   681.4000      8.3000      2.5887     -0.4196      3.7164     93.6567     16.7935
   681.5000      8.2993      2.5824     -0.3570      4.0988     96.6987     16.7611
   681.6000      8.2993      2.5917     -0.3310      3.5323     95.7019     15.9561
   681.7000      8.2993      2.5884     -0.3894      3.7328     89.3445     14.8230
   681.8000      8.2989      2.5519     -0.2620      5.9483     81.7521     14.4388
   681.9000      8.2989      2.4845     -0.4192     10.0283     75.9006     14.9497
   682.0000      8.2990      2.4319     -0.4862     13.2182     72.6196     15.7240
   682.1000      8.2990      2.4223     -0.4367     13.8005     73.5545     16.1857
   682.2000      8.2990      2.4336     -0.4185     13.1166     79.9413     15.9472
   682.3000      8.2973      2.4402     -0.4751     12.7148     89.0172     15.2463
   682.4000      8.2973      2.4300     -0.3893     13.3353     95.4763     14.7932
   682.5000      8.2954      2.3966     -0.4664     15.3567     99.6449     14.7879
   682.6000      8.2954      2.3559     -0.5013     17.8219    105.9382     14.9988
   682.7000      8.2954      2.3329     -0.5295     19.2188    113.4660     15.4029
   682.8000      8.2972      2.3403     -0.5439     18.7726    119.7237     15.6423
   682.9000      8.2972      2.3670     -0.4892     17.1531    121.4556     15.3739
   683.0000      8.2991      2.3886     -0.4611     15.8442    116.5250     15.2712
   683.1000      8.2991      2.3974     -0.4426     15.3099    109.9674     15.7160
   683.2000      8.2991      2.3972     -0.4323     15.3218     96.3974     16.2372
   683.3000      8.2992      2.3953     -0.4773     15.4339     94.2650     16.5495
   683.4000      8.2992      2.4037     -0.4912     14.9257     89.5908     16.4855
   683.5000      8.2991      2.4135     -0.4274     14.3348     87.6043     16.2172
   683.6000      8.2991      2.4093     -0.4681     14.5873     89.8616     16.2443
   683.7000      8.2991      2.4032     -0.4594     14.9562     91.8965     16.4860
   683.8000      8.2988      2.4029     -0.4148     14.9770     93.4543     16.6191
   683.9000      8.2988      2.3928     -0.4617     15.5878     94.4339     16.6079
   684.0000      8.2989      2.3808     -0.5289     16.3173     92.0068     16.3645
   684.1000      8.2989      2.4007     -0.5359     15.1107     86.4433     15.9556
   684.2000      8.2989      2.4527     -0.4189     11.9567     74.2786     15.5524
   684.3000      8.2987      2.4943     -0.3717      9.4338     77.4606     15.1902
   684.4000      8.2987      2.5089     -0.4207      8.5502     80.9163     14.8581
   684.5000      8.2985      2.5169     -0.4010      8.0663     78.0250     14.6203
   684.6000      8.2985      2.5208     -0.4179      7.8315     71.1216     14.3587
   684.7000      8.2985      2.5075     -0.3916      8.6357     64.5930     13.8223
   684.8000      8.2974      2.4830     -0.4592     10.1206     61.0873     13.4071
   684.9000      8.2974      2.4669     -0.4859     11.0995     62.3295     13.5415
   685.0000      8.2947      2.4665     -0.4582     11.1206     66.1226     13.9157
   685.1000      8.2947      2.4687     -0.4446     10.9870     69.3774     13.9211
   685.2000      8.2947      2.4634     -0.4301     11.3091     60.7987     13.3713
   685.3000      8.2929      2.4565     -0.4625     11.7288     56.8131     12.5791
   685.4000      8.2929      2.4520     -0.4278     12.0003     51.2560     11.9324
   685.5000      8.2945      2.4453     -0.4283     12.4037     48.7116     12.0230
   685.6000      8.2945      2.4358     -0.4605     12.9832     50.6771     12.9939
   685.7000      8.2945      2.4308     -0.4879     13.2873     53.8779     13.8408
   685.8000      8.2971      2.4364     -0.4612     12.9462     54.1848     13.9480
   685.9000      8.2971      2.4604     -0.4856     11.4886     50.7454     13.9561
   686.0000      8.2988      2.5109     -0.4630      8.4324     46.8501     14.1980
   686.1000      8.2988      2.5820     -0.4153      4.1198     46.2498     14.3549
   686.2000      8.2988      2.6572     -0.4129     -0.4355     43.1269     14.4280
   686.3000      8.2995      2.7144     -0.3413     -3.9013     48.4719     14.7022
   686.4000      8.2995      2.7375     -0.3876     -5.3037     51.2980     14.9907
   686.5000      8.2999      2.7392     -0.4250     -5.4090     49.4954     14.9347
   686.6000      8.2999      2.7399     -0.3629     -5.4476     44.9974     14.6753
   686.7000      8.2999      2.7288     -0.3607     -4.7739     40.4568     14.6813
   686.8000      8.3003      2.6842     -0.4397     -2.0709     37.5824     15.0556
   686.9000      8.3003      2.6145     -0.4393      2.1508     38.0652     15.1643
   687.0000      8.3022      2.5579     -0.5045      5.5831     41.3516     14.7136
   687.1000      8.3022      2.5399     -0.4561      6.6749     45.2868     14.6377
   687.2000      8.3022      2.5339     -0.3963      7.0349     49.2007     15.0643
   687.3000      8.3039      2.5010     -0.4679      9.0278     52.3675     15.0312
   687.4000      8.3039      2.4510     -0.4870     12.0610     53.8963     14.5962
   687.5000      8.3011      2.4191     -0.5097     13.9932     54.1014     14.8411
   687.6000      8.3011      2.4193     -0.5025     13.9821     54.4238     15.7990
   687.7000      8.3011      2.4395     -0.4744     12.7551     55.5555     16.3973
   687.8000      8.2985      2.4619     -0.4706     11.3991     55.5021     16.3085
   687.9000      8.2985      2.4764     -0.4522     10.5222     53.2911     16.0789
   688.0000      8.2981      2.4819     -0.4719     10.1880     53.0841     16.3734
   688.1000      8.2981      2.4831     -0.4815     10.1154     60.7358     17.2727
   688.2000      8.2981      2.4875     -0.5569      9.8483     73.6023     17.7861
   688.3000      8.2964      2.4943     -0.4332      9.4359     80.9884     17.4362
   688.4000      8.2964      2.4912     -0.4730      9.6254     77.8183     17.1838
   688.5000      8.2934      2.4802     -0.4665     10.2890     69.6146     17.9637
   688.6000      8.2934      2.4848     -0.5107     10.0132     62.3818     19.6486
   688.7000      8.2934      2.5318     -0.5004      7.1638     56.7747     21.0064
   688.8000      8.2926      2.6133     -0.4207      2.2227     51.6069     20.6972
   688.9000      8.2926      2.6796     -0.3768     -1.7953     47.9492     18.8878
   689.0000      7.9303      2.6889     -0.3718     -2.3581     46.3002     16.6251
   689.1000      7.9303      2.6442     -0.4541      0.3492     45.9428     14.1799
   689.2000      7.9303      2.5620     -0.3858      5.3348     46.9166     11.3800
   689.3000      7.9325      2.4269     -0.4525     13.5229     47.8290      8.6516
   689.4000      7.9325      2.2460     -0.6969     24.4847     47.1757     31.1278
   689.5000      7.9293      2.0693     -0.7626     35.1961     45.9261     28.1825
