~Version Information
VERS.                      2.0: CWLS Log ASCII Standard - VERSION 2.0
WRAP.                       NO: One line per depth step
~Well Information Block
STRT.FT               410.0000: 
STOP.FT              1530.5000: 
STEP.FT                 0.1000: 
NULL.                -999.2500: 
COMP.          Pioneer Natural Resources: COMPANY
WELL.          Pioneer 34-27 Tr: WELL
FLD.           Purgatoire River: FIELD
LOC.           243' FSL & 1593' FEL: LOCATION
STAT.                 Colorado: State
CNTY.               Las Animas: COUNTY
CTRY. USA : Country
SECT. 27 : Section
TOWN. 32S : Township
RANG. 67W : Range 
SRVC.                Patterson: SERVICE COMPANY
DATE.          Fri Oct 07 07:11:38 2005: LOG DATE
API.           05 071 08548 00: UNIQUE WELL ID
~Curve Information Block
DEPT.FT            0 000 00 00: Depth
DCAL.in                       : CDL Caliper
RHOB.g/cc                     : CDL Bulk Density
RHOC.g/cc                     : CDL Density Correction
DPOR.pu                       : CDL Density Porosity
GR.GAPI                       : Gamma Ray
NPOR.pu                       : Neutron Porosity
~Parameter Information Block
~A  Depth       DCAL        RHOB        RHOC        DPOR         GR         NPOR    
# ...
  1293.2000      8.0350      2.6124      0.1200      2.2787     90.3399     22.2607
  1293.3000      8.0448      2.6230      0.0872      1.6363     91.2620     22.2846
  1293.4000      8.0448      2.6296      0.0841      1.2355     89.0464     22.2068
  1293.5000      8.0392      2.6445      0.1633      0.3328     86.6520     22.4677
  1293.6000      8.0392      2.6624      0.1331     -0.7512     87.2551     22.8728
  1293.7000      8.0392      2.6711      0.1621     -1.2785     90.5832     23.1487
  1293.8000      8.0088      2.6633      0.1208     -0.8076     96.7012     23.4911
  1293.9000      8.0088      2.6462      0.0943      0.2310    102.9885     23.9576
  1294.0000      7.9918      2.6330      0.0996      1.0333    105.3601     24.3813
  1294.1000      7.9918      2.6281      0.0785      1.3250    103.2401     24.7442
  1294.2000      7.9918      2.6316      0.0747      1.1158     98.4906     24.8608
  1294.3000      7.9956      2.6421      0.0828      0.4762     95.8720     24.5481
  1294.4000      7.9956      2.6548      0.0635     -0.2938     96.7299     24.0941
  1294.5000      7.9939      2.6631      0.1089     -0.7930     97.1390     23.8462
  1294.6000      7.9939      2.6627      0.1114     -0.7670     96.1102     23.8308
  1294.7000      7.9939      2.6524      0.1472     -0.1431     95.9585     23.9704
  1294.8000      8.0202      2.6342      0.0758      0.9598     99.2133     24.2893
  1294.9000      8.0202      2.6242      0.0732      1.5626    106.3349     24.6792
  1295.0000      8.0069      2.6381      0.0979      0.7241    114.1668     24.8815
  1295.1000      8.0069      2.6636      0.0938     -0.8219    119.2856     24.9228
  1295.2000      8.0069      2.6758      0.1284     -1.5636    120.6557     24.9574
  1295.3000      8.0059      2.6638      0.0831     -0.8365    117.5322     25.0655
  1295.4000      8.0059      2.6365      0.0709      0.8172    110.6517     25.3393
  1295.5000      8.0183      2.6148      0.0233      2.1320    104.7901     25.7910
  1295.6000      8.0183      2.6150      0.0380      2.1209    103.0858     26.2308
  1295.7000      8.0183      2.6359      0.0456      0.8539    101.5085     26.5488
  1295.8000      8.0385      2.6597      0.0472     -0.5909     97.6995     26.7974
  1295.9000      8.0385      2.6683      0.0676     -1.1098     96.3861     26.8279
  1296.0000      8.0433      2.6660      0.0137     -0.9679     98.7141     26.5663
  1296.1000      8.0433      2.6697      0.0336     -1.1940     99.1235     26.3123
  1296.2000      8.0433      2.6755      0.0240     -1.5443     96.2044     26.0933
  1296.3000      8.0478      2.6692      0.0947     -1.1660     93.7265     25.6560
  1296.4000      8.0478      2.6522     -0.0124     -0.1315     93.9351     25.0730
  1296.5000      8.0387      2.6282      0.0472      1.3201     98.5459     24.7006
  1296.6000      8.0387      2.5934     -0.0070      3.4303    106.0984     24.6982
  1296.7000      8.0387      2.5578     -0.0289      5.5907    111.9269     24.7229
  1296.8000      8.0403      2.5387     -0.0265      6.7425    118.6884     24.4511
  1296.9000      8.0403      2.5414     -0.0012      6.5827    130.1740     23.9992
  1297.0000      8.0556      2.5594     -0.0292      5.4885    141.0656     23.8767
  1297.1000      8.0556      2.5774      0.0885      4.3990    144.2275     24.5326
  1297.2000      8.0556      2.5830      0.0324      4.0607    141.7155     25.5354
  1297.3000      8.0375      2.5831      0.0908      4.0522    140.5042     26.0201
  1297.4000      8.0375      2.5818      0.1196      4.1327    142.8609     25.8565
  1297.5000      8.0470      2.5760      0.1013      4.4831    147.7180     25.6390
  1297.6000      8.0470      2.5707      0.0810      4.8054    152.3238     25.8115
  1297.7000      8.0470      2.5738      0.0872      4.6159    154.9736     26.1491
  1297.8000      8.0093      2.5786      0.1068      4.3258    156.2989     26.3372
  1297.9000      8.0093      2.5683      0.0742      4.9536    155.2198     26.4067
  1298.0000      7.9992      2.5425      0.0567      6.5174    152.3328     26.4817
  1298.1000      7.9992      2.5164      0.0488      8.0973    151.7388     26.5607
  1298.2000      7.9992      2.5038     -0.0327      8.8610    156.1564     26.7300
  1298.3000      8.0467      2.5102      0.0427      8.4748    164.8386     27.1497
  1298.4000      8.0467      2.5308      0.0106      7.2271    174.7467     27.4435
  1298.5000      8.0428      2.5531      0.0931      5.8738    177.1443     27.2632
  1298.6000      8.0428      2.5659      0.0575      5.0973    167.4861     27.2915
  1298.7000      8.0428      2.5694      0.0635      4.8834    156.2813     27.9339
  1298.8000      8.0260      2.5665      0.0888      5.0597    147.0313     28.3314
  1298.9000      8.0260      2.5576      0.0616      5.6014    133.5976     28.0001
  1299.0000      8.0554      2.5532      0.0372      5.8680    121.1174     27.5642
  1299.1000      8.0554      2.5696      0.0430      4.8750    114.9552     27.5287
  1299.2000      8.0554      2.6043      0.0421      2.7713    111.0293     27.7431
  1299.3000      8.0563      2.6439      0.0503      0.3686    106.5098     28.1293
  1299.4000      8.0563      2.6809      0.1001     -1.8736    101.9265     28.7751
  1299.5000      8.0698      2.7065      0.1360     -3.4265     98.0817     29.1098
  1299.6000      8.0698      2.7140      0.1032     -3.8798     96.5254     28.5113
  1299.7000      8.0698      2.7090      0.0941     -3.5771     95.5246     27.5116
  1299.8000      8.0566      2.7014      0.1086     -3.1159     93.1235     26.9083
  1299.9000      8.0566      2.6926      0.0657     -2.5800     91.1620     26.7437
  1300.0000      8.0285      2.6780      0.0784     -1.6952     89.9102     26.7412
  1300.1000      8.0285      2.6641      0.0133     -0.8573     87.8210     26.6528
  1300.2000      8.0285      2.6631      0.0425     -0.7926     85.8924     26.3859
  1300.3000      7.9817      2.6736      0.0627     -1.4323     85.5040     25.9291
  1300.4000      7.9817      2.6887      0.0619     -2.3450     84.3887     25.2663
  1300.5000      7.9940      2.7037      0.1315     -3.2563     82.0917     24.6259
  1300.6000      7.9940      2.7165      0.1383     -4.0282     82.1341     24.4277
  1300.7000      7.9940      2.7245      0.1295     -4.5151     86.0312     24.6707
  1300.8000      8.0264      2.7189      0.1501     -4.1784     91.1192     24.9733
  1300.9000      8.0264      2.6956      0.0746     -2.7657     94.0237     25.0137
  1301.0000      8.0073      2.6714      0.0615     -1.2963     93.6555     24.7412
  1301.1000      8.0073      2.6571      0.0879     -0.4273     93.0944     24.5373
  1301.2000      8.0073      2.6450      0.0546      0.3010     95.0724     24.4994
  1301.3000      7.9877      2.6402      0.0780      0.5960     96.9213     24.2691
  1301.4000      7.9877      2.6583      0.0697     -0.5041     97.6123     23.9451
  1301.5000      8.0277      2.6934      0.1196     -2.6276     99.7168     23.9183
  1301.6000      8.0277      2.7130      0.1266     -3.8169    102.4852     24.1608
  1301.7000      8.0277      2.6924      0.1167     -2.5703    102.3456     24.2063
  1301.8000      8.0609      2.6411      0.1146      0.5365     99.3556     23.8533
  1301.9000      8.0609      2.5947      0.0237      3.3529     97.5214     23.5868
  1302.0000      8.0222      2.5778     -0.0171      4.3746     96.4053     23.7420
  1302.1000      8.0222      2.5813      0.0426      4.1660     92.7322     23.7798
  1302.2000      8.0222      2.5900     -0.0165      3.6360     88.7255     23.1865
  1302.3000      8.0159      2.6137      0.0222      2.1982     88.3633     22.4528
  1302.4000      8.0159      2.6512      0.1140     -0.0730     92.0627     22.1161
  1302.5000      8.0164      2.6712      0.1750     -1.2862     95.2890     22.0764
  1302.6000      8.0164      2.6585      0.1278     -0.5138     93.5696     22.0635
  1302.7000      8.0164      2.6335      0.0846      0.9986     88.5296     22.0140
