~Version Information
 VERS.                                  2.0 : CWLS LAS VERSION
 WRAP.                                   NO : WRAPING MODE
 SWARE .                  MController 2.5.1 : SOFTWARE VERSION
~Well Information
 WELL.                    Sparrowhawk 22-12 : WELL
 COMP.  Pioneer Natural Resources USA, Inc. : COMPANY
 FLD.                      Purgatoire River : FIELD
 LOC.             SE/NE Sec. 12, T32S, R66W : LOCATION
 DATE.                03/22/2006-03/23/2006 : DATE(S) LOGGED
 SRVC.                  Entrada GeoSciences : SERVICE COMPANY
 STAT.                             Colorado : STATE
 CNTY.                           Las Animas : COUNTY
 CTRY.                        United States : COUNTRY
 API.                          05-071-08484 : API NUMBER
 STRT.FT                             533.00 : START DEPTH
 STOP.FT                            2380.00 : STOP DEPTH
 STEP.FT                               1.00 : DEPTH INCREMENT
 NULL.                                -9999 : NULL VALUE
~Curve information
 DEPTH.FT                                   :
 ROP.MIN/FT                                 :
 GAS.UNITS                                  :
~ASCII Log data
      533.00         0.10          5.9 
      534.00         0.20          6.5 
      535.00         0.20          5.3 
      536.00         0.23          6.3 
      537.00         0.23          5.6 
      538.00         0.57          5.7 
      539.00         0.13          6.4 
      540.00         0.27          5.0 
      541.00         0.28          4.7 
      542.00         0.40          3.8 
      543.00         0.27          4.6 
      544.00         0.30          4.2 
      545.00         0.30          3.8 
      546.00         0.23          4.2 
      547.00         0.30          4.0 
      548.00         0.30          3.7 
      549.00         0.20          4.7 
      550.00         0.20          4.5 
      551.00         0.20          4.8 
      552.00         0.23          4.2 
      553.00         0.23          4.5 
      554.00         0.25          4.9 
      555.00         0.27          3.8 
      556.00         0.23          4.2 
      557.00         0.20          5.2 
      558.00         0.20          3.7 
      559.00         0.23          3.1 
      560.00         0.17          3.2 
      561.00         0.27          3.5 
      562.00         0.33          3.7 
      563.00         0.87          4.8 
      564.00         0.40          4.7 
      565.00         0.35          3.2 
      566.00         0.30          4.4 
      567.00         0.27          3.9 
      568.00         0.27          3.5 
      569.00         0.27          2.8 
      570.00         0.23          3.4 
      571.00         0.23          2.6 
      572.00         0.20          4.0 
      573.00         0.17          3.5 
      574.00         0.23          4.3 
      575.00         0.17         28.4 
      576.00         0.17         57.7 
      577.00         0.20         47.5 
      578.00         0.23         26.6 
      579.00         0.28         13.2 
      580.00         0.30          7.0 
      581.00         0.27          3.1 
      582.00         0.27          0.9 
      583.00         0.30          1.1 
      584.00         0.23          1.5 
      585.00         0.23          0.5 
      586.00         0.30          0.3 
      587.00         0.33          0.8 
      588.00         0.40          0.7 
      589.00         0.33          1.6 
      590.00         0.25          1.9 
      591.00         0.23          1.2 
      592.00         0.23          2.3 
      593.00         0.23          2.6 
      594.00         0.37          2.9 
      595.00         0.20          2.6 
      596.00         0.23          1.6 
      597.00         0.27          2.7 
      598.00         0.27          1.6 
      599.00         0.20          2.6 
      600.00         0.23          0.8 
      601.00         0.27          1.6 
      602.00         0.27          0.2 
      603.00         0.30          2.0 
      604.00         0.23          1.4 
      605.00         0.20          2.1 
      606.00         0.25          1.1 
      607.00         0.27          1.2 
      608.00         0.20          2.0 
      609.00         0.23          2.8 
      610.00         0.17          1.8 
      611.00         0.23          2.8 
      612.00         0.27          2.5 
      613.00         0.23          2.1 
      614.00         0.30          1.5 
      615.00         0.23          1.3 
      616.00         0.20          2.0 
      617.00         0.20          2.0 
      618.00         0.27          2.3 
      619.00         0.27          2.7 
      620.00         0.22          1.1 
      621.00         0.30          1.4 
      622.00         0.30          2.1 
      623.00         0.13          1.1 
      624.00         0.30          2.6 
      625.00         0.27          3.1 
      626.00         0.33          1.6 
      627.00         0.28          2.4 
      628.00         0.10          2.2 
      629.00         0.13          1.1 
      630.00         0.13          1.3 
      631.00         0.23          0.6 
      632.00         0.33          0.5 
      633.00         0.23          0.8 
      634.00         0.27          1.3 
      635.00         0.23          1.7 
      636.00         0.27          2.0 
      637.00         0.27          2.2 
      638.00         0.20          2.4 
      639.00         0.20          1.9 
      640.00         0.20          1.3 
      641.00         0.20          2.1 
      642.00         0.17          1.3 
      643.00         0.22          1.5 
      644.00         0.23          2.2 
      645.00         0.20          1.7 
      646.00         0.20          2.0 
      647.00         0.20          0.6 
      648.00         0.23          1.6 
      649.00         0.20          1.0 
      650.00         0.27          1.0 
      651.00         0.27          1.6 
      652.00         0.20          1.3 
      653.00         0.20          1.4 
      654.00         0.20          1.8 
      655.00         0.27          1.7 
      656.00         0.27          2.1 
      657.00         0.30          2.9 
      658.00         0.27          2.3 
      659.00         0.23          2.3 
      660.00         0.25          2.2 
      661.00         0.27          2.0 
      662.00         0.20          1.7 
      663.00         0.20          2.2 
      664.00         0.20          2.3 
      665.00         0.20          1.6 
      666.00         0.20          1.8 
      667.00         0.30          1.4 
      668.00         0.23          1.6 
      669.00         0.27          1.7 
      670.00         0.23          0.9 
      671.00         0.23          2.6 
      672.00         0.23          1.0 
      673.00         0.23          1.9 
      674.00         0.28          1.5 
      675.00         0.27          1.6 
      676.00         0.27          1.4 
      677.00         0.17          1.2 
      678.00         0.20          1.1 
      679.00         0.20          2.1 
      680.00         0.23          2.2 
      681.00         0.17          2.4 
      682.00         0.20          2.4 
      683.00         0.20          0.5 
      684.00         0.23          1.9 
      685.00         0.30          0.9 
      686.00         0.27          1.9 
      687.00         0.27          2.4 
      688.00         0.27          2.4 
      689.00         0.28          1.0 
      690.00         0.20          2.2 
      691.00         0.23          2.0 
      692.00         0.20          1.3 
      693.00         0.23          1.6 
      694.00         0.20          1.4 
      695.00         0.20          1.3 
      696.00         0.23          0.6 
      697.00         0.33          1.6 
      698.00         0.23          1.2 
      699.00         0.20          1.5 
      700.00         0.27          1.8 
      701.00         0.33          1.6 
      702.00         0.20          1.7 
      703.00         0.23          2.0 
      704.00         0.22          1.3 
      705.00         0.20          1.1 
      706.00         0.20          1.2 
      707.00         0.20          1.9 
      708.00         0.23          1.1 
      709.00         0.23          1.7 
      710.00         0.23          0.8 
      711.00         0.20          1.3 
      712.00         0.20          2.0 
      713.00         0.20          1.7 
      714.00         0.17          2.5 
      715.00         0.27          1.7 
      716.00         0.47          0.1 
      717.00         0.23         -0.3 
      718.00         0.37          0.2 
      719.00         0.23          1.0 
      720.00         0.22          0.6 
      721.00         0.23          1.1 
      722.00         0.23          0.0 
      723.00         0.33          0.3 
      724.00         0.20          1.3 
      725.00         0.23          0.2 
      726.00         0.23          1.1 
      727.00         0.23          1.4 
      728.00         0.23          0.2 
      729.00         0.30          1.2 
      730.00         0.27          0.6 
      731.00         0.27          1.0 
      732.00         0.33          1.1 
