~Version Information
VERS.                      2.0: CWLS Log ASCII Standard - VERSION 2.0
WRAP.                       NO: One line per depth step
~Well Information Block
STRT.FT               310.0000: 
STOP.FT               815.0000: 
STEP.FT                 0.2500: 
NULL.                -999.2500: 
COMP.          Pioneer Natural Resources: COMPANY
WELL.           Weissach 32-32: WELL
FLD.           Purgatorie River: FIELD
LOC.           2193' FNL & 2256' FEL: LOCATION
STAT.                 Colorado: State
CNTY.               Las Animas: COUNTY
CTRY. USA : Country
SECT. 32 : Section
TOWN. 33S : Township
RANG. 65W : Range
SRVC.                Patterson: SERVICE COMPANY
DATE.          Mon Sep 26 09:20:51 2005: LOG DATE
API. 05-071-08523                         : UNIQUE WELL ID
~Curve Information Block
DEPT.FT            0 000 00 00: Depth
SN.Ohm-m                      : IEL Short Normal
SP.mV                         : IEL Spontaneous Potential
DIR.Ohm-m                     : IEL Induction Resistivity
GR.GAPI                       : Gamma Ray
~Parameter Information Block
~A  Depth        SN          SP         DIR          GR     
# ...
   611.5000     26.7842    163.4600     23.1674     49.3412
   611.7500     26.3237    164.6172     24.2077     43.1803
   612.0000     25.8582    165.5347     22.4760     50.8707
   612.2500     25.3829    166.2494     22.1418     64.5038
   612.5000     25.0243    166.5885     22.7172     62.6485
   612.7500     24.8023    166.7756     25.9814     67.6587
   613.0000     24.5033    166.8876     22.4848     66.6361
   613.2500     24.1430    167.0329     22.9731     59.2657
   613.5000     24.0098    167.2275     27.5762     56.3196
   613.7500     23.8280    167.4517     25.4063     50.2368
   614.0000     23.7850    167.0872     32.7304     56.7191
   614.2500     23.7835    166.9666     21.6556     67.5170
   614.5000     23.0995    166.2331     20.5981     64.3667
   614.7500     23.1343    165.8769     21.0380     54.3752
   615.0000     22.7818    165.7860     22.3267     63.8624
   615.2500     22.8285    164.9264     22.1373     68.3447
   615.5000     23.0317    164.5103     20.3752     71.4877
   615.7500     22.7292    164.5825     20.5435     75.7268
   616.0000     22.4441    165.2925     23.7373     59.4892
   616.2500     22.3608    165.4874     20.4882     56.0053
   616.5000     22.4556    165.9041     22.1125     68.9734
   616.7500     22.3410    166.1013     19.4359     67.1136
   617.0000     22.0656    165.7767     19.5912     64.6326
   617.2500     21.6735    165.7135     18.8106     60.7719
   617.5000     21.2813    165.8077     18.7385     65.4727
   617.7500     20.9899    165.3502     18.4951     64.6790
   618.0000     20.6962    165.2362     18.8318     64.5811
   618.2500     20.2987    165.3257     20.5107     68.8269
   618.5000     20.0457    165.1089     25.4409     82.2516
   618.7500     20.3993    164.7746     19.9282     92.2253
   619.0000     21.6808    164.7636     21.5865     74.2042
   619.2500     21.1232    165.0676     19.9704     70.6369
   619.5000     21.4264    165.1250     23.1465     62.0291
   619.7500     21.8578    164.7820     20.9068     68.2865
   620.0000     21.7276    164.3677     25.3796     58.8620
   620.2500     22.2007    164.5002     19.9077     68.9633
   620.5000     21.5905    164.9518     20.1156     76.4672
   620.7500     21.6326    166.0102     25.2822     72.6261
   621.0000     21.9901    166.8778     20.2655     67.2943
   621.2500     22.6493    167.3936     19.7550     84.7162
   621.5000     23.2811    168.3798     20.5070     58.1743
   621.7500     23.8295    169.2750     21.0977     59.2574
   622.0000     24.6755    169.2682     23.6925     55.7573
   622.2500     25.5351    169.6919     30.0015     61.5719
   622.5000     25.6622    169.4717     22.3144     58.9565
   622.7500     26.1525    169.5996     21.3937     59.6026
   623.0000     25.9571    169.7655     21.8120     51.3031
   623.2500     26.2322    170.0437     21.7836     63.8387
   623.5000     26.8142    170.4317     22.1560     51.0907
   623.7500     27.5381    170.9337     22.6278     42.9144
   624.0000     28.3050    171.6391     23.6985     43.5705
   624.2500     28.6576    171.9218     26.3073     47.8631
   624.5000     28.8756    172.3806     23.8672     47.4075
   624.7500     29.4764    173.3830     23.1885     47.3127
   625.0000     28.5197    174.0717     22.7867     69.1295
   625.2500     28.7338    174.7627     22.8834     62.6967
   625.5000     28.6765    175.3027     21.9315     64.9571
   625.7500     28.9588    176.1306     21.3024     64.3122
   626.0000     28.0292    176.2239     20.7116     55.2164
   626.2500     27.5940    176.5751     20.4868     48.9947
   626.5000     25.9981    176.7630     20.1674     53.0566
   626.7500     25.1341    176.0460     20.3865     57.4378
   627.0000     24.7358    175.6163     20.2229     62.0958
   627.2500     23.6474    175.1903     20.4044     63.8731
   627.5000     23.4400    174.7741     21.7907     58.4169
   627.7500     23.2956    174.6986     25.8087     60.3199
   628.0000     22.9950    174.2214     21.3756     70.7036
   628.2500     22.9011    173.4441     20.6530     69.5917
   628.5000     23.3018    172.6926     20.3421     87.3412
   628.7500     22.2671    172.0495     19.5115    104.6800
   629.0000     22.2704    171.5360     18.8624     94.3549
   629.2500     22.7371    171.0743     17.7462     76.2714
   629.5000     23.2022    170.7832     18.1842     52.4893
   629.7500     23.5228    170.9062     21.0153     67.5659
   630.0000     23.2305    171.5712     17.1554     69.0463
   630.2500     22.3691    171.6364     16.4705     76.7999
   630.5000     21.3632    171.8473     16.4211     62.4507
   630.7500     20.3572    172.2609     16.8948     73.6585
   631.0000     20.0265    172.8055     17.0080     93.2434
   631.2500     19.7723    173.0732     17.5407     69.8368
   631.5000     19.5502    172.9719     17.9564     73.6611
   631.7500     19.5754    172.8993     19.6938     89.1877
   632.0000     19.5807    172.8390     17.9972    103.4136
   632.2500     19.4282    172.8417     17.5020     99.0049
   632.5000     19.2931    172.6838     17.4625    109.7313
   632.7500     19.5932    172.4433     17.6466    115.5730
   633.0000     20.2567    172.3016     18.3540    102.9403
   633.2500     21.3767    172.6606     16.3859    119.3621
   633.5000     22.5205    173.2357     15.8353    115.4332
   633.7500     23.3099    172.2462     15.9476    115.4394
   634.0000     23.8524    172.0660     16.1894    108.4942
   634.2500     22.3142    172.1734     16.0707    102.1284
   634.5000     21.2702    172.3443     16.6712     93.3360
   634.7500     20.3673    172.5836     19.1265     98.7661
   635.0000     19.5899    173.0301     15.4192     95.1886
   635.2500     18.7241    173.6866     14.9448    121.6011
   635.5000     17.7245    174.5336     16.2341    127.6000
   635.7500     17.0949    174.4608     21.8705    108.2064
   636.0000     16.8559    174.5660     16.0924    100.8310
   636.2500     16.1626    174.4743     19.3823     99.2694
   636.5000     15.7387    174.2633     14.6652     96.8782
   636.7500     15.5631    174.0864     15.6243     88.2838
   637.0000     15.5480    173.8680     19.9212     94.4781
   637.2500     15.4677    173.8886     15.5835    109.7035
   637.5000     15.6296    174.1943     17.1269    111.1224
   637.7500     16.0276    173.8450     14.8311     86.2921
   638.0000     16.6536    173.5219     14.4452     91.7427
   638.2500     16.8935    173.2332     14.5385    104.2196
   638.5000     17.4498    173.2019     16.1947     85.1533
   638.7500     18.2167    173.5100     21.6270     88.6297
   639.0000     18.7071    173.1217     17.9203     74.8236
   639.2500     19.0039    173.1269     22.7300     70.0145
   639.5000     19.1268    173.5070     17.9897     72.1271
   639.7500     19.2365    173.8832     20.4916     69.8724
   640.0000     19.6190    174.1356     18.5389     79.7408
   640.2500     19.8393    174.4998     18.2179     84.5979
   640.5000     19.9051    174.9320     18.3943     82.4397
   640.7500     20.0427    174.4552     18.4507     88.8603
   641.0000     20.4936    173.9565     19.6460     88.9934
   641.2500     20.2282    173.3608     18.7101    105.3340
   641.5000     20.2464    172.8799     20.3062    110.9093
   641.7500     20.6214    172.3491     18.6356     89.5532
   642.0000     21.6975    172.3300     18.5690     88.1616
   642.2500     21.3914    171.7374     18.0619     84.4911
   642.5000     22.2495    170.7478     18.7728     91.5855
   642.7500     22.2007    170.1879     23.8303    104.7095
   643.0000     22.0947    169.5793     27.5942     83.1239
   643.2500     22.8402    169.4743     20.2337     81.2243
   643.5000     22.3706    168.8327     20.0802     81.8855
   643.7500     22.4646    168.6409     18.6173     82.2101
   644.0000     21.8082    168.7497     19.2900    101.5921
   644.2500     21.5842    169.2383     21.1993     99.2717
   644.5000     21.6776    169.7037     19.4218     95.9035
   644.7500     21.5943    169.6423     25.2015     94.2185
