~Version Information
VERS.                      2.0: CWLS Log ASCII Standard - VERSION 2.0
WRAP.                       NO: One line per depth step
~Well Information Block
STRT.FT                10.0000: 
STOP.FT               715.0000: 
STEP.FT                 0.1000: 
NULL.                -999.2500: 
COMP.          Pioneer Natural Resources: COMPANY
WELL.           Belvedere 14-7: WELL
FLD.           Purgatorie River: FIELD
LOC.           786' FSL & 1283' FWL: LOCATION
PROV.                 Colorado: PROVINCE
CNTY.               Las Animas: COUNTRY
SRVC.                Patterson: SERVICE COMPANY
DATE.          Mon Nov 28 07:30:54 2005: LOG DATE
UWI.           05-071-08557               : UNIQUE WELL ID
~Curve Information Block
DEPT.FT            0 000 00 00: Depth
DCAL.in                       : CDL Caliper
RHOB.g/cc                     : CDL Bulk Density
RHOC.g/cc                     : CDL Density Correction
DPOR.pu                       : CDL Density Porosity
GR.GAPI                       : Gamma Ray
NPOR.pu                       : Neutron Porosity
~Parameter Information Block
~A  Depth       DCAL        RHOB        RHOC        DPOR         GR         NPOR    
# ...
   240.4000      8.1780      2.3961      1.4897     -0.0051     98.3544     20.8126
   240.5000      8.1703      2.4268      1.6013     -0.0045     98.2890     22.0045
   240.6000      8.1703      2.4310      1.5752     -0.0044     97.7764     22.2640
   240.7000      8.1703      2.4116      1.5089     -0.0048     99.5472     22.0755
   240.8000      8.1688      2.3972      1.5167     -0.0051    101.7961     22.0985
   240.9000      8.1688      2.3937      1.5022     -0.0051    100.2225     22.3015
   241.0000      8.1738      2.3939      1.5087     -0.0051     95.6511     22.5910
   241.1000      8.1738      2.3994      1.5758     -0.0050     92.9129     22.9749
   241.2000      8.1738      2.4115      1.5648     -0.0048     94.0382     23.1490
   241.3000      8.1730      2.4256      1.5626     -0.0045     96.8208     22.8809
   241.4000      8.1730      2.4317      1.6202     -0.0044     97.0057     22.4777
   241.5000      8.1626      2.4254      1.5331     -0.0045     93.6012     22.2868
   241.6000      8.1626      2.4235      1.4814     -0.0045     90.2962     22.0438
   241.7000      8.1626      2.4384      1.5561     -0.0042     89.3364     21.4531
   241.8000      8.1685      2.4538      1.6184     -0.0039     89.7022     20.9870
   241.9000      8.1685      2.4537      1.5580     -0.0039     90.6681     20.9583
   242.0000      8.1699      2.4413      1.6044     -0.0042     92.1993     21.0387
   242.1000      8.1699      2.4164      1.5958     -0.0047     93.5399     21.1202
   242.2000      8.1699      2.3812      1.5327     -0.0054     93.2458     21.1577
   242.3000      8.1662      2.3560      1.4865     -0.0059     91.6603     21.0234
   242.4000      8.1662      2.3492      1.5576     -0.0060     90.8215     20.6643
   242.5000      8.1678      2.3437      1.5753     -0.0061     90.6355     20.1704
   242.6000      8.1678      2.3271      1.5512     -0.0065     89.1595     20.0703
   242.7000      8.1678      2.3112      1.4846     -0.0068     85.3324     20.5227
   242.8000      8.1692      2.3121      1.4733     -0.0068     79.8894     20.8259
   242.9000      8.1692      2.3220      1.5684     -0.0066     73.9406     20.7459
   243.0000      8.1694      2.3211      1.5669     -0.0066     68.8844     20.7945
   243.1000      8.1694      2.3082      1.5492     -0.0068     66.2593     20.9364
   243.2000      8.1694      2.2903      1.5539     -0.0072     64.9165     20.7730
   243.3000      8.1705      2.2704      1.4608     -0.0076     63.0964     20.4316
   243.4000      8.1705      2.2593      1.4808     -0.0078     61.2489     20.0144
   243.5000      8.1707      2.2618      1.5240     -0.0078     60.1402     19.4848
   243.6000      8.1707      2.2689      1.5131     -0.0076     60.5488     19.1584
   243.7000      8.1707      2.2783      1.5020     -0.0074     62.2985     19.3177
   243.8000      8.1723      2.2890      1.5674     -0.0072     63.9447     19.7194
   243.9000      8.1723      2.2937      1.4972     -0.0071     65.8528     19.7838
   244.0000      8.1762      2.2947      1.5596     -0.0071     70.1098     19.2537
   244.1000      8.1762      2.2941      1.5636     -0.0071     74.6710     18.7412
   244.2000      8.1762      2.2984      1.4983     -0.0070     76.1370     18.9292
   244.3000      8.1739      2.3259      1.5291     -0.0065     75.7987     19.3879
   244.4000      8.1739      2.3707      1.5598     -0.0056     76.2080     19.3959
   244.5000      8.1756      2.3978      1.5885     -0.0050     77.7585     19.1905
   244.6000      8.1756      2.3954      1.5663     -0.0051     80.8973     19.0933
   244.7000      8.1756      2.3888      1.5499     -0.0052     85.1709     19.0157
   244.8000      8.1747      2.3883      1.5852     -0.0052     87.6705     19.0997
   244.9000      8.1747      2.3765      1.5439     -0.0055     87.3957     19.3855
   245.0000      8.1669      2.3556      1.5177     -0.0059     85.4602     19.5115
   245.1000      8.1669      2.3416      1.5521     -0.0062     83.4055     19.5712
   245.2000      8.1669      2.3312      1.5594     -0.0064     81.9982     19.9953
   245.3000      8.1696      2.3181      1.5752     -0.0066     79.7731     20.4955
   245.4000      8.1696      2.3047      1.5532     -0.0069     77.6176     20.4996
   245.5000      8.1749      2.2908      1.5314     -0.0072     78.4268     20.1426
   245.6000      8.1749      2.2791      1.5192     -0.0074     81.8896     19.9170
   245.7000      8.1749      2.2775      1.5182     -0.0075     84.8354     19.9272
   245.8000      8.1735      2.2895      1.5405     -0.0072     85.2404     19.9364
   245.9000      8.1735      2.3117      1.5392     -0.0068     83.3180     19.9718
   246.0000      8.1725      2.3319      1.5804     -0.0064     80.7356     20.3206
   246.1000      8.1725      2.3302      1.5475     -0.0064     79.0097     20.8457
   246.2000      8.1725      2.3147      1.5085     -0.0067     77.8136     21.0205
   246.3000      8.1681      2.3180      1.5075     -0.0066     77.0686     20.8964
   246.4000      8.1681      2.3409      1.5916     -0.0062     77.7757     21.0474
   246.5000      8.1717      2.3477      1.5979     -0.0061     80.3265     21.2250
   246.6000      8.1717      2.3314      1.5272     -0.0064     84.0125     20.7597
   246.7000      8.1717      2.3296      1.5216     -0.0064     86.6544     20.0117
   246.8000      8.1670      2.3547      1.5535     -0.0059     85.8080     19.7418
   246.9000      8.1670      2.3753      1.6009     -0.0055     82.4611     19.9005
   247.0000      8.1720      2.3683      1.5991     -0.0056     81.1668     20.0529
   247.1000      8.1720      2.3405      1.5422     -0.0062     83.4033     20.1148
   247.2000      8.1720      2.3132      1.4959     -0.0067     86.0531     20.1573
   247.3000      8.1704      2.2977      1.5379     -0.0070     87.0365     20.1633
   247.4000      8.1704      2.2826      1.5260     -0.0074     86.8435     20.0543
   247.5000      8.1747      2.2622      1.4436     -0.0078     86.2247     19.7729
   247.6000      8.1747      2.2496      1.4619     -0.0080     85.8167     19.3906
   247.7000      8.1747      2.2489      1.5230     -0.0080     85.8144     19.1747
   247.8000      8.1726      2.2521      1.4953     -0.0080     85.4740     19.2415
   247.9000      8.1726      2.2626      1.4701     -0.0078     84.5679     19.3708
   248.0000      8.1743      2.2814      1.5068     -0.0074     83.7028     19.4607
   248.1000      8.1743      2.2967      1.4710     -0.0071     83.0449     19.5795
   248.2000      8.1743      2.3083      1.4895     -0.0068     82.6362     19.6797
   248.3000      8.1743      2.3256      1.5518     -0.0065     82.3409     19.5470
   248.4000      8.1743      2.3488      1.5363     -0.0060     81.0160     19.2880
   248.5000      8.1730      2.3707      1.5184     -0.0056     78.7009     19.4789
   248.6000      8.1730      2.3770      1.5937     -0.0055     76.8531     20.1781
   248.7000      8.1730      2.3625      1.4737     -0.0058     76.0815     20.7636
   248.8000      8.1790      2.3486      1.4925     -0.0060     75.9881     20.9232
   248.9000      8.1790      2.3430      1.5962     -0.0061     75.9105     20.8561
   249.0000      8.1791      2.3303      1.4810     -0.0064     76.4721     20.7564
   249.1000      8.1791      2.3086      1.5270     -0.0068     79.3154     20.6969
   249.2000      8.1791      2.2840      1.4731     -0.0073     83.6217     20.4283
   249.3000      8.1737      2.2614      1.4595     -0.0078     85.6611     19.8128
   249.4000      8.1737      2.2391      1.5550     -0.0082     84.7817     19.3502
   249.5000      8.1713      2.2125      1.4919     -0.0088     84.6914     19.4617
   249.6000      8.1713      2.1918      1.4778     -0.0092     85.7931     19.9128
   249.7000      8.1713      2.1887      1.4643     -0.0092     85.9036     20.1423
   249.8000      8.1739      2.2094      1.5044     -0.0088     85.2846     20.0567
   249.9000      8.1739      2.2483      1.5378     -0.0080     84.7769     20.1170
