~Version Information
VERS.                      2.0: CWLS Log ASCII Standard - VERSION 2.0
WRAP.                       NO: One line per depth step
~Well Information Block
STRT.FT                -0.5000: 
STOP.FT              1417.0000: 
STEP.FT                 0.2500: 
NULL.                -999.2500: 
COMP.          Pioneer Natural Resources: COMPANY
WELL.              Darren 11-7: WELL
FLD.           Purgatoire River: FIELD
LOC.           230' FNL & 596' FWL: LOCATION
CNTY.               Las Animas: COUNTY
SRVC.                Patterson: SERVICE COMPANY
DATE.          Thu Mar 30 10:43:52 2006: LOG DATE
UWI.           05 071 08720 00: UNIQUE WELL ID
STAT.                 Colorado: STATE
~Curve Information Block
DEPT.FT            0 000 00 00: Depth
GR.GAPI                       : Gamma Ray
CCL.                          : Casing Collar Locator
TT3.usec                      : CBL 3' Travel Time
AMP3.mV                       : CBL 3' Amplitude
~Parameter Information Block
~A  Depth        GR         CCL         TT3         AMP3    
# ...
   100.0000     47.8170      0.0000    688.3154     13.5153
   100.2500     48.4762      0.0000    690.4152     13.3451
   100.5000     48.7091      0.0000    691.2446     13.1747
   100.7500     47.7391      0.0000    689.9559     13.0403
   101.0000     45.7426      0.0000    687.2292     12.9571
   101.2500     43.7758      0.0000    684.4913     12.9259
   101.5000     42.9339      0.0000    682.6861     12.9448
   101.7500     43.5562      0.0000    681.8748     13.0043
   102.0000     45.1038      0.0000    681.7060     13.0805
   102.2500     46.7144      0.0000    682.0004     13.1399
   102.5000     47.8358      0.0000    683.0217     13.1581
   102.7500     48.3357      0.0000    685.3738     13.1291
   103.0000     48.2112      0.0000    689.4035     13.0590
   103.2500     47.4875      0.0000    694.3009     12.9592
   103.5000     46.4691      0.0000    697.9510     12.8511
   103.7500     45.8541      0.0000    698.3324     12.7691
   104.0000     46.4012      0.0000    695.3525     12.7501
   104.2500     48.4829      0.0000    691.0532     12.8140
   104.5000     52.0327      0.0000    688.0970     12.9521
   104.7500     56.8696      0.0000    688.3823     13.1286
   105.0000     62.8287      0.0000    692.6496     13.3012
   105.2500     69.5407      0.0000    700.3702     13.4468
   105.5000     76.3308      0.0000    709.5562     13.5690
   105.7500     82.4133      0.0000    717.1070     13.6820
   106.0000     87.0916      0.0000    720.1068     13.7961
   106.2500     90.0492      0.0000    717.6395     13.9226
   106.5000     91.6892      0.0000    711.8658     14.0807
   106.7500     92.9104      0.0000    706.8251     14.2878
   107.0000     94.2334      0.0000    705.3845     14.5452
   107.2500     95.2049      0.0000    707.4004     14.8309
   107.5000     94.8921      0.0000    711.0331     15.0985
   107.7500     92.9938      0.0000    715.1298     15.2832
   108.0000     90.3458      0.0000    719.8108     15.3277
   108.2500     88.2430      0.0000    725.4982     15.2189
   108.5000     87.3413      0.0000    732.3188     15.0053
   108.7500     87.2855      0.0000    740.1967     14.7767
   109.0000     87.4070      0.0000    748.7649     14.6189
   109.2500     87.7654      0.0000    757.0187     14.5683
   109.5000     89.2595      0.0000    763.3347     14.5973
   109.7500     92.4424      0.0000    766.2442     14.6441
   110.0000     96.4001      0.0000    765.4954     14.6610
   110.2500     99.2717      0.0000    762.3347     14.6380
   110.5000     99.8689      0.0000    758.7384     14.5881
   110.7500     98.4215      0.0000    756.6204     14.5212
   111.0000     95.8075      0.0000    757.7427     14.4342
   111.2500     92.6577      0.0000    763.3599     14.3241
   111.5000     89.4255      0.0000    772.9310     14.2109
   111.7500     86.7614      0.0000    783.6575     14.1391
   112.0000     85.3772      0.0000    792.3198     14.1474
   112.2500     85.6623      0.0000    797.4794     14.2369
   112.5000     87.5306      0.0000    799.6460     14.3786
   112.7500     90.3943      0.0000    799.9069     14.5468
   113.0000     93.1050      0.0000    798.9584     14.7348
   113.2500     94.2125      0.0000    797.2173     14.9371
   113.5000     92.8616      0.0000    795.2667     15.1349
   113.7500     89.5662      0.0000    793.7144     15.3062
   114.0000     85.6960      0.0000    792.5268     15.4445
   114.2500     82.1604      0.0000    790.9880     15.5621
   114.5000     78.9982      0.0000    788.7863     15.6821
   114.7500     76.2117      0.0000    786.7701     15.8281
   115.0000     74.3285      0.0000    785.9274     16.0066
   115.2500     73.8502      0.0000    785.8270     16.1889
   115.5000     74.6606      0.0000    784.9741     16.3203
   115.7500     76.3235      0.0000    782.9060     16.3654
   116.0000     78.6632      0.0000    781.0812     16.3448
   116.2500     81.6946      0.0000    781.1315     16.3174
   116.5000     85.0759      0.0000    782.5783     16.3217
   116.7500     87.9704      0.0000    782.6213     16.3398
   117.0000     89.6180      0.0000    778.2441     16.3221
   117.2500     89.9087      0.0000    768.9787     16.2411
   117.5000     89.2488      0.0000    758.0718     16.1058
   117.7500     88.0294      0.0000    750.5832     15.9250
   118.0000     86.5042      0.0000    749.7309     15.6760
   118.2500     85.1374      0.0000    754.8724     15.3340
   118.5000     84.6485      0.0000    762.6896     14.9283
   118.7500     85.4133      0.0000    769.8645     14.5484
   119.0000     86.8246      0.0000    774.8359     14.2846
   119.2500     87.4712      0.0000    777.9537     14.1693
   119.5000     86.2424      0.0000    780.4448     14.1669
   119.7500     83.3945      0.0000    782.9416     14.1978
   120.0000     80.5207      0.0000    784.4577     14.1673
   120.2500     79.4203      0.0000    782.4269     13.9958
   120.5000     80.7554      0.0000    774.2421     13.6596
   120.7500     83.5125      0.0000    760.1403     13.2234
   121.0000     85.7498      0.0000    745.0673     12.8018
   121.2500     86.0186      0.0000    736.1849     12.4443
   121.5000     84.1315      0.0000    737.0499     12.0815
   121.7500     80.7772      0.0000    744.6656     11.6415
   122.0000     76.8187      0.0000    752.8979     11.1806
   122.2500     73.1059      0.0000    757.7257     10.8322
   122.5000     70.5393      0.0000    758.3854     10.6627
   122.7500     69.7246      3.0000    755.1732     10.6443
   123.0000     70.3360      0.0000    748.5209     10.7418
   123.2500     71.1817      0.0000    740.3196     10.9952
   123.5000     71.2631      0.0000    734.4796     11.5146
   123.7500     70.6614      0.0000    734.8134     12.3664
   124.0000     70.1864      0.0000    741.8969     13.4241
   124.2500     70.3547      0.0000    752.3859     14.3786
   124.5000     70.8528      0.0000    762.1669     14.9773
   124.7500     70.8506      0.0000    769.9331     15.2243
   125.0000     69.8212      0.0000    776.8363     15.3074
   125.2500     68.1183      0.0000    783.2169     15.3986
   125.5000     66.5515      0.0000    787.1154     15.5654
   125.7500     65.4466      0.0000    786.0383     15.7930
   126.0000     64.5439      0.0000    779.3727     16.0237
   126.2500     63.7560      0.0000    769.0850     16.1932
   126.5000     63.4806      0.0000    758.5651     16.2671
   126.7500     64.1878      0.0000    750.8664     16.2571
   127.0000     66.1061      0.0000    747.5699     16.2017
   127.2500     69.1502      0.0000    748.3439     16.1349
   127.5000     72.7574      0.0000    750.8044     16.0697
   127.7500     75.8719      0.0000    751.2988     16.0098
   128.0000     77.3457      0.0000    747.2394     15.9646
   128.2500     76.4738      0.0000    739.5198     15.9443
   128.5000     73.3932      0.0000    732.1785     15.9393
   128.7500     69.2747      0.0000    728.5288     15.9144
   129.0000     65.9426      0.0000    727.5139     15.8374
   129.2500     64.8022      0.0000    724.9867     15.7114
   129.5000     65.8982      0.0000    718.8748     15.5704
   129.7500     68.0684      0.0000    711.8026     15.4470
   130.0000     70.0279      0.0000    707.8646     15.3570
   130.2500     71.2044      0.0000    707.8475     15.3083
   130.5000     71.6067      0.0000    709.0524     15.3151
   130.7500     71.3004      0.0000    709.5436     15.4095
   131.0000     70.3156      0.0000    710.4749     15.6472
   131.2500     68.8310      0.0000    713.1077     16.0836
   131.5000     67.1377      0.0000    715.3524     16.7138
   131.7500     65.4405      0.0000    713.4823     17.4335
   132.0000     63.8415      0.0000    706.7968     18.0772
   132.2500     62.4130      0.0000    698.7391     18.5058
   132.5000     61.1107      0.0000    693.2473     18.6712
   132.7500     59.6008      0.0000    691.2491     18.6242
   133.0000     57.3580      0.0000    691.0963     18.4751
   133.2500     54.1948      0.0000    691.5608     18.3319
