~Version Information
 VERS.                                  2.0 : CWLS LAS VERSION
 WRAP.                                   NO : WRAPING MODE
 SWARE .                 MController 2.5.0N : SOFTWARE VERSION
~Well Information
 WELL.                   Old Faithful 21-02 : WELL
 COMP.    Pioneer Natural Resouces USA Inc. : COMPANY
 FLD.                      Purgatoire River : FIELD
 LOC.              NE/NW Sec 2 , T35S, R65W : LOCATION
 DATE.                             12/06/05 : DATE(S) LOGGED
 SRVC.       BLANCO Geological Services LLC : SERVICE COMPANY
 STAT.                                   CO : STATE
 CNTY.                           Las Animas : COUNTY
 CTRY.                                  USA : COUNTRY
 API.                          05-071-08617 : API NUMBER
 STRT.FT                             182.00 : START DEPTH
 STOP.FT                            1470.00 : STOP DEPTH
 STEP.FT                               1.00 : DEPTH INCREMENT
 NULL.                                -9999 : NULL VALUE
~Curve information
 DEPTH.FT                                   :
 ROP.MIN/FT                                 :
 GAS.UNITS                                  :
~ASCII Log data
# ...
       782.0         0.47         15.7 
       783.0         0.43         14.2 
       784.0         0.43         14.3 
       785.0         0.40         14.7 
       786.0         0.48         14.8 
       787.0         0.40         14.9 
       788.0         0.33         15.2 
       789.0         0.30         14.1 
       790.0         0.30         15.1 
       791.0         0.33         14.9 
       792.0         0.27         14.3 
       793.0         0.30         15.4 
       794.0         0.27         15.4 
       795.0         0.33         15.7 
       796.0         0.35         18.8 
       797.0         0.37         18.7 
       798.0         0.37         18.0 
       799.0         0.33         19.3 
       800.0         0.43         16.4 
       801.0         3.48         71.8 
       802.0         0.43         19.8 
       803.0         0.33         29.3 
       804.0         0.27         30.3 
       805.0         0.37         26.4 
       806.0         0.45         21.2 
       807.0         0.37         18.9 
       808.0         0.30         17.2 
       809.0         0.30         15.3 
       810.0         0.27         15.3 
       811.0         0.27         15.0 
       812.0         0.33         15.2 
       813.0         0.33         15.2 
       814.0         0.37         15.5 
       815.0         0.27         14.9 
       816.0         0.35         14.9 
       817.0         0.40         15.1 
       818.0         0.37         14.9 
       819.0         0.27         14.7 
       820.0         0.27         14.8 
       821.0         0.27         14.6 
       822.0         0.40         14.5 
       823.0         0.33         17.7 
       824.0         0.30         16.4 
       825.0         0.27         14.6 
       826.0         0.27         14.6 
       827.0         0.38         14.8 
       828.0         0.40         16.7 
       829.0         0.30         16.7 
       830.0         0.53         14.5 
       831.0         3.62         77.7 
       832.0         0.40         19.4 
       833.0         0.43         19.0 
       834.0         0.50         18.5 
       835.0         0.72         17.4 
       836.0         0.47         15.5 
       837.0         0.37         15.0 
       838.0         0.30         14.0 
       839.0         0.27         13.8 
       840.0         0.30         14.3 
       841.0         0.30         14.7 
       842.0         0.27         14.6 
       843.0         0.27         14.2 
       844.0         0.27         14.0 
       845.0         0.32         14.0 
       846.0         0.30         14.7 
       847.0         0.40         14.6 
       848.0         0.30         15.2 
       849.0         0.27         14.7 
       850.0         0.27         14.6 
       851.0         0.23         14.2 
       852.0         0.27         15.2 
       853.0         0.30         15.3 
       854.0         0.30         14.9 
       855.0         0.33         17.5 
       856.0         0.38         16.6 
       857.0         0.30         15.5 
       858.0         0.30         15.5 
       859.0         0.80         16.3 
       860.0         0.13         15.2 
       861.0         5.90         72.6 
       862.0         0.23         15.5 
       863.0         0.33         15.7 
       864.0         0.30         15.2 
       865.0         0.23         15.2 
       866.0         0.23         14.6 
       867.0         0.20         14.4 
       868.0         0.23         15.0 
       869.0         0.27         17.0 
       870.0         0.38         22.3 
       871.0         0.37         22.0 
       872.0         0.30         19.4 
       873.0         0.33         17.2 
       874.0         0.37         16.5 
       875.0         0.33         16.1 
       876.0         0.27         15.3 
       877.0         0.27         14.9 
       878.0         0.33         15.0 
       879.0         0.27         15.0 
       880.0         0.37         17.2 
       881.0         0.32         17.3 
       882.0         0.33         16.9 
       883.0         0.63         15.5 
       884.0         0.13         14.4 
       885.0         0.33         13.9 
       886.0         0.10         15.0 
       887.0         0.10         15.0 
       888.0         0.10         16.5 
       889.0         0.10         16.5 
       890.0         0.23         16.8 
       891.0         3.25         81.3 
       892.0         0.53         24.5 
       893.0         0.40         19.5 
       894.0         0.42         17.7 
       895.0         0.43         16.5 
       896.0         0.43         16.7 
       897.0         0.47         14.8 
       898.0         0.43         15.0 
       899.0         0.40         14.4 
       900.0         0.40         13.9 
       901.0         0.50         15.4 
       902.0         0.35         15.8 
       903.0         0.33         14.7 
       904.0         0.33         15.3 
       905.0         0.37         14.4 
       906.0         0.33         15.7 
       907.0         0.30         14.7 
       908.0         0.33         14.4 
       909.0         0.47         14.7 
       910.0         0.37         17.8 
       911.0         0.35         15.7 
       912.0         0.33         14.2 
       913.0         0.37         15.0 
       914.0         0.40         17.3 
       915.0         0.33         17.3 
       916.0         0.40         16.4 
       917.0         0.20         14.4 
       918.0         0.37         14.7 
       919.0         0.40         17.1 
       920.0         0.52         15.9 
       921.0         4.15         75.5 
       922.0         0.43         17.4 
       923.0         0.50         17.3 
       924.0         0.47         16.9 
       925.0         0.37         16.2 
       926.0         0.47         15.3 
       927.0         0.45         15.2 
       928.0         0.33         15.0 
       929.0         0.30         14.0 
       930.0         0.27         14.5 
       931.0         0.30         14.1 
       932.0         0.30         13.8 
       933.0         0.30         14.8 
       934.0         0.30         14.1 
       935.0         0.27         13.9 
       936.0         0.30         14.8 
       937.0         0.30         14.5 
       938.0         0.28         14.9 
       939.0         0.30         15.3 
       940.0         0.37         15.0 
       941.0         0.33         15.2 
       942.0         0.30         15.1 
       943.0         0.37         14.6 
       944.0         0.37         14.7 
       945.0         0.30         15.0 
       946.0         0.30         14.9 
       947.0         0.33         15.2 
       948.0         0.32         14.7 
       949.0         0.30         14.6 
       950.0         0.27         15.0 
       951.0         6.47         96.6 
       952.0         0.33         18.3 
       953.0         0.27         18.4 
       954.0         0.30         19.6 
       955.0         0.30         18.5 
       956.0         0.30         17.2 
       957.0         0.27         17.6 
       958.0         0.30         16.7 
       959.0         0.27         17.0 
       960.0         0.30         16.3 
       961.0         0.32         16.3 
       962.0         0.27         15.8 
       963.0         0.30         15.9 
       964.0         0.27         16.2 
       965.0         9.48         25.1 
       966.0         4.72         17.6 
       967.0         0.07         15.6 
       968.0         0.10         15.9 
       969.0         0.07         15.6 
       970.0         0.10         15.4 
       971.0         0.07         14.7 
       972.0         0.10         15.6 
       973.0         0.07         14.8 
       974.0         0.10         14.4 
       975.0         0.07         14.7 
       976.0         0.10         14.9 
       977.0         3.35         22.4 
       978.0         0.40         15.0 
       979.0         0.40         14.3 
       980.0         0.55         13.6 
       981.0         6.05        117.3 
