~Version Information
VERS.                      2.0: CWLS Log ASCII Standard - VERSION 2.0
WRAP.                       NO: One line per depth step
~Well Information Block
STRT.FT               310.0000: 
STOP.FT              2298.0000: 
STEP.FT                 0.2500: 
NULL.                -999.2500: 
COMP.          Pioneer Natural Resources: COMPANY
WELL.               Relay 12-7: WELL
FLD.           Purgatoire River: FIELD
LOC.           1999' FNL & 848' FWL: LOCATION
PROV.                 Colorado: PROVINCE
CNTY.               Las Animas: COUNTRY
SRVC.                Patterson: SERVICE COMPANY
DATE.          Fri Dec 16 17:39:57 2005: LOG DATE
UWI.           05 071 08453 00: UNIQUE WELL ID
~Curve Information Block
DEPT.FT            0 000 00 00: Depth
SN.Ohm-m                      : IEL Short Normal
SP.mV                         : IEL Spontaneous Potential
DIR.Ohm-m                     : IEL Induction Resistivity
GR.GAPI                       : Gamma Ray
~Parameter Information Block
~A  Depth        SN          SP         DIR          GR     
# ...
  1985.0000     41.1582     61.5275     39.5981     46.1734
  1985.2500     41.7440     61.0267     40.9705     44.9856
  1985.5000     42.4480     60.6253     42.2268     43.6181
  1985.7500     43.3025     60.3053     43.2297     43.2261
  1986.0000     44.0844     60.0563     43.9434     43.3087
  1986.2500     44.5989     59.8664     44.4167     43.5019
  1986.5000     44.8559     59.7244     44.7124     43.5227
  1986.7500     44.9414     59.6291     44.8534     43.2620
  1987.0000     44.9254     59.5927     44.8104     42.6033
  1987.2500     44.8968     59.6331     44.5242     42.2751
  1987.5000     44.9444     59.7623     43.9293     42.7553
  1987.7500     45.0622     59.9767     42.9646     44.1038
  1988.0000     45.1601     60.2520     41.5819     47.6233
  1988.2500     45.1311     60.5464     39.7752     50.6249
  1988.5000     44.7884     60.8101     37.6219     55.5944
  1988.7500     43.8964     61.0019     35.2897     58.9753
  1989.0000     42.3497     61.1034     32.9782     63.4189
  1989.2500     40.1587     61.1267     30.8370     65.5516
  1989.5000     37.3545     61.1066     28.9253     67.8704
  1989.7500     34.0599     61.0823     27.2302     69.7748
  1990.0000     30.5982     61.0780     25.7088     74.9321
  1990.2500     27.4389     61.0928     24.3190     80.2551
  1990.5000     24.9204     61.1024     23.0307     89.9058
  1990.7500     23.0473     61.0714     21.8278     96.0265
  1991.0000     21.6548     60.9674     20.7118    102.3653
  1991.2500     20.6576     60.7731     19.7019    104.0594
  1991.5000     20.0332     60.4912     18.8269    103.4193
  1991.7500     19.6782     60.1382     18.1131    101.8645
  1992.0000     19.4493     59.7325     17.5743     99.3905
  1992.2500     19.3045     59.2888     17.2078     98.0779
  1992.5000     19.2900     58.8255     16.9948     96.8300
  1992.7500     19.4303     58.3716     16.9059     96.5897
  1993.0000     19.6814     57.9640     16.9101     97.3121
  1993.2500     19.9900     57.6379     16.9848     98.5034
  1993.5000     20.3634     57.4177     17.1198    101.0459
  1993.7500     20.8241     57.3095     17.3154    102.8508
  1994.0000     21.3399     57.2988     17.5750    104.7471
  1994.2500     21.7915     57.3558     17.8974    105.0364
  1994.5000     22.0101     57.4463     18.2686    104.1651
  1994.7500     21.9674     57.5457     18.6569    103.2123
  1995.0000     21.8438     57.6469     19.0196    101.7902
  1995.2500     21.8131     57.7606     19.3210    100.7992
  1995.5000     21.9444     57.9094     19.5505     99.2864
  1995.7500     22.2815     58.1186     19.7260     98.7515
  1996.0000     22.8018     58.4087     19.8806     99.7813
  1996.2500     23.4218     58.7895     20.0438    101.8499
  1996.5000     24.0655     59.2578     20.2279    106.0740
  1996.7500     24.5982     59.8009     20.4216    108.8147
  1997.0000     24.8210     60.4056     20.5932    111.8925
  1997.2500     24.5389     61.0698     20.7026    113.1458
  1997.5000     23.6199     61.8059     20.7208    114.1634
  1997.7500     22.1608     62.6305     20.6453    114.5998
  1998.0000     20.5579     63.5475     20.5036    115.2932
  1998.2500     19.3394     64.5322     20.3426    115.8800
  1998.5000     18.9900     65.5269     20.2131    117.3702
  1998.7500     19.7404     66.4527     20.1574    119.2591
  1999.0000     21.3821     67.2374     20.2028    123.9169
  1999.2500     23.3961     67.8409     20.3571    127.9265
  1999.5000     25.2484     68.2627     20.6029    134.0250
  1999.7500     26.6092     68.5320     20.8964    137.4269
  2000.0000     27.4443     68.6925     21.1765    140.9581
  2000.2500     27.9248     68.7893     21.3934    142.3347
  2000.5000     28.2128     68.8590     21.5403    143.1174
  2000.7500     28.3496     68.9206     21.6611    142.5308
  2001.0000     28.3760     68.9740     21.8200    139.1095
  2001.2500     28.4499     69.0070     22.0545    134.8941
  2001.5000     28.7217     69.0060     22.3493    126.4024
  2001.7500     29.1786     68.9661     22.6501    120.2532
  2002.0000     29.7076     68.8932     22.9021    112.0784
  2002.2500     30.2048     68.8004     23.0786    108.0193
  2002.5000     30.6241     68.6987     23.1802    104.1060
  2002.7500     31.0084     68.5891     23.2162    102.4569
  2003.0000     31.3895     68.4628     23.1953    100.5251
  2003.2500     31.6107     68.3100     23.1262     99.4389
  2003.5000     31.4077     68.1321     23.0202     98.3598
  2003.7500     30.7190     67.9463     22.8863     98.1217
  2004.0000     29.7518     67.7826     22.7255     98.2143
  2004.2500     28.7136     67.6760     22.5324     98.1813
  2004.5000     27.6146     67.6575     22.3040     97.4603
  2004.7500     26.3665     67.7462     22.0499     96.6663
  2005.0000     25.0247     67.9432     21.7942     96.0584
  2005.2500     23.8588     68.2275     21.5683     96.6910
  2005.5000     23.1650     68.5570     21.3969     99.3071
  2005.7500     23.1267     68.8782     21.2901    101.5720
  2006.0000     23.7872     69.1467     21.2470    104.5112
  2006.2500     24.9594     69.3431     21.2668    105.7908
  2006.5000     26.2739     69.4738     21.3568    106.6861
  2006.7500     27.4304     69.5561     21.5271    106.7166
  2007.0000     28.3134     69.6036     21.7764    106.1370
  2007.2500     28.9323     69.6223     22.0826    105.5657
  2007.5000     29.3559     69.6151     22.4067    104.8406
  2007.7500     29.6516     69.5876     22.7094    104.3813
  2008.0000     29.8700     69.5520     22.9651    103.1541
  2008.2500     30.0800     69.5291     23.1634    101.9829
  2008.5000     30.3596     69.5422     23.2967    100.8648
  2008.7500     30.7073     69.6083     23.3470    101.1945
  2009.0000     30.9769     69.7321     23.2825    102.6242
  2009.2500     30.9829     69.9094     23.0735    102.9740
  2009.5000     30.6966     70.1348     22.7156    101.3274
  2009.7500     30.2189     70.4088     22.2358     99.3179
  2010.0000     29.6057     70.7426     21.6750     97.1024
  2010.2500     28.8551     71.1592     21.0654     96.9563
  2010.5000     27.9187     71.6895     20.4223     97.9269
  2010.7500     26.6761     72.3646     19.7528     97.9654
  2011.0000     25.0058     73.2081     19.0650     95.3149
  2011.2500     22.8772     74.2267     18.3733     92.0105
  2011.5000     20.4528     75.3983     17.7011     87.0395
  2011.7500     18.1714     76.6624     17.0784     85.0097
  2012.0000     16.5684     77.9242     16.5334     84.4441
  2012.2500     15.8821     79.0771     16.0821     85.0796
  2012.5000     15.9284     80.0350     15.7200     85.9513
  2012.7500     16.3490     80.7578     15.4224     85.9412
  2013.0000     16.8898     81.2562     15.1539     85.1925
  2013.2500     17.4411     81.5760     14.8851     84.5812
  2013.5000     17.8905     81.7734     14.6075     84.0368
  2013.7500     18.1330     81.8980     14.3365     84.2774
  2014.0000     18.2161     81.9877     14.1001     86.3688
  2014.2500     18.2724     82.0716     13.9241     89.0987
  2014.5000     18.3490     82.1717     13.8232     94.1978
  2014.7500     18.3894     82.3011     13.7990     97.2288
  2015.0000     18.3495     82.4629     13.8418    100.2023
  2015.2500     18.2491     82.6492     13.9322    101.3631
  2015.5000     18.1282     82.8423     14.0436    102.8421
  2015.7500     18.0116     83.0186     14.1500    103.8971
  2016.0000     17.8927     83.1554     14.2350    105.1952
  2016.2500     17.7838     83.2392     14.2979    105.5856
  2016.5000     17.6908     83.2699     14.3498    105.6066
  2016.7500     17.5653     83.2603     14.4032    105.6381
  2017.0000     17.4342     83.2283     14.4652    106.1652
  2017.2500     17.4071     83.1872     14.5391    106.6439
  2017.5000     17.5078     83.1406     14.6337    106.5850
  2017.7500     17.7001     83.0825     14.7688    105.4776
  2018.0000     17.9572     83.0029     14.9689    102.0224
  2018.2500     18.2443     82.8928     15.2482     98.9827
