~Version Information
VERS.                      2.0: CWLS Log ASCII Standard - VERSION 2.0
WRAP.                       NO: One line per depth step
~Well Information Block
STRT.FT               310.0000: 
STOP.FT              2295.5000: 
STEP.FT                 0.1000: 
NULL.                -999.2500: 
COMP.          Pioneer Natural Resources: COMPANY
WELL.               Relay 12-7: WELL
FLD.           Purgatoire River: FIELD
LOC.           1999' FNL & 848' FWL: LOCATION
PROV.                 Colorado: PROVINCE
CNTY.               Las Animas: COUNTRY
SRVC.                Patterson: SERVICE COMPANY
DATE.          Mon Dec 19 07:37:11 2005: LOG DATE
UWI.           05 071 08453 00: UNIQUE WELL ID
~Curve Information Block
DEPT.FT            0 000 00 00: Depth
DCAL.in                       : CDL Caliper
RHOB.g/cc                     : CDL Bulk Density
RHOC.g/cc                     : CDL Density Correction
DPOR.pu                       : CDL Density Porosity
GR.GAPI                       : Gamma Ray
NPOR.pu                       : Neutron Porosity
~Parameter Information Block
~A  Depth       DCAL        RHOB        RHOC        DPOR         GR         NPOR    
# ...
  1625.2000      8.0901      2.4955      0.0968      9.3656    138.4640     29.8325
  1625.3000      8.1073      2.5078      0.0304      8.6174    139.6691     28.9283
  1625.4000      8.1073      2.5031      0.0208      8.9001    140.0248     28.7782
  1625.5000      8.0984      2.5063      0.0675      8.7108    137.3579     29.3255
  1625.6000      8.0984      2.5221      0.1178      7.7521    133.3236     29.8094
  1625.7000      8.0984      2.5358      0.1395      6.9233    135.7662     29.7948
  1625.8000      8.1238      2.5388      0.1212      6.7393    144.7708     29.5184
  1625.9000      8.1238      2.5283      0.1257      7.3762    152.4211     29.6446
  1626.0000      8.1430      2.5071      0.0484      8.6590    156.0021     30.3016
  1626.1000      8.1430      2.4900      0.0616      9.6944    157.1631     31.0521
  1626.2000      8.1430      2.4944      0.0720      9.4332    159.6200     31.3069
  1626.3000      8.1379      2.5203      0.1285      7.8576    164.5265     30.6645
  1626.4000      8.1379      2.5417      0.1454      6.5620    165.4059     29.6221
  1626.5000      8.0775      2.5446      0.1022      6.3889    158.4352     28.9974
  1626.6000      8.0775      2.5390      0.1288      6.7281    150.2848     29.0530
  1626.7000      8.0775      2.5207      0.1369      7.8366    150.0724     29.3979
  1626.8000      8.0742      2.4872      0.0776      9.8642    159.1447     29.4796
  1626.9000      8.0742      2.4596      0.0830     11.5372    165.1861     29.2252
  1627.0000      8.0813      2.4514      0.0994     12.0348    158.7742     29.0992
  1627.1000      8.0813      2.4597      0.0957     11.5313    152.7372     29.1386
  1627.2000      8.0813      2.4810      0.1213     10.2446    157.4007     29.1515
  1627.3000      8.0680      2.5124      0.1372      8.3378    163.3249     29.2193
  1627.4000      8.0680      2.5475      0.2004      6.2105    160.5473     29.1687
  1627.5000      8.0672      2.5766      0.1901      4.4501    151.5480     29.0975
  1627.6000      8.0672      2.5902      0.2036      3.6259    142.9374     29.6247
  1627.7000      8.0672      2.5844      0.1310      3.9754    137.1985     30.7326
  1627.8000      8.0641      2.5649      0.1132      5.1575    136.9146     31.1603
  1627.9000      8.0641      2.5386      0.0609      6.7523    143.0201     30.4077
  1628.0000      8.0822      2.5124      0.0739      8.3385    149.6362     29.4872
  1628.1000      8.0822      2.4945      0.0460      9.4218    149.5406     28.9748
  1628.2000      8.0822      2.4905     -0.0014      9.6646    144.3380     28.7219
  1628.3000      8.1140      2.4951      0.0042      9.3874    143.0522     28.9617
  1628.4000      8.1140      2.4921      0.0496      9.5709    149.1782     29.7483
  1628.5000      8.1008      2.4763      0.0203     10.5294    160.1152     30.5768
  1628.6000      8.1008      2.4597      0.0513     11.5352    171.4288     31.1695
  1628.7000      8.1008      2.4558      0.0735     11.7707    177.6735     31.1503
  1628.8000      8.1535      2.4674      0.0827     11.0639    180.3184     30.1533
  1628.9000      8.1535      2.4730      0.1443     10.7245    181.7032     28.9708
  1629.0000      8.1188      2.4453      0.1352     12.4085    180.9968     28.8059
  1629.1000      8.1188      2.3941      0.0456     15.5082    179.2902     29.6194
  1629.2000      8.1188      2.3575      0.0123     17.7256    177.0529     30.5376
  1629.3000      8.1676      2.3542      0.0172     17.9302    172.2198     30.9824
  1629.4000      8.1676      2.3667      0.0636     17.1686    163.2856     30.7899
  1629.5000      8.2664      2.3742      0.0332     16.7144    154.7029     29.9921
  1629.6000      8.2664      2.3810      0.0306     16.3003    150.7330     29.1238
  1629.7000      8.2664      2.3998      0.0328     15.1649    149.2192     28.8170
  1629.8000      8.2732      2.4320      0.0695     13.2100    146.9297     28.9858
  1629.9000      8.2732      2.4706      0.0707     10.8754    144.4764     29.3131
  1630.0000      8.2341      2.4968      0.0852      9.2827    141.9341     29.6032
  1630.1000      8.2341      2.4976      0.0554      9.2349    137.8636     29.8148
  1630.2000      8.2341      2.4883      0.0042      9.7972    132.0500     30.0117
  1630.3000      8.2985      2.4887     -0.0028      9.7785    124.6305     30.0494
  1630.4000      8.2985      2.4952      0.0184      9.3833    116.5406     29.6987
  1630.5000      8.2067      2.5024     -0.0341      8.9473    109.5815     28.8987
  1630.6000      8.2067      2.5144      0.0017      8.2169    107.7364     28.0113
  1630.7000      8.2067      2.5252      0.0049      7.5631    111.6573     27.5792
  1630.8000      8.1203      2.5252      0.0521      7.5610    115.8815     27.4481
  1630.9000      8.1203      2.5106      0.0288      8.4457    116.8225     27.4980
  1631.0000      8.0943      2.4820     -0.0123     10.1795    117.7037     27.3590
  1631.1000      8.0943      2.4474     -0.0288     12.2805    123.5395     26.3142
  1631.2000      8.0943      2.4123     -0.0125     14.4063    132.6861     25.3718
  1631.3000      8.0696      2.3845     -0.0858     16.0921    139.8148     25.6128
  1631.4000      8.0696      2.3809     -0.0689     16.3109    142.0382     26.4320
  1631.5000      8.0555      2.3932     -0.0280     15.5616    140.7499     27.1368
  1631.6000      8.0555      2.3997     -0.0365     15.1725    138.9265     27.5879
  1631.7000      8.0555      2.4075     -0.0185     14.6960    137.1175     27.7934
  1631.8000      8.0491      2.4214      0.0966     13.8524    139.0249     28.0279
  1631.9000      8.0491      2.4181      0.1575     14.0540    144.6686     28.8231
  1632.0000      8.0507      2.3911      0.1179     15.6903    147.2434     30.2584
  1632.1000      8.0507      2.3616      0.1228     17.4771    146.6877     31.5731
  1632.2000      8.0507      2.3366      0.1431     18.9921    146.8895     32.3023
  1632.3000      8.0538      2.3067      0.1333     20.8034    146.1516     32.5671
  1632.4000      8.0538      2.2637      0.0951     23.4111    142.1548     32.4983
  1632.5000      8.0570      2.1995      0.1154     27.3018    139.0767     32.2557
  1632.6000      8.0570      2.1201      0.0599     32.1144    138.8789     31.7465
  1632.7000      8.0570      2.0547      0.0195     36.0777    136.3719     31.2084
  1632.8000      8.0783      2.0192      0.0703     38.2318    130.6301     31.4126
  1632.9000      8.0783      1.9961      0.0391     39.6314    122.0830     32.3268
  1633.0000      8.0829      1.9664      0.0381     41.4326    111.1019     33.1235
  1633.1000      8.0829      1.9338      0.0399     43.4046    104.2043     33.0265
  1633.2000      8.0829      1.9121      0.0511     44.7206    102.9192     31.9737
  1633.3000      8.0784      1.8964      0.1191     45.6721     99.7155     31.2784
  1633.4000      8.0784      1.8716      0.1582     47.1750     93.0092     31.7507
  1633.5000      8.0961      1.8386      0.1373     49.1785     90.3989     32.5065
  1633.6000      8.0961      1.8117      0.0862     50.8078     94.4605     32.6054
  1633.7000      8.0961      1.8027      0.0399     51.3535     96.8903     32.3092
  1633.8000      8.2307      1.8162      0.0165     50.5344     92.0487     32.0634
  1633.9000      8.2307      1.8537      0.0020     48.2632     86.0981     31.5950
  1634.0000      8.2103      1.9159      0.0341     44.4889     83.6098     30.8895
  1634.1000      8.2103      2.0033      0.0840     39.1947     83.1117     30.5730
  1634.2000      8.2103      2.1163      0.1349     32.3470     83.9794     30.7787
  1634.3000      8.1676      2.2448      0.2592     24.5600     84.7026     30.9932
  1634.4000      8.1676      2.3619      0.2653     17.4622     84.0677     30.9542
  1634.5000      8.1829      2.4419      0.1983     12.6100     83.5603     30.7635
  1634.6000      8.1829      2.4812      0.0597     10.2311     84.3002     30.1745
  1634.7000      8.1829      2.4994      0.0448      9.1256     84.4121     28.8854
