~Version Information
VERS.                      2.0: CWLS Log ASCII Standard - VERSION 2.0
WRAP.                       NO: One line per depth step
~Well Information Block
STRT.FT                 0.0000: 
STOP.FT              1507.7500: 
STEP.FT                 0.2500: 
NULL.                -999.2500: 
COMP.          Pioneer Natural Resources: COMPANY
WELL.          Pioneer 34-27 Tr: WELL
FLD.           Purgatorie River: FIELD
LOC.           243' FSL & 1593' FEL: LOCATION
STAT.                 Colorado: State
CNTY.               Las Animas: COUNTY
CTRY. USA : Country
SECT. 27 : Section
TOWN. 32S : Township
RANG. 67W : Range
SRVC.                Patterson: SERVICE COMPANY
DATE.          Wed Oct 12 09:30:25 2005: LOG DATE
API.                          : UNIQUE WELL ID
~Curve Information Block
DEPT.FT            0 000 00 00: Depth
GR.GAPI                       : Gamma Ray
CCL.                          : Casing Collar Locator
TT3.usec                      : CBL 3' Travel Time
AMP3.mV                       : CBL 3' Amplitude
~Parameter Information Block
~A  Depth        GR         CCL         TT3         AMP3    
# ...
   703.5000     98.5689      0.0000    718.1535     18.0806
   703.7500     93.0724      0.0000    729.9079     18.1861
   704.0000     89.8410      0.0000    741.6787     18.2359
   704.2500     88.3127      0.0000    744.6417     18.2641
   704.5000     88.3382      0.0000    739.1638     18.3104
   704.7500     90.1566      0.0000    730.4628     18.4191
   705.0000     93.3682      0.0000    720.9534     18.5641
   705.2500     96.4094      0.0000    713.7432     18.7061
   705.5000     97.5649      0.0000    713.3679     18.8805
   705.7500     96.4114      0.0000    718.7701     19.1124
   706.0000     93.9737      0.0000    723.1738     19.3259
   706.2500     91.7352      0.0000    723.0972     19.4270
   706.5000     91.0050      0.0000    721.8837     19.4057
   706.7500     93.0012      0.0000    722.5314     19.3189
   707.0000     98.6497      0.0000    722.2260     19.2270
   707.2500    107.7222      0.0000    717.7292     19.1552
   707.5000    118.3578      0.0000    711.7253     19.0902
   707.7500    127.8428      0.0000    709.2562     18.9935
   708.0000    134.0082      0.0000    711.2297     18.8264
   708.2500    136.0810      0.0000    715.6495     18.5958
   708.5000    134.6040      0.0000    720.4043     18.3626
   708.7500    130.8776      0.0000    721.8314     18.1849
   709.0000    126.4481      0.0000    716.8340     18.0814
   709.2500    122.7765      0.0000    707.4635     18.0310
   709.5000    120.8796      0.0000    699.0840     17.9969
   709.7500    120.9568      0.0000    694.5942     17.9623
   710.0000    122.3842      0.0000    693.1663     17.9229
   710.2500    124.2325      0.0000    693.4717     17.8748
   710.5000    125.8731      0.0000    696.4362     17.8266
   710.7500    127.1263      0.0000    705.6401     17.7779
   711.0000    127.8889      0.0000    724.0751     17.7102
   711.2500    127.8197      0.0000    748.6559     17.6334
   711.5000    126.6283      0.0000    769.6067     17.6035
   711.7500    124.4527      0.0000    776.0072     17.6815
   712.0000    121.5872      0.0000    763.7642     17.8671
   712.2500    118.0154      0.0000    742.2130     18.0582
   712.5000    113.5794      0.0000    725.9774     18.1217
   712.7500    108.5257      0.0000    718.1649     18.0173
   713.0000    103.4210      0.0000    713.4614     17.8030
   713.2500     98.3624      0.0000    711.2851     17.5581
   713.5000     92.5877      0.0000    713.8564     17.3736
   713.7500     85.2466      0.0000    722.0944     17.3389
   714.0000     76.5965      0.0000    737.7997     17.4514
   714.2500     68.2427      0.0000    761.1076     17.5973
   714.5000     62.1613      0.0000    786.5280     17.6609
   714.7500     59.5368      0.0000    805.6370     17.6158
   715.0000     60.3679      0.0000    812.1039     17.5052
   715.2500     63.8442      0.0000    805.2039     17.3747
   715.5000     68.8552      0.0000    795.5838     17.2630
   715.7500     74.0639      0.0000    800.2486     17.1952
   716.0000     77.8067      0.0000    821.5315     17.1594
   716.2500     78.5466      0.0000    844.3417     17.1577
   716.5000     75.7670      0.0000    857.2644     17.2318
   716.7500     70.2896      0.0000    860.9896     17.3911
   717.0000     63.6632      0.0000    859.4258     17.5727
   717.2500     57.3693      0.0000    854.7847     17.6898
   717.5000     52.3427      0.0000    849.6704     17.6915
   717.7500     48.7215      0.0000    846.3527     17.5859
   718.0000     45.9743      0.0000    842.8759     17.4259
   718.2500     43.5229      0.0000    834.7002     17.2772
   718.5000     41.3418      0.0000    821.0296     17.1741
   718.7500     39.9302      0.0000    807.3931     17.0993
   719.0000     39.7880      0.0000    802.1642     17.0263
   719.2500     40.9385      0.0000    809.7982     16.9587
   719.5000     42.8383      0.0000    826.1476     16.9098
   719.7500     44.6817      0.0000    841.0472     16.8699
   720.0000     45.9017      0.0000    847.5299     16.8274
   720.2500     46.4390      0.0000    848.0522     16.8043
   720.5000     46.4633      0.0000    849.4185     16.8355
   720.7500     45.8970      0.0000    853.3942     16.9187
   721.0000     44.4170      0.0000    855.8364     17.0143
   721.2500     41.9676      0.0000    852.9021     17.0848
   721.5000     39.0368      0.0000    844.3087     17.1100
   721.7500     36.2940      0.0000    833.5687     17.0924
   722.0000     34.0935      0.0000    828.2456     17.0725
   722.2500     32.4046      0.0000    833.3593     17.0968
   722.5000     31.1092      0.0000    842.9546     17.1614
   722.7500     30.2423      0.0000    847.0151     17.2294
   723.0000     29.9423      0.0000    843.6876     17.2917
   723.2500     30.2777      0.0000    837.9333     17.3734
   723.5000     31.1474      0.0000    832.7251     17.5015
   723.7500     32.1913      0.0000    824.9980     17.6888
   724.0000     32.8268      0.0000    808.6149     17.9517
   724.2500     32.6436      0.0000    784.5710     18.3123
   724.5000     31.8361      0.0000    764.8746     18.7488
   724.7500     31.0410      0.0000    751.1998     19.1997
   725.0000     30.7090      0.0000    723.3900     19.6558
   725.2500     30.7514      0.0000    673.5199     20.0901
   725.5000     30.7516      0.0000    631.7991     20.1740
   725.7500     30.4452      0.0000    637.4021     19.3069
   726.0000     30.0258      0.0000    688.4442     17.3108
   726.2500     30.0060      0.0000    740.2237     15.0106
   726.5000     30.8339      0.0000    761.6157     13.5607
   726.7500     32.7268      0.0000    764.0051     13.2254
   727.0000     35.8293      0.0000    770.5203     13.4390
   727.2500     40.4397      0.0000    785.9797     13.7262
   727.5000     46.9027      0.0000    797.7796     13.9835
   727.7500     55.0092      2.0000    787.2194     14.2209
   728.0000     63.5398      0.0000    745.3019     14.5035
   728.2500     70.8655      0.0000    689.2325     15.0541
   728.5000     76.2752      0.0000    647.3775     15.9450
   728.7500     80.5321      0.0000    629.3749     16.7009
   729.0000     85.1175      0.0000    622.2737     17.0274
   729.2500     91.2238      0.0000    611.4968     17.5404
   729.5000     99.2654      0.0000    607.2333     18.6544
   729.7500    108.6375      0.0000    626.8868     19.7698
   730.0000    117.8156      0.0000    659.0869     20.2922
   730.2500    125.3174      0.0000    681.5820     20.2910
   730.5000    130.7739      0.0000    690.3290     20.0487
   730.7500    134.6138      0.0000    692.6799     19.7177
   731.0000    136.7784      0.0000    694.5286     19.3788
   731.2500    136.5751      0.0000    699.0117     19.1336
   731.5000    134.0029      0.0000    706.6823     19.0636
   731.7500    130.4748      0.0000    713.5407     19.1409
   732.0000    127.7396      0.0000    713.8148     19.2628
   732.2500    126.3294      0.0000    707.3607     19.3481
   732.5000    125.3425      0.0000    699.9292     19.3537
   732.7500    123.6447      0.0000    695.7952     19.2723
   733.0000    121.1143      0.0000    694.8921     19.1521
   733.2500    118.7262      0.0000    696.1480     19.0616
   733.5000    117.5400      0.0000    699.5862     19.0339
   733.7500    117.7682      0.0000    704.4892     19.0631
   734.0000    118.8034      0.0000    708.0400     19.1178
   734.2500    119.9776      0.0000    708.8753     19.1361
   734.5000    121.1286      0.0000    708.7498     19.0478
   734.7500    122.3487      0.0000    707.6901     18.8406
   735.0000    123.3185      0.0000    704.0452     18.5643
   735.2500    123.2638      0.0000    699.3386     18.2565
   735.5000    121.7772      0.0000    696.5131     17.9472
   735.7500    119.4630      0.0000    696.6118     17.7132
   736.0000    117.6094      0.0000    700.1312     17.6380
   736.2500    117.2936      0.0000    707.1185     17.7229
   736.5000    118.7310      0.0000    714.6042     17.8603
   736.7500    121.2495      0.0000    718.8563     17.9224
