~Version Information
VERS.                      2.0: CWLS Log ASCII Standard - VERSION 2.0
WRAP.                       NO: One line per depth step
~Well Information Block
STRT.FT               233.8000: 
STOP.FT              1692.5000: 
STEP.FT                 0.1000: 
NULL.                -999.2500: 
COMP.          Pioneer Natural Resources: COMPANY
WELL.            Relay 12-7 Tr: WELL
FLD.           Purgatoire River: FIELD
LOC.           2025' FNL & 790' FWL: LOCATION
PROV.                 Colorado: PROVINCE
CNTY.               Las Animas: COUNTRY
SRVC.                Patterson: SERVICE COMPANY
DATE.          Mon Jan 16 13:23:17 2006: LOG DATE
UWI.           05 071 08603 00: UNIQUE WELL ID
~Curve Information Block
DEPT.FT            0 000 00 00: Depth
DCAL.in                       : CDL Caliper
RHOB.g/cc                     : CDL Bulk Density
RHOC.g/cc                     : CDL Density Correction
DPOR.pu                       : CDL Density Porosity
GR.GAPI                       : Gamma Ray
~Parameter Information Block
~A  Depth       DCAL        RHOB        RHOC        DPOR         GR     
# ...
  1488.2000      7.8275      2.6363      0.0579      0.8323     92.5535
  1488.3000      7.8224      2.6990      0.1244     -2.9707     90.0417
  1488.4000      7.8224      2.7693      0.1891     -7.2295     85.2560
  1488.5000      7.7780      2.8184      0.1557    -10.2075     78.7214
  1488.6000      7.7780      2.8315      0.1046    -10.9980     72.0767
  1488.7000      7.7780      2.8131      0.0933     -9.8849     66.9369
  1488.8000      7.7837      2.7853      0.0859     -8.2027     65.4587
  1488.9000      7.7837      2.7549      0.0729     -6.3601     69.5114
  1489.0000      7.7834      2.7045      0.0397     -3.3029     76.8134
  1489.1000      7.7834      2.6434     -0.0360      0.4018     83.1950
  1489.2000      7.7834      2.6133     -0.1127      2.2269     87.1997
  1489.3000      7.7928      2.6129      0.0601      2.2504     88.4451
  1489.4000      7.7928      2.6060      0.0205      2.6686     88.8261
  1489.5000      7.7887      2.5948      0.0671      3.3465     90.8971
  1489.6000      7.7887      2.5903      0.1218      3.6200     94.2987
  1489.7000      7.7887      2.5875      0.1033      3.7906     99.4033
  1489.8000      7.7757      2.5925      0.1036      3.4859    104.7712
  1489.9000      7.7757      2.6136      0.0688      2.2075    106.1962
  1490.0000      7.6974      2.6405      0.1247      0.5734    102.6645
  1490.1000      7.6974      2.6580      0.0879     -0.4825     94.7575
  1490.2000      7.6974      2.6623      0.1135     -0.7461     85.5254
  1490.3000      7.7105      2.6543      0.1571     -0.2593     81.6612
  1490.4000      7.7105      2.6411      0.0787      0.5376     82.7504
  1490.5000      7.7591      2.6328      0.0826      1.0450     84.3592
  1490.6000      7.7591      2.6169      0.0957      2.0073     86.2664
  1490.7000      7.7591      2.5888     -0.0168      3.7101     88.5828
  1490.8000      7.7868      2.5725      0.0430      4.6999     92.3528
  1490.9000      7.7868      2.5763      0.0495      4.4683     98.4457
  1491.0000      7.7754      2.5894      0.0280      3.6726    103.9049
  1491.1000      7.7754      2.6001      0.0572      3.0261    103.0434
  1491.2000      7.7754      2.6013      0.0425      2.9498     95.7267
  1491.3000      7.7984      2.5958      0.0526      3.2864     88.5408
  1491.4000      7.7984      2.5839      0.0965      4.0048     85.4351
  1491.5000      7.8314      2.5738      0.0324      4.6212     83.3371
  1491.6000      7.8314      2.5850      0.0344      3.9395     81.0266
  1491.7000      7.8314      2.6123      0.0660      2.2825     81.7497
  1491.8000      7.8449      2.6301      0.0783      1.2039     85.4832
  1491.9000      7.8449      2.6325      0.0546      1.0634     88.4154
  1492.0000      7.8570      2.6364      0.0262      0.8242     88.5276
  1492.1000      7.8570      2.6501      0.0963     -0.0085     88.1022
  1492.2000      7.8570      2.6673      0.0747     -1.0474     88.7665
  1492.3000      7.8626      2.6844      0.0674     -2.0835     87.8985
  1492.4000      7.8626      2.6941      0.1296     -2.6744     85.2459
  1492.5000      7.8633      2.6852      0.0955     -2.1345     82.9990
  1492.6000      7.8633      2.6616      0.0901     -0.7046     80.7015
  1492.7000      7.8633      2.6465      0.0400      0.2135     79.1301
  1492.8000      7.8478      2.6523      0.0944     -0.1411     79.5515
  1492.9000      7.8478      2.6570      0.0759     -0.4252     82.5021
  1493.0000      7.8470      2.6364      0.0493      0.8235     88.7124
  1493.1000      7.8470      2.5991      0.0067      3.0878     94.8402
  1493.2000      7.8470      2.5700      0.0121      4.8502     97.2087
  1493.3000      7.8338      2.5595      0.0221      5.4828     98.0155
  1493.4000      7.8338      2.5605      0.0397      5.4232     97.4390
  1493.5000      7.8402      2.5653      0.0044      5.1328     94.0586
  1493.6000      7.8402      2.5704      0.0562      4.8227     91.1965
  1493.7000      7.8402      2.5737      0.0587      4.6252     91.2123
  1493.8000      7.8440      2.5788      0.0499      4.3165     95.7930
  1493.9000      7.8440      2.5848      0.0770      3.9543    103.6772
  1494.0000      7.8356      2.5839      0.0553      4.0083    107.9804
  1494.1000      7.8356      2.5769      0.0666      4.4317    108.2573
  1494.2000      7.8356      2.5721      0.0303      4.7186    110.1660
  1494.3000      7.7799      2.5766      0.0937      4.4463    114.6582
  1494.4000      7.7799      2.5912      0.0875      3.5651    119.9536
  1494.5000      7.7644      2.6083      0.1553      2.5255    125.8613
  1494.6000      7.7644      2.6179      0.1381      1.9444    132.7531
  1494.7000      7.7644      2.6178      0.1353      1.9494    139.5632
  1494.8000      7.7670      2.6058      0.1211      2.6810    143.4063
  1494.9000      7.7670      2.5708      0.1305      4.8026    144.0857
  1495.0000      7.7839      2.5162      0.0455      8.1081    142.9251
  1495.1000      7.7839      2.4705     -0.0149     10.8794    142.2074
  1495.2000      7.7839      2.4510     -0.0156     12.0616    143.9001
  1495.3000      7.8601      2.4457      0.0044     12.3839    148.1581
  1495.4000      7.8601      2.4420     -0.0029     12.6086    153.5654
  1495.5000      7.9154      2.4434      0.0006     12.5224    159.2219
  1495.6000      7.9154      2.4497      0.0330     12.1400    165.0410
  1495.7000      7.9154      2.4500      0.0503     12.1242    168.5871
  1495.8000      7.9273      2.4467      0.0509     12.3224    169.1553
  1495.9000      7.9273      2.4595      0.0304     11.5484    169.5449
  1496.0000      7.9124      2.4954      0.0966      9.3724    170.0356
  1496.1000      7.9124      2.5296      0.1394      7.2989    168.7711
  1496.2000      7.9124      2.5360      0.0952      6.9061    163.8609
  1496.3000      7.9350      2.5252      0.0569      7.5606    155.7293
  1496.4000      7.9350      2.5197      0.0851      7.8949    148.9212
  1496.5000      7.9120      2.5129      0.1269      8.3113    148.8230
  1496.6000      7.9120      2.4940      0.0522      9.4555    153.3310
  1496.7000      7.9120      2.4820      0.0398     10.1842    152.0141
  1496.8000      7.9194      2.4879      0.0852      9.8232    141.5140
  1496.9000      7.9194      2.4914      0.0575      9.6092    131.3589
  1497.0000      7.9399      2.4803      0.0541     10.2872    130.1368
  1497.1000      7.9399      2.4738      0.0223     10.6767    136.5342
  1497.2000      7.9399      2.4875      0.0994      9.8469    142.3453
  1497.3000      7.9726      2.5094      0.0932      8.5195    140.5104
  1497.4000      7.9726      2.5301      0.1153      7.2695    133.4640
  1497.5000      7.9697      2.5536      0.1004      5.8401    129.3815
  1497.6000      7.9697      2.5823      0.1109      4.1059    129.1871
  1497.7000      7.9697      2.6054      0.1435      2.7005    127.0755
  1497.8000      7.8858      2.6127      0.0840      2.2587    123.9529
  1497.9000      7.8858      2.6094      0.0661      2.4615    123.8827
  1498.0000      7.9201      2.6086      0.0244      2.5068    125.9164
  1498.1000      7.9201      2.6110      0.0785      2.3652    129.0656
  1498.2000      7.9201      2.6023      0.1015      2.8925    132.8811
  1498.3000      7.9389      2.5810      0.0267      4.1832    136.3486
  1498.4000      7.9389      2.5534      0.0301      5.8531    137.5666
  1498.5000      7.8562      2.5208      0.0132      7.8281    134.3751
  1498.6000      7.8562      2.4916     -0.0268      9.6016    129.9871
  1498.7000      7.8562      2.4711      0.0116     10.8395    130.8192
  1498.8000      7.8330      2.4593     -0.0082     11.5605    132.8126
  1498.9000      7.8330      2.4668     -0.0464     11.1034    130.2395
  1499.0000      7.8345      2.4923      0.0462      9.5565    130.7630
  1499.1000      7.8345      2.5071      0.0685      8.6605    139.1206
  1499.2000      7.8345      2.4989      0.0617      9.1566    149.7328
  1499.3000      7.8233      2.4866      0.0677      9.9053    155.5218
