~Version Information
VERS.                      2.0: CWLS Log ASCII Standard - VERSION 2.0
WRAP.                       NO: One line per depth step
~Well Information Block
STRT.FT               245.0000: 
STOP.FT              1208.2000: 
STEP.FT                 0.1000: 
NULL.                -999.2500: 
COMP.          Pioneer Natural Resources: COMPANY
WELL.              Davida 34-8: WELL
FLD.           Purgatoire River: FIELD
LOC.           418' FSL & 1923' FEL--: LOCATION
CNTY.               Las Animas: COUNTY
SRVC.                Patterson: SERVICE COMPANY
DATE.          Mon Mar 20 08:22:01 2006: LOG DATE
UWI.           05 071 08722 00: UNIQUE WELL ID
STAT.                 Colorado: STATE
~Curve Information Block
DEPT.FT            0 000 00 00: Depth
DCAL.in                       : CDL Caliper
RHOB.g/cc                     : CDL Bulk Density
RHOC.g/cc                     : CDL Density Correction
DPOR.pu                       : CDL Density Porosity
NPOR.pu                       : Neutron Porosity
GR.GAPI                       : Gamma Ray
~Parameter Information Block
~A  Depth       DCAL        RHOB        RHOC        DPOR        NPOR         GR     
# ...
   993.8000      7.8952      2.5149      0.0397      8.1876     18.7554    118.9824
   993.9000      7.8952      2.5060      0.0303      8.7285     18.7601    124.1025
   994.0000      7.8922      2.5098      0.0633      8.4957     18.3695    124.8749
   994.1000      7.8922      2.5113      0.0487      8.4063     17.8276    126.7008
   994.2000      7.8922      2.5049      0.0700      8.7917     17.6406    133.5974
   994.3000      7.9007      2.5027      0.0093      8.9262     17.6724    138.5590
   994.4000      7.9007      2.5172      0.0539      8.0508     17.2723    135.5939
   994.5000      7.9166      2.5334      0.0794      7.0659     16.6232    129.3804
   994.6000      7.9166      2.5309      0.0845      7.2164     16.3107    126.9907
   994.7000      7.9166      2.5197      0.0280      7.8974     16.1733    129.6048
   994.8000      7.9265      2.5213      0.0573      7.7971     16.1172    132.8565
   994.9000      7.9265      2.5308      0.0820      7.2256     16.5230    133.4660
   995.0000      7.9223      2.5286      0.0690      7.3574     17.4241    131.4288
   995.1000      7.9223      2.5131      0.0518      8.2951     18.2779    127.6823
   995.2000      7.9223      2.4986      0.0382      9.1762     18.6151    124.2661
   995.3000      7.9136      2.4963      0.0139      9.3181     18.4655    123.1418
   995.4000      7.9136      2.5011      0.0573      9.0235     18.1936    121.3887
   995.5000      7.9143      2.4989      0.0203      9.1551     18.0693    118.5804
   995.6000      7.9143      2.4850      0.0800      9.9983     17.9371    118.9234
   995.7000      7.9143      2.4686      0.0099     10.9966     17.3757    118.5670
   995.8000      7.9234      2.4583      0.0536     11.6157     16.3863    115.0870
   995.9000      7.9234      2.4514      0.0519     12.0345     15.5541    114.5558
   996.0000      7.9278      2.4512      0.0438     12.0494     15.1523    119.7508
   996.1000      7.9278      2.4643      0.0824     11.2537     14.9577    127.0908
   996.2000      7.9278      2.4799      0.0925     10.3095     14.8103    129.8481
   996.3000      7.9222      2.4836      0.0904     10.0839     14.7487    125.4974
   996.4000      7.9222      2.4788      0.0238     10.3728     14.8026    116.8190
   996.5000      7.9131      2.4789      0.0662     10.3713     14.7995    106.3415
   996.6000      7.9131      2.4888      0.0506      9.7720     14.6625     97.1311
   996.7000      7.9131      2.5088      0.0808      8.5576     14.5754     92.2327
   996.8000      7.9021      2.5371      0.0711      6.8441     14.6324     90.3692
   996.9000      7.9021      2.5692      0.0653      4.8979     14.9114     90.9451
   997.0000      7.8958      2.5980      0.1468      3.1487     15.5807     94.4406
   997.1000      7.8958      2.6155      0.1465      2.0912     16.4385     97.2720
   997.2000      7.8958      2.6283      0.1205      1.3156     17.1614     96.0867
   997.3000      7.8883      2.6454      0.1016      0.2771     17.8913     92.6828
   997.4000      7.8883      2.6547      0.1551     -0.2854     18.7441     88.4912
   997.5000      7.8750      2.6443      0.1245      0.3458     19.5073     83.3323
   997.6000      7.8750      2.6217      0.0738      1.7124     19.9578     79.1919
   997.7000      7.8750      2.5886      0.1065      3.7205     20.1080     78.0523
   997.8000      7.8748      2.5380      0.0409      6.7877     20.0695     78.7263
   997.9000      7.8748      2.4790     -0.0168     10.3644     19.7681     78.2455
   998.0000      7.8934      2.4220     -0.0154     13.8157     19.2539     78.0331
   998.1000      7.8934      2.3595     -0.0418     17.6085     18.7263     81.2641
   998.2000      7.8934      2.2738     -0.0044     22.7979     18.1272     88.1273
   998.3000      7.9104      2.1547     -0.0771     30.0161     17.3596     96.6116
   998.4000      7.9104      2.0152     -0.1244     38.4697     16.4034    103.8242
   998.5000      7.9211      1.8860     -0.1737     46.3029     14.9028    106.7370
   998.6000      7.9211      1.7930     -0.2038     51.9383     12.8142    103.0293
   998.7000      7.9211      1.7472     -0.1583     54.7165     10.7660     96.0856
   998.8000      7.9424      1.7458     -0.0908     54.7991      9.2227     89.6177
   998.9000      7.9424      1.7790     -0.0016     52.7877      8.2083     83.1064
   999.0000      7.9753      1.8354      0.0662     49.3700      7.5503     78.8033
   999.1000      7.9753      1.9103      0.1257     44.8323      7.1307     80.8291
   999.2000      7.9753      2.0061      0.1667     39.0250      7.0410     88.2510
   999.3000      7.9924      2.1181      0.2229     32.2366      7.4829     99.5698
   999.4000      7.9924      2.2315      0.2445     25.3639      8.4706    111.0798
   999.5000      7.9940      2.3340      0.2534     19.1544      9.7577    114.5743
   999.6000      7.9940      2.4114      0.2091     14.4633     11.1390    110.7111
   999.7000      7.9940      2.4509      0.1472     12.0652     12.5724    108.9775
   999.8000      7.9925      2.4583      0.0899     11.6211     13.9936    111.0858
   999.9000      7.9925      2.4545      0.0470     11.8468     15.1607    116.2106
  1000.0000      7.9824      2.4602      0.0290     11.5046     15.9505    124.0182
  1000.1000      7.9824      2.4818      0.0448     10.1926     16.6745    128.6469
  1000.2000      7.9824      2.5067      0.1269      8.6866     17.5059    127.8412
  1000.3000      7.9685      2.5206      0.0738      7.8403     18.2773    125.5900
  1000.4000      7.9685      2.5278      0.0561      7.4031     19.0030    125.1101
  1000.5000      7.9566      2.5275      0.1000      7.4269     19.5638    126.0046
  1000.6000      7.9566      2.5101      0.0391      8.4764     19.7496    127.2799
  1000.7000      7.9566      2.4823      0.0503     10.1662     19.7288    130.2058
  1000.8000      7.9459      2.4550      0.0003     11.8155     19.7601    131.9069
  1000.9000      7.9459      2.4327      0.0120     13.1692     19.8241    129.1016
  1001.0000      7.9480      2.4134     -0.0213     14.3399     19.7147    125.8550
  1001.1000      7.9480      2.3915     -0.0118     15.6643     19.3951    128.8393
  1001.2000      7.9480      2.3655     -0.0219     17.2454     19.0434    135.7077
  1001.3000      7.9584      2.3418     -0.0374     18.6768     18.8057    138.4400
  1001.4000      7.9584      2.3223     -0.0049     19.8607     18.5703    136.4032
  1001.5000      7.9623      2.3001     -0.0176     21.2033     18.1508    135.3951
  1001.6000      7.9623      2.2749     -0.0428     22.7334     17.6213    134.7878
  1001.7000      7.9623      2.2511     -0.0230     24.1782     17.0912    131.9713
  1001.8000      7.9658      2.2301      0.0041     25.4485     16.5974    129.4934
  1001.9000      7.9658      2.2148     -0.0102     26.3755     16.2243    130.1188
  1002.0000      7.9765      2.2077      0.0198     26.8042     15.9656    133.1639
  1002.1000      7.9765      2.2080      0.0298     26.7867     15.8022    134.1222
  1002.2000      7.9765      2.2189      0.0154     26.1273     15.7993    130.5200
  1002.3000      7.9831      2.2394      0.0785     24.8875     15.7410    125.1128
  1002.4000      7.9831      2.2524      0.0668     24.0960     15.3538    125.9864
  1002.5000      7.9875      2.2465      0.0428     24.4546     14.6691    133.7438
  1002.6000      7.9875      2.2263      0.0316     25.6770     14.0897    134.7228
  1002.7000      7.9875      2.1953      0.0088     27.5571     13.9744    122.9865
  1002.8000      8.0032      2.1479      0.0409     30.4300     14.1190    110.9082
  1002.9000      8.0032      2.0828     -0.0226     34.3759     14.0498    111.0335
  1003.0000      8.0313      2.0088     -0.0551     38.8608     13.6141    122.9789
  1003.1000      8.0313      1.9334     -0.0920     43.4297     12.8702    138.0028
  1003.2000      8.0313      1.8635     -0.0708     47.6679     11.8635    146.2647
  1003.3000      8.0634      1.8022     -0.0812     51.3836     10.8817    146.8988
