~Version Information
VERS.                      2.0: CWLS Log ASCII Standard - VERSION 2.0
WRAP.                       NO: One line per depth step
~Well Information Block
STRT.FT               -15.7500: 
STOP.FT              1862.5000: 
STEP.FT                 0.2500: 
NULL.                -999.2500: 
COMP.          XTO Energy Inc.: COMPANY
WELL.          Golden Eagle 19-11: WELL
FLD.           Purgatorie River: FIELD
LOC.           2351' FSL &1926' WL--: LOCATION
CNTY.               Las Animas: COUNTY
SRVC.          Patterson Wireline: SERVICE COMPANY
DATE.          Fri Mar 24 16:29:29 2006: LOG DATE
UWI.           05 071 08696 00: UNIQUE WELL ID
STAT.                       CO: STATE
~Curve Information Block
DEPT.FT            0 000 00 00: Depth
CCL.                          : Casing Collar Locator
TT3.usec                      : CBL 3' Travel Time
AMP3.mV                       : CBL 3' Amplitude
GR.GAPI                       : Gamma Ray
~Parameter Information Block
~A  Depth       CCL         TT3         AMP3         GR     
# ...
   118.2500      0.0000    444.2059     11.1264     64.7827
   118.5000      0.0000    442.7185     11.0913     65.6276
   118.7500      0.0000    441.9640     11.0605     67.5437
   119.0000      0.0000    441.4929     11.0333     69.3678
   119.2500      0.0000    441.1608     11.0094     70.1641
   119.5000      0.0000    440.9484     10.9882     70.1374
   119.7500      0.0000    440.8423     10.9702     70.3015
   120.0000      0.0000    440.8053     10.9584     71.0532
   120.2500      0.0000    440.8021     10.9565     71.3735
   120.5000      0.0000    440.8213     10.9621     69.7511
   120.7500      0.0000    440.8746     10.9653     65.8231
   121.0000      0.0000    440.9775     10.9539     60.9159
   121.2500      0.0000    441.1285     10.9225     57.0041
   121.5000      0.0000    441.2995     10.8754     55.2591
   121.7500      0.0000    441.4485     10.8247     55.4827
   122.0000      0.0000    441.5471     10.7820     56.6030
   122.2500      0.0000    441.5990     10.7519     57.4441
   122.5000      0.0000    441.6318     10.7304     57.2460
   122.7500      0.0000    441.6761     10.7104     55.9217
   123.0000      0.0000    441.7516     10.6876     53.9740
   123.2500      0.0000    441.8644     10.6619     52.0206
   123.5000      0.0000    442.0100     10.6359     50.4083
   123.7500      0.0000    442.1765     10.6124     49.3373
   124.0000      0.0000    442.3445     10.5922     49.1015
   124.2500      0.0000    442.4830     10.5740     49.8756
   124.5000      0.0000    442.5515     10.5552     51.2681
   124.7500      0.0000    442.5128     10.5331     52.3256
   125.0000      0.0000    442.3522     10.5052     52.1830
   125.2500      0.0000    442.0920     10.4693     50.8723
   125.5000      0.0000    441.7920     10.4245     49.5553
   125.7500      0.0000    441.5302     10.3719     49.7932
   126.0000      0.0000    441.3782     10.3147     52.2872
   126.2500      0.0000    441.3871     10.2563     56.2562
   126.5000      0.0000    441.6120     10.1993     60.1394
   126.7500      0.0000    442.2004     10.1441     62.7999
   127.0000      0.0000    443.5189     10.0902     64.1364
   127.2500      0.0000    446.1564     10.0384     65.1826
   127.5000      0.0000    450.5298      9.9932     67.7898
   127.7500      0.0000    456.2478      9.9595     73.3504
   128.0000      0.0000    462.0768      9.9377     81.2762
   128.2500      0.0000    466.9426      9.9231     89.1285
   128.5000      0.0000    470.8397      9.9097     94.6094
   128.7500      0.0000    474.3738      9.8956     97.2597
   129.0000      0.0000    477.6497      9.8843     98.1128
   129.2500      0.0000    480.0292      9.8803     98.0825
   129.5000      0.0000    480.6259      9.8855     97.2629
   129.7500      0.0000    478.5378      9.8975     95.9364
   130.0000      0.0000    472.8533      9.9122     95.3742
   130.2500      0.0000    463.0934      9.9293     96.7788
   130.5000      0.0000    449.8008      9.9544     99.8139
   130.7500      0.0000    434.3158      9.9909    102.8511
   131.0000      0.0000    417.8296     10.0225    104.4175
   131.2500      0.0000    400.9521     10.0190    104.0827
   131.5000      0.0000    384.2895      9.9742    102.2363
   131.7500      0.0000    368.9078      9.9231     99.5128
   132.0000      0.0000    355.8081      9.8950     96.6492
   132.2500      0.0000    345.1829      9.8688     94.5989
   132.5000      0.0000    336.4922      9.8107     94.0055
   132.7500      0.0000    329.2280      9.7345     94.1994
   133.0000      0.0000    323.4483      9.6801     93.2715
   133.2500      0.0000    319.5683      9.6504     89.6075
   133.5000      2.0000    317.8659      9.6055     83.2210
   133.7500      0.0000    318.4651      9.5094     75.6995
   134.0000      0.0000    321.7136      9.3723     69.3271
   134.2500      0.0000    328.3016      9.2572     66.1650
   134.5000      0.0000    338.7919      9.2363     67.0815
   134.7500      0.0000    353.1581      9.3157     71.0767
   135.0000      0.0000    371.0852      9.4177     75.8538
   135.2500      0.0000    392.8765      9.4673     79.4675
   135.5000      0.0000    419.2545      9.4676     81.3317
   135.7500      0.0000    448.6872      9.4638     81.5645
   136.0000      0.0000    474.7266      9.4731     80.0226
   136.2500      0.0000    488.3859      9.4800     76.7519
   136.5000      0.0000    485.1749      9.4717     72.9245
   136.7500      0.0000    468.8592      9.4524     70.3332
   137.0000      0.0000    447.4842      9.4338     69.8460
   137.2500      0.0000    427.3079      9.4237     70.6599
   137.5000      0.0000    411.1347      9.4204     71.0477
   137.7500      0.0000    400.0843      9.4133     70.0027
   138.0000      0.0000    394.6919      9.3876     68.5345
   138.2500      0.0000    394.3723      9.3334     69.0922
   138.5000      0.0000    397.0027      9.2568     73.1819
   138.7500      0.0000    399.8448      9.1809     79.6926
   139.0000      0.0000    401.0547      9.1309     85.9651
   139.2500      0.0000    400.3929      9.1160     90.3349
   139.5000      0.0000    398.6908      9.1262     93.2150
   139.7500      0.0000    396.8647      9.1444     95.8144
   140.0000      0.0000    395.2601      9.1587     98.4478
   140.2500      0.0000    393.4906      9.1668    100.3786
   140.5000      0.0000    390.6384      9.1737    100.8580
   140.7500      0.0000    385.7906      9.1840     99.8891
   141.0000      0.0000    378.7994      9.1927     98.0244
   141.2500      0.0000    370.6303      9.1852     95.6372
   141.5000      0.0000    362.6605      9.1473     92.5355
   141.7500      0.0000    355.4525      9.0759     88.2839
   142.0000      0.0000    348.4399      8.9797     82.7419
   142.2500      0.0000    340.9980      8.8727     76.2535
   142.5000      0.0000    333.6552      8.7710     69.6875
   142.7500      0.0000    328.0883      8.6920     64.4845
   143.0000      0.0000    326.0301      8.6510     62.2474
   143.2500      0.0000    328.1913      8.6544     63.7753
   143.5000      0.0000    333.8758      8.6973     68.4486
   143.7500      0.0000    341.3744      8.7660     74.7070
   144.0000      0.0000    349.0455      8.8410     81.0244
   144.2500      0.0000    356.4298      8.9030     86.4571
   144.5000      0.0000    364.3122      8.9389     90.7997
   144.7500      0.0000    373.5928      8.9472     94.6268
   145.0000      0.0000    384.1872      8.9357     98.8503
   145.2500      0.0000    395.0654      8.9151    103.7185
   145.5000      0.0000    405.1232      8.8945    108.3936
   145.7500      0.0000    413.8593      8.8802    111.9095
   146.0000      0.0000    421.3449      8.8757    114.2497
   146.2500      0.0000    427.7168      8.8807    116.0153
   146.5000      0.0000    432.7711      8.8905    117.3719
   146.7500      0.0000    436.0481      8.8983    117.7947
   147.0000      0.0000    437.0620      8.9006    116.5059
   147.2500      0.0000    435.2310      8.8971    112.8368
   147.5000      0.0000    429.8142      8.8877    106.7399
   147.7500      0.0000    420.3924      8.8697     99.5544
   148.0000      0.0000    407.6358      8.8416     94.0328
   148.2500      0.0000    393.4933      8.8059     92.8633
   148.5000      0.0000    380.4408      8.7685     96.5842
   148.7500      0.0000    370.3344      8.7340    102.8912
   149.0000      0.0000    363.7068      8.7034    108.2205
   149.2500      0.0000    359.9493      8.6760    110.0471
   149.5000      0.0000    358.0803      8.6528    107.7919
   149.7500      0.0000    357.4482      8.6384    102.3187
   150.0000      0.0000    358.0344      8.6376     95.3430
   150.2500      0.0000    360.3800      8.6501     88.9651
   150.5000      0.0000    365.1232      8.6679     84.8003
   150.7500      0.0000    372.2661      8.6794     83.2838
   151.0000      0.0000    380.8206      8.6801     83.8381
   151.2500      0.0000    389.4832      8.6767     85.4552
   151.5000      0.0000    397.7714      8.6808     87.1563
