~Version Information
VERS.                      2.0: CWLS Log ASCII Standard - VERSION 2.0
WRAP.                       NO: One line per depth step
~Well Information Block
STRT.FT                10.0000: 
STOP.FT              1665.0000: 
STEP.FT                 0.1000: 
NULL.                -999.2500: 
COMP.          Pioneer Natural Resources: COMPANY
WELL.          Stock Canyon 34-33: WELL
FLD.           Purgatorie River: FIELD
LOC.           980' FSL & 2191' FEL: LOCATION
PROV.                 Colorado: PROVINCE
CNTY.               Las Animas: COUNTRY
SRVC.                Patterson: SERVICE COMPANY
DATE.          Mon Dec 05 10:33:50 2005: LOG DATE
UWI.                          : UNIQUE WELL ID
~Curve Information Block
DEPT.FT            0 000 00 00: Depth
DCAL.in                       : CDL Caliper
RHOB.g/cc                     : CDL Bulk Density
RHOC.g/cc                     : CDL Density Correction
DPOR.pu                       : CDL Density Porosity
GR.GAPI                       : Gamma Ray
NPOR.pu                       : Neutron Porosity
~Parameter Information Block
~A  Depth       DCAL        RHOB        RHOC        DPOR         GR         NPOR    
# ...
  1210.0000      8.2356      2.4510      0.0388     12.0605    144.5072     28.4591
  1210.1000      8.2356      2.4612      0.0653     11.4412    144.6637     28.6632
  1210.2000      8.2356      2.4719      0.0853     10.7953    141.2449     28.5385
  1210.3000      8.3198      2.4678      0.1198     11.0410    135.4382     28.1078
  1210.4000      8.3198      2.4369      0.0926     12.9132    131.1283     27.8530
  1210.5000      8.3313      2.3867      0.0399     15.9550    132.2724     28.0685
  1210.6000      8.3313      2.3401      0.0753     18.7800    137.8762     28.4490
  1210.7000      8.3313      2.3094      0.0708     20.6409    142.8123     28.6616
  1210.8000      8.3248      2.2948      0.0096     21.5296    143.4411     28.8047
  1210.9000      8.3248      2.2932      0.0427     21.6261    139.8493     29.0381
  1211.0000      8.3888      2.2919      0.0571     21.7044    135.2707     29.3373
  1211.1000      8.3888      2.2795      0.0980     22.4521    134.0251     29.6608
  1211.2000      8.3888      2.2584      0.1469     23.7326    135.9429     29.9295
  1211.3000      8.4292      2.2431      0.1834     24.6632    135.2400     29.9710
  1211.4000      8.4292      2.2507      0.2275     24.2026    131.5361     29.8612
  1211.5000      8.5628      2.2809      0.2907     22.3673    130.1443     29.8780
  1211.6000      8.5628      2.3157      0.2581     20.2611    132.0230     30.0699
  1211.7000      8.5628      2.3453      0.2201     18.4644    133.8710     30.2563
  1211.8000      8.6154      2.3729      0.2209     16.7913    133.6836     30.4093
  1211.9000      8.6154      2.4043      0.2473     14.8909    132.8060     30.6881
  1212.0000      8.6595      2.4462      0.3375     12.3532    134.1597     30.9227
  1212.1000      8.6595      2.4937      0.4255      9.4712    137.2115     30.8065
  1212.2000      8.6595      2.5332      0.3524      7.0778    138.3922     30.4796
  1212.3000      8.7292      2.5497      0.3248      6.0787    137.7999     30.3213
  1212.4000      8.7292      2.5290      0.2542      7.3355    137.3275     30.3389
  1212.5000      8.4014      2.4908      0.1360      9.6511    136.1663     30.2781
  1212.6000      8.4014      2.4737      0.1444     10.6825    133.9275     30.2672
  1212.7000      8.4014      2.4829      0.1486     10.1264    131.6653     30.3412
  1212.8000      8.2415      2.4981      0.1889      9.2068    131.4355     30.1943
  1212.9000      8.2415      2.5042      0.1850      8.8389    134.5630     29.8022
  1213.0000      8.1824      2.4959      0.1635      9.3405    137.8016     29.3521
  1213.1000      8.1824      2.4730      0.1148     10.7246    138.5706     28.9710
  1213.2000      8.1824      2.4442      0.0674     12.4718    140.4150     28.8263
  1213.3000      8.1723      2.4206      0.0284     13.9057    145.8664     28.8753
  1213.4000      8.1723      2.4042      0.0395     14.8991    151.8578     28.8424
  1213.5000      8.1790      2.3923      0.0229     15.6171    155.0676     28.8592
  1213.6000      8.1790      2.3908      0.0387     15.7096    153.8869     29.3871
  1213.7000      8.1790      2.4056      0.0751     14.8114    148.7871     30.1019
  1213.8000      8.1807      2.4314      0.0969     13.2479    145.1606     30.1686
  1213.9000      8.1807      2.4542      0.1268     11.8654    147.9684     29.6586
  1214.0000      8.1830      2.4558      0.1590     11.7716    156.5962     29.1894
  1214.1000      8.1830      2.4219      0.1497     13.8223    163.6624     29.0023
  1214.2000      8.1830      2.3663      0.0681     17.1915    161.5673     29.1087
  1214.3000      8.2281      2.3307      0.0520     19.3495    155.2609     29.4057
  1214.4000      8.2281      2.3340      0.1187     19.1520    153.3793     29.5596
  1214.5000      8.3532      2.3528      0.0905     18.0128    155.8278     29.3442
  1214.6000      8.3532      2.3646      0.1098     17.2976    157.2208     29.0231
  1214.7000      8.3532      2.3704      0.0973     16.9446    153.5791     29.0090
  1214.8000      8.4808      2.3779      0.1270     16.4882    145.8338     29.4602
  1214.9000      8.4808      2.3878      0.1262     15.8881    141.1095     30.0544
  1215.0000      8.4867      2.3930      0.1583     15.5743    145.6069     30.2835
  1215.1000      8.4867      2.3871      0.1398     15.9342    153.3052     30.0566
  1215.2000      8.4867      2.3756      0.1257     16.6317    156.7327     29.7097
  1215.3000      8.4125      2.3668      0.0785     17.1627    156.3537     29.5754
  1215.4000      8.4125      2.3642      0.0406     17.3182    155.0186     29.7217
  1215.5000      8.2163      2.3716      0.0421     16.8714    153.9315     29.9494
  1215.6000      8.2163      2.3862      0.0601     15.9859    151.7516     30.1728
  1215.7000      8.2163      2.3949      0.0819     15.4589    149.2509     30.2768
  1215.8000      8.2204      2.3931      0.0293     15.5668    149.4240     30.0553
  1215.9000      8.2204      2.3967      0.0512     15.3537    150.9324     29.6669
  1216.0000      8.2517      2.4211      0.0031     13.8709    150.4086     29.4398
  1216.1000      8.2517      2.4609      0.0753     11.4629    147.7808     29.4046
  1216.2000      8.2517      2.4961      0.1319      9.3265    145.9772     29.4710
  1216.3000      8.2711      2.5210      0.1537      7.8163    144.4589     29.4731
  1216.4000      8.2711      2.5377      0.2096      6.8032    140.4142     29.1557
  1216.5000      8.2387      2.5346      0.2009      6.9960    136.6185     28.7860
  1216.6000      8.2387      2.5036      0.1487      8.8711    137.7673     28.7521
  1216.7000      8.2387      2.4627      0.0711     11.3519    140.5023     28.7895
  1216.8000      8.2793      2.4320      0.0713     13.2118    139.6375     28.6382
  1216.9000      8.2793      2.4098      0.0503     14.5580    137.0065     28.5124
  1217.0000      8.2393      2.3891      0.0057     15.8101    135.6971     28.4587
  1217.1000      8.2393      2.3728     -0.0039     16.7979    136.0323     28.3424
  1217.2000      8.2393      2.3670     -0.0175     17.1534    136.6302     28.2756
  1217.3000      8.2324      2.3724      0.0185     16.8251    136.8781     28.3107
  1217.4000      8.2324      2.3812      0.0690     16.2928    136.1357     28.3981
  1217.5000      8.2033      2.3834      0.0705     16.1596    133.9161     28.4943
  1217.6000      8.2033      2.3787      0.0848     16.4439    132.0254     28.4934
  1217.7000      8.2033      2.3826      0.0418     16.2076    132.4850     28.5295
  1217.8000      8.1734      2.4079      0.0891     14.6719    133.2909     28.7741
  1217.9000      8.1734      2.4349      0.1349     13.0357    132.2994     29.0738
  1218.0000      8.1761      2.4395      0.1070     12.7604    131.7230     29.2452
  1218.1000      8.1761      2.4230      0.1268     13.7597    132.6237     29.2695
  1218.2000      8.1761      2.3970      0.0391     15.3355    132.3282     29.1649
  1218.3000      8.2000      2.3766      0.0413     16.5673    129.7746     29.0802
  1218.4000      8.2000      2.3711      0.0371     16.9059    128.0240     29.1312
  1218.5000      8.2017      2.3737      0.0854     16.7441    127.7977     29.1140
  1218.6000      8.2017      2.3713      0.0831     16.8885    127.5977     28.8694
  1218.7000      8.2017      2.3617      0.0679     17.4739    127.4833     28.5504
  1218.8000      8.2086      2.3548      0.0794     17.8894    126.9481     28.2933
  1218.9000      8.2086      2.3549      0.0693     17.8838    125.6695     28.2244
  1219.0000      8.2251      2.3564      0.0813     17.7935    123.0934     28.4733
  1219.1000      8.2251      2.3589      0.0643     17.6401    119.1576     28.9169
  1219.2000      8.2251      2.3704      0.0363     16.9449    116.9570     29.1702
  1219.3000      8.1759      2.3927      0.0792     15.5950    119.0413     28.9391
  1219.4000      8.1759      2.4165      0.0927     14.1536    122.2360     28.3828
  1219.5000      8.1581      2.4330      0.1100     13.1521    121.6320     27.8099
