~Version Information
VERS.                      2.0: CWLS Log ASCII Standard - VERSION 2.0
WRAP.                       NO: One line per depth step
~Well Information Block
STRT.FT                -8.7500: 
STOP.FT              1525.0000: 
STEP.FT                 0.2500: 
NULL.                -999.2500: 
COMP.          Pioneer Natural Resources: COMPANY
WELL.          Grand Prix 13-12 Tr: WELL
FLD.           Purgatorie River: FIELD
LOC.           2595' FSL & 1277' FWL--: LOCATION
CNTY.               Las Animas: COUNTY
SRVC.          Patterson Wireline: SERVICE COMPANY
DATE.          Thu Apr 13 10:28:30 2006: LOG DATE
UWI.           05 071 08711 00: UNIQUE WELL ID
STAT.                       CO: STATE
~Curve Information Block
DEPT.FT            0 000 00 00: Depth
CCL.                          : Casing Collar Locator
TT3.usec                      : CBL 3' Travel Time
AMP3.mV                       : CBL 3' Amplitude
GR.GAPI                       : Gamma Ray
~Parameter Information Block
~A  Depth       CCL         TT3         AMP3         GR     
# ...
   493.7500      0.0000    808.7870      4.1517     94.4715
   494.0000      0.0000    807.0149      4.0790     95.3667
   494.2500      0.0000    802.4124      4.0271     98.0817
   494.5000      0.0000    795.9348      4.0021    102.1963
   494.7500      0.0000    788.0797      4.0046    106.5680
   495.0000      0.0000    779.3973      4.0293    109.7010
   495.2500      0.0000    771.0781      4.0642    110.3675
   495.5000      0.0000    764.8516      4.0918    108.3579
   495.7500      0.0000    762.2708      4.0967    104.8388
   496.0000      0.0000    763.9438      4.0773    101.7589
   496.2500      0.0000    769.1646      4.0454    100.6393
   496.5000      0.0000    776.1141      4.0135    101.8828
   496.7500      0.0000    782.6802      3.9839    105.0809
   497.0000      0.0000    787.5971      3.9523    109.5058
   497.2500      0.0000    790.9481      3.9189    114.0683
   497.5000      0.0000    793.3149      3.8933    117.2784
   497.7500      0.0000    794.5730      3.8865    117.8267
   498.0000      0.0000    794.1544      3.9000    115.4464
   498.2500      0.0000    792.3577      3.9233    111.1850
   498.5000      0.0000    790.5321      3.9426    106.6539
   498.7500      0.0000    790.0186      3.9508    102.9090
   499.0000      0.0000    791.4655      3.9504    100.1112
   499.2500      0.0000    794.5886      3.9520     97.9805
   499.5000      0.0000    797.7316      3.9686     96.1364
   499.7500      0.0000    798.2947      4.0072     94.2653
   500.0000      0.0000    794.7172      4.0632     92.6268
   500.2500      0.0000    788.0242      4.1233     92.3189
   500.5000      0.0000    780.9058      4.1746     94.3575
   500.7500      0.0000    775.3187      4.2107     98.3336
   501.0000      0.0000    771.0733      4.2300    102.3317
   501.2500      0.0000    766.3669      4.2331    104.4666
   501.5000      0.0000    759.5255      4.2234    104.7009
   501.7500      0.0000    750.7070      4.2090    105.0360
   502.0000      0.0000    742.1594      4.2036    107.5646
   502.2500      0.0000    736.3848      4.2231    112.3258
   502.5000      0.0000    733.7963      4.2783    117.3812
   502.7500      0.0000    732.4901      4.3654    120.7914
   503.0000      0.0000    730.3743      4.4651    122.1939
   503.2500      0.0000    727.0402      4.5526    122.8258
   503.5000      0.0000    723.3923      4.6100    124.5207
   503.7500      0.0000    720.3862      4.6288    128.2975
   504.0000      0.0000    719.0788      4.6083    133.3031
   504.2500      0.0000    720.9651      4.5575    137.2085
   504.5000      0.0000    726.6514      4.4965    137.7902
   504.7500      0.0000    734.5945      4.4498    134.0403
   505.0000      0.0000    742.4790      4.4339    126.3146
   505.2500      0.0000    749.4200      4.4489    116.3802
   505.5000      0.0000    755.6293      4.4802    107.2428
   505.7500      0.0000    760.6255      4.5068    101.8742
   506.0000      0.0000    763.3442      4.5141    101.4198
   506.2500      0.0000    763.8655      4.5007    104.6744
   506.5000      0.0000    763.8010      4.4753    109.4856
   506.7500      0.0000    764.6522      4.4482    114.4555
   507.0000      0.0000    766.2998      4.4258    118.9841
   507.2500      0.0000    767.1934      4.4115    122.2244
   507.5000      0.0000    765.6299      4.4074    123.0750
   507.7500      0.0000    761.0901      4.4137    121.2104
   508.0000      0.0000    755.0865      4.4264    117.4632
   508.2500      0.0000    750.5215      4.4362    113.3699
   508.5000      0.0000    749.2408      4.4343    110.7396
   508.7500      0.0000    749.9669      4.4213    111.0183
   509.0000      0.0000    749.1563      4.4093    114.2893
   509.2500      0.0000    743.9611      4.4153    119.0996
   509.5000      0.0000    734.3694      4.4488    123.5906
   509.7500      0.0000    723.1826      4.5018    126.6366
   510.0000      0.0000    714.2924      4.5495    128.0539
   510.2500      0.0000    710.2385      4.5647    128.4113
   510.5000      0.0000    710.5864      4.5334    128.8871
   510.7500      0.0000    712.3939      4.4572    130.7042
   511.0000      0.0000    712.4363      4.3482    134.0413
   511.2500      0.0000    709.4858      4.2381    137.6618
   511.5000      0.0000    705.3131      4.1834    140.2556
   511.7500      0.0000    704.1468      4.2344    141.9413
   512.0000      0.0000    710.6270      4.3869    143.6121
   512.2500      0.0000    726.8220      4.5835    144.9036
   512.5000      0.0000    750.1027      4.7656    143.8638
   512.7500      0.0000    774.0092      4.9081    139.0343
   513.0000      2.0000    792.2531      5.0138    131.4492
   513.2500     -2.0000    802.6750      5.0997    124.3756
   513.5000      0.0000    806.9397      5.1961    120.9477
   513.7500      0.0000    805.4585      5.3516    121.8719
   514.0000      0.0000    794.0482      5.6211    125.3797
   514.2500      0.0000    769.3999      6.0191    129.0902
   514.5000      0.0000    738.7839      6.4636    131.4934
   514.7500      0.0000    719.0920      6.7985    132.1790
   515.0000      0.0000    721.6132      6.9169    131.7101
   515.2500      0.0000    740.2519      6.8505    131.3883
   515.5000      0.0000    758.0402      6.7154    132.3430
   515.7500      0.0000    762.6345      6.6007    134.5523
   516.0000      0.0000    753.3130      6.5281    137.1581
   516.2500      0.0000    736.7729      6.4790    139.6686
   516.5000      0.0000    720.2979      6.4252    142.2774
   516.7500      0.0000    708.2816      6.3450    144.9327
   517.0000      0.0000    701.9457      6.2332    146.6901
   517.2500      0.0000    700.2032      6.1017    146.3952
   517.5000      0.0000    700.6536      5.9677    143.7648
   517.7500      0.0000    700.7752      5.8437    139.5829
   518.0000      0.0000    699.3415      5.7360    135.0464
   518.2500      0.0000    696.9495      5.6497    131.0486
   518.5000      0.0000    695.0723      5.5932    127.7563
   518.7500      0.0000    694.8091      5.5778    124.6746
   519.0000      0.0000    696.5527      5.6131    121.1992
   519.2500      0.0000    700.2852      5.7016    117.1265
   519.5000      0.0000    705.7247      5.8356    112.6303
   519.7500      0.0000    712.4109      5.9955    107.9681
   520.0000      0.0000    719.7271      6.1508    103.4715
   520.2500      0.0000    726.2632      6.2716     99.7590
   520.5000      0.0000    728.8306      6.3442     97.5465
   520.7500      0.0000    722.7192      6.3786     96.9743
   521.0000      0.0000    704.3312      6.3995     97.3667
   521.2500      0.0000    674.5862      6.4295     97.8722
   521.5000      0.0000    639.4386      6.4780     98.1154
   521.7500      0.0000    606.5454      6.5426     98.1540
   522.0000      0.0000    582.0576      6.6152     98.2991
   522.2500      0.0000    570.5223      6.6849     99.1979
   522.5000      0.0000    574.9536      6.7337    101.5332
   522.7500      0.0000    594.9633      6.7420    105.2452
   523.0000      0.0000    625.7090      6.7060    109.4322
   523.2500      0.0000    659.3242      6.6473    113.5172
   523.5000      0.0000    687.8575      6.5985    118.1721
   523.7500      0.0000    706.7358      6.5828    124.2803
   524.0000      0.0000    716.3518      6.6086    131.0287
   524.2500      0.0000    720.0023      6.6750    136.0726
   524.5000      0.0000    720.6437      6.7730    138.0001
   524.7500      0.0000    719.5533      6.8867    137.7604
   525.0000      0.0000    716.7720      6.9971    137.3048
   525.2500      0.0000    712.0649      7.0836    137.5706
   525.5000      0.0000    705.9606      7.1262    138.0746
   525.7500      0.0000    700.0039      7.1137    137.9465
   526.0000      0.0000    695.7247      7.0484    137.1405
   526.2500      0.0000    693.6512      6.9379    136.6603
   526.5000      0.0000    693.5199      6.7853    137.5585
   526.7500      0.0000    695.2769      6.5888    140.0459
   527.0000      0.0000    699.6472      6.3486    143.6477
