~Version Information
VERS.                      2.0: CWLS Log ASCII Standard - VERSION 2.0
WRAP.                       NO: One line per depth step
~Well Information Block
STRT.FT               505.0000: 
STOP.FT               772.0000: 
STEP.FT                 0.2500: 
NULL.                -999.2500: 
COMP.          Pioneer Natural Resources: COMPANY
WELL.                Zed 11-23: WELL
FLD.           Purgatoire River: FIELD
LOC.           641' FNL & 952' FWL: LOCATION
CNTY.               Las Animas: COUNTY
SRVC.                Patterson: SERVICE COMPANY
DATE.          Sun Feb 26 18:39:19 2006: LOG DATE
UWI.           05 071 08702 00: UNIQUE WELL ID
STAT.                 Colorado: STATE
~Curve Information Block
DEPT.FT            0 000 00 00: Depth
SN.Ohm-m                      : IEL Short Normal
SP.mV                         : IEL Spontaneous Potential
DIR.Ohm-m                     : IEL Induction Resistivity
GR.GAPI                       : Gamma Ray
~Parameter Information Block
~A  Depth        SN          SP         DIR          GR     
   505.0000   2000.0000   2000.0000     61.8921     90.1583
   505.2500   2000.0000   2000.0000     61.5572     88.8587
   505.5000   2000.0000   2000.0000     61.4311     85.5328
   505.7500   2000.0000   2000.0000     61.4321     82.8437
   506.0000   2000.0000   2000.0000     61.4418     79.1240
   506.2500   2000.0000   2000.0000     61.3629     77.3896
   506.5000   2000.0000   2000.0000     61.1736     76.3362
   506.7500   2000.0000   2000.0000     60.9117     76.5491
   507.0000   2000.0000   2000.0000     60.5941     77.6092
   507.2500   2000.0000   2000.0000     60.1514     78.3948
   507.5000   2000.0000   2000.0000     59.4772     79.2759
   507.7500   2000.0000   2000.0000     58.5818     79.7417
   508.0000   2000.0000   2000.0000     57.6938     80.8897
   508.2500   2000.0000   2000.0000     57.1496     82.2981
   508.5000   2000.0000   2000.0000     57.1605     85.1085
   508.7500   2000.0000   2000.0000     57.6634     86.7433
   509.0000   2000.0000   2000.0000     58.3755     87.6631
   509.2500   2000.0000   2000.0000     59.0041     87.1061
   509.5000   2000.0000   2000.0000     59.4307     85.0322
   509.7500   2000.0000   2000.0000     59.7075     83.1542
   510.0000   2000.0000   2000.0000     59.9083     79.9833
   510.2500   2000.0000   2000.0000     59.9898     77.9787
   510.5000   2000.0000   2000.0000     59.7523     76.1327
   510.7500   2000.0000   2000.0000     58.8791     76.1858
   511.0000   2000.0000   2000.0000     57.0459     78.0783
   511.2500   2000.0000   2000.0000     54.1147     79.8274
   511.5000   2000.0000   2000.0000     50.3381     81.6736
   511.7500   2000.0000   2000.0000     46.3440     81.9200
   512.0000   2000.0000   2000.0000     42.8451     81.0723
   512.2500   2000.0000   2000.0000     40.3264     80.2225
   512.5000   2000.0000   2000.0000     38.9341     79.4091
   512.7500   2000.0000   2000.0000     38.5239     79.4492
   513.0000   2000.0000   2000.0000     38.7499     80.3135
   513.2500   2000.0000   2000.0000     39.1623     81.1496
   513.5000   2000.0000   2000.0000     39.3534     82.4289
   513.7500   2000.0000   2000.0000     39.1674     83.4183
   514.0000   2000.0000   2000.0000     38.9069     85.6472
   514.2500   2000.0000   2000.0000     39.4439     87.6559
   514.5000   2000.0000   2000.0000     42.3515     90.5648
   514.7500   2000.0000   2000.0000     50.7920     91.7181
   515.0000   2000.0000   2000.0000     74.3976     91.6603
   515.2500   2000.0000   2000.0000    173.7399     90.6489
   515.5000   2000.0000   2000.0000 100000.0000     88.6555
   515.7500   2000.0000   2000.0000 100000.0000     87.4647
   516.0000   2000.0000   2000.0000 100000.0000     85.7897
   516.2500   2000.0000   2000.0000 100000.0000     84.3032
   516.5000   2000.0000   2000.0000 100000.0000     81.0729
   516.7500   2000.0000   2000.0000 100000.0000     78.5232
   517.0000   2000.0000   2000.0000 100000.0000     75.0581
   517.2500   2000.0000   2000.0000 100000.0000     73.3479
   517.5000   2000.0000   2000.0000 100000.0000     71.6881
   517.7500   2000.0000   2000.0000 100000.0000     71.0762
   518.0000   2000.0000   2000.0000 100000.0000     70.8145
   518.2500   2000.0000   2000.0000 100000.0000     70.9557
   518.5000   2000.0000   2000.0000 100000.0000     71.2752
   518.7500   2000.0000   2000.0000 100000.0000     66.8744
   519.0000   2000.0000   2000.0000 100000.0000     68.9353
   519.2500   2000.0000   2000.0000 100000.0000     72.5138
   519.5000   2000.0000   2000.0000 100000.0000     82.1689
   519.7500   2000.0000   2000.0000 100000.0000     90.5512
   520.0000   2000.0000   2000.0000 100000.0000    102.2275
   520.2500   2000.0000   2000.0000 100000.0000    107.1761
   520.5000   2000.0000   2000.0000 100000.0000    109.0068
   520.7500   2000.0000   2000.0000 100000.0000    107.4517
   521.0000   2000.0000   2000.0000 100000.0000    103.8622
   521.2500   2000.0000   2000.0000 100000.0000    101.8942
   521.5000   2000.0000   2000.0000 100000.0000     99.9784
   521.7500   2000.0000   2000.0000     12.0385     98.8971
   522.0000   2000.0000   2000.0000      4.9323     96.7511
   522.2500   2000.0000   2000.0000      3.3623     94.8917
   522.5000   2000.0000   2000.0000      2.9047     91.5669
   522.7500   2000.0000   2000.0000      2.9155     88.8307
   523.0000   2000.0000   2000.0000      3.2386     83.5105
   523.2500   2000.0000   2000.0000      3.8745     79.2017
   523.5000   2000.0000   2000.0000      4.9792     72.5065
   523.7500   2000.0000   2000.0000      7.0493     68.7264
   524.0000   2000.0000   2000.0000     11.5960     65.5111
   524.2500   2000.0000   2000.0000     24.2355     65.4892
   524.5000   2000.0000   2000.0000     73.6682     68.3162
   524.7500   2000.0000   2000.0000    197.5784     71.2754
   525.0000   2000.0000   2000.0000     83.2247     75.6303
   525.2500   2000.0000   2000.0000     36.6293     77.8430
   525.5000   2000.0000   2000.0000     23.1355     80.0391
   525.7500   2000.0000   2000.0000     18.2478     81.1609
   526.0000   2000.0000   2000.0000     16.4251     83.2338
   526.2500   2000.0000   2000.0000     15.9295     85.1765
   526.5000   2000.0000   2000.0000     16.0523     88.6856
   526.7500   2000.0000   2000.0000     16.4775     90.9230
   527.0000   2000.0000   2000.0000     17.0883     93.2832
   527.2500   2000.0000   2000.0000     17.8897     94.0393
   527.5000   2000.0000   2000.0000     18.9884     94.2896
   527.7500   2000.0000   2000.0000     20.5870     94.1580
   528.0000   2000.0000   2000.0000     22.9395     93.7815
   528.2500   2000.0000   2000.0000     26.1911     93.4155
   528.5000   2000.0000   2000.0000     30.0523     92.5941
   528.7500   2000.0000   2000.0000     33.4752     91.8508
   529.0000   2000.0000   2000.0000     35.0542     90.4774
   529.2500   2000.0000   2000.0000     34.3077     89.3040
   529.5000   2000.0000   2000.0000     32.0713     86.8595
   529.7500   2000.0000   2000.0000     29.4470     84.8219
   530.0000   2000.0000   2000.0000     27.0508     81.9530
   530.2500   2000.0000   2000.0000     25.0723     80.7806
   530.5000   2000.0000   2000.0000     23.5410     80.6571
   530.7500   2000.0000   2000.0000     22.4698     81.4474
   531.0000   2000.0000   2000.0000     21.8699     82.9542
   531.2500   2000.0000   2000.0000     21.7121     83.6936
   531.5000   2000.0000   2000.0000     21.9031     84.3685
   531.7500   2000.0000   2000.0000     22.2978     84.7958
   532.0000   2000.0000   2000.0000     22.7483     85.4888
   532.2500   2000.0000   2000.0000     23.1570     85.6541
   532.5000   2000.0000   2000.0000     23.4957     84.8673
   532.7500   2000.0000   2000.0000     23.7837     83.7035
   533.0000   2000.0000   2000.0000     24.0531     81.6901
   533.2500   2000.0000   2000.0000     24.3296     80.4910
   533.5000   2000.0000   2000.0000     24.6288     78.8434
   533.7500   2000.0000   2000.0000     24.9588     77.7075
   534.0000   2000.0000   2000.0000     25.3215     76.1836
   534.2500   2000.0000   2000.0000     25.7109     75.6200
   534.5000   2000.0000   2000.0000     26.1150     75.6390
   534.7500   2000.0000   2000.0000     26.5202     75.9375
   535.0000   2000.0000   2000.0000     26.9146     75.9012
   535.2500   2000.0000   2000.0000     27.2878     75.0253
   535.5000   2000.0000   2000.0000     27.6277     72.0076
   535.7500   2000.0000   2000.0000     27.9236     69.0702
   536.0000   2000.0000   2000.0000     28.1719     64.2256
   536.2500   2000.0000   2000.0000     28.3803     61.2248
   536.5000   2000.0000   2000.0000     28.5589     57.3757
   536.7500   2000.0000   2000.0000     28.7049     55.1533
   537.0000   2000.0000   2000.0000     28.7992     52.3224
   537.2500   2000.0000   2000.0000     28.8346     51.0393
   537.5000   2000.0000   2000.0000     28.8579     50.5836
   537.7500   2000.0000   2000.0000     28.9787     51.2758
   538.0000   2000.0000   2000.0000     29.3135     53.1611
   538.2500   2000.0000   2000.0000     29.8915     54.4825
