~Version Information
VERS.                      2.0: CWLS Log ASCII Standard - VERSION 2.0
WRAP.                       NO: One line per depth step
~Well Information Block
STRT.FT                -7.0000: 
STOP.FT              2328.5000: 
STEP.FT                 0.2500: 
NULL.                -999.2500: 
COMP.          Pioneer Natural Resources: COMPANY
WELL.              Rolls 14-14: WELL
FLD.           Purgatorie River: FIELD
LOC.           572' FSL & 856' FWL--: LOCATION
PROV.                       CO: PROVINCE
CNTY.               Las Animas: COUNTRY
SRVC.          Patterson Wireline: SERVICE COMPANY
DATE.          Mon Aug 08 10:10:54 2005: LOG DATE
UWI.           05 071 08455 00: UNIQUE WELL ID
~Curve Information Block
DEPT.FT            0 000 00 00: Depth
CCL.                          : Casing Collar Locator
TT3.usec                      : CBL 3' Travel Time
AMP3.mV                       : CBL 3' Amplitude
GR.GAPI                       : Gamma Ray
~Parameter Information Block
~A  Depth       CCL         TT3         AMP3         GR     
# ...
  1835.5000      0.0000    762.4927      4.3356    143.3071
  1835.7500      0.0000    760.7689      4.4310    142.7753
  1836.0000      0.0000    760.3218      4.4960    141.4489
  1836.2500      0.0000    760.9819      4.5262    138.9967
  1836.5000      0.0000    762.8016      4.5476    135.3089
  1836.7500      0.0000    765.9008      4.5793    130.6631
  1837.0000      0.0000    770.0753      4.6211    126.1815
  1837.2500      0.0000    774.5920      4.6632    123.8112
  1837.5000      0.0000    778.3533      4.6965    125.1954
  1837.7500      0.0000    780.1866      4.7121    130.1316
  1838.0000      0.0000    779.1887      4.6996    136.3043
  1838.2500      0.0000    775.1252      4.6473    140.8654
  1838.5000      0.0000    768.4841      4.5482    142.4177
  1838.7500      0.0000    759.9883      4.4113    141.5688
  1839.0000      0.0000    750.2231      4.2645    139.9448
  1839.2500      0.0000    739.8749      4.1382    138.9705
  1839.5000      0.0000    729.8218      4.0444    139.4689
  1839.7500      0.0000    720.3855      3.9733    141.7760
  1840.0000      0.0000    710.7669      3.9101    145.6530
  1840.2500      0.0000    700.0652      3.8494    150.1898
  1840.5000      0.0000    689.2599      3.8004    154.1380
  1840.7500      0.0000    682.1284      3.7860    156.3137
  1841.0000      0.0000    683.5687      3.8217    155.7619
  1841.2500      0.0000    695.7706      3.8816    152.1299
  1841.5000      0.0000    715.2890      3.9015    146.2961
  1841.7500      0.0000    734.8713      3.8408    140.3530
  1842.0000      0.0000    749.5112      3.7299    136.3625
  1842.2500      0.0000    760.3199      3.6378    134.8225
  1842.5000      0.0000    771.4395      3.6052    134.4450
  1842.7500      0.0000    783.6857      3.6188    133.4744
  1843.0000     -2.0000    792.4736      3.6326    131.0953
  1843.2500     -2.0000    791.7904      3.6004    127.5191
  1843.5000      0.0000    779.2786      3.5025    123.0566
  1843.7500      0.0000    757.9233      3.3707    117.5783
  1844.0000      0.0000    734.0128      3.2867    111.0356
  1844.2500      0.0000    713.4523      3.3311    104.2385
  1844.5000      0.0000    698.9197      3.5139     98.7473
  1844.7500      0.0000    689.7482      3.7639     95.8596
  1845.0000      0.0000    684.2580      3.9921     95.8207
  1845.2500      0.0000    681.7324      4.1560     98.1532
  1845.5000      0.0000    681.6298      4.2637    102.4024
  1845.7500      0.0000    680.9048      4.3395    108.0228
  1846.0000      0.0000    672.8356      4.3988    113.8070
  1846.2500      0.0000    650.3997      4.4459    118.3311
  1846.5000      0.0000    613.1988      4.4768    121.0225
  1846.7500      0.0000    571.6840      4.4824    122.1057
  1847.0000      0.0000    542.6680      4.4551    121.7061
  1847.2500      0.0000    538.0491      4.3947    119.9003
  1847.5000      0.0000    556.4115      4.3084    117.5641
  1847.7500      0.0000    585.5516      4.2116    116.2692
  1848.0000      0.0000    613.6633      4.1273    117.1522
  1848.2500      0.0000    637.3687      4.0807    120.1778
  1848.5000      0.0000    658.4983      4.0891    124.4044
  1848.7500      0.0000    676.3744      4.1567    128.7702
  1849.0000      0.0000    686.7866      4.2724    132.5902
  1849.2500      0.0000    687.0703      4.4079    135.3886
  1849.5000      0.0000    679.2498      4.5212    136.6182
  1849.7500      0.0000    668.5021      4.5712    135.8179
  1850.0000      0.0000    659.9044      4.5376    132.9816
  1850.2500      0.0000    656.1238      4.4351    128.7960
  1850.5000      0.0000    657.0908      4.3133    124.5927
  1850.7500      0.0000    661.5550      4.2337    121.7469
  1851.0000      0.0000    668.5347      4.2313    120.7388
  1851.2500      0.0000    676.7895      4.2895    120.8890
  1851.5000      0.0000    683.9169      4.3520    121.1887
  1851.7500      0.0000    687.6495      4.3656    121.1859
  1852.0000      0.0000    688.2101      4.3183    121.0849
  1852.2500      0.0000    688.2227      4.2424    121.3397
  1852.5000      0.0000    689.7921      4.1895    122.2521
  1852.7500      0.0000    692.1634      4.2004    123.7318
  1853.0000      0.0000    692.5479      4.2796    125.3646
  1853.2500      0.0000    688.9785      4.3865    126.7746
  1853.5000      0.0000    682.0995      4.4567    127.9610
  1853.7500      0.0000    674.3915      4.4468    129.2643
  1854.0000      0.0000    668.1910      4.3649    131.0308
  1854.2500      0.0000    664.6729      4.2595    133.2946
  1854.5000      0.0000    664.3086      4.1784    135.6910
  1854.7500      0.0000    667.6843      4.1371    137.6030
  1855.0000      0.0000    675.6296      4.1209    138.5369
  1855.2500      0.0000    688.6148      4.1084    138.5909
  1855.5000      0.0000    706.0670      4.0901    138.5444
  1855.7500      0.0000    726.1149      4.0708    139.0941
  1856.0000      0.0000    745.8652      4.0613    139.6681
  1856.2500      0.0000    762.3583      4.0641    138.2266
  1856.5000      0.0000    774.0349      4.0642    132.8891
  1856.7500      0.0000    781.3890      4.0434    124.0934
  1857.0000      0.0000    785.7499      4.0085    114.9914
  1857.2500      0.0000    787.3358      3.9913    109.5287
  1857.5000      0.0000    784.6710      4.0115    109.8933
  1857.7500      0.0000    775.8409      4.0489    115.2063
  1858.0000      0.0000    760.5101      4.0597    122.2316
  1858.2500      0.0000    741.1016      4.0164    127.5364
  1858.5000      0.0000    721.9308      3.9297    129.4289
  1858.7500      0.0000    706.8884      3.8352    128.1767
  1859.0000      0.0000    697.8640      3.7586    124.9141
  1859.2500      0.0000    694.9568      3.6938    120.8379
  1859.5000      0.0000    697.2993      3.6207    117.2666
  1859.7500      0.0000    703.4492      3.5464    115.5154
  1860.0000      0.0000    711.8973      3.5159    116.0250
  1860.2500      0.0000    721.7036      3.5718    117.8349
  1860.5000      0.0000    732.1706      3.7062    119.5354
  1860.7500      0.0000    741.7533      3.8616    120.8890
  1861.0000      0.0000    748.1054      3.9749    123.0668
  1861.2500      0.0000    749.7482      4.0153    126.8978
  1861.5000      0.0000    747.7082      3.9938    131.1965
  1861.7500      0.0000    745.5811      3.9509    133.5421
  1862.0000      0.0000    747.6031      3.9315    132.6837
  1862.2500      0.0000    755.4476      3.9559    129.5486
  1862.5000      0.0000    766.2557      4.0081    125.9937
  1862.7500      0.0000    774.3310      4.0527    123.4620
  1863.0000      0.0000    775.4627      4.0618    122.9669
  1863.2500      0.0000    770.0283      4.0307    125.2621
  1863.5000      0.0000    761.9075      3.9745    130.1118
  1863.7500      0.0000    754.0107      3.9113    135.5666
  1864.0000      0.0000    745.1556      3.8480    138.7159
  1864.2500      0.0000    732.2955      3.7866    137.7356
  1864.5000      0.0000    715.4858      3.7405    133.4469
  1864.7500      0.0000    698.8816      3.7322    128.7572
  1865.0000      0.0000    686.4147      3.7724    126.2196
  1865.2500      0.0000    677.1455      3.8448    125.8762
  1865.5000      0.0000    664.7908      3.9090    125.7102
  1865.7500      0.0000    642.2421      3.9214    124.2612
  1866.0000      0.0000    609.0777      3.8641    122.1153
  1866.2500      0.0000    575.9151      3.7604    120.5260
  1866.5000      0.0000    558.7513      3.6597    119.5661
  1866.7500      0.0000    565.9986      3.6087    118.4852
  1867.0000      0.0000    590.9911      3.6339    117.0881
  1867.2500      0.0000    617.8656      3.7363    115.6402
  1867.5000      0.0000    633.6614      3.8937    113.7903
  1867.7500      0.0000    634.4321      4.0683    110.8133
  1868.0000      0.0000    623.0329      4.2204    107.0564
  1868.2500      0.0000    605.5797      4.3256    104.1855
  1868.5000      0.0000    590.4219      4.3861    103.5512
  1868.7500      0.0000    586.1338      4.4238    104.8081
