~Version Information
VERS.                      2.0: CWLS Log ASCII Standard - VERSION 2.0
WRAP.                       NO: One line per depth step
~Well Information Block
STRT.FT               665.0000: 
STOP.FT              2193.5000: 
STEP.FT                 0.1000: 
NULL.                -999.2500: 
COMP.          Pioneer Natural Resources: COMPANY
WELL.          Bear Cub Federal 11-23: WELL
FLD.           Purgatoire River: FIELD
LOC.           1225' FNL & 1268' FWL--: LOCATION
CNTY.               Las Animas: COUNTY
SRVC.                Patterson: SERVICE COMPANY
DATE.          Tue Jun 20 09:14:02 2006: LOG DATE
UWI.           05 071 08509 00: UNIQUE WELL ID
STAT.                 Colorado: STATE
~Curve Information Block
DEPT.FT            0 000 00 00: Depth
DCAL.in                       : CDL Caliper
RHOB.g/cc                     : CDL Bulk Density
RHOC.g/cc                     : CDL Density Correction
DPOR.pu                       : CDL Density Porosity
NPOR.pu                       : Neutron Porosity
GR.GAPI                       : Gamma Ray
~Parameter Information Block
~A  Depth       DCAL        RHOB        RHOC        DPOR        NPOR         GR     
# ...
  2057.0000      7.9781      2.5288      0.0709      7.3465     13.6462     69.8065
  2057.1000      7.9781      2.5512      0.0494      5.9891      9.2224     65.6920
  2057.2000      7.9781      2.5756      0.0964      4.5085      6.1279     58.9765
  2057.3000      7.9874      2.5874      0.1026      3.7959      8.9216     55.0878
  2057.4000      7.9874      2.5842      0.0557      3.9894     16.9487     54.3433
  2057.5000      7.9941      2.5816      0.0283      4.1448     19.9712     54.8851
  2057.6000      7.9941      2.5930      0.0716      3.4537     19.3771     57.2563
  2057.7000      7.9941      2.6064      0.1097      2.6435     24.9887     59.2689
  2057.8000      7.9747      2.6051      0.0750      2.7191     37.3879     56.7010
  2057.9000      7.9747      2.5992      0.0432      3.0814     46.2900     50.9437
  2058.0000      7.9535      2.6038      0.0502      2.7983     46.4005     46.7994
  2058.1000      7.9535      2.6138      0.0809      2.1935     40.0651     45.6339
  2058.2000      7.9535      2.6217      0.0549      1.7166     30.3062     46.8203
  2058.3000      7.9609      2.6268      0.0838      1.4076     19.8098     50.6741
  2058.4000      7.9609      2.6198      0.1156      1.8291     15.2458     54.9274
  2058.5000      7.9654      2.6023      0.0617      2.8925     21.4196     57.2898
  2058.6000      7.9654      2.5934      0.1043      3.4281     34.6313     59.3343
  2058.7000      7.9654      2.5991      0.1183      3.0855     40.4345     64.3992
  2058.8000      7.9472      2.6064      0.0787      2.6396     31.5830     70.5437
  2058.9000      7.9472      2.6046      0.0611      2.7507     14.9575     71.8265
  2059.0000      7.9307      2.5997      0.0548      3.0495      7.2944     70.3450
  2059.1000      7.9307      2.5993      0.0747      3.0737      6.1039     71.7873
  2059.2000      7.9307      2.5964      0.0247      3.2499      7.0184     75.1983
  2059.3000      7.9264      2.5891      0.0631      3.6903     12.3416     78.1924
  2059.4000      7.9264      2.5827      0.1248      4.0802     25.1572     80.3921
  2059.5000      7.9354      2.5749      0.1182      4.5488     33.0948     80.8483
  2059.6000      7.9354      2.5638      0.1044      5.2222     32.3881     81.3426
  2059.7000      7.9354      2.5537      0.0762      5.8344     12.2493     84.3215
  2059.8000      7.9566      2.5458      0.0884      6.3175     12.7961     83.6417
  2059.9000      7.9566      2.5314      0.0691      7.1852     14.7641     76.3387
  2060.0000      7.9711      2.4985      0.0684      9.1835     17.7592     69.3015
  2060.1000      7.9711      2.4343      0.0329     13.0720     20.2420     63.1958
  2060.2000      7.9711      2.3329      0.0167     19.2159     22.0383     55.6377
  2060.3000      7.9753      2.2101     -0.0741     26.6611     21.0216     50.5893
  2060.4000      7.9753      2.0954     -0.0820     33.6111     17.4319     48.9372
  2060.5000      7.9901      1.9986     -0.0990     39.4815     16.4023     45.7805
  2060.6000      7.9901      1.9047     -0.0684     45.1713     17.8955     39.7550
  2060.7000      7.9901      1.8038     -0.1118     51.2830     21.9123     34.6390
  2060.8000      8.0350      1.7106     -0.0490     56.9333     28.2539     32.7150
  2060.9000      8.0350      1.6444      0.0078     60.9474     29.8251     33.0285
  2061.0000      8.1603      1.6074      0.0159     63.1874     26.9166     34.9619
  2061.1000      8.1603      1.5875      0.0673     64.3964     26.5824     37.9761
  2061.2000      8.1603      1.5703      0.1074     65.4335     27.6212     39.2633
  2061.3000      8.4110      1.5591      0.0778     66.1148     27.8199     36.6633
  2061.4000      8.4110      1.5697      0.0516     65.4741     29.9390     34.3114
  2061.5000      8.6800      1.6010      0.0945     63.5778     32.3184     36.8352
  2061.6000      8.6800      1.6439      0.0686     60.9751     30.0024     42.3695
  2061.7000      8.6800      1.7079      0.0890     57.0982     22.3469     47.7906
  2061.8000      8.7386      1.8023      0.0842     51.3779     15.0816     53.2584
  2061.9000      8.7386      1.9112      0.1487     44.7728     12.7737     61.0292
  2062.0000      8.6069      2.0018      0.2279     39.2849     13.9856     69.2935
  2062.1000      8.6069      2.0570      0.2246     35.9369     16.3239     72.6712
  2062.2000      8.6069      2.0885      0.2499     34.0331     18.2076     72.7577
  2062.3000      8.4410      2.1163      0.1758     32.3436     15.6253     75.2746
  2062.4000      8.4410      2.1602      0.0706     29.6830     12.1980     80.9587
  2062.5000      8.2568      2.2247      0.0559     25.7749     12.8688     85.8685
  2062.6000      8.2568      2.2862      0.0989     22.0488     15.1071     87.2715
  2062.7000      8.2568      2.3259      0.0864     19.6428     17.6444     89.2881
  2062.8000      8.1328      2.3546      0.0817     17.9003     23.0704     94.5259
  2062.9000      8.1328      2.3823      0.0823     16.2215     27.4584     98.6749
  2063.0000      8.0853      2.4037      0.1227     14.9244     25.5151    100.4110
  2063.1000      8.0853      2.4190      0.0911     14.0025     22.5118     99.9877
  2063.2000      8.0853      2.4314      0.1274     13.2511     23.5406     96.6682
  2063.3000      8.0664      2.4321      0.1184     13.2062     24.4909     93.6108
  2063.4000      8.0664      2.4108      0.0985     14.4968     20.9941     92.3594
  2063.5000      8.0632      2.3675      0.0859     17.1217     18.4374     93.3259
  2063.6000      8.0632      2.3164      0.0517     20.2154     20.5800     99.4739
  2063.7000      8.0632      2.2758      0.0628     22.6767     24.5306    105.8964
  2063.8000      8.0688      2.2528      0.0228     24.0713     28.2552    104.4488
  2063.9000      8.0688      2.2507      0.0409     24.1995     28.2306     97.8330
  2064.0000      8.0795      2.2684      0.0601     23.1263     22.2963     93.4429
  2064.1000      8.0795      2.2897      0.1193     21.8350     14.4297     92.4365
  2064.2000      8.0795      2.2980      0.1125     21.3304      9.3185     90.3417
  2064.3000      8.0805      2.3065      0.0947     20.8156      9.3057     87.4168
  2064.4000      8.0805      2.3357      0.1395     19.0481     14.1173     90.3959
  2064.5000      8.0525      2.3715      0.1764     16.8766     19.6665     98.5569
  2064.6000      8.0525      2.3936      0.1148     15.5405     21.0905    103.2011
  2064.7000      8.0525      2.4095      0.0867     14.5778     16.7294    100.5381
  2064.8000      8.0208      2.4266      0.0830     13.5378     11.6537     94.2528
  2064.9000      8.0208      2.4348      0.0350     13.0406     11.0956     93.2679
  2065.0000      8.0088      2.4322      0.0409     13.1983     11.4200     99.5474
  2065.1000      8.0088      2.4332      0.0381     13.1420      8.8801    103.7564
  2065.2000      8.0088      2.4444      0.0704     12.4604      8.5526    102.1232
  2065.3000      8.0156      2.4528      0.0590     11.9514     14.2451     99.0304
  2065.4000      8.0156      2.4519      0.0402     12.0050     22.3196     96.4667
  2065.5000      8.0271      2.4592      0.0211     11.5642     23.3662     93.8614
  2065.6000      8.0271      2.4881      0.0719      9.8124     20.8135     90.8574
  2065.7000      8.0271      2.5252      0.0867      7.5627     19.6630     87.7433
  2065.8000      8.0322      2.5499      0.0737      6.0689     17.3122     85.2445
  2065.9000      8.0322      2.5473      0.1356      6.2272     13.4364     82.7985
  2066.0000      8.0260      2.5183      0.0656      7.9838     10.8985     80.6627
  2066.1000      8.0260      2.4932      0.0328      9.5056      9.4448     78.4427
  2066.2000      8.0260      2.4948      0.0560      9.4058      9.5255     76.7780
  2066.3000      8.0190      2.5133      0.0654      8.2873     12.3950     77.0743
  2066.4000      8.0190      2.5295      0.0802      7.3033     14.9208     77.8727
  2066.5000      8.0144      2.5339      0.0874      7.0366     15.2799     78.5268
