~Version Information
VERS.                      2.0: CWLS Log ASCII Standard - VERSION 2.0
WRAP.                       NO: One line per depth step
~Well Information Block
STRT.FT                -8.7500: 
STOP.FT              1727.2500: 
STEP.FT                 0.2500: 
NULL.                -999.2500: 
COMP.          XTO Energy Inc.: COMPANY
WELL.          Apache Canyon 34-08: WELL
FLD.              Vermejo Coal: FIELD
LOC.           1668' FNL & 275' FEL: LOCATION
STAT.                       CO: State
CNTY.               Las Animas: COUNTY
CTRY. USA : Country
SECT. 34 : Section
TOWN. 33S : Township
RANG. 67W : Range
SRVC.          Patterson Wireline: SERVICE COMPANY
DATE.          Mon Jan 09 09:34:21 2006: LOG DATE
API.           05 071 08541 00: UNIQUE WELL ID
~Curve Information Block
DEPT.FT            0 000 00 00: Depth
CCL.                          : Casing Collar Locator
TT3.usec                      : CBL 3' Travel Time
AMP3.mV                       : CBL 3' Amplitude
GR.GAPI                       : Gamma Ray
~Parameter Information Block
~A  Depth       CCL         TT3         AMP3         GR     
    -8.7500   -999.2500   -999.2500   -999.2500     86.5422
    -8.5000   -999.2500   -999.2500   -999.2500     87.9833
    -8.2500   -999.2500   -999.2500   -999.2500     86.8988
    -8.0000   -999.2500   -999.2500   -999.2500     83.5632
    -7.7500   -999.2500   -999.2500   -999.2500     79.0244
    -7.5000   -999.2500   -999.2500   -999.2500     74.1367
    -7.2500   -999.2500   -999.2500   -999.2500     69.0671
    -7.0000   -999.2500   -999.2500   -999.2500     63.6281
    -6.7500   -999.2500   -999.2500   -999.2500     57.8566
    -6.5000   -999.2500   -999.2500   -999.2500     52.2246
    -6.2500   -999.2500   -999.2500   -999.2500     47.3011
    -6.0000   -999.2500   -999.2500   -999.2500     43.1608
    -5.7500   -999.2500   -999.2500   -999.2500     39.2386
    -5.5000   -999.2500   -999.2500   -999.2500     35.0055
    -5.2500   -999.2500   -999.2500   -999.2500     30.8629
    -5.0000   -999.2500   -999.2500   -999.2500     28.2540
    -4.7500   -999.2500   -999.2500   -999.2500     28.7323
    -4.5000   -999.2500   -999.2500   -999.2500     32.7881
    -4.2500   -999.2500   -999.2500   -999.2500     39.3871
    -4.0000   -999.2500   -999.2500   -999.2500     46.5301
    -3.7500   -999.2500   1167.0000      2.7108     52.3615
    -3.5000   -999.2500   1167.0000      2.7048     55.8610
    -3.2500   -999.2500   1167.0000      2.6982     56.5838
    -3.0000   -999.2500   1167.0000      2.6943     54.3307
    -2.7500   -999.2500   1167.0000      2.6959     49.7809
    -2.5000   -999.2500   1167.0000      2.7031     45.0039
    -2.2500   -999.2500   1167.0000      2.7126     42.2330
    -2.0000   -999.2500   1167.0000      2.7186     41.9885
    -1.7500   -999.2500   1167.0000      2.7175     43.0387
    -1.5000   -999.2500   1167.0000      2.7122     44.1104
    -1.2500   -999.2500   1167.0000      2.7098     44.9764
    -1.0000   -999.2500   1167.0000      2.7146     45.9626
    -0.7500   -999.2500   1167.0000      2.7236     47.2854
    -0.5000   -999.2500   1167.0000      2.7298     49.2456
    -0.2500   -999.2500   1167.0000      2.7290     52.4506
     0.0000   -999.2500   1167.0000      2.7226     57.2534
     0.2500   -999.2500   1167.0000      2.7104     68.6689
     0.5000   -999.2500   1167.0000      2.7051     72.7122
     0.7500   -999.2500   1167.0000      2.6964     74.5791
     1.0000   -999.2500   1167.0000      2.6842     74.3894
     1.2500   -999.2500   1167.0000      2.6727     72.8884
     1.5000      0.0000   1167.0000      2.6666     71.0686
     1.7500      0.0000   1167.0000      2.6679     69.4729
     2.0000      0.0000   1166.9718      2.6750     67.6301
     2.2500      0.0000   1166.7579      2.6880     64.3521
     2.5000      0.0000   1165.6265      2.7191     58.8322
     2.7500      0.0000   1160.9270      2.8274     51.5641
     3.0000      0.0000   1145.5564      3.2223     44.2238
     3.2500      0.0000   1105.9033      4.4558     38.5893
     3.5000      0.0000   1025.0746      7.5812     35.4407
     3.7500      0.0000    894.6840     13.9077     34.4207
     4.0000      0.0000    727.9908     24.0948     34.8227
     4.2500      0.0000    558.9286     37.1235     36.2399
     4.5000      0.0000    422.7986     50.3455     38.3984
     4.7500      0.0000    335.7385     60.9745     40.7367
     5.0000      0.0000    291.5118     67.6987     42.4832
     5.2500      0.0000    273.6764     70.9273     43.0375
     5.5000      0.0000    268.0038     71.8051     42.1332
     5.7500      0.0000    266.7072     71.2168     39.9129
     6.0000      0.0000    266.8932     69.4926     37.1205
     6.2500      0.0000    268.1015     66.6387     34.9090
     6.5000      0.0000    270.8194     62.6691     34.0474
     6.7500      0.0000    275.6281     57.7894     34.3936
     7.0000      0.0000    282.5199     52.3833     35.3153
     7.2500      0.0000    290.7031     46.8775     36.3762
     7.5000      0.0000    299.6394     41.6076     37.3886
     7.7500      0.0000    311.0357     36.7603     38.1565
     8.0000      0.0000    330.4344     32.3909     38.5577
     8.2500      0.0000    366.4682     28.4745     38.7022
     8.5000      0.0000    425.9860     24.9688     38.7599
     8.7500      0.0000    506.6208     21.8710     38.7697
     9.0000      0.0000    593.9281     19.2386     38.7924
     9.2500      0.0000    668.8268     17.1468     39.0359
     9.5000      0.0000    719.2899     15.6157     39.5469
     9.7500      0.0000    744.7522     14.5737     40.0214
    10.0000      0.0000    752.1276     13.8854     40.2733
    10.2500      0.0000    750.5561     13.4133     40.7383
    10.5000      0.0000    747.8950     13.0612     42.1818
    10.7500      0.0000    748.6612     12.7787     44.9540
    11.0000      0.0000    754.6688     12.5451     48.6797
    11.2500      0.0000    766.5671     12.3533     52.4999
    11.5000      0.0000    781.9048     12.1978     55.5009
    11.7500      0.0000    792.0996     12.0670     57.1410
    12.0000      0.0000    785.4200     11.9432     57.5936
    12.2500      0.0000    755.3420     11.8144     57.7560
    12.5000      0.0000    705.6309     11.6868     58.7386
    12.7500      0.0000    646.9491     11.5826     61.0647
    13.0000      0.0000    589.5554     11.5230     64.2575
    13.2500      0.0000    539.8027     11.5097     67.3479
    13.5000      0.0000    501.2514     11.5227     69.8204
    13.7500      0.0000    476.0440     11.5374     71.7184
    14.0000      0.0000    464.6754     11.5431     72.8007
    14.2500      0.0000    465.6018     11.5447     72.3287
    14.5000      0.0000    475.8398     11.5489     70.1739
    14.7500      0.0000    491.9969     11.5487     67.6182
    15.0000      0.0000    511.3845     11.5271     66.4104
    15.2500      0.0000    533.1756     11.4756     67.1477
    15.5000      0.0000    558.2946     11.4084     69.0329
    15.7500      0.0000    586.7083     11.3537     70.9728
    16.0000      0.0000    615.0486     11.3320     72.2428
    16.2500      0.0000    638.3853     11.3427     72.2912
    16.5000      0.0000    653.2940     11.3714     71.0052
    16.7500      0.0000    657.8274     11.4057     69.4316
    17.0000      0.0000    651.0402     11.4439     69.3214
    17.2500      0.0000    634.6448     11.4878     71.5263
    17.5000      0.0000    612.9928     11.5346     75.2700
    17.7500      0.0000    589.6722     11.5788     79.0534
    18.0000      0.0000    565.4041     11.6202     82.0056
    18.2500      0.0000    540.2172     11.6677     84.5370
    18.5000      0.0000    516.4863     11.7315     87.9609
    18.7500      0.0000    498.5114     11.8117     93.1754
    19.0000      0.0000    489.3568     11.8938     99.4512
    19.2500      0.0000    489.1953     11.9575    104.6752
    19.5000      0.0000    496.6296     11.9896    106.9242
    19.7500      0.0000    509.6670     11.9869    105.6901
    20.0000      0.0000    523.8998     11.9504    101.8781
    20.2500      0.0000    530.9683     11.8823     97.2464
    20.5000      0.0000    521.9724     11.7903     93.7138
    20.7500      0.0000    494.3687     11.6851     92.2605
    21.0000      0.0000    455.0294     11.5710     92.0019
    21.2500      0.0000    415.4843     11.4410     90.6775
    21.5000      0.0000    384.2418     11.2843     86.4243
    21.7500      0.0000    363.5336     11.0976     79.1482
    22.0000      0.0000    351.4272     10.8874     70.4513
    22.2500      0.0000    345.0038     10.6643     62.5407
    22.5000      0.0000    341.8524     10.4408     56.9221
    22.7500      0.0000    340.3292     10.2348     53.6075
    23.0000      0.0000    339.4955     10.0681     51.5116
    23.2500      0.0000    338.9479      9.9567     49.6173
    23.5000      0.0000    338.5420      9.9018     47.6477
    23.7500      0.0000    338.2021      9.8890     45.7607
    24.0000      0.0000    337.8681      9.8952     43.9817
    24.2500      0.0000    337.5235      9.8980     42.0099
    24.5000      0.0000    337.2012      9.8841     39.4283
