~Version Information
VERS.                      2.0: CWLS Log ASCII Standard - VERSION 2.0
WRAP.                       NO: One line per depth step
~Well Information Block
STRT.FT                -8.2500: 
STOP.FT              1118.7500: 
STEP.FT                 0.2500: 
NULL.                -999.2500: 
COMP.          Pioneer Natural Resources: COMPANY
WELL.             Croc 42-9 Tr: WELL
FLD.           Purgatorie River: FIELD
LOC.           --2429' FNL & 315' FEL------: LOCATION
STAT.                       CO: State
CNTY.               Las Animas: COUNTY
CTRY. USA : Country
SECT. 9 : Section
TOWN. 32S : Township
RANG. 66W : Range
SRVC.          Patterson Wireline: SERVICE COMPANY
DATE.          Tue Oct 18 14:14:43 2005: LOG DATE
API.           05 071 08550 00: UNIQUE WELL ID
~Curve Information Block
DEPT.FT            0 000 00 00: Depth
CCL.                          : Casing Collar Locator
TT3.usec                      : CBL 3' Travel Time
AMP3.mV                       : CBL 3' Amplitude
GR.GAPI                       : Gamma Ray
~Parameter Information Block
~A  Depth       CCL         TT3         AMP3         GR     
# ...
   494.2500      0.0000    753.7014     14.9949    114.3352
   494.5000      0.0000    735.1006     14.8037    117.7782
   494.7500      0.0000    708.7245     14.6147    122.6206
   495.0000      0.0000    684.0087     14.4484    126.0935
   495.2500      0.0000    673.4831     14.2794    125.5050
   495.5000      0.0000    682.8835     14.0825    120.6318
   495.7500      0.0000    705.7397     13.8698    114.3858
   496.0000      0.0000    729.3362     13.6881    110.6538
   496.2500      0.0000    744.9741     13.5894    111.4296
   496.5000      0.0000    751.9918     13.5962    116.0888
   496.7500      0.0000    754.6328     13.6800    122.9743
   497.0000      0.0000    757.1150     13.7796    130.9931
   497.2500      0.0000    760.6829     13.8532    139.6108
   497.5000      0.0000    763.6566     13.9081    147.9431
   497.7500      0.0000    763.8222     13.9780    154.3786
   498.0000      0.0000    760.9656     14.0815    157.1692
   498.2500      0.0000    757.1234     14.2049    155.4980
   498.5000      0.0000    754.7121     14.3152    150.1843
   498.7500      0.0000    754.6011     14.3883    143.3755
   499.0000      0.0000    755.7524     14.4319    137.3736
   499.2500      0.0000    756.4780     14.4802    133.5368
   499.5000      0.0000    756.2157     14.5635    131.9817
   499.7500      0.0000    756.1481     14.6827    131.9467
   500.0000      0.0000    757.8591     14.8112    132.3698
   500.2500      0.0000    761.3713     14.9104    132.3587
   500.5000      0.0000    764.8381     14.9420    131.3191
   500.7500      0.0000    766.3196     14.8816    128.9271
   501.0000      0.0000    765.5021     14.7339    125.2272
   501.2500      0.0000    763.3484     14.5365    120.6297
   501.5000      0.0000    760.6133     14.3391    115.5425
   501.7500      0.0000    757.4819     14.1762    110.2910
   502.0000      0.0000    754.3003     14.0579    105.6859
   502.2500      0.0000    751.7489     13.9781    103.2646
   502.5000      0.0000    750.2367     13.9231    104.5417
   502.7500      0.0000    749.6019     13.8799    110.0466
   503.0000      0.0000    749.4305     13.8439    118.9499
   503.2500      0.0000    749.4554     13.8196    129.1171
   503.5000      0.0000    749.7310     13.8132    137.5353
   503.7500      0.0000    750.7028     13.8318    141.6202
   504.0000      0.0000    753.1505     13.8870    140.8754
   504.2500      0.0000    757.6973     13.9864    136.9814
   504.5000      0.0000    763.8596     14.1132    131.8956
   504.7500      0.0000    769.5105     14.2298    126.3208
   505.0000      0.0000    771.8408     14.3102    120.2343
   505.2500      0.0000    769.3795     14.3602    114.1376
   505.5000      0.0000    762.8041     14.4000    108.9805
   505.7500      0.0000    753.0699     14.4386    105.0111
   506.0000      0.0000    738.0846     14.4745    101.2540
   506.2500      0.0000    711.6854     14.5076     96.4552
   506.5000      0.0000    668.3940     14.5406     90.6193
   506.7500      0.0000    612.8111     14.5753     85.4762
   507.0000      0.0000    564.5548     14.6126     83.2915
   507.2500      0.0000    548.8453     14.6488     85.3358
   507.5000      0.0000    577.0820     14.6656     91.4520
   507.7500      0.0000    636.4801     14.6316    100.6016
   508.0000      0.0000    700.4128     14.5190    111.5509
   508.2500      0.0000    748.2144     14.3252    123.1524
   508.5000      0.0000    774.9313     14.0807    134.1479
   508.7500      0.0000    786.3928     13.8320    142.9560
   509.0000      0.0000    789.8663     13.6002    148.1795
   509.2500      0.0000    789.2299     13.3367    149.6220
   509.5000      0.0000    785.2043     12.9243    148.4066
   509.7500      0.0000    777.9995     12.2671    145.7609
   510.0000      0.0000    770.1531     11.4325    141.8947
   510.2500      0.0000    767.3418     10.6866    136.3624
   510.5000      0.0000    775.4166     10.3111    129.3677
   510.7500      0.0000    795.6465     10.3660    122.1361
   511.0000      0.0000    823.3128     10.6751    115.7566
   511.2500      0.0000    851.9555     11.0211    110.5305
   511.5000      0.0000    878.1566     11.2868    107.1527
   511.7500     -2.0000    900.7943     11.4390    107.5280
   512.0000      2.0000    917.0946     11.4797    113.0728
   512.2500      0.0000    922.4037     11.4519    122.5260
   512.5000      0.0000    912.3312     11.4766    132.5172
   512.7500      0.0000    883.2334     11.7455    140.2821
   513.0000      0.0000    835.8128     12.4090    145.0705
   513.2500      0.0000    782.7521     13.4026    146.9181
   513.5000      0.0000    746.6240     14.4110    145.0888
   513.7500      0.0000    742.6785     15.0953    138.5293
   514.0000      0.0000    765.5207     15.3637    127.5073
   514.2500      0.0000    796.3192     15.3758    114.1791
   514.5000      0.0000    819.9488     15.3284    101.5385
   514.7500      0.0000    832.6419     15.3063     91.9949
   515.0000      0.0000    837.7285     15.3000     86.5291
   515.2500      0.0000    839.3032     15.2816     84.5098
   515.5000      0.0000    839.7223     15.2414     84.1128
   515.7500      0.0000    840.0493     15.1858     83.2451
   516.0000      0.0000    840.9648     15.1225     80.5983
   516.2500      0.0000    843.2056     15.0441     76.3804
   516.5000      0.0000    847.2610     14.9330     72.0592
   516.7500      0.0000    852.7340     14.7889     69.0009
   517.0000      0.0000    858.2047     14.6495     67.2814
   517.2500      0.0000    862.1516     14.5687     65.9656
   517.5000      0.0000    863.9928     14.5657     64.3348
   517.7500      0.0000    863.9712     14.5996     62.7516
   518.0000      0.0000    862.1270     14.5976     62.6049
   518.2500      0.0000    857.5200     14.5130     65.3537
   518.5000      0.0000    848.3629     14.3608     71.3407
   518.7500      0.0000    833.3114     14.1991     79.6506
   519.0000      0.0000    813.2404     14.0754     89.1504
   519.2500      0.0000    791.6163     13.9925     99.2229
   519.5000      0.0000    772.6806     13.9220    109.5139
   519.7500      0.0000    759.1167     13.8398    119.5747
   520.0000      0.0000    751.1536     13.7462    128.9859
   520.2500      0.0000    747.3279     13.6582    137.5603
   520.5000      0.0000    745.8240     13.5854    145.2303
   520.7500      0.0000    745.3527     13.5101    151.6611
   521.0000      0.0000    745.2847     13.3925    155.8065
   521.2500      0.0000    745.3898     13.2054    156.1983
   521.5000      0.0000    745.5867     12.9674    152.4749
   521.7500      0.0000    745.8290     12.7401    146.8060
   522.0000      0.0000    746.0703     12.5934    143.0499
   522.2500      0.0000    746.2650     12.5715    143.6926
   522.5000      0.0000    746.3725     12.6829    147.4788
   522.7500      0.0000    746.3803     12.9013    150.3402
   523.0000      0.0000    746.3301     13.1699    148.8026
   523.2500      0.0000    746.3374     13.4173    142.6229
   523.5000      0.0000    746.6029     13.5882    134.5787
   523.7500      0.0000    747.4315     13.6660    128.0570
   524.0000      0.0000    749.1201     13.6659    124.6303
   524.2500      0.0000    751.5507     13.6140    123.5461
   524.5000      0.0000    753.7960     13.5392    123.2226
   524.7500      0.0000    754.4981     13.4809    122.6823
   525.0000      0.0000    753.0089     13.4878    121.3370
   525.2500      0.0000    749.9976     13.5960    118.3478
   525.5000      0.0000    746.4404     13.8034    113.1773
   525.7500      0.0000    741.9348     14.0704    106.5094
   526.0000      0.0000    733.9255     14.3505     99.9843
   526.2500      0.0000    719.1651     14.6206     94.9645
   526.5000      0.0000    697.8005     14.8820     91.6161
   526.7500      0.0000    677.0281     15.1378     89.0633
   527.0000      0.0000    668.1188     15.3803     86.3149
   527.2500      0.0000    676.7206     15.6003     82.9894
   527.5000      0.0000    697.1317     15.7999     79.2343
