~Version Information
VERS.                      2.0: CWLS Log ASCII Standard - VERSION 2.0
WRAP.                       NO: One line per depth step
~Well Information Block
STRT.FT               240.0000: 
STOP.FT              1252.5000: 
STEP.FT                 0.2500: 
NULL.                -999.2500: 
COMP.          Pioneer Natural Resources: COMPANY
WELL.             Margaux 11-1: WELL
FLD.           Purgatoire River: FIELD
LOC.           1154' FNL & 472' FWL: LOCATION
PROV.                 Colorado: PROVINCE
CNTY.               Las Animas: COUNTRY
SRVC.                Patterson: SERVICE COMPANY
DATE.          Mon Dec 19 04:21:59 2005: LOG DATE
UWI.           05 071 08639 00: UNIQUE WELL ID
~Curve Information Block
DEPT.FT            0 000 00 00: Depth
SN.Ohm-m                      : IEL Short Normal
SP.mV                         : IEL Spontaneous Potential
DIR.Ohm-m                     : IEL Induction Resistivity
GR.GAPI                       : Gamma Ray
~Parameter Information Block
~A  Depth        SN          SP         DIR          GR     
# ...
  1077.5000     12.1889     32.4118     10.0800     67.6298
  1077.7500     12.7973     32.4920     10.4403     65.5977
  1078.0000     13.2403     32.6207     10.8804     63.9495
  1078.2500     13.6795     32.8157     11.4202     63.0143
  1078.5000     14.2399     33.0822     12.0648     61.4487
  1078.7500     14.9020     33.4079     12.8026     60.6271
  1079.0000     15.5833     33.7654     13.6078     60.5343
  1079.2500     16.1599     34.1200     14.4451     61.3654
  1079.5000     16.5383     34.4381     15.2717     63.2734
  1079.7500     16.7385     34.6935     16.0357     64.2736
  1080.0000     16.8544     34.8721     16.6808     64.3562
  1080.2500     16.9779     34.9776     17.1621     63.3583
  1080.5000     17.1336     35.0302     17.4717     61.1163
  1080.7500     17.2740     35.0577     17.6503     59.9184
  1081.0000     17.4094     35.0817     17.7689     59.4559
  1081.2500     17.6386     35.1079     17.8933     59.8809
  1081.5000     17.9788     35.1296     18.0581     60.3387
  1081.7500     18.3333     35.1378     18.2680     59.7066
  1082.0000     18.6508     35.1323     18.5149     56.8858
  1082.2500     18.9492     35.1219     18.7923     54.2379
  1082.5000     19.2363     35.1172     19.0946     50.6627
  1082.7500     19.5177     35.1198     19.4118     49.3240
  1083.0000     19.7928     35.1158     19.7277     49.3017
  1083.2500     20.0419     35.0764     20.0260     50.2478
  1083.5000     20.2778     34.9659     20.2949     51.7719
  1083.7500     20.5424     34.7533     20.5286     52.0540
  1084.0000     20.8151     34.4259     20.7258     50.8746
  1084.2500     20.9850     33.9987     20.8845     49.4372
  1084.5000     20.9471     33.5134     20.9962     47.5673
  1084.7500     20.6962     33.0244     21.0451     46.9962
  1085.0000     20.3350     32.5779     21.0170     47.1716
  1085.2500     20.0021     32.1952     20.9108     47.7439
  1085.5000     19.7969     31.8718     20.7432     48.9957
  1085.7500     19.7581     31.5896     20.5446     49.9999
  1086.0000     19.8634     31.3329     20.3541     51.3826
  1086.2500     20.0379     31.0964     20.2099     51.8832
  1086.5000     20.1972     30.8861     20.1377     51.9165
  1086.7500     20.3133     30.7163     20.1393     51.9328
  1087.0000     20.3966     30.6039     20.1923     52.8904
  1087.2500     20.4275     30.5611     20.2621     54.1673
  1087.5000     20.4116     30.5872     20.3172     56.1583
  1087.7500     20.4292     30.6650     20.3384     57.0583
  1088.0000     20.5171     30.7602     20.3185     57.7793
  1088.2500     20.5667     30.8277     20.2596     58.2218
  1088.5000     20.4502     30.8237     20.1735     59.3740
  1088.7500     20.2121     30.7220     20.0842     60.4234
  1089.0000     20.0617     30.5229     20.0268     61.7785
  1089.2500     20.1672     30.2490     20.0386     62.1168
  1089.5000     20.4963     29.9296     20.1464     61.5534
  1089.7500     20.9108     29.5889     20.3585     60.7172
  1090.0000     21.3033     29.2427     20.6643     59.5333
  1090.2500     21.5447     28.9040     21.0348     59.1035
  1090.5000     21.5550     28.5881     21.4195     58.9263
  1090.7500     21.4669     28.3107     21.7501     58.7767
  1091.0000     21.4784     28.0811     21.9631     57.9617
  1091.2500     21.6785     27.8962     22.0394     57.0395
  1091.5000     22.0582     27.7435     22.0278     55.6509
  1091.7500     22.5206     27.6065     22.0277     55.0480
  1092.0000     22.9554     27.4704     22.1407     54.6903
  1092.2500     23.3564     27.3259     22.4235     54.6091
  1092.5000     23.8129     27.1735     22.8632     54.4868
  1092.7500     24.3688     27.0219     23.3850     54.5688
  1093.0000     24.9234     26.8832     23.8905     55.4914
  1093.2500     25.3321     26.7677     24.3057     56.6867
  1093.5000     25.5793     26.6836     24.6034     58.6666
  1093.7500     25.7960     26.6357     24.7877     59.6923
  1094.0000     26.0867     26.6223     24.8690     60.8442
  1094.2500     26.3546     26.6348     24.8560     61.6385
  1094.5000     26.3913     26.6618     24.7613     62.8746
  1094.7500     26.1403     26.6943     24.6069     63.4410
  1095.0000     25.7332     26.7286     24.4214     63.7594
  1095.2500     25.3069     26.7667     24.2349     63.9094
  1095.5000     24.9171     26.8149     24.0780     64.4255
  1095.7500     24.5886     26.8801     23.9767     64.7188
  1096.0000     24.3580     26.9658     23.9354     64.3652
  1096.2500     24.2426     27.0683     23.9169     63.6231
  1096.5000     24.1540     27.1759     23.8446     62.6485
  1096.7500     23.9027     27.2699     23.6442     62.5569
  1097.0000     23.4053     27.3279     23.3035     63.2587
  1097.2500     22.8352     27.3324     22.8907     63.9495
  1097.5000     22.4308     27.2801     22.5093     64.5947
  1097.7500     22.2744     27.1869     22.2368     64.4218
  1098.0000     22.3162     27.0844     22.0952     63.1962
  1098.2500     22.4570     27.0089     22.0592     62.0775
  1098.5000     22.5980     26.9850     22.0822     60.7127
  1098.7500     22.6833     27.0123     22.1211     60.2981
  1099.0000     22.7114     27.0668     22.1503     60.7710
  1099.2500     22.7031     27.1178     22.1621     62.1147
  1099.5000     22.6369     27.1464     22.1579     65.9596
  1099.7500     22.5003     27.1493     22.1410     69.2786
  1100.0000     22.4399     27.1326     22.1138     73.2444
  1100.2500     22.6433     27.1015     22.0796     73.7830
  1100.5000     23.0450     27.0571     22.0397     70.4069
  1100.7500     23.3938     27.0006     21.9882     66.0273
  1101.0000     23.5734     26.9358     21.9098     58.8107
  1101.2500     23.6670     26.8687     21.7867     55.1092
  1101.5000     23.7704     26.8080     21.6129     53.0116
  1101.7500     23.8433     26.7687     21.4041     54.3095
  1102.0000     23.7655     26.7705     21.1913     59.7388
  1102.2500     23.5021     26.8277     21.0035     64.5847
  1102.5000     23.0975     26.9389     20.8516     71.0590
  1102.7500     22.5549     27.0851     20.7270     73.7113
  1103.0000     21.8660     27.2366     20.6119     75.3291
  1103.2500     21.0954     27.3656     20.4935     75.9144
  1103.5000     20.3986     27.4576     20.3733     77.6611
  1103.7500     19.9441     27.5176     20.2667     79.4591
  1104.0000     19.7232     27.5666     20.1916     82.1681
  1104.2500     19.5739     27.6291     20.1542     83.4674
  1104.5000     19.4696     27.7216     20.1407     84.2102
  1104.7500     19.5143     27.8471     20.1245     83.7226
  1105.0000     19.7085     27.9977     20.0824     81.2467
  1105.2500     19.9343     28.1608     20.0103     78.4514
  1105.5000     20.0779     28.3225     19.9271     73.1273
  1105.7500     20.1403     28.4691     19.8673     69.5063
  1106.0000     20.2493     28.5897     19.8677     65.5348
  1106.2500     20.5376     28.6802     19.9525     64.6950
  1106.5000     21.0040     28.7462     20.1214     66.4680
  1106.7500     21.4492     28.7993     20.3448     68.8852
  1107.0000     21.6237     28.8500     20.5724     72.1246
  1107.2500     21.4987     28.9016     20.7531     73.1334
  1107.5000     21.2571     28.9508     20.8538     73.0688
  1107.7500     21.0222     28.9913     20.8662     72.6649
  1108.0000     20.7755     29.0186     20.8010     72.3746
  1108.2500     20.5182     29.0322     20.6799     72.3753
  1108.5000     20.3197     29.0345     20.5307     72.1920
  1108.7500     20.1722     29.0267     20.3834     71.7922
  1109.0000     19.9760     29.0043     20.2643     70.9969
  1109.2500     19.7074     28.9567     20.1895     70.6757
  1109.5000     19.4560     28.8742     20.1599     71.0701
  1109.7500     19.3308     28.7568     20.1604     71.9706
  1110.0000     19.3760     28.6146     20.1648     73.6577
  1110.2500     19.5294     28.4618     20.1478     74.4039
  1110.5000     19.6904     28.3120     20.0984     74.1707
  1110.7500     19.8074     28.1809     20.0270     73.0584
