~Version Information
VERS.                      2.0: CWLS Log ASCII Standard - VERSION 2.0
WRAP.                       NO: One line per depth step
~Well Information Block
STRT.FT               538.0000: 
STOP.FT              1769.0000: 
STEP.FT                 0.1000: 
NULL.                -999.2500: 
COMP.          Pioneer Natural Resources: COMPANY
WELL.            Dude 43-34 Tr: WELL
FLD.           Purgatoire River: FIELD
LOC.           2083' FSL & 1042' FEL: LOCATION
PROV.                 Colorado: PROVINCE
CNTY.               Las Animas: COUNTRY
SRVC.                Patterson: SERVICE COMPANY
DATE.          Thu Jan 26 07:02:09 2006: LOG DATE
UWI.           05 071 08676 00: UNIQUE WELL ID
~Curve Information Block
DEPT.FT            0 000 00 00: Depth
DCAL.in                       : CDL Caliper
RHOB.g/cc                     : CDL Bulk Density
RHOC.g/cc                     : CDL Density Correction
DPOR.pu                       : CDL Density Porosity
GR.GAPI                       : Gamma Ray
~Parameter Information Block
~A  Depth       DCAL        RHOB        RHOC        DPOR         GR     
# ...
  1198.8000      7.9634      2.5101      0.1205      8.4781    135.1165
  1198.9000      7.9634      2.5458      0.0876      6.3171    134.8545
  1199.0000      7.8935      2.6240      0.1235      1.5740    136.0626
  1199.1000      7.8935      2.7225      0.2523     -4.3943    139.6724
  1199.2000      7.8935      2.7883      0.2925     -8.3790    137.8356
  1199.3000      7.8579      2.7955      0.2714     -8.8202    133.1600
  1199.4000      7.8579      2.7634      0.2550     -6.8704    131.5296
  1199.5000      7.8656      2.7277      0.1559     -4.7120    129.9994
  1199.6000      7.8656      2.7019      0.1188     -3.1478    125.1829
  1199.7000      7.8656      2.6680      0.0651     -1.0935    119.7485
  1199.8000      7.8797      2.6271     -0.0242      1.3862    117.8672
  1199.9000      7.8797      2.6030     -0.0052      2.8507    117.0193
  1200.0000      7.9118      2.5975      0.0409      3.1808    111.0577
  1200.1000      7.9118      2.6060      0.0817      2.6657    101.2004
  1200.2000      7.9118      2.6306      0.1535      1.1739     97.1740
  1200.3000      8.0033      2.6544      0.2461     -0.2696     99.8026
  1200.4000      8.0033      2.6622      0.1838     -0.7386    100.9529
  1200.5000      7.9785      2.6641      0.2132     -0.8575     99.9119
  1200.6000      7.9785      2.6658      0.2167     -0.9557    100.8914
  1200.7000      7.9785      2.6578      0.1830     -0.4746    105.6958
  1200.8000      7.9127      2.6375      0.1526      0.7577    114.7393
  1200.9000      7.9127      2.6178      0.1371      1.9531    126.2004
  1201.0000      7.9137      2.6108      0.1577      2.3729    133.7962
  1201.1000      7.9137      2.6130      0.1378      2.2426    135.8993
  1201.2000      7.9137      2.6205      0.1168      1.7856    136.8248
  1201.3000      7.8933      2.6289      0.1455      1.2798    134.2569
  1201.4000      7.8933      2.6259      0.1990      1.4593    124.8775
  1201.5000      7.9215      2.6171      0.1300      1.9963    114.4119
  1201.6000      7.9215      2.6190      0.1249      1.8784    107.6048
  1201.7000      7.9215      2.6259      0.1327      1.4610    100.4008
  1201.8000      7.8914      2.6235      0.1223      1.6034     91.9000
  1201.9000      7.8914      2.6152      0.0846      2.1081     86.9337
  1202.0000      7.8726      2.6106      0.0832      2.3902     87.2195
  1202.1000      7.8726      2.6084      0.0761      2.5207     89.6146
  1202.2000      7.8726      2.6092      0.0532      2.4709     89.0885
  1202.3000      7.8671      2.6165      0.1376      2.0328     87.3525
  1202.4000      7.8671      2.6166      0.1024      2.0225     90.5929
  1202.5000      7.8966      2.5957      0.0934      3.2892     95.0745
  1202.6000      7.8966      2.5569      0.0563      5.6438     93.4728
  1202.7000      7.8966      2.4994      0.0318      9.1292     89.0370
  1202.8000      7.8926      2.4118      0.0207     14.4363     86.7041
  1202.9000      7.8926      2.3002     -0.0104     21.2000     84.7627
  1203.0000      7.9038      2.1862     -0.0441     28.1108     84.0730
  1203.1000      7.9038      2.0844     -0.0773     34.2791     88.1268
  1203.2000      7.9038      2.0117     -0.1118     38.6878     93.6045
  1203.3000      7.9197      1.9815     -0.0449     40.5159     94.6072
  1203.4000      7.9197      1.9866     -0.0157     40.2045     92.4808
  1203.5000      7.9243      2.0273      0.0463     37.7377     91.6001
  1203.6000      7.9243      2.1203      0.1810     32.1018     92.3215
  1203.7000      7.9243      2.2636      0.3844     23.4193     94.7236
  1203.8000      7.8985      2.4200      0.6157     13.9411    100.7503
  1203.9000      7.8985      2.5406      0.6529      6.6292    108.7908
  1204.0000      7.8619      2.6042      0.6046      2.7741    114.0452
  1204.1000      7.8619      2.6221      0.5315      1.6936    112.8342
  1204.2000      7.8619      2.6214      0.3827      1.7311    106.6255
  1204.3000      7.8477      2.6329      0.3009      1.0378    101.2440
  1204.4000      7.8477      2.6610      0.3012     -0.6680     98.8293
  1204.5000      7.8230      2.6801      0.3326     -1.8229     96.7870
  1204.6000      7.8230      2.6849      0.2725     -2.1154     94.4682
  1204.7000      7.8230      2.6990      0.2673     -2.9710     92.0556
  1204.8000      7.8404      2.7252      0.2944     -4.5592     89.4363
  1204.9000      7.8404      2.7532      0.2526     -6.2526     90.5264
  1205.0000      7.8518      2.7739      0.2723     -7.5097     94.8652
  1205.1000      7.8518      2.7639      0.2428     -6.9040     96.9301
  1205.2000      7.8518      2.7100      0.1870     -3.6376     97.3355
  1205.3000      7.8634      2.6345      0.1596      0.9395     98.1551
  1205.4000      7.8634      2.5732      0.0932      4.6564     97.5830
  1205.5000      7.9034      2.5422      0.0932      6.5344     97.0983
  1205.6000      7.9034      2.5363      0.0811      6.8936    100.5083
  1205.7000      7.9034      2.5487      0.0379      6.1418    106.3640
  1205.8000      7.9146      2.5686      0.1021      4.9328    110.5923
  1205.9000      7.9146      2.5890      0.0440      3.6960    110.0086
  1206.0000      7.9206      2.6188      0.1026      1.8933    104.7470
  1206.1000      7.9206      2.6496      0.1402      0.0213     99.6551
  1206.2000      7.9206      2.6617      0.1383     -0.7071     98.3293
  1206.3000      7.9417      2.6543      0.1539     -0.2633     98.4147
  1206.4000      7.9417      2.6399      0.1399      0.6122     98.5812
  1206.5000      7.9078      2.6318      0.1375      1.1015    102.1569
  1206.6000      7.9078      2.6317      0.1379      1.1093    107.8726
  1206.7000      7.9078      2.6324      0.1491      1.0649    110.2326
  1206.8000      7.8915      2.6450      0.0840      0.3054    108.7834
  1206.9000      7.8915      2.6799      0.1492     -1.8143    107.7824
  1207.0000      7.8882      2.7073      0.2253     -3.4731    109.7907
  1207.1000      7.8882      2.6961      0.1421     -2.7913    115.8239
  1207.2000      7.8882      2.6591      0.1218     -0.5520    124.9875
  1207.3000      7.8939      2.6239      0.1013      1.5841    130.5285
  1207.4000      7.8939      2.6068      0.0712      2.6209    127.7592
  1207.5000      7.8954      2.6108      0.1176      2.3776    122.6160
  1207.6000      7.8954      2.6219      0.1370      1.7035    122.0492
  1207.7000      7.8954      2.6286      0.0896      1.2978    124.4518
  1207.8000      7.9114      2.6290      0.1648      1.2712    124.7896
  1207.9000      7.9114      2.6274      0.1348      1.3685    121.7786
  1208.0000      7.9223      2.6406      0.1106      0.5694    118.2687
  1208.1000      7.9223      2.6682      0.1488     -1.1013    113.7016
  1208.2000      7.9223      2.6814      0.1406     -1.9034    103.8646
  1208.3000      7.9246      2.6738      0.0876     -1.4410     91.1067
  1208.4000      7.9246      2.6647      0.1287     -0.8898     82.1120
  1208.5000      7.9097      2.6581      0.1584     -0.4930     80.1451
  1208.6000      7.9097      2.6488      0.1238      0.0707     85.0391
  1208.7000      7.9097      2.6280      0.1861      1.3320     90.9918
  1208.8000      7.8939      2.5959      0.1027      3.2794     91.2349
  1208.9000      7.8939      2.5816      0.1278      4.1467     89.0306
  1209.0000      7.8597      2.6053      0.0821      2.7090     92.8872
  1209.1000      7.8597      2.6509      0.1158     -0.0569    100.8945
  1209.2000      7.8597      2.6878      0.1434     -2.2906    103.5361
  1209.3000      7.8825      2.6946      0.1965     -2.7036    100.0276
  1209.4000      7.8825      2.6752      0.1586     -1.5275     94.0747
  1209.5000      7.8921      2.6612      0.1613     -0.6779     87.1693
  1209.6000      7.8921      2.6730      0.1503     -1.3950     82.8742
  1209.7000      7.8921      2.6936      0.1835     -2.6408     81.5282
  1209.8000      7.8932      2.6998      0.1605     -3.0158     80.7510
  1209.9000      7.8932      2.6983      0.1088     -2.9269     81.7283
