~Version Information
VERS.                      2.0: CWLS Log ASCII Standard - VERSION 2.0
WRAP.                       NO: One line per depth step
~Well Information Block
STRT.FT                -8.7500: 
STOP.FT              2331.5000: 
STEP.FT                 0.2500: 
NULL.                -999.2500: 
COMP.          Pioneer Natural Resources: COMPANY
WELL.          Sparrowhawk 22-12: WELL
FLD.           Purgatorie River: FIELD
LOC.           2049' FNL & 2060' FWL--: LOCATION
CNTY.               Las Animas: COUNTY
SRVC.          Patterson Wireline: SERVICE COMPANY
DATE.          Wed Apr 12 08:53:41 2006: LOG DATE
UWI.           05 071 08484 00: UNIQUE WELL ID
STAT.                       CO: STATE
~Curve Information Block
DEPT.FT            0 000 00 00: Depth
CCL.                          : Casing Collar Locator
TT3.usec                      : CBL 3' Travel Time
AMP3.mV                       : CBL 3' Amplitude
GR.GAPI                       : Gamma Ray
~Parameter Information Block
MAXAMPL.mV              0.0000: Maximum Amplitude
~A  Depth       CCL         TT3         AMP3         GR     
# ...
  2001.2500      0.0000    264.6146     76.0883    138.4357
  2001.5000      0.0000    264.5965     76.0039    138.7042
  2001.7500      0.0000    264.5797     75.9229    136.4084
  2002.0000      0.0000    264.5671     75.8626    130.5586
  2002.2500      0.0000    264.5617     75.8028    122.6144
  2002.5000      0.0000    264.5652     75.7086    116.3014
  2002.7500      0.0000    264.5757     75.5770    115.0841
  2003.0000      0.0000    264.5889     75.4483    119.2578
  2003.2500      0.0000    264.6008     75.3679    125.5853
  2003.5000      0.0000    264.6096     75.3377    129.7882
  2003.7500      0.0000    264.6158     75.3071    129.4736
  2004.0000      0.0000    264.6201     75.2098    125.1260
  2004.2500      0.0000    264.6226     75.0157    118.9862
  2004.5000      0.0000    264.6237     74.7576    113.3227
  2004.7500      0.0000    264.6238     74.5097    109.5440
  2005.0000      0.0000    264.6241     74.3307    108.2789
  2005.2500      0.0000    264.6258     74.2265    109.5219
  2005.5000      0.0000    264.6292     74.1710    112.4100
  2005.7500      0.0000    264.6317     74.1454    115.2100
  2006.0000      0.0000    264.6296     74.1341    115.9837
  2006.2500      0.0000    264.6206     74.0812    113.4770
  2006.5000      0.0000    264.6069     73.8830    107.7528
  2006.7500      0.0000    264.5937     73.4458    100.4687
  2007.0000      0.0000    264.5863     72.7523     94.3033
  2007.2500      0.0000    264.5882     71.8692     91.5091
  2007.5000      0.0000    264.6002     70.8889     92.8705
  2007.7500      0.0000    264.6212     69.8571     97.9589
  2008.0000      0.0000    264.6496     68.7424    105.6440
  2008.2500      0.0000    264.6846     67.4706    113.8704
  2008.5000      0.0000    264.7264     65.9888    119.7392
  2008.7500      0.0000    264.7744     64.3062    121.1129
  2009.0000      0.0000    264.8272     62.4905    118.3528
  2009.2500      0.0000    264.8842     60.6410    113.8381
  2009.5000      0.0000    264.9458     58.8600    109.6752
  2009.7500      0.0000    265.0128     57.2292    106.3375
  2010.0000      0.0000    265.0853     55.7978    103.3638
  2010.2500      0.0000    265.1635     54.5871    100.4641
  2010.5000      0.0000    265.2500     53.5979     97.7114
  2010.7500      0.0000    265.3520     52.8060     95.3824
  2011.0000      0.0000    265.4781     52.1564     93.9917
  2011.2500      0.0000    265.6298     51.5722     93.9554
  2011.5000      0.0000    265.8006     50.9614     94.9016
  2011.7500      0.0000    265.9962     50.1921     95.7810
  2012.0000      0.0000    266.3196     49.0656     95.9031
  2012.2500      0.0000    267.1100     47.3585     95.5256
  2012.5000      0.0000    269.0699     44.9184     95.3285
  2012.7500      0.0000    273.0856     41.7631     95.5939
  2013.0000      0.0000    279.5158     38.1533     95.9843
  2013.2500      0.0000    287.4575     34.5530     95.9386
  2013.5000      0.0000    295.0804     31.3743     95.1731
  2013.7500      0.0000    300.9995     28.7242     93.6874
  2014.0000      0.0000    305.0521     26.5180     91.3513
  2014.2500      0.0000    307.6950     24.7708     87.9171
  2014.5000      0.0000    309.2445     23.5775     83.7061
  2014.7500      0.0000    309.9041     22.8672     80.0324
  2015.0000     -2.0000    309.9995     22.3910     78.5398
  2015.2500      0.0000    309.8380     21.9902     80.0213
  2015.5000      0.0000    309.5341     21.8516     83.9905
  2015.7500      0.0000    309.2268     22.4706     89.1299
  2016.0000      0.0000    309.6894     24.2155     93.9737
  2016.2500      0.0000    312.3437     26.7917     97.6510
  2016.5000      0.0000    317.4969     29.2771    100.3544
  2016.7500      0.0000    322.0356     30.9003    102.8765
  2017.0000      0.0000    320.5803     31.6735    105.6546
  2017.2500      0.0000    310.6505     32.1265    108.5343
  2017.5000      0.0000    295.7469     32.6290    111.2635
  2017.7500      0.0000    282.0840     33.1548    113.7171
  2018.0000      0.0000    273.3391     33.5139    115.6554
  2018.2500      0.0000    269.3185     33.5854    116.5970
  2018.5000      0.0000    268.1136     33.3740    116.1189
  2018.7500      0.0000    268.1006     32.9939    114.4298
  2019.0000      0.0000    268.3961     32.6336    112.5863
  2019.2500      0.0000    268.5876     32.4937    111.8121
  2019.5000      0.0000    268.5125     32.7199    112.4619
  2019.7500      0.0000    268.1700     33.3611    113.7934
  2020.0000      0.0000    267.6760     34.3602    114.8695
  2020.2500      0.0000    267.1714     35.5703    115.5662
  2020.5000      0.0000    266.7535     36.7932    116.4547
  2020.7500      0.0000    266.4563     37.8421    117.7200
  2021.0000      0.0000    266.2712     38.6078    118.5082
  2021.2500      0.0000    266.1750     39.0773    117.5393
  2021.5000      0.0000    266.1542     39.2729    114.2403
  2021.7500      0.0000    266.2250     39.1657    108.9805
  2022.0000      0.0000    266.4633     38.6647    101.9705
  2022.2500      0.0000    267.0540     37.7064     92.4698
  2022.5000      0.0000    268.3558     36.3590     79.9594
  2022.7500      0.0000    270.8648     34.8375     66.0442
  2023.0000      0.0000    274.8755     33.4192     54.3855
  2023.2500      0.0000    279.8607     32.3335     48.3411
  2023.5000      0.0000    284.1846     31.6990     48.6917
  2023.7500      0.0000    285.8634     31.5190     53.3018
  2024.0000      0.0000    284.0332     31.7045     58.4989
  2024.2500      0.0000    279.6962     32.1109     61.0971
  2024.5000      0.0000    274.9057     32.5870     59.9565
  2024.7500      0.0000    271.2615     33.0230     55.9903
  2025.0000      0.0000    269.1676     33.3781     50.7393
  2025.2500      0.0000    268.1861     33.6757     45.2305
  2025.5000      0.0000    267.7303     33.9699     40.1322
  2025.7500      0.0000    267.4397     34.2916     36.3710
  2026.0000      0.0000    267.1965     34.6113     35.0691
  2026.2500      0.0000    267.0038     34.8540     36.7393
  2026.5000      0.0000    266.8852     34.9551     40.5497
  2026.7500      0.0000    266.8408     34.9068     44.5807
  2027.0000      0.0000    266.8497     34.7571     47.1068
  2027.2500      0.0000    266.8847     34.5731     47.6951
  2027.5000      0.0000    266.9255     34.4035     47.0681
  2027.7500      0.0000    266.9610     34.2675     46.1346
  2028.0000      0.0000    266.9853     34.1721     45.3166
  2028.2500      0.0000    266.9912     34.1368     44.6371
  2028.5000      0.0000    266.9698     34.1948     44.1572
  2028.7500      0.0000    266.9185     34.3655     44.1614
  2029.0000      0.0000    266.8457     34.6329     44.9784
  2029.2500      0.0000    266.7645     34.9575     46.8291
  2029.5000      0.0000    266.6822     35.3104     49.8113
  2029.7500      0.0000    266.5983     35.6893     53.7042
  2030.0000      0.0000    266.5100     36.1072     57.7759
  2030.2500      0.0000    266.4165     36.5799     61.0349
  2030.5000      0.0000    266.3185     37.1197     62.6247
  2030.7500      0.0000    266.2164     37.7306     61.9951
  2031.0000      0.0000    266.1100     38.4009     59.2358
  2031.2500      0.0000    265.9998     39.1035     55.4063
  2031.5000      0.0000    265.8880     39.8087     52.0176
  2031.7500      0.0000    265.7788     40.5030     49.8904
  2032.0000      0.0000    265.6751     41.1939     48.7129
  2032.2500      0.0000    265.5769     41.8921     47.7539
  2032.5000      0.0000    265.4839     42.5829     46.7841
  2032.7500      0.0000    265.3983     43.2203     46.3385
  2033.0000      0.0000    265.3252     43.7569     47.2981
  2033.2500      0.0000    265.2674     44.1738     50.0967
  2033.5000      0.0000    265.2233     44.4747     53.9973
  2033.7500      0.0000    265.1901     44.6557     57.1641
  2034.0000      0.0000    265.1690     44.6914     57.8360
  2034.2500      0.0000    265.1681     44.5497     55.7598
  2034.5000      0.0000    265.1970     44.2142     52.6288
