~Version Information
VERS.                      2.0: CWLS Log ASCII Standard - VERSION 2.0
WRAP.                       NO: One line per depth step
~Well Information Block
STRT.FT               597.2500: 
STOP.FT              1567.2500: 
STEP.FT                 0.2500: 
NULL.                -999.2500: 
COMP.          Pioneer Natural Resources: COMPANY
WELL.           Butch 33-10 Tr: WELL
FLD.           Purgatoire River: FIELD
LOC.           2309' FSL & 1337' FEL--: LOCATION
PROV.                 Colorado: PROVINCE
CNTY.               Las Animas: COUNTRY
SRVC.                Patterson: SERVICE COMPANY
DATE.          Sat Jan 14 05:18:29 2006: LOG DATE
UWI.           05 071 08649 00: UNIQUE WELL ID
~Curve Information Block
DEPT.FT            0 000 00 00: Depth
SN.Ohm-m                      : IEL Short Normal
SP.mV                         : IEL Spontaneous Potential
DIR.Ohm-m                     : IEL Induction Resistivity
GR.GAPI                       : Gamma Ray
~Parameter Information Block
~A  Depth        SN          SP         DIR          GR     
# ...
  1300.7500     14.8195     22.9935     12.8446    107.2512
  1301.0000     16.1703     22.4903     13.4861    104.7649
  1301.2500     17.2755     21.9653     14.1542    102.0146
  1301.5000     18.0477     21.4747     14.8181     96.5022
  1301.7500     18.4995     21.0883     15.4399     92.6473
  1302.0000     18.6914     20.8796     15.9666     88.1490
  1302.2500     18.6708     20.9133     16.3251     86.4279
  1302.5000     18.4440     21.2315     16.4334     85.5468
  1302.7500     17.9981     21.8435     16.2327     85.9658
  1303.0000     17.3525     22.7202     15.7232     88.6545
  1303.2500     16.5846     23.7970     14.9765     92.2971
  1303.5000     15.8038     24.9831     14.1116    100.3218
  1303.7500     15.1017     26.1758     13.2527    106.3512
  1304.0000     14.5256     27.2770     12.4950    113.8234
  1304.2500     14.0864     28.2070     11.8927    116.4348
  1304.5000     13.7755     28.9136     11.4643    115.8557
  1304.7500     13.5717     29.3761     11.2047    112.8513
  1305.0000     13.4424     29.6024     11.0981    105.9727
  1305.2500     13.3483     29.6234     11.1279    100.6873
  1305.5000     13.2554     29.4854     11.2846     92.8102
  1305.7500     13.1494     29.2432     11.5688     88.0930
  1306.0000     13.0476     28.9535     11.9893     82.3391
  1306.2500     13.0027     28.6708     12.5571     79.2803
  1306.5000     13.0909     28.4435     13.2755     75.0860
  1306.7500     13.3815     28.3111     14.1281     72.1880
  1307.0000     13.8945     28.3017     15.0624     67.8837
  1307.2500     14.5720     28.4306     15.9795     65.4984
  1307.5000     15.2938     28.7011     16.7439     63.1228
  1307.7500     15.9329     29.1061     17.2294     62.1765
  1308.0000     16.4117     29.6309     17.3788     61.1067
  1308.2500     16.7167     30.2565     17.2306     60.4706
  1308.5000     16.8716     30.9624     16.8861     59.8351
  1308.7500     16.8981     31.7285     16.4507     59.7991
  1309.0000     16.7967     32.5359     15.9957     60.5811
  1309.2500     16.5556     33.3673     15.5517     61.9239
  1309.5000     16.1745     34.2062     15.1225     65.8957
  1309.7500     15.6791     35.0370     14.7028     70.1920
  1310.0000     15.1185     35.8438     14.2890     79.0389
  1310.2500     14.5476     36.6086     13.8809     86.0574
  1310.5000     14.0154     37.3110     13.4816     97.0363
  1310.7500     13.5649     37.9266     13.0979    103.9627
  1311.0000     13.2364     38.4290     12.7446    112.9920
  1311.2500     13.0601     38.7920     12.4454    117.9559
  1311.5000     13.0424     38.9948     12.2278    123.8171
  1311.7500     13.1623     39.0268     12.1136    126.5614
  1312.0000     13.3820     38.8916     12.1114    128.3875
  1312.2500     13.6627     38.6071     12.2160    127.7111
  1312.5000     13.9769     38.2038     12.4125    123.6207
  1312.7500     14.3186     37.7185     12.6857    119.1141
  1313.0000     14.7155     37.1882     13.0299    110.9459
  1313.2500     15.2295     36.6453     13.4555    105.5930
  1313.5000     15.9312     36.1135     13.9859     99.1277
  1313.7500     16.8573     35.6072     14.6441     96.0633
  1314.0000     17.9774     35.1310     15.4327     92.7757
  1314.2500     19.1926     34.6801     16.3163     91.1441
  1314.5000     20.3647     34.2404     17.2138     89.7551
  1314.7500     21.3661     33.7868     18.0113     89.9710
  1315.0000     22.1360     33.2845     18.6025     92.4049
  1315.2500     22.7078     32.6916     18.9382     95.1397
  1315.5000     23.1784     31.9656     19.0505     99.8697
  1315.7500     23.6348     31.0723     19.0290    102.9403
  1316.0000     24.0914     29.9987     18.9704    106.6646
  1316.2500     24.4819     28.7659     18.9413    107.8176
  1316.5000     24.7024     27.4409     18.9662    106.1848
  1316.7500     24.6722     26.1424     19.0322    102.8697
  1317.0000     24.3753     25.0357     19.0926     96.6056
  1317.2500     23.8621     24.3131     19.0699     93.0967
  1317.5000     23.2088     24.1607     18.8664     90.1163
  1317.7500     22.4622     24.7158     18.3968     89.5506
  1318.0000     21.6154     26.0263     17.6304     90.5182
  1318.2500     20.6392     28.0260     16.6152     92.5461
  1318.5000     19.5369     30.5364     15.4597     98.1934
  1318.7500     18.3690     33.3001     14.2878    103.7602
  1319.0000     17.2198     36.0354     13.1996    114.2460
  1319.2500     16.1428     38.4985     12.2557    121.9827
  1319.5000     15.1375     40.5315     11.4806    133.2503
  1319.7500     14.1762     42.0824     10.8721    139.7478
  1320.0000     13.2420     43.1964     10.4119    147.1392
  1320.2500     12.3442     43.9840     10.0748    150.2988
  1320.5000     11.5093     44.5832      9.8368    152.0732
  1320.7500     10.7716     45.1274      9.6811    151.0094
  1321.0000     10.1736     45.7251      9.6003    146.1024
  1321.2500      9.7703     46.4516      9.5928    141.4187
  1321.5000      9.6206     47.3437      9.6572    134.5916
  1321.7500      9.7577     48.3972      9.7859    131.3443
  1322.0000     10.1540     49.5648      9.9621    129.2300
  1322.2500     10.7059     50.7617     10.1583    129.5305
  1322.5000     11.2610     51.8810     10.3392    131.7062
  1322.7500     11.6800     52.8183     10.4684    133.4757
  1323.0000     11.8954     53.5001     10.5177    134.8534
  1323.2500     11.9253     53.9011     10.4757    134.3275
  1323.5000     11.8397     54.0489     10.3511    132.2197
  1323.7500     11.7108     54.0125     10.1699    131.2362
  1324.0000     11.5820     53.8800      9.9655    131.8526
  1324.2500     11.4670     53.7352      9.7680    133.2962
  1324.5000     11.3649     53.6402      9.5989    135.1995
  1324.7500     11.2719     53.6277      9.4695    135.5570
  1325.0000     11.1838     53.7030      9.3838    134.7960
  1325.2500     11.0984     53.8513      9.3419    133.9691
  1325.5000     11.0193     54.0480      9.3409    133.1206
  1325.7500     10.9579     54.2659      9.3754    132.8823
  1326.0000     10.9286     54.4814      9.4376    132.3398
  1326.2500     10.9379     54.6778      9.5171    131.4212
  1326.5000     10.9786     54.8453      9.6037    129.1466
  1326.7500     11.0357     54.9808      9.6904    127.3508
  1327.0000     11.1009     55.0851      9.7762    124.8873
  1327.2500     11.1804     55.1612      9.8673    123.7370
  1327.5000     11.2915     55.2110      9.9737    123.3060
  1327.7500     11.4501     55.2340     10.1047    124.0916
  1328.0000     11.6607     55.2266     10.2657    126.6594
  1328.2500     11.9147     55.1816     10.4590    128.6917
  1328.5000     12.1953     55.0899     10.6845    130.5880
  1328.7500     12.4863     54.9420     10.9417    130.2510
  1329.0000     12.7812     54.7300     11.2302    127.1780
  1329.2500     13.0884     54.4490     11.5506    124.1411
  1329.5000     13.4255     54.0980     11.9067    119.5654
  1329.7500     13.8018     53.6801     12.3045    116.7808
  1330.0000     14.2059     53.2021     12.7481    112.5632
  1330.2500     14.6124     52.6739     13.2346    109.5535
  1330.5000     15.0034     52.1081     13.7518    105.2028
  1330.7500     15.3814     51.5186     14.2810    102.9157
  1331.0000     15.7594     50.9189     14.8005    101.2013
  1331.2500     16.1413     50.3202     15.2877    101.4787
  1331.5000     16.5131     49.7293     15.7188    103.7812
  1331.7500     16.8537     49.1478     16.0710    105.8384
  1332.0000     17.1513     48.5722     16.3285    107.9733
  1332.2500     17.4104     47.9949     16.4896    108.2332
  1332.5000     17.6453     47.4085     16.5716    107.8035
  1332.7500     17.8681     46.8089     16.6064    108.1317
  1333.0000     18.0787     46.1997     16.6288    110.3994
  1333.2500     18.2593     45.5943     16.6636    112.3502
  1333.5000     18.3815     45.0154     16.7208    113.8961
  1333.7500     18.4257     44.4918     16.7989    113.4878
  1334.0000     18.3957     44.0520     16.8911    111.3429
