~Version Information
VERS.                      2.0: CWLS Log ASCII Standard - VERSION 2.0
WRAP.                       NO: One line per depth step
~Well Information Block
STRT.FT               860.0000: 
STOP.FT              2360.5000: 
STEP.FT                 0.1000: 
NULL.                -999.2500: 
COMP.          Pioneer Natural Resources: COMPANY
WELL.            Cayenne 23-23: WELL
FLD.           Purgatoire River: FIELD
LOC.           2555' FSL & 2386' FWL: LOCATION
PROV.                 Colorado: PROVINCE
CNTY.               Las Animas: COUNTRY
SRVC.                Patterson: SERVICE COMPANY
DATE.          Wed Aug 17 08:28:25 2005: LOG DATE
UWI.           05 071 08476 00: UNIQUE WELL ID
~Curve Information Block
DEPT.FT            0 000 00 00: Depth
DCAL.in                       : CDL Caliper
RHOB.g/cc                     : CDL Bulk Density
RHOC.g/cc                     : CDL Density Correction
DPOR.pu                       : CDL Density Porosity
GR.GAPI                       : Gamma Ray
NPOR.pu                       : Neutron Porosity
~Parameter Information Block
~A  Depth       DCAL        RHOB        RHOC        DPOR         GR         NPOR    
# ...
   956.0000      8.1754      2.3145      0.4710     20.3311    121.6958     24.3999
   956.1000      8.1754      2.3721      0.3592     16.8397    121.2799     25.1858
   956.2000      8.1754      2.4388      0.2198     12.7979    117.7241     25.9554
   956.3000      8.1869      2.5161      0.2205      8.1151    116.4453     26.7497
   956.4000      8.1869      2.5612      0.1475      5.3806    117.2677     27.8133
   956.5000      8.3490      2.5637      0.1109      5.2281    116.7228     28.4888
   956.6000      8.3490      2.5421      0.1011      6.5411    117.9165     28.0345
   956.7000      8.3490      2.5144      0.0372      8.2171    121.3416     27.0611
   956.8000      8.2064      2.4980      0.0000      9.2108    125.2846     26.1585
   956.9000      8.2064      2.4852      0.0303      9.9862    132.8954     24.8712
   957.0000      8.1808      2.4461      0.0382     12.3584    142.5765     23.3640
   957.1000      8.1808      2.3755      0.0175     16.6343    146.8625     22.5281
   957.2000      8.1808      2.3042     -0.0410     20.9571    144.7160     22.4361
   957.3000      8.1432      2.2589      0.0001     23.7022    141.1325     22.4119
   957.4000      8.1432      2.2389      0.0471     24.9137    140.8863     22.1693
   957.5000      8.1230      2.2297      0.0288     25.4733    145.3112     22.3147
   957.6000      8.1230      2.2236      0.0138     25.8394    150.6223     23.3604
   957.7000      8.1230      2.2270      0.0539     25.6336    151.4113     24.5945
   957.8000      8.0914      2.2605      0.0377     23.6038    145.7835     24.9340
   957.9000      8.0914      2.3386      0.1393     18.8725    136.7235     24.5115
   958.0000      8.0707      2.4316      0.2644     13.2358    130.9786     24.3383
   958.1000      8.0707      2.4939      0.1764      9.4602    129.9116     24.8022
   958.2000      8.0707      2.5184      0.1660      7.9738    125.9887     25.5118
   958.3000      8.1320      2.5189      0.1045      7.9442    118.4032     26.0952
   958.4000      8.1320      2.5075      0.1078      8.6347    117.1520     26.5043
   958.5000      8.0469      2.4985      0.0958      9.1845    124.2330     26.7169
   958.6000      8.0469      2.5044      0.0592      8.8263    130.9127     26.7617
   958.7000      8.0469      2.5219      0.1325      7.7634    131.8389     26.7858
   958.8000      8.0024      2.5336      0.1005      7.0524    127.6908     26.8525
   958.9000      8.0024      2.5410      0.0405      6.6086    121.9181     26.9393
   959.0000      8.0090      2.5490      0.1455      6.1221    118.2568     27.0975
   959.1000      8.0090      2.5451      0.1060      6.3599    119.6219     27.4310
   959.2000      8.0090      2.5363      0.0712      6.8908    127.0860     27.6018
   959.3000      8.0345      2.5481      0.0798      6.1775    135.0405     27.1834
   959.4000      8.0345      2.5831      0.1056      4.0533    137.4591     26.4803
   959.5000      8.0427      2.6166      0.1349      2.0216    132.7103     26.0814
   959.6000      8.0427      2.6201      0.0877      1.8127    120.9883     26.0867
   959.7000      8.0427      2.5923      0.0103      3.4961    105.5529     26.2526
   959.8000      8.0307      2.5615      0.0021      5.3611     93.5052     26.6045
   959.9000      8.0307      2.5436      0.1223      6.4488     91.7712     26.9897
   960.0000      8.0386      2.5427      0.0598      6.5039    101.4627     26.6448
   960.1000      8.0386      2.5714      0.0799      4.7663    119.3264     25.5074
   960.2000      8.0386      2.6124      0.2128      2.2809    133.4621     24.4407
   960.3000      8.0205      2.6287      0.2052      1.2922    130.1610     23.9588
   960.4000      8.0205      2.6227      0.1528      1.6551    114.9307     23.8601
   960.5000      7.9505      2.6185      0.2015      1.9105    103.4500     23.7478
   960.6000      7.9505      2.6182      0.1700      1.9275    100.9203     23.5606
   960.7000      7.9505      2.6138      0.1652      2.1926    103.8503     23.5167
   960.8000      7.9353      2.6016      0.1752      2.9307    108.8429     23.7649
   960.9000      7.9353      2.5838      0.1538      4.0149    112.2526     23.9772
   961.0000      7.9264      2.5649      0.0970      5.1565    110.5426     24.1034
   961.1000      7.9264      2.5423      0.0782      6.5245    106.4623     24.6785
   961.2000      7.9264      2.5094      0.1091      8.5202    105.5303     25.6143
   961.3000      7.9777      2.4786      0.0171     10.3853    109.0611     26.2248
   961.4000      7.9777      2.4734      0.0330     10.7019    114.2240     26.3909
   961.5000      8.0900      2.4814      0.0806     10.2194    119.3344     26.4037
   961.6000      8.0900      2.4752      0.0036     10.5958    123.5071     26.3320
   961.7000      8.0900      2.4643     -0.0052     11.2549    124.7528     26.1130
   961.8000      8.1198      2.4646      0.0817     11.2358    123.8999     25.7960
   961.9000      8.1198      2.4694      0.0215     10.9455    124.1462     25.4172
   962.0000      8.1221      2.4712      0.0608     10.8345    127.5061     24.8909
   962.1000      8.1221      2.4617      0.0804     11.4137    131.9255     24.3260
   962.2000      8.1221      2.4467      0.0014     12.3226    134.1600     23.9587
   962.3000      8.0722      2.4510      0.0305     12.0577    134.5538     23.6968
   962.4000      8.0722      2.4743      0.0889     10.6514    136.8496     23.4850
   962.5000      8.0525      2.4890      0.0764      9.7577    140.4431     23.4748
   962.6000      8.0525      2.4803      0.0986     10.2873    141.4459     23.6801
   962.7000      8.0525      2.4609      0.0414     11.4593    139.9010     24.0282
   962.8000      8.0428      2.4630      0.0606     11.3318    138.3620     24.4237
   962.9000      8.0428      2.4990      0.1251      9.1535    137.9987     24.7206
   963.0000      8.0161      2.5410      0.1675      6.6040    135.4515     24.9451
   963.1000      8.0161      2.5555      0.1901      5.7283    129.2436     25.2520
   963.2000      8.0161      2.5398      0.1282      6.6800    124.6309     25.5601
   963.3000      7.9547      2.5208      0.0869      7.8325    124.8992     25.8047
   963.4000      7.9547      2.5221      0.0702      7.7541    129.5618     25.9744
   963.5000      7.9582      2.5367      0.1178      6.8670    134.4341     25.8853
   963.6000      7.9582      2.5534      0.0364      5.8553    133.8941     25.6485
   963.7000      7.9582      2.5797      0.1052      4.2635    127.5196     25.5656
   963.8000      7.9972      2.6091      0.1104      2.4761    119.4432     25.6464
   963.9000      7.9972      2.6223      0.1177      1.6764    113.4935     25.7240
   964.0000      8.0775      2.6124      0.1307      2.2768    111.5378     25.7518
   964.1000      8.0775      2.5819      0.1207      4.1257    113.1859     25.8106
   964.2000      8.0775      2.5414      0.0553      6.5803    116.3969     25.8803
   964.3000      8.0449      2.5099      0.0358      8.4927    120.2424     25.8215
   964.4000      8.0449      2.5041      0.0158      8.8408    124.1798     25.5158
   964.5000      8.0393      2.5194      0.0705      7.9167    127.4437     25.2149
   964.6000      8.0393      2.5258      0.1010      7.5293    129.0246     25.4133
   964.7000      8.0393      2.5076      0.0574      8.6312    126.8242     25.7607
   964.8000      8.0445      2.4873     -0.0308      9.8589    123.5947     25.6370
   964.9000      8.0445      2.4816      0.0838     10.2057    122.3073     25.2523
   965.0000      8.0501      2.4811      0.0616     10.2387    119.3475     25.2062
   965.1000      8.0501      2.4883      0.0280      9.7995    117.1040     25.7257
   965.2000      8.0501      2.5089      0.0558      8.5485    121.2465     26.3755
   965.3000      8.0829      2.5267      0.1236      7.4715    129.3351     26.4834
   965.4000      8.0829      2.5309      0.0930      7.2164    138.2986     26.1005
   965.5000      8.0804      2.5346      0.0465      6.9917    146.8264     26.0017
