~Version Information
VERS.                      2.0: CWLS Log ASCII Standard - VERSION 2.0
WRAP.                       NO: One line per depth step
~Well Information Block
STRT.FT                 0.0000: 
STOP.FT              1981.7500: 
STEP.FT                 0.2500: 
NULL.                -999.2500: 
COMP.          Petrogulf Corporation: COMPANY
WELL.          Collister 17-31R: WELL
FLD.           Purgatorie River: FIELD
LOC.           962' FNL & 1520' FEL: LOCATION
STAT.                 Colorado: State
CNTY.               Las Animas: COUNTY
CTRY. USA : Country
SECT. 17 : Section
TOWN. 33S : Township
RANG. 67W : Range
SRVC.                Patterson: SERVICE COMPANY
DATE.          Fri Jan 06 10:32:29 2006: LOG DATE
API. 05-071-08436                         : UNIQUE WELL ID
~Curve Information Block
DEPT.FT            0 000 00 00: Depth
CCL.                          : Casing Collar Locator
TT3.usec                      : CBL 3' Travel Time
AMP3.mV                       : CBL 3' Amplitude
GR.GAPI                       : Gamma Ray
~Parameter Information Block
~A  Depth       CCL         TT3         AMP3         GR     
# ...
  1440.5000      0.0000    541.0590      5.8640    121.8119
  1440.7500      0.0000    564.1644      5.9280    126.4735
  1441.0000      0.0000    595.6625      6.0563    131.0012
  1441.2500      0.0000    613.1694      6.2993    135.3041
  1441.5000      0.0000    617.0015      6.4488    139.8039
  1441.7500      0.0000    623.5154      6.2989    144.3442
  1442.0000      0.0000    633.4840      6.0472    147.5673
  1442.2500      0.0000    631.0488      5.9668    147.7763
  1442.5000      0.0000    606.6824      6.0176    144.5959
  1442.7500      0.0000    569.6427      6.0266    139.6541
  1443.0000      0.0000    537.4374      5.9351    135.4288
  1443.2500      0.0000    516.8054      5.8020    133.3538
  1443.5000      0.0000    502.8084      5.6966    133.0664
  1443.7500      0.0000    493.1832      5.6247    133.4313
  1444.0000      0.0000    493.4720      5.5583    133.9332
  1444.2500      0.0000    507.8555      5.4937    134.9389
  1444.5000      0.0000    530.8776      5.4521    136.9255
  1444.7500      0.0000    552.5222      5.4596    139.7392
  1445.0000      0.0000    568.5383      5.5265    142.4951
  1445.2500      0.0000    580.2692      5.6056    144.1190
  1445.5000      0.0000    589.9602      5.6292    144.1318
  1445.7500      0.0000    601.4963      5.6121    143.0022
  1446.0000      0.0000    618.6680      5.6291    141.7920
  1446.2500      0.0000    638.8692      5.7011    141.4792
  1446.5000      0.0000    654.5286      5.8112    142.3319
  1446.7500      0.0000    662.0712      5.9600    143.5270
  1447.0000      0.0000    664.1085      6.0972    143.4378
  1447.2500      0.0000    664.2403      6.1232    140.9572
  1447.5000      0.0000    664.1111      6.0134    136.8093
  1447.7500      0.0000    664.0264      5.8223    133.0121
  1448.0000      0.0000    663.8056      5.5890    130.7323
  1448.2500      0.0000    663.1440      5.3218    129.1685
  1448.5000      0.0000    662.0212      5.0320    126.9149
  1448.7500      0.0000    660.9219      4.7486    123.9238
  1449.0000      0.0000    660.4272      4.5233    121.4743
  1449.2500      0.0000    660.6171      4.3914    120.3315
  1449.5000      0.0000    661.3511      4.3273    119.5550
  1449.7500      0.0000    663.4807      4.2886    117.3787
  1450.0000      0.0000    668.8157      4.2675    113.0373
  1450.2500      0.0000    676.5095      4.2771    107.6563
  1450.5000      0.0000    680.6373      4.3314    103.6691
  1450.7500      0.0000    676.9041      4.4274    103.3889
  1451.0000      0.0000    669.0952      4.5583    107.5876
  1451.2500      0.0000    662.5986      4.7502    115.0078
  1451.5000      0.0000    655.8195      5.0182    123.3659
  1451.7500      0.0000    640.7029      5.3182    131.0141
  1452.0000      0.0000    612.0026      5.5896    137.5292
  1452.2500      0.0000    578.8218      5.7794    142.9271
  1452.5000      0.0000    559.6563      5.8650    146.9576
  1452.7500      0.0000    559.6596      5.9143    149.3023
  1453.0000      0.0000    563.6553      6.0260    149.9699
  1453.2500      0.0000    559.7493      6.2017    149.1870
  1453.5000      0.0000    557.5043      6.3627    147.1526
  1453.7500      0.0000    572.1037      6.4547    144.1250
  1454.0000      0.0000    602.2416      6.4961    140.6476
  1454.2500      0.0000    632.6887      6.5459    137.4881
  1454.5000      0.0000    651.8913      6.6310    135.3564
  1454.7500      0.0000    659.9898      6.7248    134.7617
  1455.0000      0.0000    662.4920      6.7925    135.9324
  1455.2500      0.0000    663.1973      6.8180    138.4044
  1455.5000      0.0000    663.4207      6.7967    140.8618
  1455.7500      0.0000    663.5229      6.7421    141.8718
  1456.0000      0.0000    663.3599      6.6922    140.7050
  1456.2500      0.0000    662.0329      6.6886    137.3441
  1456.5000      0.0000    657.7640      6.7339    132.2052
  1456.7500      0.0000    649.3286      6.7790    126.1152
  1457.0000      0.0000    639.9747      6.7789    120.1272
  1457.2500      0.0000    637.2370      6.7458    115.0034
  1457.5000      0.0000    643.8397      6.7362    110.9389
  1457.7500      0.0000    653.4549      6.7982    107.8875
  1458.0000      0.0000    659.4703      6.9199    106.0207
  1458.2500      0.0000    660.8398      7.0455    105.5701
  1458.5000      0.0000    658.4591      7.1268    106.3741
  1458.7500      0.0000    652.8552      7.1555    108.0417
  1459.0000      0.0000    646.4332      7.1861    110.4908
  1459.2500      0.0000    643.6804      7.3046    113.8565
  1459.5000      0.0000    646.9709      7.5620    117.9594
  1459.7500      0.0000    653.7401      7.9343    122.2069
  1460.0000      0.0000    659.3419      8.3323    125.9053
  1460.2500      0.0000    661.8237      8.6485    128.6519
  1460.5000      0.0000    662.4769      8.8023    130.7821
  1460.7500      0.0000    662.9345      8.7815    133.3206
  1461.0000      0.0000    663.5883      8.6528    136.8500
  1461.2500      0.0000    664.1833      8.5171    140.3837
  1461.5000      0.0000    664.5965      8.4571    142.1144
  1461.7500      0.0000    664.9094      8.5055    141.5996
  1462.0000      0.0000    665.1552      8.6640    140.6073
  1462.2500      0.0000    664.9914      8.9090    141.3301
  1462.5000      0.0000    663.1498      9.1207    144.0405
  1462.7500      0.0000    656.8743      9.1039    147.0127
  1463.0000      0.0000    642.7134      8.7728    148.7007
  1463.2500      0.0000    618.9595      8.2745    149.4773
  1463.5000      0.0000    588.1295      7.8563    150.8714
  1463.7500      0.0000    558.8619      7.6358    153.2630
  1464.0000      0.0000    543.1751      7.5549    154.6905
  1464.2500      0.0000    546.3995      7.5131    152.3219
  1464.5000      0.0000    561.2010      7.4719    145.3070
  1464.7500      0.0000    575.9093      7.4351    135.9583
  1465.0000      0.0000    587.0381      7.3931    127.8253
  1465.2500      0.0000    599.0384      7.3236    122.7175
  1465.5000      0.0000    613.2116      7.2152    119.6846
  1465.7500      0.0000    621.9760      7.0746    116.3374
  1466.0000      0.0000    615.0011      6.9329    110.7212
  1466.2500      0.0000    585.6761      6.8323    102.2793
  1466.5000      0.0000    533.3682      6.7820     91.8287
  1466.7500      0.0000    471.6796      6.7521     81.1284
  1467.0000      0.0000    428.6343      6.7169     72.3128
  1467.2500      0.0000    427.2985      6.6623     67.1218
  1467.5000      0.0000    471.3720      6.5589     66.0699
  1467.7500      0.0000    542.7998      6.3685     68.2087
  1468.0000      0.0000    609.9131      6.1082     71.8567
  1468.2500      0.0000    650.2761      5.8918     75.8341
  1468.5000      0.0000    665.0440      5.8312     80.1813
  1468.7500      0.0000    668.7316      5.9224     85.7842
  1469.0000      0.0000    671.3384      6.0651     93.2803
  1469.2500      0.0000    672.6523      6.1515    102.1902
  1469.5000      0.0000    670.1104      6.1428    111.0447
  1469.7500      0.0000    665.5546      6.0804    118.4113
  1470.0000      0.0000    661.7900      6.0125    123.9402
  1470.2500      0.0000    657.5883      5.9302    128.5203
  1470.5000      0.0000    648.3792      5.8122    133.3175
  1470.7500      0.0000    632.0217      5.7579    138.3675
  1471.0000      0.0000    616.3439      5.9089    142.0122
  1471.2500      0.0000    616.3644      6.1495    141.9321
  1471.5000      0.0000    637.0497      6.2435    137.0260
  1471.7500      0.0000    665.0587      6.2471    128.3100
  1472.0000      0.0000    685.2744      6.3527    118.0395
  1472.2500     -2.0000    694.9601      6.5697    108.1842
  1472.5000      2.0000    695.0065      6.8029     99.7925
  1472.7500      0.0000    683.4468      6.9858     93.4912
  1473.0000      0.0000    663.0503      7.0959     90.1549
  1473.2500      0.0000    643.9120      7.1850     90.7363
  1473.5000      0.0000    635.4996      7.3905     95.4918
  1473.7500      0.0000    639.1731      7.7323    103.6898
