~Version Information
VERS.                      2.0: CWLS Log ASCII Standard - VERSION 2.0
WRAP.                       NO: One line per depth step
~Well Information Block
STRT.FT                -4.0000: 
STOP.FT               675.2500: 
STEP.FT                 0.2500: 
NULL.                -999.2500: 
COMP.          Pioneer Natural Resources: COMPANY
WELL.          Razor Clam 23-27: WELL
FLD.           Purgatoire River: FIELD
LOC.           2499' FSL & 2636' FWL: LOCATION
CNTY.               Las Animas: COUNTY
SRVC.                         : SERVICE COMPANY
DATE.          Thu Mar 09 13:15:19 2006: LOG DATE
UWI.           05 071 08667 00: UNIQUE WELL ID
STAT.                       CO: STATE
~Curve Information Block
DEPT.FT            0 000 00 00: Depth
GR.GAPI                       : Gamma Ray
CCL.                          : Casing Collar Locator
TT3.usec                      : CBL 3' Travel Time
AMP3.mV                       : CBL 3' Amplitude
~Parameter Information Block
~A  Depth        GR         CCL         TT3         AMP3    
# ...
   163.5000    122.3808      0.0000    434.3530     22.6750
   163.7500    116.7327      0.0000    411.9067     22.2037
   164.0000    113.0515      0.0000    412.2104     21.7959
   164.2500    110.9657      0.0000    420.7205     21.4967
   164.5000    108.5326      0.0000    420.0899     21.2676
   164.7500    104.0078      0.0000    403.6777     21.0308
   165.0000     97.4433      0.0000    378.9021     20.7471
   165.2500     90.6520      0.0000    357.6828     20.4543
   165.5000     86.0372      0.0000    345.7019     20.2295
   165.7500     85.5211      0.0000    341.1717     20.1158
   166.0000     89.8529      0.0000    340.1059     20.1001
   166.2500     98.1968      0.0000    340.0106     20.1637
   166.5000    108.4278      0.0000    340.0448     20.3171
   166.7500    118.2003      0.0000    340.0297     20.5551
   167.0000    126.0087      0.0000    339.9173     20.8052
   167.2500    131.4381      0.0000    339.6698     20.9709
   167.5000    134.7777      0.0000    339.3042     21.0303
   167.7500    136.7648      0.0000    338.8784     21.0480
   168.0000    138.4816      0.0000    338.4681     21.0798
   168.2500    140.5846      0.0000    338.1358     21.0971
   168.5000    142.2066      0.0000    337.9039     21.0260
   168.7500    141.1637      0.0000    337.7558     20.8368
   169.0000    135.7546      0.0000    337.6601     20.5760
   169.2500    126.4506      0.0000    337.5921     20.3241
   169.5000    115.9595      0.0000    337.5362     20.1376
   169.7500    107.5745      0.0000    337.4810     20.0203
   170.0000    103.0108      0.0000    337.4198     19.9369
   170.2500    101.7244      0.0000    337.3547     19.8491
   170.5000    102.3701      0.0000    337.2973     19.7497
   170.7500    104.4198      0.0000    337.2644     19.6753
   171.0000    107.9614      0.0000    337.2676     19.6922
   171.2500    112.3634      0.0000    337.3158     19.8479
   171.5000    115.7805      0.0000    337.4756     20.1220
   171.7500    116.1598      0.0000    338.0818     20.4244
   172.0000    112.7799      0.0000    340.1782     20.6433
   172.2500    106.9135      0.0000    346.0363     20.6896
   172.5000    101.1108      0.0000    359.1776     20.5144
   172.7500     97.8616      0.0000    383.1840     20.1239
   173.0000     98.4984      0.0000    419.7753     19.5919
   173.2500    102.5963      0.0000    467.7491     19.0315
   173.5000    108.0783      0.0000    523.1624     18.5361
   173.7500    112.3052      0.0000    579.2310     18.1440
   174.0000    113.6165      0.0000    626.4476     17.8483
   174.2500    112.1159      0.0000    656.3531     17.6248
   174.5000    109.0018      0.0000    668.2426     17.4527
   174.7500    105.2562      0.0000    671.1082     17.3156
   175.0000    101.2749      0.0000    676.4549     17.1846
   175.2500     97.7584      0.0000    689.0292     17.0076
   175.5000     96.2156      0.0000    704.9282     16.7253
   175.7500     97.9623      0.0000    716.7061     16.2963
   176.0000    102.8021      0.0000    718.2267     15.7331
   176.2500    108.9941      0.0000    707.5798     15.1470
   176.5000    114.3058      0.0000    691.1757     14.7017
   176.7500    117.0190      0.0000    686.3038     14.4325
   177.0000    116.4342      0.0000    713.2583     14.1578
   177.2500    113.0534      0.0000    777.5748     13.6771
   177.5000    108.3295      0.0000    860.2598     13.0111
   177.7500    103.8595      0.0000    930.3597     12.3520
   178.0000    100.6665      0.0000    968.1207     11.8414
   178.2500     99.2360      1.3412    974.1060     11.4931
   178.5000     99.7931     -1.9208    958.5625     11.2831
   178.7500    102.0756      0.0000    927.1873     11.2532
   179.0000    104.9677      0.0000    878.1849     11.5311
   179.2500    106.7418      0.0000    810.7351     12.2425
   179.5000    105.9366      0.0000    734.3191     13.3547
   179.7500    102.3650      0.0000    667.1162     14.6197
   180.0000     97.5069      0.0000    623.7401     15.7318
   180.2500     93.6638      0.0000    607.7639     16.5316
   180.5000     92.3829      0.0000    616.9938     17.0355
   180.7500     93.7379      0.0000    648.9448     17.3362
   181.0000     97.1326      0.0000    696.9022     17.5339
   181.2500    102.3882      0.0000    746.9833     17.7154
   181.5000    109.6370      0.0000    785.1033     17.9220
   181.7500    118.1387      0.0000    805.4895     18.1201
   182.0000    125.7136      0.0000    811.0693     18.2398
   182.2500    129.9927      0.0000    808.0381     18.2709
   182.5000    130.3297      0.0000    801.2162     18.3042
   182.7500    128.1916      0.0000    792.5130     18.4612
   183.0000    125.7131      0.0000    782.1393     18.7890
   183.2500    124.2113      0.0000    770.6656     19.2423
   183.5000    123.9529      0.0000    759.5278     19.7285
   183.7500    124.7407      0.0000    749.8520     20.1307
   184.0000    126.3263      0.0000    741.4138     20.3234
   184.2500    128.3406      0.0000    732.3773     20.2451
   184.5000    130.0683      0.0000    720.0268     19.9807
   184.7500    130.4948      0.0000    703.1375     19.7282
   185.0000    128.7503      0.0000    684.4002     19.6456
   185.2500    124.6343      0.0000    669.3705     19.7282
   185.5000    118.7250      0.0000    662.3334     19.8356
   185.7500    112.0135      0.0000    664.3857     19.8209
   186.0000    105.5247      0.0000    674.8024     19.6350
   186.2500    100.1179      0.0000    691.2371     19.3376
   186.5000     96.1848      0.0000    708.9214     19.0313
   186.7500     93.3952      0.0000    722.9192     18.7809
   187.0000     91.0918      0.0000    731.5816     18.5835
   187.2500     89.0486      0.0000    736.4407     18.3949
   187.5000     87.4631      0.0000    739.4219     18.1689
   187.7500     86.2478      0.0000    741.4983     17.8837
   188.0000     84.9450      0.0000    743.6742     17.5610
   188.2500     83.4925      0.0000    747.7227     17.2579
   188.5000     82.5405      0.0000    755.0269     17.0240
   188.7500     82.7014      0.0000    764.8186     16.8687
   189.0000     83.6753      0.0000    774.0450     16.7797
   189.2500     84.2881      0.0000    779.2510     16.7603
   189.5000     83.3634      0.0000    778.6749     16.8262
   189.7500     80.5882      0.0000    772.9879     16.9711
   190.0000     76.6109      0.0000    764.8229     17.1536
   190.2500     72.3721      0.0000    757.9215     17.3194
   190.5000     68.4306      0.0000    755.9500     17.4303
   190.7500     64.9136      0.0000    760.9777     17.4883
   191.0000     61.8924      0.0000    772.6391     17.5406
   191.2500     59.5976      0.0000    788.7780     17.6519
   191.5000     58.3346      0.0000    806.7332     17.8538
   191.7500     58.3242      0.0000    824.0486     18.1092
   192.0000     59.6598      0.0000    838.6524     18.3264
   192.2500     62.2766      0.0000    849.2446     18.4181
   192.5000     65.8088      0.0000    855.7212     18.3586
   192.7500     69.5142      0.0000    858.8475     18.1964
   193.0000     72.5619      0.0000    859.1495     18.0152
   193.2500     74.5179      0.0000    855.9930     17.8675
   193.5000     75.5974      0.0000    847.8182     17.7252
   193.7500     76.5451      0.0000    833.6968     17.5149
   194.0000     78.2485      0.0000    815.2134     17.2274
   194.2500     81.3263      0.0000    796.6750     16.9701
   194.5000     86.0678      0.0000    782.6374     16.8856
   194.7500     92.6032      0.0000    774.4125     17.0327
   195.0000    100.6841      0.0000    768.8360     17.3615
   195.2500    109.1650      0.0000    760.3867     17.7732
   195.5000    116.3849      0.0000    745.1293     18.1675
   195.7500    121.5698      0.0000    724.2932     18.4475
   196.0000    125.3759      0.0000    704.9675     18.5435
   196.2500    128.5344      0.0000    695.6026     18.4674
   196.5000    130.4449      0.0000    698.5014     18.3309
   196.7500    129.6756      0.0000    706.5859     18.2890
