~Version Information
VERS.                      2.0: CWLS Log ASCII Standard - VERSION 2.0
WRAP.                       NO: One line per depth step
~Well Information Block
STRT.FT                -8.2500: 
STOP.FT              1729.7500: 
STEP.FT                 0.2500: 
NULL.                -999.2500: 
COMP.          Pioneer Natural Resources: COMPANY
WELL.            Dude 43-34 Tr: WELL
FLD.           Purgatorie River: FIELD
LOC.           2083' FSL & 1042' FEL--: LOCATION
PROV.                       CO: PROVINCE
CNTY.               Las Animas: COUNTRY
SRVC.          Patterson Wireline: SERVICE COMPANY
DATE.          Tue Jan 31 09:23:54 2006: LOG DATE
UWI.           05 071 08676 00: UNIQUE WELL ID
~Curve Information Block
DEPT.FT            0 000 00 00: Depth
CCL.                          : Casing Collar Locator
TT3.usec                      : CBL 3' Travel Time
AMP3.mV                       : CBL 3' Amplitude
GR.GAPI                       : Gamma Ray
~Parameter Information Block
~A  Depth       CCL         TT3         AMP3         GR     
    -8.2500   -999.2500   -999.2500   -999.2500     94.2429
    -8.0000   -999.2500   -999.2500   -999.2500     96.4192
    -7.7500   -999.2500   -999.2500   -999.2500     98.9191
    -7.5000   -999.2500   -999.2500   -999.2500    100.1111
    -7.2500   -999.2500   -999.2500   -999.2500     99.2918
    -7.0000   -999.2500   -999.2500   -999.2500     97.0764
    -6.7500   -999.2500   -999.2500   -999.2500     94.6975
    -6.5000   -999.2500   -999.2500   -999.2500     93.0545
    -6.2500   -999.2500   -999.2500   -999.2500     92.4389
    -6.0000   -999.2500   -999.2500   -999.2500     92.9451
    -5.7500   -999.2500   -999.2500   -999.2500     94.7004
    -5.5000   -999.2500   -999.2500   -999.2500     97.4293
    -5.2500   -999.2500   -999.2500   -999.2500    100.2904
    -5.0000   -999.2500   -999.2500   -999.2500    102.8146
    -4.7500   -999.2500   -999.2500   -999.2500    105.6942
    -4.5000   -999.2500   -999.2500   -999.2500    109.6868
    -4.2500   -999.2500   -999.2500   -999.2500    113.8004
    -4.0000   -999.2500   -999.2500   -999.2500    115.6589
    -3.7500   -999.2500   -999.2500   -999.2500    113.8796
    -3.5000   -999.2500   -999.2500   -999.2500    109.1769
    -3.2500   -999.2500   1161.0000     -0.2865    103.1399
    -3.0000   -999.2500   1161.0000     -0.2817     97.0354
    -2.7500   -999.2500   1161.0000     -0.2766     91.8498
    -2.5000   -999.2500   1161.0000     -0.2747     88.2070
    -2.2500   -999.2500   1161.0000     -0.2788     85.7129
    -2.0000   -999.2500   1161.0000     -0.2881     82.9877
    -1.7500   -999.2500   1161.0000     -0.2966     78.8414
    -1.5000   -999.2500   1161.0000     -0.2979     73.3360
    -1.2500   -999.2500   1161.0000     -0.2902     67.5713
    -1.0000   -999.2500   1161.0000     -0.2784     62.4106
    -0.7500   -999.2500   1161.0000     -0.2693     57.5227
    -0.5000   -999.2500   1161.0000     -0.2675     51.8461
    -0.2500   -999.2500   1161.0000     -0.2746     44.9611
     0.0000   -999.2500   1161.0000     -0.3066     32.3298
     0.2500   -999.2500   1161.0000     -0.3209     29.8994
     0.5000   -999.2500   1161.0000     -0.3269     30.8523
     0.7500   -999.2500   1161.0000     -0.3237     34.3576
     1.0000   -999.2500   1161.0000     -0.3145     39.2485
     1.2500   -999.2500   1161.0000     -0.3023     44.7717
     1.5000   -999.2500   1161.0000     -0.2882     50.8615
     1.7500   -999.2500   1161.0000     -0.2734     58.0490
     2.0000      0.0000   1161.0000     -0.2617     66.9259
     2.2500      0.0000   1161.0000     -0.2575     77.1590
     2.5000      0.0000   1161.0000     -0.2614     87.0607
     2.7500      0.0000   1161.0000     -0.2684     94.6029
     3.0000      0.0000   1161.0000     -0.2722     98.8686
     3.2500      0.0000   1161.0000     -0.2701    100.1933
     3.5000      0.0000   1161.0000     -0.2655     99.0653
     3.7500      0.0000   1161.0000     -0.2642     95.5335
     4.0000      0.0000   1161.0000     -0.2684     89.9125
     4.2500      0.0000   1160.9901     -0.2737     83.5695
     4.5000      0.0000   1160.9353     -0.2736     78.4192
     4.7500      0.0000   1160.6437     -0.2657     75.4996
     5.0000      0.0000   1159.4890     -0.2537     74.1929
     5.2500      0.0000   1155.8175     -0.2365     72.9546
     5.5000      0.0000   1146.2924     -0.1851     70.7252
     5.7500      0.0000   1125.4031      0.0343     67.5789
     6.0000      0.0000   1085.3845      0.8403     64.3607
     6.2500      0.0000   1017.1710      3.1973     62.1762
     6.5000      0.0000    914.1903      8.6430     61.9831
     6.7500      0.0000    779.1866     18.5461     64.0182
     7.0000      0.0000    628.8085     32.6750     67.5741
     7.2500      0.0000    489.0091     48.4484     71.7880
     7.5000      0.0000    382.0894     62.1954     76.4406
     7.7500      0.0000    315.6472     71.5224     81.4297
     8.0000      0.0000    282.4651     76.4286     85.7415
     8.2500      0.0000    269.2732     78.4263     87.7358
     8.5000      0.0000    265.1367     79.0794     86.4428
     8.7500      0.0000    264.1252     79.2885     82.2237
     9.0000      0.0000    263.9435     79.3529     76.4846
     9.2500      0.0000    263.9218     79.2822     71.1355
     9.5000      0.0000    263.9231     79.0199     67.8034
     9.7500      0.0000    263.9213     78.5072     66.8024
    10.0000      0.0000    263.9286     77.6095     66.8939
    10.2500      0.0000    263.9775     76.0203     66.5152
    10.5000      0.0000    264.1603     73.2853     65.2770
    10.7500      0.0000    264.7064     69.0227     64.1948
    11.0000      0.0000    266.1131     63.2011     64.5162
    11.2500      0.0000    269.2535     56.2263     66.3503
    11.5000      0.0000    275.2612     48.7564     68.4343
    11.7500      0.0000    285.2844     41.4154     69.2384
    12.0000      0.0000    300.6274     34.6120     68.1579
    12.2500      0.0000    324.1010     28.5192     65.7529
    12.5000      0.0000    361.8544     23.1456     63.2016
    12.7500      0.0000    422.9103     18.4256     61.5566
    13.0000      0.0000    513.8775     14.3231     61.1619
    13.2500      0.0000    631.0475     10.9173     61.5641
    13.5000      0.0000    757.3079      8.3558     62.0049
    13.7500      0.0000    869.4570      6.6813     62.0294
    14.0000      0.0000    951.2756      5.7336     61.7502
    14.2500      0.0000   1000.2513      5.2377     61.7758
    14.5000     -2.0000   1022.8472      4.9562     62.8659
    14.7500      0.0000   1026.7319      4.7736     65.3581
    15.0000      0.0000   1017.8359      4.6932     68.7502
    15.2500      0.0000    999.5748      4.7647     71.9102
    15.5000      0.0000    971.6921      4.9850     73.8419
    15.7500      0.0000    932.6629      5.2737     74.4009
    16.0000      0.0000    885.6392      5.5611     74.2922
    16.2500      0.0000    839.9734      5.8552     74.3281
    16.5000      0.0000    805.0271      6.1852     74.7670
    16.7500      0.0000    783.4823      6.5238     75.5226
    17.0000      0.0000    770.9100      6.8072     76.7231
    17.2500      0.0000    760.4525      7.0013     78.4572
    17.5000      0.0000    747.6885      7.1166     80.0706
    17.7500      0.0000    732.5682      7.1793     80.6130
    18.0000      0.0000    718.0745      7.2111     80.2169
    18.2500      0.0000    707.2166      7.2266     80.2178
    18.5000      0.0000    700.8926      7.2315     81.4984
    18.7500      0.0000    698.0698      7.2238     83.4037
    19.0000      0.0000    697.1885      7.2004     84.7329
    19.2500      0.0000    697.1149      7.1660     85.2608
    19.5000      0.0000    697.2620      7.1343     85.8973
    19.7500      0.0000    697.3853      7.1190     87.6632
    20.0000      0.0000    697.5424      7.1252     90.5689
    20.2500      0.0000    698.1995      7.1474     93.1950
    20.5000      0.0000    700.3965      7.1777     93.5199
    20.7500      0.0000    705.5300      7.2113     90.6693
    21.0000      0.0000    714.2068      7.2415     85.9401
    21.2500      0.0000    724.6075      7.2558     81.7727
    21.5000      0.0000    732.6338      7.2456     79.5994
    21.7500      0.0000    735.3516      7.2173     78.8286
    22.0000      0.0000    734.7148      7.1881     77.9303
    22.2500      0.0000    736.2554      7.1710     76.2967
    22.5000      0.0000    742.9161      7.1662     74.7072
    22.7500      0.0000    751.2630      7.1643     74.0398
    23.0000      0.0000    755.2031      7.1530     74.0850
    23.2500      0.0000    752.5182      7.1259     73.9798
    23.5000      0.0000    745.7938      7.0876     73.4610
    23.7500      0.0000    737.8046      7.0515     73.2240
    24.0000      0.0000    728.9442      7.0314     74.0683
    24.2500      0.0000    719.2652      7.0340     76.0221
    24.5000      0.0000    710.2843      7.0592     78.3600
    24.7500      0.0000    703.7933      7.1030     80.3139
    25.0000      0.0000    700.2975      7.1598     81.6791
