~Version Information
VERS.                      2.0: CWLS Log ASCII Standard - VERSION 2.0
WRAP.                       NO: One line per depth step
~Well Information Block
STRT.FT               555.0000: 
STOP.FT              2322.2000: 
STEP.FT                 0.1000: 
NULL.                -999.2500: 
COMP.          Pioneer Natural Resources: COMPANY
WELL.          Fittipaldi 21-12: WELL
FLD.           Purgatoire River: FIELD
LOC.           207' FNL & 2110' FWL--: LOCATION
CNTY.               Las Animas: COUNTY
SRVC.                Patterson: SERVICE COMPANY
DATE.          Wed Mar 22 07:11:06 2006: LOG DATE
UWI.           05 071 08492 00: UNIQUE WELL ID
STAT.                 Colorado: STATE
~Curve Information Block
DEPT.FT            0 000 00 00: Depth
DCAL.in                       : CDL Caliper
RHOB.g/cc                     : CDL Bulk Density
RHOC.g/cc                     : CDL Density Correction
DPOR.pu                       : CDL Density Porosity
NPOR.pu                       : Neutron Porosity
GR.GAPI                       : Gamma Ray
~Parameter Information Block
~A  Depth       DCAL        RHOB        RHOC        DPOR        NPOR         GR     
# ...
  1361.4000      7.9536      1.6591     -0.1742     60.0576     23.9501     60.7234
  1361.5000      7.9650      1.5531     -0.1547     66.4780     24.5438     56.1947
  1361.6000      7.9650      1.4502     -0.1286     72.7145     26.5283     48.7701
  1361.7000      7.9650      1.3678     -0.1032     77.7102     28.9754     43.3068
  1361.8000      7.9794      1.3232      0.0102     80.4117     26.6345     39.4718
  1361.9000      7.9794      1.3129      0.0211     81.0366     21.9153     34.3729
  1362.0000      7.9944      1.3351     -0.0331     79.6901     21.9127     29.1896
  1362.1000      7.9944      1.3852      0.0708     76.6525     28.4329     27.3715
  1362.2000      7.9944      1.4446      0.1097     73.0571     33.6903     29.5039
  1362.3000      8.0076      1.5150      0.1066     68.7867     30.1244     33.3662
  1362.4000      8.0076      1.6157      0.1422     62.6830     22.4037     36.4075
  1362.5000      8.0555      1.7490      0.1834     54.6072     16.4405     38.7953
  1362.6000      8.0555      1.9080      0.2522     44.9689     15.3401     42.4120
  1362.7000      8.0555      2.0798      0.3189     34.5570     18.6732     46.4383
  1362.8000      8.1406      2.2257      0.3786     25.7174     17.1258     49.0620
  1362.9000      8.1406      2.3132      0.3494     20.4105      1.4806     50.5362
  1363.0000      8.1572      2.3722      0.2095     16.8353    -32.7019     52.0371
  1363.1000      8.1572      2.4543      0.2350     11.8591    -54.8846     54.9632
  1363.2000      8.1572      2.5490      0.2998      6.1218    -28.9435     57.9241
  1363.3000      8.0710      2.6100      0.2587      2.4271      3.2314     58.6762
  1363.4000      8.0710      2.6319      0.0828      1.0974     16.6124     59.3629
  1363.5000      7.9968      2.6410      0.0693      0.5459     19.6563     62.2370
  1363.6000      7.9968      2.6470      0.0487      0.1822     18.4331     66.1482
  1363.7000      7.9968      2.6435      0.0793      0.3921     13.0010     69.2859
  1363.8000      7.9713      2.6274      0.0461      1.3685      5.8631     71.5360
  1363.9000      7.9713      2.6066      0.0440      2.6328      3.1989     73.5998
  1364.0000      7.9604      2.5934      0.0348      3.4296      4.2753     75.8908
  1364.1000      7.9604      2.5939      0.0345      3.3977      5.2980     79.1122
  1364.2000      7.9604      2.6005      0.0539      3.0013      4.6770     81.2379
  1364.3000      7.9543      2.6068      0.0303      2.6169      3.3849     79.2313
  1364.4000      7.9543      2.6167      0.0548      2.0207      7.5872     76.6993
  1364.5000      7.9557      2.6258      0.0541      1.4693     15.6599     78.9561
  1364.6000      7.9557      2.6302      0.0542      1.1972     20.4538     84.2372
  1364.7000      7.9557      2.6320      0.0778      1.0882     23.1593     89.0197
  1364.8000      7.9638      2.6183      0.1275      1.9198     27.0225     91.1113
  1364.9000      7.9638      2.5785      0.0874      4.3359     27.4391     89.7788
  1365.0000      7.9661      2.5401     -0.0160      6.6610     20.9331     86.2669
  1365.1000      7.9661      2.5305      0.0531      7.2428     13.2095     83.0027
  1365.2000      7.9661      2.5408      0.0103      6.6152     12.7961     81.9698
  1365.3000      7.9616      2.5631     -0.0098      5.2682     19.1712     81.5540
  1365.4000      7.9616      2.5892      0.0545      3.6819     22.7972     80.8971
  1365.5000      7.9606      2.6003      0.0744      3.0112     17.1118     82.4806
  1365.6000      7.9606      2.5978      0.0206      3.1627      5.3553     85.2598
  1365.7000      7.9606      2.6027      0.0402      2.8686      3.0979     85.6703
  1365.8000      7.9564      2.6262      0.0722      1.4404     14.7996     82.6138
  1365.9000      7.9564      2.6703      0.0751     -1.2326     24.5657     76.4427
  1366.0000      7.9495      2.7309      0.1160     -4.9058     25.3741     68.8869
  1366.1000      7.9495      2.8024      0.1006     -9.2391     18.2420     63.2079
  1366.2000      7.9495      2.8766      0.1921    -13.7334      7.6354     62.5354
  1366.3000      7.9431      2.9376      0.1893    -17.4306     -2.4273     64.6240
  1366.4000      7.9431      2.9666      0.2048    -19.1904     -5.3734     64.4539
  1366.5000      7.9327      2.9470      0.1795    -18.0018     -1.5618     62.4903
  1366.6000      7.9327      2.8969      0.0885    -14.9621     -0.8233     60.9309
  1366.7000      7.9327      2.8616      0.0190    -12.8242     -5.8709     58.9970
  1366.8000      7.9263      2.8434      0.0333    -11.7219     -7.2053     58.0000
  1366.9000      7.9263      2.8120     -0.0525     -9.8185      0.6416     58.8151
  1367.0000      7.9348      2.7698     -0.0280     -7.2602      8.5292     58.6635
  1367.1000      7.9348      2.7329     -0.0142     -5.0243     12.8718     56.6044
  1367.2000      7.9348      2.7076     -0.0730     -3.4937     14.8353     54.2592
  1367.3000      7.9546      2.6978     -0.0462     -2.8959     16.0650     52.5266
  1367.4000      7.9546      2.6937     -0.0128     -2.6508     17.1291     51.6919
  1367.5000      7.9654      2.6823      0.0048     -1.9563     13.7700     51.8255
  1367.6000      7.9654      2.6633      0.0213     -0.8049      2.2079     51.6307
  1367.7000      7.9654      2.6504      0.0113     -0.0239     -8.9989     49.8490
  1367.8000      7.9569      2.6605      0.0277     -0.6337     -1.3893     47.2986
  1367.9000      7.9569      2.6844      0.0667     -2.0857     10.0235     45.4578
  1368.0000      7.9402      2.6866      0.0524     -2.2189      7.6227     44.9362
  1368.1000      7.9402      2.6618     -0.0539     -0.7126     -9.4799     46.1123
  1368.2000      7.9402      2.6500     -0.0045     -0.0012    -20.6062     49.4862
  1368.3000      7.9284      2.6699      0.0599     -1.2031     -4.5617     55.2478
  1368.4000      7.9284      2.6912      0.0980     -2.4998     13.3938     60.6325
  1368.5000      7.9236      2.6806      0.0648     -1.8568     19.7540     62.4112
  1368.6000      7.9236      2.6466      0.0064      0.2039     16.1246     63.5126
  1368.7000      7.9236      2.6284     -0.0045      1.3080     10.3904     68.1379
  1368.8000      7.9246      2.6336      0.0673      0.9945     11.9235     74.6861
  1368.9000      7.9246      2.6290      0.1004      1.2698     17.1392     79.2458
  1369.0000      7.9262      2.5998      0.0409      3.0406     16.8005     79.0398
  1369.1000      7.9262      2.5617      0.0630      5.3540     11.7168     75.5756
  1369.2000      7.9262      2.5334      0.0088      7.0671      8.8642     73.2835
  1369.3000      7.9273      2.5332      0.0614      7.0768      9.9813     72.6318
  1369.4000      7.9273      2.5750      0.0330      4.5471     11.3065     71.1278
  1369.5000      7.9281      2.6502      0.1232     -0.0147      8.8113     71.1559
  1369.6000      7.9281      2.7342      0.1083     -5.1020      6.3052     74.5994
  1369.7000      7.9281      2.8213      0.1337    -10.3835     10.3274     75.8279
  1369.8000      7.9296      2.9141      0.1582    -16.0067     12.9801     74.1483
  1369.9000      7.9296      2.9912      0.2100    -20.6786      9.3261     73.0919
  1370.0000      7.9304      3.0199      0.2518    -22.4175      8.5305     70.7526
  1370.1000      7.9304      2.9901      0.1815    -20.6142     15.6061     67.6084
  1370.2000      7.9304      2.9178      0.1374    -16.2304     22.0818     67.7214
  1370.3000      7.9289      2.8251      0.0514    -10.6146     21.1655     69.4503
  1370.4000      7.9289      2.7340     -0.0432     -5.0885     13.6421     70.4359
  1370.5000      7.9363      2.6603     -0.1894     -0.6246      6.9888     71.4205
  1370.6000      7.9363      2.6013     -0.1821      2.9533     10.3177     72.1822
  1370.7000      7.9363      2.5489     -0.2420      6.1286     18.7994     72.1119
  1370.8000      7.9656      2.5105     -0.1688      8.4538     22.0395     73.6518
  1370.9000      7.9656      2.4934     -0.0880      9.4903     18.2872     80.6959
