~Version Information
VERS.                      2.0: CWLS Log ASCII Standard - VERSION 2.0
WRAP.                       NO: One line per depth step
~Well Information Block
STRT.FT                 0.0000: 
STOP.FT              2473.5000: 
STEP.FT                 0.2500: 
NULL.                -999.2500: 
COMP.          Petrogulf Corporation: COMPANY
WELL.          Montoya 18-11V-B: WELL
FLD.           Purgatorie River: FIELD
LOC.           848' FNL & 619' FWL: LOCATION
PROV.                 Colorado: PROVINCE
CNTY.               Las Animas: COUNTRY
SRVC.                Patterson: SERVICE COMPANY
DATE.          Wed Nov 09 10:15:13 2005: LOG DATE
UWI.                          : UNIQUE WELL ID
~Curve Information Block
DEPT.FT            0 000 00 00: Depth
CCL.                          : Casing Collar Locator
TT3.usec                      : CBL 3' Travel Time
AMP3.mV                       : CBL 3' Amplitude
GR.GAPI                       : Gamma Ray
~Parameter Information Block
~A  Depth       CCL         TT3         AMP3         GR     
# ...
   167.5000      0.0000    258.5060     78.9598     47.6287
   167.7500      0.0000    258.8349     79.0522     47.0461
   168.0000      0.0000    259.0287     79.0584     46.2833
   168.2500      0.0000    258.9008     79.0625     45.3857
   168.5000      0.0000    258.6140     79.0326     44.6171
   168.7500      0.0000    258.4203     78.9196     44.4594
   169.0000      0.0000    258.3549     78.7947     45.3394
   169.2500      0.0000    258.3262     78.7699     47.2811
   169.5000      0.0000    258.2880     78.8093     49.8128
   169.7500      0.0000    258.2552     78.7443     52.3241
   170.0000      0.0000    258.2416     78.4950     54.4954
   170.2500      0.0000    258.2300     78.2074     56.2824
   170.5000      0.0000    258.2024     78.0830     57.6073
   170.7500      0.0000    258.1761     78.1471     58.2757
   171.0000      0.0000    258.1745     78.3151     58.1056
   171.2500      0.0000    258.1849     78.5290     57.0548
   171.5000      0.0000    258.1797     78.7178     55.4363
   171.7500      0.0000    258.1559     78.8154     54.1063
   172.0000      0.0000    258.1351     78.8325     54.1606
   172.2500      0.0000    258.1361     78.7899     56.0819
   172.5000      0.0000    258.1583     78.6992     59.0917
   172.7500      0.0000    258.1827     78.6253     61.5048
   173.0000      0.0000    258.1896     78.6229     61.8692
   173.2500      0.0000    258.1785     78.6712     59.7965
   173.5000      0.0000    258.1666     78.7507     55.9110
   173.7500      0.0000    258.1740     78.8416     51.4463
   174.0000      0.0000    258.2080     78.8589     47.8624
   174.2500      0.0000    258.2506     78.7741     46.2535
   174.5000      0.0000    258.2750     78.7122     46.7321
   174.7500      0.0000    258.2754     78.7864     48.4477
   175.0000      0.0000    258.2667     78.9270     50.2292
   175.2500      0.0000    258.2579     78.9884     51.1022
   175.5000      0.0000    258.2431     78.9465     50.4429
   175.7500      0.0000    258.2246     78.8628     48.2886
   176.0000      0.0000    258.2213     78.7918     45.6205
   176.2500      0.0000    258.2415     78.8185     43.6907
   176.5000      0.0000    258.2736     78.9949     42.8030
   176.7500      0.0000    258.2995     79.2257     42.2865
   177.0000      0.0000    258.3134     79.3642     41.7799
   177.2500      0.0000    258.3315     79.3653     41.8268
   177.5000      0.0000    258.3653     79.2885     42.8634
   177.7500      0.0000    258.4011     79.2265     44.2707
   178.0000      0.0000    258.4252     79.2070     44.9893
   178.2500      0.0000    258.4379     79.1824     44.7406
   178.5000      0.0000    258.4377     79.1205     44.1860
   178.7500      0.0000    258.4232     79.0126     44.0549
   179.0000      0.0000    258.3974     78.8698     44.4584
   179.2500      0.0000    258.3617     78.7585     44.9261
   179.5000      0.0000    258.3261     78.7501     44.8380
   179.7500      0.0000    258.3118     78.8434     43.8919
   180.0000      0.0000    258.3207     78.9794     42.3327
   180.2500      0.0000    258.3339     79.1104     40.7689
   180.5000      0.0000    258.3510     79.1870     39.7971
   180.7500      0.0000    258.3851     79.1324     39.7767
   181.0000      0.0000    258.4246     78.9542     40.7642
   181.2500      0.0000    258.4453     78.7785     42.6021
   181.5000      0.0000    258.4453     78.6957     45.0751
   181.7500      0.0000    258.4379     78.6934     47.7952
   182.0000      0.0000    258.4292     78.7151     49.9136
   182.2500      0.0000    258.4088     78.7380     50.4181
   182.5000      0.0000    258.3668     78.8030     49.0288
   182.7500      0.0000    258.3213     78.8995     46.5833
   183.0000      0.0000    258.3027     78.9301     44.4425
   183.2500      0.0000    258.3059     78.8547     43.6823
   183.5000      0.0000    258.3031     78.5731     44.6623
   183.7500      0.0000    258.3195     77.6200     46.9377
   184.0000      0.0000    258.5118     75.5339     49.5401
   184.2500      0.0000    259.1857     72.5940     51.6184
   184.5000      0.0000    260.5670     69.2325     52.8814
   184.7500      0.0000    262.3875     65.2013     53.4196
   185.0000      0.0000    263.9440     60.9607     53.3606
   185.2500      0.0000    264.7883     58.1831     53.0113
   185.5000      0.0000    265.0801     57.3946     53.2572
   185.7500      0.0000    265.1867     57.4811     55.5348
   186.0000      2.0000    265.3117     57.5301     61.1902
   186.2500     -2.0000    265.6315     57.4573     70.5237
   186.5000      0.0000    266.7043     57.3752     82.1611
   186.7500      0.0000    269.3427     57.2691     93.5648
   187.0000      0.0000    272.8542     57.6828    102.6713
   187.2500      0.0000    273.9180     59.8579    109.2879
   187.5000      0.0000    270.3051     63.8081    114.7921
   187.7500      0.0000    264.5264     68.0754    120.4290
   188.0000      0.0000    260.3781     71.9694    125.9735
   188.2500      0.0000    258.6730     75.3872    129.9424
   188.5000      0.0000    258.2380     77.8109    130.7312
   188.7500      0.0000    258.1647     79.0252    127.5441
   189.0000      0.0000    258.1843     79.3793    120.8554
   189.2500      0.0000    258.2474     79.2730    112.4889
   189.5000      0.0000    258.3091     79.0006    105.0336
   189.7500      0.0000    258.3243     78.8403    100.5812
   190.0000      0.0000    258.2842     78.9127     99.6446
   190.2500      0.0000    258.2167     79.0576    101.1977
   190.5000      0.0000    258.1593     79.0952    103.6868
   190.7500      0.0000    258.1438     79.0497    105.8775
   191.0000      0.0000    258.1714     79.0400    106.9243
   191.2500      0.0000    258.2033     79.1297    106.2930
   191.5000      0.0000    258.2054     79.2837    104.1220
   191.7500      0.0000    258.1774     79.3984    101.4514
   192.0000      0.0000    258.1362     79.3852     99.5172
   192.2500      0.0000    258.1011     79.2165     98.5464
   192.5000      0.0000    258.0923     78.9223     97.4540
   192.7500      0.0000    258.1169     78.5790     94.9987
   193.0000      0.0000    258.1542     78.3190     91.0564
   193.2500      0.0000    258.1761     78.3126     86.5582
   193.5000      0.0000    258.1755     78.6056     82.5113
   193.7500      0.0000    258.1590     79.0037     79.4118
   194.0000      0.0000    258.1301     79.2304     77.3823
   194.2500      0.0000    258.0950     79.1908     76.4375
   194.5000      0.0000    258.0669     79.0466     76.6223
   194.7500      0.0000    258.0567     78.9707     78.1624
   195.0000      0.0000    258.0703     78.8898     81.3964
   195.2500      0.0000    258.1038     78.6483     86.2253
   195.5000      0.0000    258.1326     78.3267     91.6748
   195.7500      0.0000    258.1257     78.1799     96.3387
   196.0000      0.0000    258.0758     78.3264     99.3403
   196.2500      0.0000    258.0143     78.6203    100.7963
   196.5000      0.0000    257.9865     78.8293    101.4576
   196.7500      0.0000    258.0043     78.8855    102.0463
   197.0000      0.0000    258.0400     78.8530    102.9198
   197.2500      0.0000    258.0667     78.7634    104.1929
   197.5000      0.0000    258.0712     78.6162    105.8198
   197.7500      0.0000    258.0513     78.4236    107.4037
   198.0000      0.0000    258.0208     78.2466    108.1877
   198.2500      0.0000    257.9975     78.2011    107.4097
   198.5000      0.0000    257.9919     78.3236    104.6553
   198.7500      0.0000    258.0136     78.4954    100.0891
   199.0000      0.0000    258.0645     78.5795     94.5261
   199.2500      0.0000    258.1223     78.5909     88.9444
   199.5000      0.0000    258.1508     78.6571     83.6801
   199.7500      0.0000    258.1309     78.8017     78.3850
   200.0000      0.0000    258.0787     78.8934     72.8298
   200.2500      0.0000    258.0265     78.8661     67.4284
   200.5000      0.0000    257.9876     78.8072     63.1515
   200.7500      0.0000    257.9589     78.7385     61.5147
