~Version Information
VERS.                      2.0: CWLS Log ASCII Standard - VERSION 2.0
WRAP.                       NO: One line per depth step
~Well Information Block
STRT.FT               294.3000: 
STOP.FT              1461.0000: 
STEP.FT                 0.1000: 
NULL.                -999.2500: 
COMP.          Pioneer Natural Resources: COMPANY
WELL.              Lucky 21-36: WELL
FLD.           Purgatoire River: FIELD
CDN. :
PROV. :
UWI. :
STAT. :
CNTY. :
CTRY. :
API. :
COMP. :
WELL. :
FLD. :
LOC. :
DATE. :
SRVC. :
LOC.           799' FNL & 1578' FWL--: LOCATION
CNTY.               Las Animas: COUNTY
SRVC.          Superior Well Services: SERVICE COMPANY
DATE.          Tue Jul 08 08-29-33 2008: LOG DATE
UWI.           05 071 08456 00: UNIQUE WELL ID
STAT.                 Colorado: STATE
~Curve Information Block
DEPT.FT            0 000 00 00: Depth
DCAL.in                       : CDL Caliper
RHOB.g/cc                     : CDL Bulk Density
RHOC.g/cc                     : CDL Density Correction
DPOR.pu                       : CDL Density Porosity
NPOR.pu                       : Neutron Porosity
GR.GAPI                       : Gamma Ray
~Parameter Information Block
~A  Depth       DCAL        RHOB        RHOC        DPOR        NPOR         GR     
# ...
   899.1000      7.8382      2.5734      0.0539      4.6410     23.0564    135.0510
   899.2000      7.8375      2.5765      0.0418      4.4559     23.3800    136.0735
   899.3000      7.8363      2.5854      0.0996      3.9132     23.7132    133.7721
   899.4000      7.8348      2.5866      0.0839      3.8428     24.0082    128.3534
   899.5000      7.8333      2.5756      0.0460      4.5118     24.0500    128.3009
   899.6000      7.8323      2.5642      0.0194      5.1987     23.8038    132.7588
   899.7000      7.8318      2.5595      0.0517      5.4862     23.5505    134.6319
   899.8000      7.8316      2.5536      0.0492      5.8450     23.3612    137.5579
   899.9000      7.8314      2.5431      0.0038      6.4778     23.0337    145.8160
   900.0000      7.8307      2.5405      0.0033      6.6341     22.8409    155.1602
   900.1000      7.8294      2.5542      0.0281      5.8033     23.2386    160.0004
   900.2000      7.8275      2.5728      0.0704      4.6773     24.1173    160.1476
   900.3000      7.8257      2.5798      0.0595      4.2530     24.8238    157.4030
   900.4000      7.8245      2.5727      0.0639      4.6825     24.9804    151.4828
   900.5000      7.8242      2.5575      0.0654      5.6077     25.0208    145.3194
   900.6000      7.8248      2.5511     -0.0001      5.9912     25.5044    143.7272
   900.7000      7.8259      2.5729      0.0330      4.6697     25.9326    145.3100
   900.8000      7.8269      2.6055      0.1166      2.6999     25.5716    146.5849
   900.9000      7.8273      2.6101      0.1225      2.4165     24.9848    147.4959
   901.0000      7.8269      2.5904      0.0350      3.6149     24.8413    147.0076
   901.1000      7.8260      2.5792      0.0555      4.2898     24.6098    143.0050
   901.2000      7.8250      2.5811      0.0994      4.1746     23.9336    138.5565
   901.3000      7.8242      2.5880      0.0348      3.7549     23.2165    136.8290
   901.4000      7.8239      2.6080      0.0454      2.5453     22.6672    134.7682
   901.5000      7.8240      2.6360      0.1158      0.8502     22.2029    131.2435
   901.6000      7.8242      2.6510      0.1208     -0.0604     21.8222    129.0719
   901.7000      7.8242      2.6582      0.0854     -0.4995     21.7109    127.1626
   901.8000      7.8238      2.6761      0.1010     -1.5843     21.6090    121.6985
   901.9000      7.8234      2.6867      0.1400     -2.2228     21.1838    112.2898
   902.0000      7.8232      2.6669      0.0558     -1.0243     20.8220    106.3594
   902.1000      7.8235      2.6349      0.0494      0.9122     21.0490    109.1599
   902.2000      7.8242      2.6167     -0.0081      2.0165     21.5685    114.0020
   902.3000      7.8248      2.6116      0.0198      2.3255     21.7599    115.3531
   902.4000      7.8249      2.6005      0.0260      2.9980     21.8065    118.0560
   902.5000      7.8246      2.5745      0.0171      4.5758     22.1181    124.5105
   902.6000      7.8243      2.5518     -0.0230      5.9535     22.3115    128.2856
   902.7000      7.8244      2.5587     -0.0113      5.5352     22.0816    127.2941
   902.8000      7.8250      2.5949     -0.0009      3.3400     21.8898    125.1317
   902.9000      7.8259      2.6228      0.0677      1.6467     21.9109    122.4620
   903.0000      7.8267      2.6056      0.0244      2.6934     21.9031    117.1807
   903.1000      7.8271      2.5586     -0.0156      5.5422     21.9578    110.9635
   903.2000      7.8268      2.5232      0.0020      7.6877     22.3042    109.9491
   903.3000      7.8260      2.5063      0.0336      8.7081     23.0129    114.2579
   903.4000      7.8249      2.4943      0.0218      9.4376     23.7674    120.0322
   903.5000      7.8242      2.4898     -0.0276      9.7096     24.0588    124.9442
   903.6000      7.8241      2.4975      0.0087      9.2403     23.8928    128.5255
   903.7000      7.8248      2.5116      0.0106      8.3880     23.6982    133.3355
   903.8000      7.8260      2.5309      0.0516      7.2200     23.9816    138.7215
   903.9000      7.8275      2.5494      0.1422      6.0975     24.8850    140.1094
   904.0000      7.8290      2.5592      0.1071      5.5019     25.5070    136.1908
   904.1000      7.8307      2.5672      0.1425      5.0153     25.3370    131.0792
   904.2000      7.8330      2.5787      0.1315      4.3223     25.2249    130.0726
   904.3000      7.8369      2.5931      0.1638      3.4494     25.6522    133.6493
   904.4000      7.8435      2.6119      0.1303      2.3098     25.8827    136.1234
   904.5000      7.8536      2.6283      0.1609      1.3124     25.6205    133.6767
   904.6000      7.8670      2.6292      0.1473      1.2577     25.5881    131.7297
   904.7000      7.8826      2.6141      0.1157      2.1768     25.9086    134.1868
   904.8000      7.8984      2.5922      0.1204      3.5006     26.2654    140.8772
   904.9000      7.9125      2.5720      0.1017      4.7265     26.7132    148.8542
   905.0000      7.9237      2.5633      0.0515      5.2530     27.0255    153.0293
   905.1000      7.9315      2.5688      0.0931      4.9226     26.6128    156.2478
   905.2000      7.9358      2.5791      0.0740      4.2966     25.8294    162.6252
   905.3000      7.9372      2.5879      0.0697      3.7665     25.7338    167.6816
   905.4000      7.9362      2.5895      0.0558      3.6689     26.3896    170.0110
   905.5000      7.9338      2.5814      0.0527      4.1551     27.2142    168.6156
   905.6000      7.9308      2.5741      0.0631      4.5989     27.6287    161.2779
   905.7000      7.9279      2.5766      0.0597      4.4472     27.3573    157.4721
   905.8000      7.9253      2.5814      0.0758      4.1599     26.8395    162.7239
   905.9000      7.9226      2.5747      0.0802      4.5624     26.5561    166.1045
   906.0000      7.9198      2.5579      0.0479      5.5828     26.3253    161.8531
   906.1000      7.9168      2.5465      0.0407      6.2741     25.8893    152.8921
   906.2000      7.9137      2.5486      0.0574      6.1475     25.3136    143.7646
   906.3000      7.9110      2.5567      0.0504      5.6557     24.4709    139.3016
   906.4000      7.9091      2.5630      0.0427      5.2717     23.4206    138.8455
   906.5000      7.9081      2.5608      0.0730      5.4084     22.6846    136.7178
   906.6000      7.9082      2.5485      0.0379      6.1495     22.3678    132.6061
   906.7000      7.9089      2.5419      0.0418      6.5515     22.2235    130.9328
   906.8000      7.9099      2.5523      0.0431      5.9236     22.3845    130.0359
   906.9000      7.9109      2.5721      0.0848      4.7206     22.8853    125.5458
   907.0000      7.9116      2.5885      0.0690      3.7256     23.1743    117.4899
   907.1000      7.9120      2.5956      0.0716      3.2941     22.9296    109.6954
   907.2000      7.9120      2.5892      0.0748      3.6848     22.4598    105.3639
   907.3000      7.9120      2.5711      0.0598      4.7795     22.0753    101.6913
   907.4000      7.9120      2.5578     -0.0154      5.5854     21.6399     95.3133
   907.5000      7.9122      2.5616      0.0560      5.3589     21.0947     88.7273
   907.6000      7.9125      2.5691      0.0852      4.9056     20.9302     85.1170
   907.7000      7.9129      2.5662      0.0657      5.0793     21.3285     83.2046
   907.8000      7.9131      2.5621     -0.0140      5.3246     21.5937     81.9825
   907.9000      7.9132      2.5607      0.0600      5.4137     21.3201     82.7624
   908.0000      7.9132      2.5442      0.0597      6.4120     20.9380     85.1291
   908.1000      7.9133      2.5152      0.0074      8.1717     20.8142     86.0201
   908.2000      7.9135      2.4978      0.0066      9.2231     21.0423     86.7241
   908.3000      7.9139      2.4998      0.0196      9.1022     21.8595     89.3306
   908.4000      7.9143      2.5167      0.0399      8.0781     23.0884     89.2595
   908.5000      7.9149      2.5456      0.0461      6.3251     23.9606     87.4557
   908.6000      7.9157      2.5772      0.0372      4.4094     24.2925     87.8142
