~Version Information
VERS.                      2.0: CWLS Log ASCII Standard - VERSION 2.0
WRAP.                       NO: One line per depth step
~Well Information Block
STRT.FT               795.0000: 
STOP.FT              2276.0000: 
STEP.FT                 0.1000: 
NULL.                -999.2500: 
COMP.          Pioneer Natural Resources: COMPANY
WELL.            Wildcard 31-5: WELL
FLD.           Purgatoire River: FIELD
LOC.           624' FNL & 1852' FEL--: LOCATION
CNTY.               Las Animas: COUNTY
SRVC.                Patterson: SERVICE COMPANY
DATE.          Tue Mar 07 07:04:10 2006: LOG DATE
UWI.           05 071 08707 00: UNIQUE WELL ID
STAT.                 Colorado: STATE
~Curve Information Block
DEPT.FT            0 000 00 00: Depth
DCAL.in                       : CDL Caliper
DPOR.pu                       : CDL Density Porosity
NPOR.pu                       : Neutron Porosity
RHOB.g/cc                     : CDL Bulk Density
RHOC.g/cc                     : CDL Density Correction
GR.GAPI                       : Gamma Ray
~Parameter Information Block
~A  Depth       DCAL        DPOR        NPOR        RHOB        RHOC         GR     
# ...
  1774.2000      7.9462      6.5070     20.1223      2.5426      0.0361     35.3972
  1774.3000      7.9450      5.4444     20.8131      2.5602      0.0613     28.7151
  1774.4000      7.9450      4.9495     20.8728      2.5683      0.0407     25.0192
  1774.5000      7.9447      5.0907     20.3983      2.5660      0.0559     29.5132
  1774.6000      7.9447      5.0852     20.1610      2.5661      0.0653     39.3865
  1774.7000      7.9447      4.5706     20.2685      2.5746      0.0650     45.3568
  1774.8000      7.9456      3.8999     20.3809      2.5857      0.0514     48.1431
  1774.9000      7.9456      3.7560     20.4477      2.5880      0.0608     55.3813
  1775.0000      7.9454      4.8513     20.3113      2.5700      0.0618     64.2661
  1775.1000      7.9454      6.4904     19.8457      2.5429      0.0001     66.4705
  1775.2000      7.9454      6.5485     19.5226      2.5420      0.0288     62.9854
  1775.3000      7.9470      4.5826     19.8089      2.5744      0.0433     57.1741
  1775.4000      7.9470      2.5286     20.4465      2.6083      0.0842     51.7100
  1775.5000      7.9514      2.4615     20.8405      2.6094      0.0765     53.0959
  1775.6000      7.9514      4.4533     20.7773      2.5765      0.0328     58.5457
  1775.7000      7.9514      6.3322     20.4312      2.5455      0.0185     58.5337
  1775.8000      7.9511      6.1219     20.0962      2.5490     -0.0392     53.7358
  1775.9000      7.9511      4.5248     19.9761      2.5753      0.0532     47.8776
  1776.0000      7.9468      3.9734     20.0309      2.5844      0.0631     39.4158
  1776.1000      7.9468      4.8600     20.0216      2.5698      0.0411     33.8356
  1776.2000      7.9468      5.7045     19.8363      2.5559      0.0614     37.6418
  1776.3000      7.9452      5.6457     19.6575      2.5568      0.0150     44.3008
  1776.4000      7.9452      5.1224     19.6848      2.5655      0.0642     45.9480
  1776.5000      7.9464      5.1685     19.6528      2.5647      0.0273     45.8848
  1776.6000      7.9464      5.7651     19.2683      2.5549      0.0298     48.4876
  1776.7000      7.9464      5.9071     18.8122      2.5525      0.0130     52.3300
  1776.8000      7.9484      4.9688     18.7950      2.5680      0.0140     56.4164
  1776.9000      7.9484      3.8813     19.0436      2.5860      0.1044     56.2214
  1777.0000      7.9507      3.9964     19.0863      2.5841      0.0833     46.6406
  1777.1000      7.9507      4.7595     19.1300      2.5715      0.0193     35.8691
  1777.2000      7.9507      5.2144     19.4143      2.5640      0.0432     36.2112
  1777.3000      7.9508      5.5507     19.7594      2.5584      0.0234     48.1262
  1777.4000      7.9508      5.7013     19.7400      2.5559      0.0289     58.8667
  1777.5000      7.9501      5.5955     19.2356      2.5577      0.0503     57.2210
  1777.6000      7.9501      5.4975     18.7500      2.5593      0.0125     51.9204
  1777.7000      7.9501      5.2603     18.4963      2.5632      0.0235     55.5473
  1777.8000      7.9514      5.0054     18.3019      2.5674      0.0427     64.5480
  1777.9000      7.9514      4.9561     18.2450      2.5682      0.0294     67.2924
  1778.0000      7.9555      4.9170     18.2399      2.5689      0.0341     61.2641
  1778.1000      7.9555      4.8635     18.0730      2.5698      0.0573     54.3715
  1778.2000      7.9555      4.7253     17.8596      2.5720      0.0102     51.5926
  1778.3000      7.9603      4.5450     17.8987      2.5750      0.0784     51.9152
  1778.4000      7.9603      4.9731     18.3966      2.5679      0.0522     51.9459
  1778.5000      7.9620      5.8153     18.9805      2.5540      0.0219     50.2444
  1778.6000      7.9620      6.3500     18.9739      2.5452      0.0398     48.6022
  1778.7000      7.9620      6.3994     18.4996      2.5444      0.0565     47.8067
  1778.8000      7.9618      5.7597     18.2323      2.5550      0.0291     48.9795
  1778.9000      7.9618      4.2085     18.2897      2.5806      0.0255     53.9758
  1779.0000      7.9614      2.6192     18.3548      2.6068      0.0896     58.9071
  1779.1000      7.9614      2.0056     18.3582      2.6169      0.0882     56.5729
  1779.2000      7.9614      1.8844     18.2844      2.6189      0.0527     48.6732
  1779.3000      7.9597      1.6543     18.0997      2.6227      0.0781     41.1367
  1779.4000      7.9597      1.9861     18.1337      2.6172      0.0854     37.7549
  1779.5000      7.9536      3.5691     18.4240      2.5911      0.0820     36.8294
  1779.6000      7.9536      5.6736     18.5188      2.5564      0.0377     36.2037
  1779.7000      7.9536      6.8276     18.3453      2.5373      0.0045     37.6748
  1779.8000      7.9438      6.6558     18.2341      2.5402      0.0200     39.9929
  1779.9000      7.9438      6.3561     18.5413      2.5451      0.0425     42.7868
  1780.0000      7.9359      6.7559     19.2303      2.5385      0.0272     47.9027
  1780.1000      7.9359      6.9434     19.8103      2.5354      0.0187     49.5084
  1780.2000      7.9359      5.8463     19.9983      2.5535      0.0455     46.3904
  1780.3000      7.9325      4.0015     19.9155      2.5840      0.0810     47.6623
  1780.4000      7.9325      2.7748     19.7671      2.6042      0.0767     51.7616
  1780.5000      7.9360      2.7976     19.5672      2.6038      0.0935     51.0255
  1780.6000      7.9360      3.5041     19.1320      2.5922      0.0343     43.8359
  1780.7000      7.9360      3.9596     18.5675      2.5847      0.0614     32.7617
  1780.8000      7.9459      4.1110     18.1687      2.5822      0.0539     25.9338
  1780.9000      7.9459      4.1836     18.1073      2.5810      0.0109     28.5234
  1781.0000      7.9547      3.9295     18.4830      2.5852      0.0524     36.3792
  1781.1000      7.9547      3.4234     18.9467      2.5935      0.0612     43.3993
  1781.2000      7.9547      3.4790     18.9346      2.5926      0.0894     48.5961
  1781.3000      7.9577      4.7299     18.5141      2.5720      0.0468     49.6476
  1781.4000      7.9577      6.1294     17.9993      2.5489     -0.0095     44.2935
  1781.5000      7.9567      6.0015     17.4088      2.5510      0.0052     39.8824
  1781.6000      7.9567      4.8551     16.9492      2.5699      0.1049     41.8502
  1781.7000      7.9567      4.5537     16.8417      2.5749      0.0693     44.9688
  1781.8000      7.9565      5.0099     16.8863      2.5673      0.0519     50.0657
  1781.9000      7.9565      4.6941     16.7607      2.5725      0.0363     57.8866
  1782.0000      7.9569      3.4009     16.3786      2.5939      0.0620     56.4834
  1782.1000      7.9569      2.0985     16.0168      2.6154      0.0750     46.0175
  1782.2000      7.9569      1.2439     16.1919      2.6295      0.0876     40.8828
  1782.3000      7.9545      0.9114     16.8820      2.6350      0.0809     45.5121
  1782.4000      7.9545      0.8452     17.5277      2.6361      0.0830     52.5638
  1782.5000      7.9492      0.5202     17.7722      2.6414      0.0604     56.3497
  1782.6000      7.9492      0.3644     17.6495      2.6440      0.0879     57.6106
  1782.7000      7.9492      0.9389     17.6076      2.6345      0.0709     53.8091
  1782.8000      7.9417      1.8261     17.8832      2.6199      0.0701     44.7605
  1782.9000      7.9417      2.9779     18.1922      2.6009      0.0804     40.8225
  1783.0000      7.9353      4.5236     18.3655      2.5754      0.0510     44.4459
  1783.1000      7.9353      5.8444     18.4400      2.5536      0.0325     46.9402
  1783.2000      7.9353      6.2754     18.4469      2.5465      0.0409     47.0395
  1783.3000      7.9327      5.4507     18.5758      2.5601      0.0063     51.9161
  1783.4000      7.9327      3.7924     18.7588      2.5874      0.0827     61.5197
  1783.5000      7.9324      2.4531     18.7837      2.6095      0.0751     66.2459
  1783.6000      7.9324      2.1638     18.9812      2.6143      0.0853     61.9775
  1783.7000      7.9324      3.1359     19.4698      2.5983      0.0373     55.0162
