~Version Information
VERS.                      2.0: CWLS Log ASCII Standard - VERSION 2.0
WRAP.                       NO: One line per depth step
~Well Information Block
STRT.FT                 0.0000: 
STOP.FT              1147.5000: 
STEP.FT                 0.2500: 
NULL.                -999.2500: 
COMP.          Pioneer Natural Resources: COMPANY
WELL.          Tin Barn 14-20 TR: WELL
FLD.           Purgatorie River: FIELD
LOC.           925 FSL & 1151 FWL: LOCATION
PROV.                 Colorado: PROVINCE
CNTY.               Las Animas: COUNTRY
SRVC.                Patterson: SERVICE COMPANY
DATE.          Wed Jan 18 12:02:25 2006: LOG DATE
UWI.                          : UNIQUE WELL ID
~Curve Information Block
DEPT.FT            0 000 00 00: Depth
CCL.                          : Casing Collar Locator
TT3.usec                      : CBL 3' Travel Time
AMP3.mV                       : CBL 3' Amplitude
GR.GAPI                       : Gamma Ray
~Parameter Information Block
~A  Depth       CCL         TT3         AMP3         GR     
# ...
   368.5000      0.0000    743.7905     15.3448     80.7880
   368.7500      0.0000    755.7098     15.3612     80.8105
   369.0000      0.0000    765.1252     15.3623     81.5759
   369.2500      0.0000    769.6637     15.3422     83.1309
   369.5000      0.0000    769.8823     15.3341     84.9603
   369.7500      0.0000    766.4798     15.3647     86.3447
   370.0000      0.0000    760.4612     15.4346     86.8194
   370.2500      0.0000    754.8337     15.5091     86.4465
   370.5000      0.0000    752.5422     15.5431     85.6532
   370.7500      0.0000    753.5057     15.5314     84.7713
   371.0000      0.0000    754.3588     15.5138     83.8472
   371.2500      0.0000    750.6069     15.5250     82.9154
   371.5000      0.0000    741.9512     15.5397     82.2288
   371.7500      0.0000    733.3076     15.4821     82.1329
   372.0000      0.0000    728.4680     15.3220     82.9168
   372.2500      0.0000    726.9418     15.1224     84.7744
   372.5000      0.0000    726.7144     14.9581     87.4522
   372.7500      0.0000    726.6489     14.8319     89.7948
   373.0000      0.0000    726.5293     14.7041     90.1486
   373.2500      0.0000    726.4312     14.5836     87.8236
   373.5000      0.0000    726.5694     14.5486     84.1626
   373.7500      0.0000    727.6791     14.6370     81.7340
   374.0000      0.0000    730.9280     14.7384     82.1958
   374.2500      0.0000    736.0084     14.6849     85.0274
   374.5000      0.0000    740.0020     14.4444     88.4168
   374.7500      0.0000    741.2105     14.1559     91.2306
   375.0000      0.0000    741.2523     13.9838     93.9148
   375.2500      0.0000    740.1884     13.9832     97.4679
   375.5000      0.0000    736.3636     14.0880    101.7621
   375.7500      0.0000    731.3298     14.1910    105.1661
   376.0000      0.0000    727.9876     14.2390    105.7811
   376.2500      0.0000    726.7360     14.2659    102.8769
   376.5000      0.0000    726.4571     14.3289     97.3010
   376.7500      0.0000    726.3272     14.4273     90.8361
   377.0000      0.0000    726.1066     14.5126     85.0710
   377.2500      0.0000    725.9209     14.5525     80.5513
   377.5000      0.0000    725.9368     14.5459     76.8491
   377.7500      0.0000    726.1036     14.5327     73.3701
   378.0000      0.0000    726.1962     14.6144     70.0838
   378.2500      0.0000    726.1050     14.8760     67.7255
   378.5000      0.0000    725.9544     15.2561     67.3956
   378.7500      0.0000    725.8931     15.5942     69.6103
   379.0000      0.0000    725.9861     15.8143     73.5204
   379.2500      0.0000    726.4026     15.9592     77.2493
   379.5000      0.0000    727.7929     16.0826     79.0813
   379.7500      0.0000    731.1862     16.2021     78.5342
   380.0000      0.0000    735.6901     16.3254     76.7562
   380.2500      0.0000    735.2451     16.4695     75.9273
   380.5000      0.0000    718.1559     16.6751     77.7242
   380.7500      0.0000    669.6860     17.0080     81.9780
   381.0000      0.0000    588.1610     17.4770     86.7879
   381.2500      0.0000    510.8528     17.9428     89.9603
   381.5000      0.0000    490.2157     18.1984     90.5978
   381.7500      0.0000    525.4639     18.1664     89.6918
   382.0000      0.0000    569.3090     17.9418     89.1417
   382.2500      0.0000    603.8694     17.6286     89.9979
   382.5000      0.0000    643.4594     17.2704     91.6800
   382.7500      0.0000    682.4213     16.9623     92.8988
   383.0000      0.0000    701.8095     16.8382     92.9868
   383.2500      0.0000    702.9675     16.8944     92.1366
   383.5000      0.0000    704.3671     16.9477     90.7103
   383.7500      0.0000    717.4188     16.8277     88.8465
   384.0000      0.0000    735.7947     16.5599     86.7587
   384.2500      0.0000    749.0256     16.2941     85.0969
   384.5000      0.0000    753.9280     16.1180     84.7182
   384.7500      0.0000    750.7468     16.0167     85.8892
   385.0000      0.0000    741.9813     15.9341     87.8218
   385.2500      0.0000    733.3306     15.8194     89.2028
   385.5000      0.0000    728.8508     15.6890     89.2103
   385.7500      0.0000    727.6290     15.6455     88.0473
   386.0000      0.0000    724.8605     15.7571     86.7371
   386.2500      0.0000    716.9892     15.9241     86.4031
   386.5000      0.0000    708.4726     15.9705     87.4532
   386.7500      0.0000    704.9976     15.8819     89.3633
   387.0000      0.0000    699.3345     15.8020     91.1824
   387.2500      0.0000    677.7139     15.8162     92.0777
   387.5000      0.0000    639.1474     15.9067     91.5208
   387.7500      0.0000    604.0558     16.0388     89.3726
   388.0000      0.0000    602.2045     16.1633     85.8855
   388.2500      0.0000    638.5743     16.2330     81.4267
   388.5000      0.0000    679.2039     16.2769     76.1880
   388.7500      0.0000    690.6127     16.3585     70.4372
   389.0000      0.0000    677.2675     16.4594     65.1795
   389.2500      0.0000    668.9636     16.5028     62.1958
   389.5000      0.0000    684.2416     16.4751     62.9242
   389.7500      0.0000    712.9578     16.4391     67.1642
   390.0000      0.0000    732.3671     16.4495     73.1386
   390.2500      0.0000    732.8395     16.5309     78.8805
   390.5000      0.0000    720.7366     16.6853     83.4337
   390.7500      0.0000    706.5261     16.8590     86.9187
   391.0000      0.0000    700.3007     16.9432     89.9660
   391.2500      0.0000    707.1256     16.8784     92.9889
   391.5000      0.0000    722.3179     16.7470     95.4330
   391.7500      0.0000    738.1594     16.6797     95.7679
   392.0000      0.0000    749.7216     16.6965     92.8635
   392.2500      0.0000    754.9468     16.7296     87.4782
   392.5000      0.0000    755.9116     16.7441     81.8272
   392.7500      0.0000    754.9523     16.7426     77.5714
   393.0000      0.0000    750.3041     16.7288     74.5894
   393.2500      0.0000    741.6147     16.7220     71.7506
   393.5000      0.0000    733.2807     16.7360     68.5403
   393.7500      0.0000    728.6739     16.7321     65.6883
   394.0000      0.0000    726.2452     16.6562     64.2734
   394.2500      0.0000    719.0497     16.5191     64.4333
   394.5000      0.0000    695.6310     16.4116     65.1342
   394.7500      0.0000    654.9463     16.4215     65.1656
   395.0000      0.0000    624.7650     16.5323     64.2722
   395.2500      0.0000    636.0521     16.6388     63.4060
   395.5000      0.0000    678.3417     16.6555     63.9667
   395.7500      0.0000    715.2563     16.5638     66.5917
   396.0000      0.0000    730.0466     16.4023     70.5491
   396.2500      0.0000    730.7219     16.2526     74.2926
   396.5000      0.0000    728.4195     16.1666     76.4949
   396.7500      0.0000    727.1486     16.1181     76.6337
   397.0000      0.0000    726.8056     16.0742     74.9924
   397.2500      0.0000    726.8190     16.0518     72.3978
   397.5000      0.0000    726.9172     16.0713     69.9088
   397.7500      0.0000    726.9949     16.1117     68.4859
   398.0000      0.0000    727.2467     16.1357     68.5699
   398.2500      0.0000    728.7155     16.1323     69.8470
   398.5000      0.0000    733.2762     16.1224     71.5608
   398.7500      0.0000    741.2976     16.1231     72.9598
   399.0000      0.0000    748.4211     16.1033     73.3670
   399.2500      0.0000    748.4591     16.0052     72.2439
   399.5000      0.0000    741.4006     15.8199     69.6301
   399.7500      0.0000    733.4179     15.6047     66.4119
   400.0000      0.0000    728.9700     15.4368     63.9096
   400.2500      0.0000    728.4041     15.3663     63.1317
   400.5000      0.0000    731.2100     15.3944     64.1861
   400.7500      0.0000    735.9817     15.4897     66.1353
   401.0000      0.0000    738.6737     15.6072     67.6194
   401.2500      0.0000    736.3914     15.7047     68.0181
   401.5000      0.0000    731.4789     15.7533     68.0570
   401.7500      0.0000    727.7456     15.7283     69.1897
