~Version Information
VERS.                      2.0: CWLS Log ASCII Standard - VERSION 2.0
WRAP.                       NO: One line per depth step
~Well Information Block
STRT.FT               615.0000: 
STOP.FT              1607.0000: 
STEP.FT                 0.1000: 
NULL.                -999.2500: 
COMP.          Pioneer Natural Resources: COMPANY
WELL.          Galloway 32-13 Tr: WELL
FLD.           Purgatoire River: FIELD
LOC.           1910' FNL & 2002' FEL: LOCATION
PROV.                 Colorado: PROVINCE
CNTY.               Las Animas: COUNTRY
SRVC.                Patterson: SERVICE COMPANY
DATE.          Mon Nov 14 07:13:22 2005: LOG DATE
UWI.           05 071 08608 00: UNIQUE WELL ID
~Curve Information Block
DEPT.FT            0 000 00 00: Depth
DCAL.in                       : CDL Caliper
RHOB.g/cc                     : CDL Bulk Density
RHOC.g/cc                     : CDL Density Correction
DPOR.pu                       : CDL Density Porosity
GR.GAPI                       : Gamma Ray
NPOR.pu                       : Neutron Porosity
~Parameter Information Block
~A  Depth       DCAL        RHOB        RHOC        DPOR         GR         NPOR    
# ...
  1267.8000      7.9884      2.3447      0.2121     18.5043    156.8645     31.4613
  1267.9000      7.9884      2.4136      0.2262     14.3300    158.9884     30.8714
  1268.0000      7.9624      2.4431      0.1627     12.5408    161.2083     30.7242
  1268.1000      7.9624      2.4139      0.1433     14.3081    156.5526     30.7464
  1268.2000      7.9624      2.3264      0.1075     19.6103    143.4430     30.6096
  1268.3000      7.9832      2.2036      0.0328     27.0542    129.2531     30.3750
  1268.4000      7.9832      2.0754      0.0071     34.8248    120.2028     30.2329
  1268.5000      8.0006      1.9414      0.0008     42.9468    114.2863     30.3435
  1268.6000      8.0006      1.7914     -0.0696     52.0371    106.3047     30.7191
  1268.7000      8.0006      1.6529     -0.1656     60.4293     93.6420     31.4015
  1268.8000      8.0069      1.5586     -0.1042     66.1455     79.6350     32.2565
  1268.9000      8.0069      1.4941     -0.0462     70.0570     68.8495     33.0427
  1269.0000      7.9883      1.4348     -0.0287     73.6457     61.5130     33.5776
  1269.1000      7.9883      1.3938     -0.0977     76.1347     56.7446     33.5803
  1269.2000      7.9883      1.3920      0.0103     76.2451     53.6225     33.1988
  1269.3000      7.9921      1.4210      0.0826     74.4819     49.0580     33.1581
  1269.4000      7.9921      1.4594      0.1054     72.1602     42.9366     33.5923
  1269.5000      8.0362      1.4979      0.1111     69.8254     39.9836     33.7937
  1269.6000      8.0362      1.5467      0.1160     66.8638     42.3249     33.5338
  1269.7000      8.0362      1.6134      0.1261     62.8219     47.3076     33.0820
  1269.8000      8.2104      1.6771      0.1506     58.9659     51.0986     32.5273
  1269.9000      8.2104      1.7095      0.1370     57.0023     51.7367     32.1885
  1270.0000      8.3178      1.7106      0.1266     56.9345     48.5968     32.5045
  1270.1000      8.3178      1.6965      0.1351     57.7894     43.4994     33.1444
  1270.2000      8.3178      1.6721      0.1410     59.2663     41.2060     33.2536
  1270.3000      8.0114      1.6286      0.0741     61.9049     42.8458     32.5371
  1270.4000      8.0114      1.5585      0.0251     66.1516     44.7335     31.8282
  1270.5000      7.9926      1.4720     -0.0629     71.3960     43.7775     32.2672
  1270.6000      7.9926      1.4023     -0.1163     75.6202     40.2627     33.3116
  1270.7000      7.9926      1.3736     -0.0082     77.3546     37.2269     33.7609
  1270.8000      7.9599      1.3659      0.0737     77.8215     35.2643     33.6971
  1270.9000      7.9599      1.3493      0.0428     78.8306     33.3607     33.5559
  1271.0000      7.9884      1.3281      0.0338     80.1179     32.8152     33.6380
  1271.1000      7.9884      1.3284     -0.0019     80.0977     33.6428     34.0181
  1271.2000      7.9884      1.3725      0.0077     77.4260     35.3302     34.2416
  1271.3000      8.1018      1.4705      0.0429     71.4828     39.4299     34.1762
  1271.4000      8.1018      1.6167      0.0757     62.6232     46.5195     33.9957
  1271.5000      8.1651      1.7803      0.1318     52.7109     54.4185     33.5998
  1271.6000      8.1651      1.9237      0.2122     44.0212     59.9707     32.7032
  1271.7000      8.1651      2.0479      0.1950     36.4894     62.4244     31.1619
  1271.8000      8.3752      2.1803      0.2304     28.4697     64.1316     29.4291
  1271.9000      8.3752      2.3075      0.2627     20.7581     66.4713     28.4729
  1272.0000      8.9966      2.3910      0.2163     15.6977     68.9366     28.3874
  1272.1000      8.9966      2.4385      0.0622     12.8212     72.1853     28.1219
  1272.2000      8.9966      2.4833      0.0393     10.1054     76.7100     27.1321
  1272.3000      8.8341      2.5244      0.0415      7.6113     81.8473     26.2411
  1272.4000      8.8341      2.5471      0.0373      6.2342     88.1244     26.4065
  1272.5000      8.0713      2.5503      0.0637      6.0453     93.6762     26.8651
  1272.6000      8.0713      2.5442      0.0073      6.4128     95.5490     26.0530
  1272.7000      8.0713      2.5507      0.0073      6.0182     95.2250     24.3066
  1272.8000      7.9331      2.5747      0.0726      4.5628     93.2532     23.1451
  1272.9000      7.9331      2.5960      0.0789      3.2747     88.2709     22.9202
  1273.0000      7.9167      2.6032      0.0564      2.8339     84.1184     23.0565
  1273.1000      7.9167      2.6013      0.0643      2.9513     83.9048     23.0340
  1273.2000      7.9167      2.5885      0.1302      3.7266     84.9385     22.6662
  1273.3000      7.9173      2.5617      0.0354      5.3501     85.3136     22.2488
  1273.4000      7.9173      2.5311      0.0760      7.2051     86.6129     22.4681
  1273.5000      7.9173      2.5071     -0.0012      8.6615     89.8504     23.6062
  1273.6000      7.9173      2.4939     -0.0017      9.4589     94.5251     24.9758
  1273.7000      7.9173      2.4911      0.0042      9.6313     97.0892     25.6433
  1273.8000      7.9276      2.5001     -0.0009      9.0850     93.3984     25.5604
  1273.9000      7.9276      2.5213      0.0447      7.7986     86.8227     25.2942
  1274.0000      7.9179      2.5444      0.0320      6.4000     84.8823     25.2359
  1274.1000      7.9179      2.5588      0.0736      5.5251     86.9913     25.0774
  1274.2000      7.9179      2.5589      0.0396      5.5226     86.8517     24.4873
  1274.3000      7.9101      2.5435      0.0456      6.4570     83.7818     23.8972
  1274.4000      7.9101      2.5225      0.0185      7.7253     80.4419     23.8281
  1274.5000      7.9091      2.5068      0.0573      8.6802     79.0400     23.9320
  1274.6000      7.9091      2.4933      0.0363      9.4976     80.7281     23.4647
  1274.7000      7.9091      2.4757      0.0406     10.5606     82.6090     22.8855
  1274.8000      7.9156      2.4559      0.0353     11.7612     81.0423     22.7880
  1274.9000      7.9156      2.4418      0.0169     12.6169     79.5820     22.3352
  1275.0000      7.8937      2.4437      0.0238     12.5029     82.7198     21.3005
  1275.1000      7.8937      2.4623      0.0342     11.3760     85.8226     20.7270
  1275.2000      7.8937      2.4871      0.0303      9.8699     83.7045     20.6595
  1275.3000      7.8728      2.5132      0.0703      8.2883     78.8003     20.4769
  1275.4000      7.8728      2.5452      0.0573      6.3531     75.4869     20.2185
  1275.5000      7.8572      2.5755      0.1440      4.5135     74.0725     20.5640
  1275.6000      7.8572      2.5820      0.1334      4.1231     71.7766     21.6802
  1275.7000      7.8572      2.5615      0.1059      5.3658     65.9428     22.7296
  1275.8000      7.8536      2.5297      0.0828      7.2912     59.1617     22.8107
  1275.9000      7.8536      2.5020      0.0468      8.9693     56.9824     22.2690
  1276.0000      7.8474      2.4940      0.0291      9.4544     61.5364     22.0465
  1276.1000      7.8474      2.5073      0.0468      8.6502     68.9983     22.0312
  1276.2000      7.8474      2.5234      0.0261      7.6701     73.6174     22.0690
  1276.3000      7.8515      2.5226      0.0874      7.7196     77.0488     22.5085
  1276.4000      7.8515      2.5045     -0.0297      8.8208     82.1550     22.9242
  1276.5000      7.8825      2.4909      0.0315      9.6444     83.8070     23.1120
  1276.6000      7.8825      2.4869      0.0614      9.8848     80.2462     23.7733
  1276.7000      7.8825      2.4761      0.0726     10.5389     77.7604     24.7784
  1276.8000      7.9211      2.4636      0.0399     11.2988     76.8451     25.0387
  1276.9000      7.9211      2.4686      0.0477     10.9915     74.8467     24.2100
  1277.0000      7.9087      2.4904      0.0201      9.6754     75.7735     23.1934
  1277.1000      7.9087      2.5152      0.0514      8.1723     79.5391     22.6421
  1277.2000      7.9087      2.5341      0.0472      7.0242     81.1557     22.5801
  1277.3000      7.8952      2.5438      0.0375      6.4383     81.9245     23.0061
