~Version Information
VERS.                      2.0: CWLS Log ASCII Standard - VERSION 2.0
WRAP.                       NO: One line per depth step
~Well Information Block
STRT.FT               240.0000: 
STOP.FT              1338.7000: 
STEP.FT                 0.1000: 
NULL.                -999.2500: 
COMP.          Pioneer Natural Resources: COMPANY
WELL.            Hamburg 43-35: WELL
FLD.           Purgatoire River: FIELD
LOC.           2444' FSL & 950' FEL--: LOCATION
PROV.                 Colorado: PROVINCE
CNTY.               Las Animas: COUNTRY
SRVC.                Patterson: SERVICE COMPANY
DATE.          Sun Dec 04 11:50:58 2005: LOG DATE
UWI.           05 071 08607 00: UNIQUE WELL ID
~Curve Information Block
DEPT.FT            0 000 00 00: Depth
DCAL.in                       : CDL Caliper
RHOB.g/cc                     : CDL Bulk Density
RHOC.g/cc                     : CDL Density Correction
DPOR.pu                       : CDL Density Porosity
NPOR.pu                       : Neutron Porosity
GR.GAPI                       : Gamma Ray
~Parameter Information Block
~A  Depth       DCAL        RHOB        RHOC        DPOR        NPOR         GR     
# ...
   384.0000      8.1322      2.5855      0.1591      3.9106     18.0076    126.1351
   384.1000      8.1322      2.6630      0.1937     -0.7868     18.4142    127.4503
   384.2000      8.1322      2.7137      0.1700     -3.8608     19.1509    127.9593
   384.3000      8.1305      2.7446      0.1766     -5.7342     19.9430    128.4790
   384.4000      8.1305      2.7559      0.1956     -6.4179     20.6295    126.9567
   384.5000      8.1299      2.7424      0.1944     -5.6002     21.7146    123.4998
   384.6000      8.1299      2.7187      0.1157     -4.1643     23.4609    119.8360
   384.7000      8.1299      2.7136      0.0882     -3.8530     25.2800    114.6384
   384.8000      8.1354      2.7261      0.0713     -4.6151     26.5437    108.9389
   384.9000      8.1354      2.7170      0.0430     -4.0588     27.1529    105.4383
   385.0000      8.1533      2.6628     -0.0999     -0.7742     27.3127    103.6936
   385.1000      8.1533      2.5880     -0.1889      3.7578     27.3100    106.0635
   385.2000      8.1533      2.5324     -0.1714      7.1287     27.0024    115.1770
   385.3000      8.1729      2.5083     -0.0146      8.5862     26.0506    122.7646
   385.4000      8.1729      2.5028      0.0492      8.9229     24.8190    119.7205
   385.5000      8.1670      2.5018      0.0877      8.9796     23.8611    113.2470
   385.6000      8.1670      2.4979      0.0765      9.2185     23.1515    114.4433
   385.7000      8.1670      2.4891      0.0696      9.7511     22.5277    122.6289
   385.8000      8.1471      2.4746      0.0605     10.6279     22.0176    131.2046
   385.9000      8.1471      2.4600      0.0515     11.5178     21.6948    132.6170
   386.0000      8.1342      2.4579      0.0336     11.6419     21.4199    125.9346
   386.1000      8.1342      2.4673      0.0909     11.0729     21.1284    119.4769
   386.2000      8.1342      2.4733      0.0698     10.7068     21.0854    118.3039
   386.3000      8.1313      2.4737      0.0392     10.6834     21.4447    120.4370
   386.4000      8.1313      2.4783      0.0512     10.4052     21.9406    122.9332
   386.5000      8.1325      2.4906      0.0528      9.6587     22.1964    122.9910
   386.6000      8.1325      2.5044      0.0667      8.8265     21.9337    117.9263
   386.7000      8.1325      2.5140      0.0284      8.2416     21.2576    110.4104
   386.8000      8.1330      2.5205      0.0589      7.8513     20.7045    107.4101
   386.9000      8.1330      2.5233      0.0647      7.6758     20.4134    112.8703
   387.0000      8.1325      2.5246      0.0494      7.6022     20.1512    119.5150
   387.1000      8.1325      2.5314      0.0243      7.1879     20.0769    118.8989
   387.2000      8.1325      2.5437      0.0506      6.4437     20.3311    115.0398
   387.3000      8.1323      2.5452      0.0709      6.3504     20.6509    115.2771
   387.4000      8.1323      2.5281      0.0036      7.3874     20.9087    118.9931
   387.5000      8.1315      2.5121     -0.0156      8.3564     21.0998    118.6071
   387.6000      8.1315      2.5155      0.0036      8.1496     21.1121    113.6450
   387.7000      8.1315      2.5352      0.0514      6.9601     21.3310    111.8617
   387.8000      8.1298      2.5608      0.0651      5.4032     21.9726    115.9715
   387.9000      8.1298      2.5848      0.0775      3.9537     22.4729    119.8002
   388.0000      8.1290      2.6000      0.1064      3.0291     22.6347    117.6336
   388.1000      8.1290      2.6010      0.0811      2.9706     23.0655    113.7449
   388.2000      8.1290      2.5879      0.0691      3.7627     23.9835    113.7403
   388.3000      8.1322      2.5668      0.0314      5.0424     24.8907    114.5228
   388.4000      8.1322      2.5530     -0.0144      5.8780     25.4177    112.8144
   388.5000      8.1415      2.5540      0.0380      5.8155     25.5454    113.7775
   388.6000      8.1415      2.5497      0.0307      6.0779     25.3146    120.8705
   388.7000      8.1415      2.5292     -0.0525      7.3218     25.0299    126.6116
   388.8000      8.1522      2.5071     -0.0059      8.6627     25.1545    125.8405
   388.9000      8.1522      2.4832      0.0047     10.1067     25.4295    121.9758
   389.0000      8.1589      2.4501     -0.0366     12.1161     25.2602    118.6529
   389.1000      8.1589      2.4229     -0.0553     13.7661     24.7589    117.2734
   389.2000      8.1589      2.4148     -0.0131     14.2527     24.3843    119.7424
   389.3000      8.1657      2.4160     -0.0183     14.1832     24.0781    125.0309
   389.4000      8.1657      2.4116      0.0052     14.4502     23.6303    127.1587
   389.5000      8.1754      2.3932      0.0152     15.5664     23.1877    123.8460
   389.6000      8.1754      2.3723     -0.0175     16.8277     22.7282    121.6136
   389.7000      8.1754      2.3769     -0.0045     16.5486     22.0655    125.9350
   389.8000      8.1822      2.4011      0.0928     15.0857     21.4242    131.7479
   389.9000      8.1822      2.4048      0.0649     14.8580     21.0068    131.4270
   390.0000      8.1836      2.3739      0.0375     16.7361     20.5614    127.0944
   390.1000      8.1836      2.3276      0.0226     19.5377     19.8414    123.4097
   390.2000      8.1836      2.2876      0.0359     21.9649     18.7835    122.7824
   390.3000      8.1805      2.2634      0.0529     23.4327     17.7034    125.6695
   390.4000      8.1805      2.2599      0.0164     23.6397     17.0605    128.2865
   390.5000      8.1782      2.2761      0.0490     22.6576     16.8815    127.3656
   390.6000      8.1782      2.2892      0.1032     21.8694     16.8317    126.3535
   390.7000      8.1782      2.2754      0.0516     22.7024     16.7296    128.4318
   390.8000      8.1914      2.2343      0.0584     25.1960     16.6052    130.8794
   390.9000      8.1914      2.1717      0.0910     28.9853     16.3610    132.9117
   391.0000      8.2277      2.1027      0.0506     33.1698     15.9571    134.8306
   391.1000      8.2277      2.0630      0.0083     35.5787     15.5580    133.7795
   391.2000      8.2277      2.0852      0.0287     34.2304     15.3106    129.2919
   391.3000      8.2559      2.1580      0.2030     29.8188     14.9174    124.6290
   391.4000      8.2559      2.2287      0.2160     25.5331     14.1982    120.2355
   391.5000      8.2428      2.2676      0.1484     23.1784     13.6484    114.7188
   391.6000      8.2428      2.2932      0.1235     21.6221     13.5919    112.4450
   391.7000      8.2428      2.3330      0.1436     19.2095     13.8094    115.1216
   391.8000      8.2204      2.3904      0.2212     15.7329     14.2585    116.3316
   391.9000      8.2204      2.4493      0.2303     12.1615     15.1747    114.6888
   392.0000      8.2067      2.4949      0.1672      9.4016     16.5238    111.6686
   392.1000      8.2067      2.5203      0.1211      7.8621     17.9973    106.6428
   392.2000      8.2067      2.5235      0.0635      7.6672     19.3356    103.7677
   392.3000      8.1946      2.5085      0.0443      8.5749     20.4117    108.8588
   392.4000      8.1946      2.4883     -0.0024      9.7995     21.1421    120.8906
   392.5000      8.1914      2.4747      0.0156     10.6221     21.4377    130.0714
   392.6000      8.1914      2.4689      0.0319     10.9768     21.4662    129.5430
   392.7000      8.1914      2.4649      0.0358     11.2196     21.4941    125.1876
   392.8000      8.2012      2.4576      0.0106     11.6599     21.6179    126.0998
   392.9000      8.2012      2.4464      0.0126     12.3375     21.9203    132.2784
   393.0000      8.2178      2.4312      0.0009     13.2620     22.2036    136.9886
   393.1000      8.2178      2.4168     -0.0100     14.1304     22.2253    135.5621
   393.2000      8.2178      2.4128      0.0023     14.3729     22.1447    130.7855
   393.3000      8.2418      2.4124      0.0461     14.4025     22.0564    127.7423
   393.4000      8.2418      2.3937      0.0290     15.5312     21.7929    124.6906
   393.5000      8.2685      2.3506     -0.0091     18.1452     21.2338    119.8867
