~Version Information
VERS.                      2.0: CWLS Log ASCII Standard - VERSION 2.0
WRAP.                       NO: One line per depth step
~Well Information Block
STRT.FT               547.0000: 
STOP.FT              1685.5000: 
STEP.FT                 0.2500: 
NULL.                -999.2500: 
COMP.          Pioneer Natural Resources: COMPANY
WELL.           Pedri 42-33 Tr: WELL
FLD.           Purgatorie River: FIELD
LOC.           1933' FNL & 662' FEL: LOCATION
PROV.                 Colorado: PROVINCE
CNTY.               Las Animas: COUNTRY
SRVC.                Patterson: SERVICE COMPANY
DATE.          Mon Dec 19 10:09:44 2005: LOG DATE
UWI.                          : UNIQUE WELL ID
~Curve Information Block
DEPT.FT            0 000 00 00: Depth
DIR.Ohm-m                     : IEL Induction Resistivity
GR.GAPI                       : Gamma Ray
~Parameter Information Block
~A  Depth       DIR          GR     
# ...
   825.7500     24.2438    141.4955
   826.0000     24.3507    141.6684
   826.2500     24.3081    140.8621
   826.5000     24.1361    138.5858
   826.7500     23.8981    136.2884
   827.0000     23.6799    131.1960
   827.2500     23.5652    126.7573
   827.5000     23.6199    119.7731
   827.7500     23.8864    115.9299
   828.0000     24.3837    112.5184
   828.2500     25.1096    111.9212
   828.5000     26.0406    113.3221
   828.7500     27.1299    115.5716
   829.0000     28.3076    120.0796
   829.2500     29.4942    123.1498
   829.5000     30.6304    126.9112
   829.7500     31.7075    128.3871
   830.0000     32.7762    127.8412
   830.2500     33.9280    124.9257
   830.5000     35.2697    116.7469
   830.7500     36.9083    109.6818
   831.0000     38.9503     98.7315
   831.2500     41.5001     92.0315
   831.5000     44.6384     83.4777
   831.7500     48.3749     78.8391
   832.0000     52.5916     73.2233
   832.2500     57.0219     69.9938
   832.5000     61.3108     65.3735
   832.7500     65.1465     62.5579
   833.0000     68.3635     59.5065
   833.2500     70.9261     58.5543
   833.5000     72.8254     58.5634
   833.7500     74.0105     59.2025
   834.0000     74.4260     60.4898
   834.2500     74.1178     61.1278
   834.5000     73.3017     61.0066
   834.7500     72.3231     60.0698
   835.0000     71.5278     57.9326
   835.2500     71.1371     56.6069
   835.5000     71.1853     55.6676
   835.7500     71.5457     56.0016
   836.0000     72.0248     57.5622
   836.2500     72.4824     58.5902
   836.5000     72.9072     58.9733
   836.7500     73.4069     58.4730
   837.0000     74.1275     57.5677
   837.2500     75.1544     57.2565
   837.5000     76.4543     57.0922
   837.7500     77.8809     57.0340
   838.0000     79.2358     57.1779
   838.2500     80.3451     57.5559
   838.5000     81.1146     58.4377
   838.7500     81.5469     59.0389
   839.0000     81.7223     59.5286
   839.2500     81.7604     59.2233
   839.5000     81.7798     57.3299
   839.7500     81.8720     55.2948
   840.0000     82.0808     52.4783
   840.2500     82.3874     51.7608
   840.5000     82.7113     53.1904
   840.7500     82.9469     55.4593
   841.0000     83.0200     59.6642
   841.2500     82.9162     62.5589
   841.5000     82.6387     66.9561
   841.7500     82.1184     70.0424
   842.0000     81.1451     74.9298
   842.2500     79.3863     78.1528
   842.5000     76.5146     82.3537
   842.7500     72.3856     84.4408
   843.0000     67.1518     86.0174
   843.2500     61.2274     85.6569
   843.5000     55.1320     82.6786
   843.7500     49.3204     79.5161
   844.0000     44.0853     74.6804
   844.2500     39.5474     72.2433
   844.5000     35.7001     70.1034
   844.7500     32.4682     69.3929
   845.0000     29.7544     69.1275
   845.2500     27.4689     69.9183
   845.5000     25.5410     74.0324
   845.7500     23.9198     79.3104
   846.0000     22.5676     90.3309
   846.2500     21.4517     98.4263
   846.5000     20.5410    109.3027
   846.7500     19.8070    114.9783
   847.0000     19.2259    121.0631
   847.2500     18.7785    123.7474
   847.5000     18.4465    126.3520
   847.7500     18.2092    127.8365
   848.0000     18.0450    131.1629
   848.2500     17.9377    134.3906
   848.5000     17.8826    139.3574
   848.7500     17.8868    141.4320
   849.0000     17.9637    141.4199
   849.2500     18.1246    139.4757
   849.5000     18.3739    134.7386
   849.7500     18.7070    131.1678
   850.0000     19.1098    126.6382
   850.2500     19.5560    124.8135
   850.5000     20.0046    124.1658
   850.7500     20.4019    124.8255
   851.0000     20.6945    126.3794
   851.2500     20.8514    126.9477
   851.5000     20.8816    125.7599
   851.7500     20.8330    123.3111
   852.0000     20.7720    117.9747
   852.2500     20.7556    114.4611
   852.5000     20.8123    111.5108
   852.7500     20.9406    111.8296
   853.0000     21.1203    115.0927
   853.2500     21.3313    117.8372
   853.5000     21.5645    120.4453
   853.7500     21.8203    120.4911
   854.0000     22.0973    118.6805
   854.2500     22.3827    117.2772
   854.5000     22.6549    115.9685
   854.7500     22.8961    115.2355
   855.0000     23.1078    112.9763
   855.2500     23.3170    110.5694
   855.5000     23.5713    107.0531
   855.7500     23.9256    105.9283
   856.0000     24.4265    107.0004
   856.2500     25.0980    109.0707
   856.5000     25.9332    112.0326
   856.7500     26.8932    112.6321
   857.0000     27.9152    110.8721
   857.2500     28.9305    108.7791
   857.5000     29.8872    106.5446
   857.7500     30.7638    106.3874
   858.0000     31.5620    107.4650
   858.2500     32.2811    107.9988
   858.5000     32.8880    107.0434
   858.7500     33.3013    105.0054
   859.0000     33.4015    100.5617
   859.2500     33.0657     97.5413
   859.5000     32.2215     94.6369
   859.7500     30.8931     94.5235
   860.0000     29.2072     97.1705
   860.2500     27.3475    100.0039
   860.5000     25.4904    103.7019
   860.7500     23.7596    104.9210
   861.0000     22.2153    105.0452
   861.2500     20.8680    104.7491
   861.5000     19.7017    104.7574
   861.7500     18.6935    105.2692
   862.0000     17.8248    107.4013
   862.2500     17.0813    110.5040
   862.5000     16.4502    118.3713
   862.7500     15.9186    124.8227
   863.0000     15.4758    132.8817
   863.2500     15.1144    135.5325
   863.5000     14.8304    135.1842
   863.7500     14.6206    133.2211
   864.0000     14.4823    130.1559
   864.2500     14.4134    128.9421
   864.5000     14.4134    128.3307
   864.7500     14.4843    127.9445
   865.0000     14.6295    125.8004
   865.2500     14.8523    122.9860
   865.5000     15.1532    118.0219
   865.7500     15.5277    115.8614
   866.0000     15.9670    116.5615
   866.2500     16.4600    119.4796
   866.5000     16.9958    124.8423
   866.7500     17.5643    127.3455
   867.0000     18.1551    128.3880
   867.2500     18.7569    127.7895
   867.5000     19.3595    126.2395
   867.7500     19.9595    124.9485
   868.0000     20.5654    122.0835
   868.2500     21.1985    119.5430
   868.5000     21.8843    116.0831
   868.7500     22.6413    114.9601
   869.0000     23.4715    115.5396
   869.2500     24.3583    117.0303
   869.5000     25.2736    120.0506
   869.7500     26.1903    122.1002
   870.0000     27.0957    123.9995
   870.2500     27.9927    123.7621
   870.5000     28.8893    121.1563
   870.7500     29.7845    118.8235
   871.0000     30.6653    116.3652
   871.2500     31.5132    115.9735
   871.5000     32.3171    116.5614
   871.7500     33.0847    116.6651
   872.0000     33.8470    114.7377
   872.2500     34.6494    111.8527
   872.5000     35.5327    106.3781
   872.7500     36.5154    103.2502
   873.0000     37.5915    101.0051
   873.2500     38.7424    101.1333
   873.5000     39.9551    102.3191
   873.7500     41.2372    102.9023
   874.0000     42.6204    103.0964
   874.2500     44.1465    103.1205
   874.5000     45.8364    103.4815
   874.7500     47.6614    103.7539
   875.0000     49.5375    103.4204
   875.2500     51.3531    102.3360
   875.5000     53.0154     99.1749
   875.7500     54.4946     96.1593
   876.0000     55.8406     91.1248
   876.2500     57.1529     88.2317
   876.5000     58.5203     85.6961
   876.7500     59.9726     85.2329
   877.0000     61.4890     85.2471
   877.2500     63.0510     84.8179
   877.5000     64.6841     82.6148
   877.7500     66.4426     80.1600
   878.0000     68.3581     75.5603
   878.2500     70.3970     72.1874
   878.5000     72.4574     67.1524
   878.7500     74.4065     64.1747
   879.0000     76.1305     61.0062
   879.2500     77.5648     60.1254
   879.5000     78.6838     60.7255
   879.7500     79.4625     61.8424
   880.0000     79.8448     62.8569
   880.2500     79.7548     62.3302
   880.5000     79.1491     59.9207
   880.7500     78.0667     58.0619
   881.0000     76.6237     56.3417
   881.2500     74.9409     56.2458
