~Version Information
VERS.                      2.0: CWLS Log ASCII Standard - VERSION 2.0
WRAP.                       NO: One line per depth step
~Well Information Block
STRT.FT                10.0000: 
STOP.FT              1360.0000: 
STEP.FT                 0.1000: 
NULL.                -999.2500: 
COMP.          Pioneer Natural Resources: COMPANY
WELL.              Geyser 41-2: WELL
FLD.           Purgatorie River: FIELD
LOC.           506' FNL & 1127' FEL: LOCATION
PROV.                 Colorado: PROVINCE
CNTY.               Las Animas: COUNTRY
SRVC.                Patterson: SERVICE COMPANY
DATE.          Thu Dec 01 07:38:14 2005: LOG DATE
UWI.                          : UNIQUE WELL ID
~Curve Information Block
DEPT.FT            0 000 00 00: Depth
DCAL.in                       : CDL Caliper
RHOB.g/cc                     : CDL Bulk Density
RHOC.g/cc                     : CDL Density Correction
DPOR.pu                       : CDL Density Porosity
GR.GAPI                       : Gamma Ray
NPOR.pu                       : Neutron Porosity
~Parameter Information Block
~A  Depth       DCAL        RHOB        RHOC        DPOR         GR         NPOR    
# ...
  1075.6000      7.9326      2.6149      0.0687      2.1275     81.1796     21.8793
  1075.7000      7.9326      2.6036      0.0327      2.8100     81.2434     21.9569
  1075.8000      7.9354      2.5754      0.0239      4.5242     82.0880     21.6972
  1075.9000      7.9354      2.5445     -0.0310      6.3952     81.4177     21.5597
  1076.0000      7.9240      2.5366     -0.0244      6.8705     80.5326     21.8174
  1076.1000      7.9240      2.5612      0.0184      5.3803     80.9952     22.0813
  1076.2000      7.9240      2.5941      0.1013      3.3908     81.7723     21.9673
  1076.3000      7.9322      2.6007      0.0717      2.9858     82.2552     21.6228
  1076.4000      7.9322      2.5810      0.0212      4.1797     81.8360     21.2692
  1076.5000      7.9322      2.5592      0.0442      5.5004     79.9003     20.9724
  1076.6000      7.9322      2.5462      0.0165      6.2880     78.6097     20.8845
  1076.7000      7.9322      2.5438      0.0113      6.4337     78.6217     21.0137
  1076.8000      7.9375      2.5522      0.0549      5.9257     76.5536     21.0117
  1076.9000      7.9375      2.5677      0.0128      4.9893     71.6401     20.6267
  1077.0000      7.9405      2.5878      0.0311      3.7714     67.9705     20.2219
  1077.1000      7.9405      2.6072      0.0633      2.5914     68.6129     20.2349
  1077.2000      7.9405      2.6215      0.0564      1.7267     71.8494     20.5893
  1077.3000      7.9344      2.6320      0.0742      1.0934     73.9445     20.8515
  1077.4000      7.9344      2.6377      0.0797      0.7480     73.5466     20.9052
  1077.5000      7.9315      2.6337      0.0429      0.9860     71.7524     20.9079
  1077.6000      7.9315      2.6212      0.0700      1.7439     69.9287     20.8467
  1077.7000      7.9315      2.6067      0.0823      2.6223     69.4997     20.6949
  1077.8000      7.9320      2.5953      0.0528      3.3135     69.7055     20.5235
  1077.9000      7.9320      2.5879      0.0550      3.7628     68.1760     20.3987
  1078.0000      7.9373      2.5812      0.0416      4.1674     66.4325     20.3002
  1078.1000      7.9373      2.5766      0.0152      4.4461     67.0951     20.1188
  1078.2000      7.9373      2.5785      0.0410      4.3362     68.9387     19.8302
  1078.3000      7.9387      2.5792      0.0501      4.2901     70.2026     19.7782
  1078.4000      7.9387      2.5717      0.0180      4.7438     70.4778     19.9949
  1078.5000      7.9365      2.5676      0.0133      4.9933     70.2042     20.0411
  1078.6000      7.9365      2.5779      0.0368      4.3673     70.7976     19.9195
  1078.7000      7.9365      2.5908      0.0476      3.5897     72.4877     19.9403
  1078.8000      7.9335      2.5828      0.0792      4.0743     73.8067     20.0770
  1078.9000      7.9335      2.5536      0.0147      5.8425     73.8825     20.0394
  1079.0000      7.9298      2.5302     -0.0135      7.2619     74.3815     19.7694
  1079.1000      7.9298      2.5316     -0.0294      7.1775     76.8083     19.4853
  1079.2000      7.9298      2.5455      0.0308      6.3338     79.3178     19.4785
  1079.3000      7.9417      2.5539     -0.0170      5.8269     80.3703     19.8619
  1079.4000      7.9417      2.5603      0.0214      5.4365     82.9769     20.2962
  1079.5000      7.9379      2.5668      0.0194      5.0410     88.1761     20.3740
  1079.6000      7.9379      2.5704      0.0239      4.8241     91.4114     20.2914
  1079.7000      7.9379      2.5777      0.0064      4.3823     89.6451     20.4833
  1079.8000      7.9400      2.5861      0.0741      3.8756     83.7194     20.8620
  1079.9000      7.9400      2.5848      0.0543      3.9536     78.7417     21.1329
  1080.0000      7.9327      2.5822      0.0523      4.1063     79.0528     21.4017
  1080.1000      7.9327      2.5921      0.0406      3.5070     81.2640     21.8581
  1080.2000      7.9327      2.6111      0.0399      2.3561     82.6253     22.2874
  1080.3000      7.9412      2.6215      0.0989      1.7274     84.8324     22.2980
  1080.4000      7.9412      2.6115      0.0728      2.3312     86.6717     21.9931
  1080.5000      7.9306      2.5905      0.0404      3.6048     86.2757     21.8445
  1080.6000      7.9306      2.5701      0.0347      4.8419     84.4434     22.0284
  1080.7000      7.9306      2.5561      0.0087      5.6912     81.5562     22.3550
  1080.8000      7.9304      2.5579      0.0057      5.5794     77.8842     22.4931
  1080.9000      7.9304      2.5710      0.0430      4.7859     75.2287     22.2299
  1081.0000      7.9284      2.5735      0.0614      4.6355     75.0748     21.7647
  1081.1000      7.9284      2.5624     -0.0259      5.3083     77.1953     21.4308
  1081.2000      7.9284      2.5507      0.0181      6.0205     79.9441     21.1367
  1081.3000      7.9413      2.5361      0.0046      6.9056     81.7039     20.6248
  1081.4000      7.9413      2.5174     -0.0057      8.0344     83.2233     20.2080
  1081.5000      7.9434      2.5057     -0.0213      8.7453     85.4810     20.2971
  1081.6000      7.9434      2.5123     -0.0350      8.3465     86.2048     20.7377
  1081.7000      7.9434      2.5378      0.0098      6.7981     82.5496     21.1838
  1081.8000      7.9446      2.5682      0.0403      4.9573     76.8509     21.3812
  1081.9000      7.9446      2.5883      0.0578      3.7382     74.2322     21.3148
  1082.0000      7.9388      2.5947      0.0509      3.3529     75.4490     21.1861
  1082.1000      7.9388      2.5985      0.0266      3.1216     78.5166     21.0874
  1082.2000      7.9388      2.6051      0.0983      2.7202     82.1937     21.0050
  1082.3000      7.9387      2.6075      0.0631      2.5767     85.8599     21.1186
  1082.4000      7.9387      2.6080      0.0585      2.5474     88.7249     21.4386
  1082.5000      7.9358      2.6068      0.0853      2.6158     89.6432     21.5501
  1082.6000      7.9358      2.5934      0.1034      3.4319     88.1722     21.2157
  1082.7000      7.9358      2.5648      0.0682      5.1613     85.5777     20.6305
  1082.8000      7.9290      2.5354     -0.0365      6.9474     84.9420     19.9780
  1082.9000      7.9290      2.5156      0.0219      8.1468     87.8522     19.3957
  1083.0000      7.9332      2.5004     -0.0464      9.0689     92.4573     19.1586
  1083.1000      7.9332      2.4882     -0.0263      9.8065     95.7546     19.2362
  1083.2000      7.9332      2.4778      0.0110     10.4367     97.5070     19.2358
  1083.3000      7.9329      2.4650      0.0048     11.2140    100.0265     18.9557
  1083.4000      7.9329      2.4530      0.0046     11.9402    103.3882     18.5320
  1083.5000      7.9313      2.4484      0.0427     12.2164    105.4771     18.2747
  1083.6000      7.9313      2.4499      0.0833     12.1301    106.3421     18.4610
  1083.7000      7.9313      2.4491      0.0985     12.1754    107.2675     18.8616
  1083.8000      7.9675      2.4437      0.0875     12.5055    108.3129     19.1040
  1083.9000      7.9675      2.4383      0.0986     12.8313    109.5624     19.2265
  1084.0000      7.9429      2.4418      0.0479     12.6194    111.0092     19.3620
  1084.1000      7.9429      2.4592      0.1010     11.5638    111.7897     19.4853
  1084.2000      7.9429      2.4779      0.1412     10.4295    110.8545     19.5141
  1084.3000      7.9449      2.4800      0.1211     10.3035    106.8343     19.5489
  1084.4000      7.9449      2.4636      0.0718     11.2957    102.0210     19.7731
  1084.5000      7.9461      2.4437      0.0462     12.5045    101.1884     20.2162
  1084.6000      7.9461      2.4366      0.0196     12.9350    104.1609     20.7310
  1084.7000      7.9461      2.4365      0.0944     12.9422    106.0380     21.1464
  1084.8000      7.9516      2.4235      0.0574     13.7264    104.1680     21.4456
  1084.9000      7.9516      2.4032      0.0193     14.9592    100.2992     21.7033
  1085.0000      7.9678      2.3993      0.0062     15.1967     97.9826     21.9853
  1085.1000      7.9678      2.4178      0.0340     14.0715     99.4646     22.1955
