~Version Information
VERS.                      2.0: CWLS Log ASCII Standard - VERSION 2.0
WRAP.                       NO: One line per depth step
~Well Information Block
STRT.FT               970.0000: 
STOP.FT              1882.0000: 
STEP.FT                 0.2500: 
NULL.                -999.2500: 
COMP.          Petrogulf Corporation: COMPANY
WELL.             Norton 9-14R: WELL
FLD.           Purgatorie River: FIELD
LOC.           725' FSL & 1103' FWL: LOCATION
PROV.                 Colorado: PROVINCE
CNTY.               Las Animas: COUNTRY
SRVC.                Patterson: SERVICE COMPANY
DATE.          Thu Oct 06 16:10:47 2005: LOG DATE
UWI.                          : UNIQUE WELL ID
~Curve Information Block
DEPT.FT            0 000 00 00: Depth
SP.mV                         : DIL Spontaneous Potential
RILD.Ohm-m                    : DIL Deep Resistivity
RILM.Ohm-m                    : DIL Medium Resistivity
RLL3.Ohm-m                    : DIL Shallow Resistivity
GR.GAPI                       : Gamma Ray
~Parameter Information Block
~A  Depth        SP         RILD        RILM        RLL3         GR     
# ...
  1026.0000    176.6509     12.3303     12.3181     14.8274    135.7279
  1026.2500    176.7301     12.4813     12.6548     16.2698    136.5974
  1026.5000    176.7400     12.6530     13.0367     18.3108    135.2560
  1026.7500    176.6569     12.8359     13.4379     20.6838    131.7674
  1027.0000    176.4824     13.0258     13.8287     22.7251    123.1861
  1027.2500    176.2146     13.2218     14.1811     23.6848    116.3372
  1027.5000    175.8227     13.4213     14.4743     23.2120    106.7064
  1027.7500    175.2485     13.6170     14.6982     21.6011    101.8299
  1028.0000    174.4355     13.7947     14.8529     19.5563     97.6923
  1028.2500    173.3606     13.9337     14.9442     17.7205     97.0975
  1028.5000    172.0438     14.0114     14.9781     16.4186     99.5230
  1028.7500    170.5364     14.0092     14.9571     15.7231    103.3671
  1029.0000    168.9087     13.9203     14.8787     15.5883    111.2267
  1029.2500    167.2470     13.7528     14.7385     15.8812    116.0957
  1029.5000    165.6488     13.5273     14.5339     16.3855    119.7828
  1029.7500    164.2022     13.2706     14.2683     16.8563    119.4093
  1030.0000    162.9597     13.0081     13.9527     17.0790    116.4704
  1030.2500    161.9286     12.7596     13.6047     16.9028    114.3221
  1030.5000    161.0886     12.5373     13.2449     16.3019    112.0688
  1030.7500    160.4175     12.3458     12.8934     15.4375    111.4788
  1031.0000    159.9119     12.1836     12.5662     14.5891    112.2821
  1031.2500    159.5921     12.0458     12.2751     13.9586    113.8474
  1031.5000    159.4900     11.9282     12.0270     13.5450    116.7987
  1031.7500    159.6264     11.8298     11.8256     13.2294    118.6086
  1032.0000    159.9877     11.7551     11.6728     12.9579    121.0034
  1032.2500    160.5178     11.7125     11.5703     12.8050    122.6454
  1032.5000    161.1320     11.7116     11.5201     12.8531    125.1859
  1032.7500    161.7413     11.7604     11.5265     13.0500    126.6162
  1033.0000    162.2710     11.8633     11.5951     13.2310    127.9012
  1033.2500    162.6649     12.0205     11.7337     13.2892    128.1495
  1033.5000    162.8890     12.2285     11.9504     13.2932    127.8215
  1033.7500    162.9381     12.4793     12.2529     13.4352    127.2770
  1034.0000    162.8401     12.7598     12.6455     13.8999    125.9515
  1034.2500    162.6449     13.0523     13.1267     14.7995    124.5959
  1034.5000    162.4075     13.3349     13.6856     16.1826    122.0538
  1034.7500    162.1801     13.5837     14.2982     18.0346    120.5394
  1035.0000    162.0115     13.7782     14.9251     20.2342    119.2353
  1035.2500    161.9388     13.9064     15.5115     22.5091    118.6309
  1035.5000    161.9691     13.9678     15.9928     24.4598    116.1661
  1035.7500    162.0756     13.9721     16.3068     25.6905    112.5331
  1036.0000    162.2185     13.9349     16.4101     25.9858    104.7437
  1036.2500    162.3730     13.8750     16.2926     25.3851     99.7552
  1036.5000    162.5399     13.8115     15.9824     24.0720     95.6573
  1036.7500    162.7348     13.7613     15.5379     22.2021     95.5704
  1037.0000    162.9710     13.7346     15.0319     19.8693     97.5452
  1037.2500    163.2485     13.7306     14.5343     17.2412     99.0375
  1037.5000    163.5479     13.7363     14.1000     14.6737    101.2714
  1037.7500    163.8306     13.7295     13.7645     12.6436    103.4138
  1038.0000    164.0430     13.6853     13.5439     11.5450    108.1101
  1038.2500    164.1281     13.5863     13.4366     11.5353    111.5754
  1038.5000    164.0482     13.4282     13.4264     12.5406    115.3862
  1038.7500    163.8131     13.2212     13.4854     14.3423    116.3590
  1039.0000    163.4901     12.9864     13.5774     16.5959    115.9694
  1039.2500    163.1771     12.7506     13.6646     18.7869    115.2607
  1039.5000    162.9499     12.5413     13.7139     20.3023    113.9400
  1039.7500    162.8239     12.3817     13.7042     20.7037    112.2547
  1040.0000    162.7562     12.2845     13.6294     19.9935    107.5369
  1040.2500    162.6849     12.2475     13.4967     18.5986    103.3516
  1040.5000    162.5686     12.2543     13.3213     17.0798     97.5540
  1040.7500    162.3991     12.2790     13.1205     15.8343     95.1134
  1041.0000    162.1861     12.2942     12.9089     14.9878     94.5508
  1041.2500    161.9382     12.2788     12.6967     14.4508     96.2217
  1041.5000    161.6490     12.2224     12.4903     14.0466    100.8275
  1041.7500    161.2967     12.1245     12.2932     13.6463    104.5128
  1042.0000    160.8597     11.9911     12.1072     13.2428    110.3069
  1042.2500    160.3377     11.8305     11.9326     12.9131    114.4091
  1042.5000    159.7535     11.6512     11.7689     12.7284    120.4663
  1042.7500    159.1346     11.4617     11.6140     12.7099    123.4349
  1043.0000    158.5082     11.2706     11.4649     12.8327    124.7162
  1043.2500    157.9226     11.0862     11.3180     13.0289    123.7212
  1043.5000    157.4575     10.9144     11.1701     13.1955    121.7060
  1043.7500    157.1920     10.7589     11.0195     13.2369    121.1401
  1044.0000    157.1566     10.6204     10.8656     13.1177    121.5421
  1044.2500    157.3217     10.4980     10.7092     12.8641    122.0207
  1044.5000    157.6264     10.3898     10.5518     12.5169    122.5094
  1044.7500    158.0074     10.2928     10.3950     12.1053    122.9942
  1045.0000    158.4070     10.2034     10.2407     11.6713    124.7040
  1045.2500    158.7780     10.1187     10.0910     11.2872    126.3816
  1045.5000    159.0971     10.0378      9.9485     11.0231    128.4326
  1045.7500    159.3703      9.9627      9.8169     10.8982    128.8128
  1046.0000    159.6102      9.8971      9.7005     10.8706    128.0626
  1046.2500    159.8072      9.8450      9.6041     10.8833    127.4292
  1046.5000    159.9230      9.8087      9.5322     10.9299    127.3238
  1046.7500    159.9129      9.7902      9.4888     11.0800    127.7004
  1047.0000    159.7568      9.7931      9.4767     11.4262    127.6926
  1047.2500    159.4799      9.8238      9.4983     11.9771    126.6032
  1047.5000    159.1519      9.8898      9.5560     12.5775    123.1991
  1047.7500    158.8635      9.9961      9.6530     12.9574    120.3466
  1048.0000    158.6983     10.1429      9.7935     12.9385    116.8641
  1048.2500    158.7179     10.3254      9.9826     12.6355    116.0539
  1048.5000    158.9640     10.5358     10.2252     12.4476    117.8859
  1048.7500    159.4610     10.7656     10.5237     12.8441    120.5753
  1049.0000    160.2138     11.0071     10.8761     14.1104    124.1433
  1049.2500    161.2011     11.2537     11.2737     16.1505    124.5431
  1049.5000    162.3656     11.4993     11.7000     18.4331    121.2702
  1049.7500    163.6072     11.7397     12.1319     20.2374    117.5530
  1050.0000    164.7898     11.9759     12.5437     21.1186    112.6777
  1050.2500    165.7697     12.2164     12.9124     21.1513    111.1211
  1050.5000    166.4393     12.4744     13.2243     20.6877    111.6578
  1050.7500    166.7611     12.7608     13.4785     19.9665    113.5657
  1051.0000    166.7724     13.0788     13.6866     19.0196    118.0444
  1051.2500    166.5589     13.4215     13.8689     17.8727    121.5663
  1051.5000    166.2148     13.7758     14.0491     16.7150    126.2620
  1051.7500    165.8161     14.1275     14.2495     15.8503    128.2251
  1052.0000    165.4113     14.4667     14.4879     15.5207    128.6821
  1052.2500    165.0250     14.7888     14.7764     15.7925    127.1507
  1052.5000    164.6621     15.0955     15.1221     16.5745    122.1386
  1052.7500    164.3154     15.3941     15.5281     17.6950    117.4994
  1053.0000    163.9794     15.6974     15.9954     18.9522    110.3657
  1053.2500    163.6595     16.0226     16.5249     20.1524    106.4564
  1053.5000    163.3654     16.3886     17.1190     21.1785    102.3106
  1053.7500    163.0916     16.8130     17.7816     22.0557    100.3313
