~Version Information
VERS.                      2.0: CWLS Log ASCII Standard - VERSION 2.0
WRAP.                       NO: One line per depth step
~Well Information Block
STRT.FT                -5.7500: 
STOP.FT              2734.0000: 
STEP.FT                 0.2500: 
NULL.                -999.2500: 
COMP.          Pioneer Natural Resources: COMPANY
WELL.              Loews 41-32: WELL
FLD.           Purgatoire River: FIELD
LOC.           751' FNL & 128' FEL--: LOCATION
CNTY.               Las Animas: COUNTY
SRVC.                         : SERVICE COMPANY
DATE.          Sat Mar 04 08:20:59 2006: LOG DATE
UWI.           05 071 08693 00: UNIQUE WELL ID
STAT.                       CO: STATE
~Curve Information Block
DEPT.FT            0 000 00 00: Depth
GR.GAPI                       : Gamma Ray
CCL.                          : Casing Collar Locator
TT3.usec                      : CBL 3' Travel Time
AMP3.mV                       : CBL 3' Amplitude
~Parameter Information Block
~A  Depth        GR         CCL         TT3         AMP3    
# ...
  1267.2500    132.6288      0.0000    706.4665      6.2348
  1267.5000    130.7948      0.0000    719.8018      6.0060
  1267.7500    129.7008      0.0000    729.1240      5.8147
  1268.0000    128.9916      0.0000    733.0526      5.6745
  1268.2500    128.8455      0.0000    735.8045      5.5769
  1268.5000    129.8049      0.0000    741.9629      5.5129
  1268.7500    131.9074      0.0000    751.6589      5.4750
  1269.0000    134.4843      0.0000    761.7663      5.4547
  1269.2500    137.0382      0.0000    769.4367      5.4416
  1269.5000    140.0026      0.0000    773.0157      5.4245
  1269.7500    144.0745      0.0000    771.0468      5.3973
  1270.0000    148.7515      0.0000    761.7079      5.3644
  1270.2500    152.1767      0.0000    743.0137      5.3395
  1270.5000    152.8123      0.0000    714.2217      5.3351
  1270.7500    151.0016      0.0000    678.5048      5.3525
  1271.0000    148.7667      0.0000    643.2842      5.3813
  1271.2500    148.3759      0.0000    615.3705      5.4086
  1271.5000    151.0621      0.0000    596.7571      5.4297
  1271.7500    156.2584      0.0000    586.9070      5.4479
  1272.0000    161.4084      0.0000    585.5654      5.4622
  1272.2500    163.1927      0.0000    589.3204      5.4597
  1272.5000    160.0042      0.0000    589.4383      5.4284
  1272.7500    153.3434      0.0000    579.1253      5.3777
  1273.0000    146.4610      0.0000    561.7769      5.3366
  1273.2500    141.6375      0.0000    549.1594      5.3278
  1273.5000    138.9119      0.0000    553.1437      5.3521
  1273.7500    137.1590      0.0000    579.4453      5.3963
  1274.0000    135.7794      0.0000    624.1693      5.4490
  1274.2500    135.0999      0.0000    672.7167      5.5054
  1274.5000    135.5354      0.0000    704.7164      5.5657
  1274.7500    136.7351      0.0000    704.8151      5.6303
  1275.0000    137.6051      0.0000    671.9301      5.6925
  1275.2500    137.3628      0.0000    619.5934      5.7352
  1275.5000    136.5367      0.0000    567.0663      5.7427
  1275.7500    136.4598      0.0000    528.0098      5.7158
  1276.0000    137.8758      0.0000    505.3450      5.6700
  1276.2500    140.4641      0.0000    494.4088      5.6231
  1276.5000    143.2475      0.0000    489.0833      5.5887
  1276.7500    144.9515      0.0000    485.5577      5.5773
  1277.0000    144.6226      0.0000    482.8353      5.5930
  1277.2500    142.5363      0.0000    481.4583      5.6298
  1277.5000    140.0606      0.0000    481.8139      5.6761
  1277.7500    138.3009      0.0000    483.2956      5.7262
  1278.0000    137.3290      0.0000    484.8180      5.7843
  1278.2500    136.8869      0.0000    485.6867      5.8561
  1278.5000    137.1233      0.0000    485.8043      5.9352
  1278.7500    138.1594      0.0000    485.3309      5.9989
  1279.0000    139.2879      0.0000    484.3372      6.0232
  1279.2500    139.2368      0.0000    482.5677      6.0052
  1279.5000    137.5153      0.0000    479.3608      5.9690
  1279.7500    135.2766      0.0000    474.0149      5.9440
  1280.0000    134.2512      0.0000    466.5953      5.9370
  1280.2500    134.7086      0.0000    458.4042      5.9310
  1280.5000    135.2504      0.0000    451.3568      5.9095
  1280.7500    135.0134      0.0000    446.7185      5.8724
  1281.0000    135.1441      0.0000    444.4953      5.8262
  1281.2500    137.2379      0.0000    443.9084      5.7705
  1281.5000    140.8717      0.0000    444.1653      5.7003
  1281.7500    143.6298      0.0000    444.7871      5.6171
  1282.0000    143.4408      0.0000    445.5595      5.5286
  1282.2500    140.3072      0.0000    446.4523      5.4407
  1282.5000    135.9337      0.0000    447.6210      5.3527
  1282.7500    132.3037      0.0000    449.3140      5.2629
  1283.0000    130.7189      0.0000    451.5121      5.1738
  1283.2500    131.5638      0.0000    453.5605      5.0910
  1283.5000    134.3730      0.0000    454.5123      5.0176
  1283.7500    138.1374      0.0000    454.2576      4.9562
  1284.0000    141.7957      0.0000    454.1445      4.9130
  1284.2500    144.5024      0.0000    455.9320      4.8937
  1284.5000    145.6340      0.0000    460.0008      4.8940
  1284.7500    144.9705      0.0000    465.0953      4.9005
  1285.0000    142.9673      0.0000    470.3504      4.9029
  1285.2500    140.5934      0.0000    477.6779      4.9010
  1285.5000    138.6597      0.0000    491.3121      4.8983
  1285.7500    137.3018      0.0000    513.2709      4.8927
  1286.0000    136.1666      0.0000    538.2510      4.8784
  1286.2500    135.0534      0.0000    554.7543      4.8541
  1286.5000    134.2414      0.0000    554.0714      4.8239
  1286.7500    134.1131      0.0000    538.0060      4.7911
  1287.0000    134.5819      0.0000    516.3001      4.7553
  1287.2500    134.9851      0.0000    497.8514      4.7186
  1287.5000    134.4152      0.0000    486.1345      4.6910
  1287.7500    132.2063      0.0000    481.0247      4.6840
  1288.0000    128.5632      0.0000    481.8616      4.7002
  1288.2500    124.8456      0.0000    488.5891      4.7319
  1288.5000    122.6726      0.0000    501.3983      4.7686
  1288.7500    122.3970      0.0000    519.7596      4.8004
  1289.0000    122.8165      0.0000    541.9507      4.8146
  1289.2500    122.5461      0.0000    565.9825      4.7965
  1289.5000    121.3022      0.0000    590.5688      4.7394
  1289.7500    119.9333      0.0000    614.6945      4.6543
  1290.0000    119.6670      0.0000    636.9475      4.5646
  1290.2500    121.2624      0.0000    655.9077      4.4885
  1290.5000    124.4445      0.0000    670.8397      4.4278
  1290.7500    128.1168      0.0000    681.9877      4.3746
  1291.0000    131.1558      0.0000    690.1918      4.3245
  1291.2500    132.9263      0.0000    695.1821      4.2795
  1291.5000    133.3765      0.0000    694.0917      4.2424
  1291.7500    132.9734      0.0000    683.1438      4.2126
  1292.0000    132.0396      0.0000    661.7264      4.1900
  1292.2500    129.8942      0.0000    634.1672      4.1798
  1292.5000    125.5105      0.0000    606.5988      4.1911
  1292.7500    119.4470      0.0000    582.3127      4.2309
  1293.0000    114.2339      0.0000    561.1899      4.2958
  1293.2500    112.2915      0.0000    543.5378      4.3706
  1293.5000    113.9967      0.0000    532.3466      4.4363
  1293.7500    118.1098      0.0000    529.7510      4.4857
  1294.0000    123.5004      0.0000    532.0271      4.5293
  1294.2500    129.7613      0.0000    530.6272      4.5837
  1294.5000    136.3106      0.0000    519.1967      4.6574
  1294.7500    141.7728      0.0000    498.8722      4.7499
  1295.0000    144.7654      0.0000    476.5607      4.8561
  1295.2500    145.0076      0.0000    458.9248      4.9678
  1295.5000    143.3284      0.0000    448.3383      5.0733
  1295.7500    140.9431      0.0000    443.3776      5.1612
  1296.0000    139.0452      0.0000    441.4972      5.2244
  1296.2500    138.4587      0.0000    440.8460      5.2591
  1296.5000    139.0002      0.0000    440.5145      5.2618
  1296.7500    139.4957      0.0000    440.1353      5.2317
  1297.0000    138.8825      0.0000    439.5834      5.1751
  1297.2500    136.8987      0.0000    438.8614      5.1042
  1297.5000    133.4648      0.0000    438.0506      5.0323
  1297.7500    128.3938      0.0000    437.2496      4.9683
  1298.0000    122.5362      0.0000    436.5227      4.9174
  1298.2500    118.4164      0.0000    435.8973      4.8815
  1298.5000    118.6889      0.0000    435.4313      4.8585
  1298.7500    123.9575      0.0000    435.3363      4.8440
  1299.0000    132.2434      0.0000    436.1183      4.8337
  1299.2500    140.1861      0.0000    438.5830      4.8257
  1299.5000    144.8739      0.0000    443.4555      4.8186
  1299.7500    145.4349      0.0000    450.6485      4.8094
  1300.0000    143.4437      0.0000    458.9493      4.7952
  1300.2500    141.5120      0.0000    466.9290      4.7745
  1300.5000    141.1170      0.0000    474.6318      4.7488
