~Version Information
VERS.                      2.0: CWLS Log ASCII Standard - VERSION 2.0
WRAP.                       NO: One line per depth step
~Well Information Block
STRT.FT                -6.2500: 
STOP.FT              1327.5000: 
STEP.FT                 0.2500: 
NULL.                -999.2500: 
COMP.          Pioneer Natural Resources: COMPANY
WELL.            Avant 14-3 Tr: WELL
FLD.           Purgatorie River: FIELD
LOC.           170' FSL & 1174' FWL--: LOCATION
STAT.                       CO: State
CNTY.               Las Animas: COUNTY
CTRY. USA : Country
SECT. 3 : Section
TOWN. 33S : Township
RANG. 67W : Range
SRVC.          Patterson Wireline: SERVICE COMPANY
DATE.          Tue Aug 23 16:44:25 2005: LOG DATE
API.           05 071 08463 00: UNIQUE WELL ID
~Curve Information Block
DEPT.FT            0 000 00 00: Depth
CCL.                          : Casing Collar Locator
TT3.usec                      : CBL 3' Travel Time
AMP3.mV                       : CBL 3' Amplitude
GR.GAPI                       : Gamma Ray
~Parameter Information Block
~A  Depth       CCL         TT3         AMP3         GR     
    -6.2500   -999.2500   -999.2500   -999.2500     81.8842
    -6.0000   -999.2500   -999.2500   -999.2500     78.7423
    -5.7500   -999.2500   -999.2500   -999.2500     74.2112
    -5.5000   -999.2500   -999.2500   -999.2500     70.7637
    -5.2500   -999.2500   -999.2500   -999.2500     69.8005
    -5.0000   -999.2500   -999.2500   -999.2500     71.6659
    -4.7500   -999.2500   -999.2500   -999.2500     75.8734
    -4.5000   -999.2500   -999.2500   -999.2500     81.2081
    -4.2500   -999.2500   -999.2500   -999.2500     86.0732
    -4.0000   -999.2500   -999.2500   -999.2500     89.1362
    -3.7500   -999.2500   -999.2500   -999.2500     89.8166
    -3.5000   -999.2500   -999.2500   -999.2500     88.4241
    -3.2500   -999.2500   -999.2500   -999.2500     86.0427
    -3.0000   -999.2500   -999.2500   -999.2500     84.0092
    -2.7500   -999.2500   -999.2500   -999.2500     83.0891
    -2.5000   -999.2500   -999.2500   -999.2500     83.0623
    -2.2500   -999.2500   -999.2500   -999.2500     83.0939
    -2.0000   -999.2500   -999.2500   -999.2500     82.4889
    -1.7500   -999.2500   -999.2500   -999.2500     81.1744
    -1.5000   -999.2500   1149.0000      1.9361     79.7091
    -1.2500   -999.2500   1149.0000      1.9297     78.9230
    -1.0000   -999.2500   1149.0000      1.9189     79.3613
    -0.7500   -999.2500   1149.0000      1.9077     80.9014
    -0.5000   -999.2500   1149.0000      1.8991     82.9142
    -0.2500   -999.2500   1149.0000      1.8945     84.6937
     0.0000   -999.2500   1149.0000      1.8959     85.5098
     0.2500   -999.2500   1149.0000      1.9200     81.1440
     0.5000   -999.2500   1149.0000      1.9321     75.9314
     0.7500   -999.2500   1149.0000      1.9358     69.9247
     1.0000   -999.2500   1149.0000      1.9333     63.7550
     1.2500   -999.2500   1149.0000      1.9311     57.3874
     1.5000   -999.2500   1149.0000      1.9322     50.7719
     1.7500   -999.2500   1149.0000      1.9340     44.3671
     2.0000   -999.2500   1149.0000      1.9337     39.0626
     2.2500   -999.2500   1149.0000      1.9321     35.7620
     2.5000   -999.2500   1149.0000      1.9325     35.0532
     2.7500   -999.2500   1149.0000      1.9371     37.3840
     3.0000   -999.2500   1149.0000      1.9448     43.3517
     3.2500   -999.2500   1149.0000      1.9513     53.0796
     3.5000   -999.2500   1149.0000      1.9521     65.2005
     3.7500      0.0000   1149.0000      1.9458     77.1241
     4.0000      0.0000   1149.0000      1.9334     86.5339
     4.2500      0.0000   1149.0000      1.9177     92.4556
     4.5000      0.0000   1149.0000      1.9024     95.2951
     4.7500      0.0000   1149.0000      1.8920     96.2878
     5.0000      0.0000   1149.0000      1.8898     96.4850
     5.2500      0.0000   1149.0000      1.8955     95.7265
     5.5000      0.0000   1149.0000      1.9057     92.8192
     5.7500      0.0000   1149.0000      1.9157     87.0467
     6.0000      0.0000   1148.9407      1.9262     79.3721
     6.2500      0.0000   1148.5536      1.9558     72.0138
     6.5000      0.0000   1146.5878      2.0923     67.0954
     6.7500      0.0000   1138.8129      2.6178     65.5685
     7.0000      0.0000   1114.8646      4.2042     66.7545
     7.2500      0.0000   1057.4155      7.9579     68.7173
     7.5000      0.0000    950.0863     14.9121     69.7238
     7.7500      0.0000    793.9223     24.9817     69.6583
     8.0000      0.0000    616.9633     36.3633     69.6884
     8.2500      0.0000    460.7927     46.3990     70.5677
     8.5000      0.0000    353.4489     53.3043     71.8312
     8.7500      0.0000    295.9763     57.0225     72.5880
     9.0000      0.0000    271.9965     58.6092     72.5230
     9.2500      0.0000    264.1856     59.1758     72.0412
     9.5000      0.0000    262.1846     59.3832     71.6528
     9.7500      0.0000    261.7680     59.4951     71.2736
    10.0000      0.0000    261.6879     59.5826     70.3084
    10.2500      0.0000    261.6765     59.6578     68.5269
    10.5000      0.0000    261.6722     59.7290     66.6212
    10.7500      0.0000    261.6707     59.8089     65.5775
    11.0000      0.0000    261.6690     59.9038     65.5249
    11.2500      0.0000    261.6671     60.0028     65.5535
    11.5000      0.0000    261.6663     60.0871     64.8592
    11.7500      0.0000    261.6662     60.1503     63.7829
    12.0000      0.0000    261.6638     60.2040     63.5134
    12.2500      0.0000    261.6559     60.2643     65.0192
    12.5000      0.0000    261.6402     60.3385     68.5907
    12.7500      0.0000    261.6169     60.4231     74.1748
    13.0000      0.0000    261.5917     60.5072     81.4096
    13.2500      0.0000    261.5823     60.5742     89.0935
    13.5000      0.0000    261.6482     60.5932     95.3712
    13.7500      0.0000    261.9713     60.4912     99.0905
    14.0000      0.0000    262.9683     60.1207    100.7183
    14.2500      0.0000    265.2822     59.2734    101.6314
    14.5000      0.0000    269.4047     57.8103    102.7115
    14.7500      0.0000    275.0662     55.8126    103.6675
    15.0000      0.0000    281.1653     53.5000    103.4254
    15.2500      0.0000    286.6479     50.9420    101.0625
    15.5000      0.0000    291.3401     48.0430     96.4763
    15.7500      0.0000    295.5970     44.9366     90.4836
    16.0000      0.0000    299.4156     42.1482     84.5965
    16.2500      0.0000    302.3563     40.1833     80.3380
    16.5000     -2.0000    304.1443     39.1150     78.1195
    16.7500      2.0000    304.9157     38.6703     76.8242
    17.0000      0.0000    304.9037     38.5492     74.8937
    17.2500      0.0000    304.0615     38.6221     71.9265
    17.5000      0.0000    302.0055     38.9947     69.0953
    17.7500      0.0000    298.3179     39.9976     68.1053
    18.0000      0.0000    292.9752     42.0028     69.8490
    18.2500      0.0000    286.4919     45.1016     73.8889
    18.5000      0.0000    279.6736     48.9226     78.9026
    18.7500      0.0000    273.3600     52.7594     83.7766
    19.0000      0.0000    268.2952     55.9027     88.6628
    19.2500      0.0000    264.9089     57.9535     94.7751
    19.5000      0.0000    263.1145     58.9197    102.5894
    19.7500      0.0000    262.4783     59.0370    110.3612
    20.0000      0.0000    262.6712     58.5069    115.2292
    20.2500      0.0000    263.8190     57.3901    115.9925
    20.5000      0.0000    266.5070     55.6809    114.0125
    20.7500      0.0000    271.3279     53.4236    111.1648
    21.0000      0.0000    278.1408     50.7476    107.8696
    21.2500      0.0000    285.7639     47.8247    103.5430
    21.5000      0.0000    292.7264     44.7996     98.1879
    21.7500      0.0000    299.0945     41.7586     92.9976
    22.0000      0.0000    308.6357     38.7459     89.6179
    22.2500      0.0000    330.9397     35.7976     89.0542
    22.5000      0.0000    381.1309     32.9582     91.0741
    22.7500      0.0000    472.8214     30.2779     94.3728
    23.0000      0.0000    605.4145     27.8131     97.2022
    23.2500      0.0000    758.0204     25.6373     98.1487
    23.5000      0.0000    900.0599     23.8385     96.8443
    23.7500      0.0000   1009.3879     22.4824     94.2132
    24.0000      0.0000   1080.5182     21.5661     91.9404
    24.2500      0.0000   1120.0519     21.0123     91.5126
    24.5000      0.0000   1138.6813     20.7084     93.4002
    24.7500      0.0000   1145.9709     20.5495     96.7146
    25.0000      0.0000   1148.2852     20.4569     99.5614
    25.2500      0.0000   1148.8704     20.3797    100.1638
    25.5000      0.0000   1148.9801     20.2933     98.1009
    25.7500      0.0000   1149.0000     20.1924     94.5371
    26.0000      0.0000   1149.0000     20.0802     91.1915
    26.2500      0.0000   1149.0000     19.9600     89.0919
    26.5000      0.0000   1149.0000     19.8347     88.0587
    26.7500      0.0000   1149.0000     19.7087     86.9326
    27.0000      0.0000   1149.0000     19.5875     84.3931
