~Version Information
VERS.                      2.0: CWLS Log ASCII Standard - VERSION 2.0
WRAP.                       NO: One line per depth step
~Well Information Block
STRT.FT                -7.5000: 
STOP.FT               988.5000: 
STEP.FT                 0.2500: 
NULL.                -999.2500: 
COMP.          Pioneer Natural Resources: COMPANY
WELL.          Stags Leap 13-30: WELL
FLD.           Purgatorie River: FIELD
LOC.           1813' FSL & 117' FWL--: LOCATION
PROV.                       CO: PROVINCE
CNTY.               Las Animas: COUNTRY
SRVC.          Patterson Wireline: SERVICE COMPANY
DATE.          Tue Dec 13 11:29:26 2005: LOG DATE
UWI.           05 071 08595 00: UNIQUE WELL ID
~Curve Information Block
DEPT.FT            0 000 00 00: Depth
CCL.                          : Casing Collar Locator
TT3.usec                      : CBL 3' Travel Time
AMP3.mV                       : CBL 3' Amplitude
GR.GAPI                       : Gamma Ray
~Parameter Information Block
~A  Depth       CCL         TT3         AMP3         GR     
# ...
   193.5000      0.0000    669.5669      3.9802     65.6314
   193.7500      0.0000    636.6307      3.6715     68.0484
   194.0000      0.0000    610.3633      3.2994     70.6222
   194.2500      0.0000    596.9876      2.8382     72.6311
   194.5000      0.0000    600.2099      2.3293     73.5392
   194.7500      0.0000    618.0756      1.8492     73.1015
   195.0000      0.0000    642.5762      1.4605     71.4777
   195.2500      0.0000    664.4693      1.1942     69.1427
   195.5000      0.0000    679.1451      1.0515     66.9738
   195.7500      0.0000    687.1754      1.0028     66.4396
   196.0000      0.0000    690.4408      0.9940     69.0641
   196.2500      0.0000    689.3156      0.9723     75.0455
   196.5000      0.0000    683.1103      0.9106     82.4732
   196.7500      0.0000    672.4597      0.8114     88.3905
   197.0000      0.0000    660.8195      0.6988     90.8462
   197.2500      0.0000    652.8923      0.6099     89.9621
   197.5000      0.0000    651.1842      0.5803     87.4436
   197.7500      0.0000    654.3743      0.6206     85.4331
   198.0000      0.0000    658.7935      0.7039     85.2978
   198.2500      0.0000    660.8516      0.7870     86.6808
   198.5000      0.0000    658.2082      0.8467     87.6602
   198.7500      0.0000    649.8946      0.8973     86.4570
   199.0000      0.0000    636.8718      0.9748     83.2984
   199.2500      0.0000    623.2608      1.1158     80.2743
   199.5000      0.0000    616.4935      1.3473     79.2213
   199.7500      0.0000    624.8008      1.6642     80.2074
   200.0000      0.0000    653.3406      1.9903     82.2164
   200.2500      0.0000    701.5848      2.1938     84.4109
   200.5000      0.0000    763.0990      2.2070     86.1539
   200.7500      0.0000    827.4667      2.1189     86.6358
   201.0000      0.0000    883.4654      2.1030     85.5808
   201.2500      0.0000    921.9871      2.2538     84.1546
   201.5000     -2.0000    938.6809      2.5171     84.3417
   201.7500      0.0000    935.9767      2.7676     87.1662
   202.0000      0.0000    920.0370      2.9320     91.6965
   202.2500      0.0000    892.5139      3.0331     95.8363
   202.5000      0.0000    848.8044      3.1182     98.0771
   202.7500      0.0000    788.9907      3.1542     98.6292
   203.0000      0.0000    726.5428      3.0289     98.9227
   203.2500      0.0000    680.6497      2.6834    100.0925
   203.5000      0.0000    661.8334      2.2174    102.0678
   203.7500      0.0000    667.3126      1.8252    103.9679
   204.0000      0.0000    686.7378      1.6476    104.9812
   204.2500      0.0000    709.4141      1.7024    104.8275
   204.5000      0.0000    728.2077      1.9215    103.7939
   204.7500      0.0000    740.1059      2.2175    102.5144
   205.0000      0.0000    744.7153      2.5240    101.4895
   205.2500      0.0000    742.2679      2.8045    100.7429
   205.5000      0.0000    732.7203      3.0468    100.1278
   205.7500      0.0000    716.8652      3.2586     99.7415
   206.0000      0.0000    698.5997      3.4638     99.7613
   206.2500      0.0000    685.2355      3.6910    100.0803
   206.5000      0.0000    683.7334      3.9570    100.3105
   206.7500      0.0000    695.5414      4.2583     99.9975
   207.0000      0.0000    715.2449      4.5737     98.6883
   207.2500      0.0000    734.5446      4.8755     95.9819
   207.5000      0.0000    747.6589      5.1417     91.8836
   207.7500      0.0000    753.5358      5.3571     87.2355
   208.0000      0.0000    755.0224      5.5056     83.4548
   208.2500      0.0000    757.2805      5.5751     81.6330
   208.5000      0.0000    765.1407      5.5807     81.9834
   208.7500      0.0000    779.1784      5.5748     84.0323
   209.0000      0.0000    794.8246      5.6242     86.8988
   209.2500      0.0000    807.3139      5.7770     89.2975
   209.5000      0.0000    816.3068      6.0424     89.7854
   209.7500      0.0000    824.0072      6.3954     87.6383
   210.0000      0.0000    830.8655      6.7979     83.7920
   210.2500      0.0000    835.1740      7.2215     80.5850
   210.5000      0.0000    835.4807      7.6564     80.0090
   210.7500      0.0000    832.0740      8.1017     82.1404
   211.0000      0.0000    827.0021      8.5475     85.4951
   211.2500      0.0000    823.2863      8.9640     88.6867
   211.5000      0.0000    823.2709      9.3105     91.3122
   211.7500      0.0000    826.8953      9.5519     93.4259
   212.0000      0.0000    831.7908      9.6655     94.8330
   212.2500      0.0000    835.1210      9.6428     95.2514
   212.5000      0.0000    835.2593      9.5013     94.6752
   212.7500      0.0000    832.0200      9.2941     92.9748
   213.0000      0.0000    825.9521      9.0961     89.4244
   213.2500      0.0000    817.5310      8.9676     83.4611
   213.5000      0.0000    806.8780      8.9252     75.8934
   213.7500      0.0000    794.4322      8.9462     68.4753
   214.0000      0.0000    781.6616      8.9975     62.1521
   214.2500      0.0000    770.1046      9.0550     56.5008
   214.5000      0.0000    759.4976      9.1042     51.0780
   214.7500      0.0000    748.1010      9.1333     46.5756
   215.0000      0.0000    735.4163      9.1315     44.3321
   215.2500      0.0000    723.4124      9.0911     45.1333
   215.5000      0.0000    714.5205      9.0149     48.6466
   215.7500      0.0000    709.3932      8.9232     53.6550
   216.0000      0.0000    707.0074      8.8465     58.6151
   216.2500      0.0000    706.0590      8.8041     62.1017
   216.5000      0.0000    705.7690      8.7900     62.9986
   216.7500      0.0000    705.8445      8.7838     60.9285
   217.0000      0.0000    706.2715      8.7723     56.9820
   217.2500      0.0000    707.2524      8.7560     53.4986
   217.5000      0.0000    709.1369      8.7406     52.3082
   217.7500      0.0000    712.1465      8.7342     53.1967
   218.0000      0.0000    716.1408      8.7500     54.4786
   218.2500      0.0000    720.9846      8.8022     55.0291
   218.5000      0.0000    727.1259      8.8940     55.5819
   218.7500      0.0000    735.0547      9.0102     58.0255
   219.0000      0.0000    743.8153      9.1266     63.3618
   219.2500      0.0000    750.8987      9.2278     70.2800
   219.5000      0.0000    754.3198      9.3158     75.8219
   219.7500      0.0000    754.2108      9.3984     77.4871
   220.0000      0.0000    751.8776      9.4751     74.7739
   220.2500      0.0000    747.5262      9.5403     69.2765
   220.5000      0.0000    738.9857      9.5925     63.9141
   220.7500      0.0000    721.9440      9.6284     61.7084
   221.0000      0.0000    691.5446      9.6311     64.1559
   221.2500      0.0000    645.9324      9.5800     70.2623
   221.5000      0.0000    591.6942      9.4771     77.3539
   221.7500      0.0000    546.5251      9.3505     82.8497
   222.0000      0.0000    531.8049      9.2267     85.2955
   222.2500      0.0000    556.9188      9.1095     84.4721
   222.5000      0.0000    610.3636      8.9937     81.3725
   222.7500      0.0000    668.6171      8.8962     77.8883
   223.0000      0.0000    713.4861      8.8594     75.7299
   223.2500      0.0000    740.0888      8.9164     75.5741
   223.5000      0.0000    751.5788      9.0593     77.3904
   223.7500      0.0000    750.9368      9.2485     80.8894
   224.0000      0.0000    737.8641      9.4452     85.1479
   224.2500      0.0000    709.9709      9.6255     88.5998
   224.5000      0.0000    665.8785      9.7687     90.2062
   224.7500      0.0000    608.8307      9.8450     90.3830
   225.0000      0.0000    547.7384      9.8217     90.3209
   225.2500      0.0000    493.2913      9.6778     90.6379
   225.5000      0.0000    452.2123      9.4153     91.0157
   225.7500      0.0000    424.7984      9.0668     90.8430
   226.0000      0.0000    407.2318      8.6901     89.6579
   226.2500      0.0000    395.6359      8.3422     87.0809
   226.5000      0.0000    388.1850      8.0540     83.0293
   226.7500      0.0000    384.7251      7.8319     78.2936
