~Version Information
VERS.                      2.0: CWLS Log ASCII Standard - VERSION 2.0
WRAP.                       NO: One line per depth step
~Well Information Block
STRT.FT               460.0000: 
STOP.FT              1498.0000: 
STEP.FT                 0.1000: 
NULL.                -999.2500: 
COMP.          Pioneer Natural Resources: COMPANY
WELL.           Amore 32-09 Tr: WELL
FLD.           Purgatoire River: FIELD
LOC.           1941' FNL & 2297' FEL: LOCATION
PROV.                 Colorado: PROVINCE
CNTY.               Las Animas: COUNTRY
SRVC.                Patterson: SERVICE COMPANY
DATE.          Mon Nov 14 13:24:57 2005: LOG DATE
UWI.           05 071 08584 00: UNIQUE WELL ID
~Curve Information Block
DEPT.FT            0 000 00 00: Depth
DCAL.in                       : CDL Caliper
RHOB.g/cc                     : CDL Bulk Density
RHOC.g/cc                     : CDL Density Correction
DPOR.pu                       : CDL Density Porosity
GR.GAPI                       : Gamma Ray
NPOR.pu                       : Neutron Porosity
~Parameter Information Block
~A  Depth       DCAL        RHOB        RHOC        DPOR         GR         NPOR    
# ...
  1420.0000      7.9973      2.2831      0.0181     22.2372    139.3850     26.5735
  1420.1000      7.9973      2.3449      0.0962     18.4927    151.7282     27.1726
  1420.2000      7.9973      2.3989      0.1541     15.2161    157.2853     27.7492
  1420.3000      7.9894      2.4371      0.2074     12.9047    153.1626     27.5121
  1420.4000      7.9894      2.4637      0.1552     11.2902    146.4324     27.1471
  1420.5000      7.9906      2.4925      0.2021      9.5451    143.5838     27.9312
  1420.6000      7.9906      2.5257      0.1882      7.5353    143.5837     29.7611
  1420.7000      7.9906      2.5473      0.1828      6.2223    145.5993     31.2235
  1420.8000      8.0239      2.5401      0.1340      6.6609    150.5517     31.3752
  1420.9000      8.0239      2.5134      0.0745      8.2805    154.6859     31.3248
  1421.0000      8.0735      2.4952      0.0889      9.3820    160.0426     31.7946
  1421.1000      8.0735      2.4925      0.1178      9.5443    171.8470     31.2866
  1421.2000      8.0735      2.4873      0.0978      9.8586    178.6048     29.3870
  1421.3000      8.0989      2.4708      0.0361     10.8580    172.2757     28.0709
  1421.4000      8.0989      2.4522      0.0459     11.9862    166.5976     28.5183
  1421.5000      8.1082      2.4373      0.0650     12.8895    169.8660     29.8963
  1421.6000      8.1082      2.4260      0.0458     13.5751    171.1924     31.1786
  1421.7000      8.1082      2.4240      0.0525     13.7000    162.2894     31.7847
  1421.8000      8.1146      2.4324      0.0748     13.1860    154.6032     31.4375
  1421.9000      8.1146      2.4389      0.1018     12.7933    159.5402     30.4888
  1422.0000      8.1102      2.4352      0.1098     13.0188    166.2287     29.6664
  1422.1000      8.1102      2.4255      0.0997     13.6037    160.1767     29.7018
  1422.2000      8.1102      2.4167      0.0976     14.1424    144.9446     30.1106
  1422.3000      8.0967      2.4137      0.0616     14.3229    138.2633     29.6632
  1422.4000      8.0967      2.4177      0.0695     14.0799    145.6708     28.9166
  1422.5000      8.0829      2.4228      0.0725     13.7691    152.0629     28.8912
  1422.6000      8.0829      2.4233      0.0979     13.7365    149.9870     29.4593
  1422.7000      8.0829      2.4212      0.0438     13.8684    144.9177     30.2154
  1422.8000      8.0779      2.4193      0.1211     13.9835    139.3175     30.6615
  1422.9000      8.0779      2.4160      0.0929     14.1842    137.0179     30.8083
  1423.0000      8.0850      2.4112      0.1040     14.4726    143.0836     31.0357
  1423.1000      8.0850      2.4044      0.0934     14.8871    151.5755     31.1646
  1423.2000      8.0850      2.3968      0.0713     15.3445    154.4485     31.0301
  1423.3000      8.0758      2.3963      0.0616     15.3757    150.8084     30.6803
  1423.4000      8.0758      2.4089      0.0891     14.6151    142.9811     29.8261
  1423.5000      8.0466      2.4308      0.1134     13.2839    134.7903     28.9746
  1423.6000      8.0466      2.4552      0.1251     11.8035    132.2331     29.1908
  1423.7000      8.0466      2.4735      0.1444     10.6962    134.5220     30.0471
  1423.8000      8.0406      2.4791      0.1462     10.3604    133.4803     30.0420
  1423.9000      8.0406      2.4812      0.0932     10.2291    128.8087     29.1106
  1424.0000      8.0735      2.4911      0.1026      9.6276    126.9022     28.9163
  1424.1000      8.0735      2.5029      0.0842      8.9128    125.7211     29.9274
  1424.2000      8.0735      2.5071      0.1090      8.6608    121.4502     30.6980
  1424.3000      8.1027      2.5054      0.1040      8.7634    119.4571     30.7523
  1424.4000      8.1027      2.5118      0.0745      8.3782    125.3416     30.9671
  1424.5000      8.1089      2.5302      0.1424      7.2635    136.1668     31.5056
  1424.6000      8.1089      2.5458      0.1178      6.3129    144.3889     32.0480
  1424.7000      8.1089      2.5520      0.0951      5.9405    147.0806     32.0771
  1424.8000      8.0992      2.5524      0.1181      5.9123    147.8885     31.0051
  1424.9000      8.0992      2.5427      0.0889      6.5032    148.7848     29.5471
  1425.0000      8.0839      2.5131      0.1065      8.3000    145.3834     29.1184
  1425.1000      8.0839      2.4726      0.0485     10.7522    137.3006     29.0501
  1425.2000      8.0839      2.4454      0.0411     12.4030    129.2776     27.9443
  1425.3000      8.0737      2.4416      0.0291     12.6288    127.4839     26.4466
  1425.4000      8.0737      2.4582      0.0436     11.6258    133.9592     25.8897
  1425.5000      8.0752      2.4858      0.0502      9.9525    139.6167     26.4160
  1425.6000      8.0752      2.5129      0.0543      8.3097    137.2078     27.4468
  1425.7000      8.0752      2.5307      0.1008      7.2328    134.0060     28.4451
  1425.8000      8.0882      2.5314      0.1057      7.1860    138.6082     29.2478
  1425.9000      8.0882      2.5135      0.1264      8.2732    145.2722     29.7875
  1426.0000      8.1106      2.4892      0.1288      9.7426    145.6810     29.8604
  1426.1000      8.1106      2.4815      0.1014     10.2095    138.6899     29.7023
  1426.2000      8.1106      2.4987      0.1040      9.1720    131.9184     29.7311
  1426.3000      8.1255      2.5237      0.1345      7.6516    131.1065     29.9056
  1426.4000      8.1255      2.5409      0.1413      6.6135    129.7773     29.9143
  1426.5000      8.1178      2.5436      0.1583      6.4462    128.9184     30.0948
  1426.6000      8.1178      2.5315      0.1476      7.1821    135.1295     30.4242
  1426.7000      8.1178      2.5206      0.0793      7.8407    140.8966     29.9115
  1426.8000      8.0906      2.5195      0.1210      7.9088    139.1673     28.5229
  1426.9000      8.0906      2.5120      0.0862      8.3611    134.7646     27.9407
  1427.0000      8.0659      2.4925      0.0777      9.5457    132.3725     28.5701
  1427.1000      8.0659      2.4730      0.0581     10.7274    135.3613     29.2099
  1427.2000      8.0659      2.4626      0.0602     11.3565    145.4469     29.4701
  1427.3000      8.0527      2.4630      0.0636     11.3322    155.9308     29.2279
  1427.4000      8.0527      2.4732      0.0720     10.7122    160.2122     28.2092
  1427.5000      8.0455      2.4843      0.1041     10.0416    156.9581     27.2642
  1427.6000      8.0455      2.4850      0.0886      9.9996    147.6534     27.2797
  1427.7000      8.0455      2.4766      0.0917     10.5069    134.9194     28.0248
  1427.8000      8.0424      2.4744      0.0437     10.6405    124.5134     28.9738
  1427.9000      8.0424      2.4983      0.0642      9.1938    123.6091     29.4673
  1428.0000      8.0480      2.5456      0.1176      6.3267    130.7418     29.0457
  1428.1000      8.0480      2.5913      0.1671      3.5572    136.5378     28.3949
  1428.2000      8.0480      2.6254      0.1127      1.4882    136.2757     28.5096
  1428.3000      8.0654      2.6526      0.1464     -0.1572    132.4165     29.1780
  1428.4000      8.0654      2.6648      0.1498     -0.8989    127.4834     29.4514
  1428.5000      8.0829      2.6560      0.1228     -0.3642    120.2077     28.6853
  1428.6000      8.0829      2.6384      0.1086      0.7008    112.0047     27.1401
  1428.7000      8.0829      2.6234      0.1066      1.6111    108.6094     26.4944
  1428.8000      8.0838      2.6041      0.1152      2.7802    111.7150     27.6797
  1428.9000      8.0838      2.5777      0.0348      4.3829    117.2170     29.0142
  1429.0000      8.0707      2.5633      0.0369      5.2536    119.3304     28.9226
  1429.1000      8.0707      2.5680      0.0283      4.9707    114.8320     27.5950
  1429.2000      8.0707      2.5744      0.0536      4.5820    107.2746     26.1220
  1429.3000      8.0613      2.5765      0.0554      4.4571    105.4961     25.4686
  1429.4000      8.0613      2.5867      0.0613      3.8373    112.6970     25.3131
  1429.5000      8.0598      2.6053      0.0689      2.7081    120.2440     24.7212
