~Version Information
VERS.                      2.0: CWLS Log ASCII Standard - VERSION 2.0
WRAP.                       NO: One line per depth step
~Well Information Block
STRT.FT               530.0000: 
STOP.FT              1298.0000: 
STEP.FT                 0.1000: 
NULL.                -999.2500: 
COMP.          Pioneer Natural Resources: COMPANY
WELL.            Keiko 14-6 Tr: WELL
FLD.           Purgatoire River: FIELD
LOC.           462' FSL & 1202' FWL: LOCATION
PROV.                 Colorado: PROVINCE
CNTY.               Las Animas: COUNTRY
SRVC.                Patterson: SERVICE COMPANY
DATE.          Fri Dec 30 07:26:03 2005: LOG DATE
UWI.           05 071 08629 00: UNIQUE WELL ID
~Curve Information Block
DEPT.FT            0 000 00 00: Depth
DCAL.in                       : CDL Caliper
RHOB.g/cc                     : CDL Bulk Density
RHOC.g/cc                     : CDL Density Correction
DPOR.pu                       : CDL Density Porosity
GR.GAPI                       : Gamma Ray
~Parameter Information Block
~A  Depth       DCAL        RHOB        RHOC        DPOR         GR     
# ...
   933.2000      7.9970      2.5056     -0.0156      8.7503    119.4562
   933.3000      7.9958      2.5200      0.0240      7.8765    123.8289
   933.4000      7.9958      2.5387      0.0272      6.7476    123.7439
   933.5000      7.9958      2.5505      0.0761      6.0292    120.5951
   933.6000      7.9958      2.5642      0.0561      5.2011    115.6827
   933.7000      7.9958      2.6005      0.0864      3.0001    112.4911
   933.8000      7.9944      2.6496      0.0740      0.0256    114.6276
   933.9000      7.9944      2.6816      0.0944     -1.9129    119.5376
   934.0000      7.9908      2.6956      0.0612     -2.7619    124.7539
   934.1000      7.9908      2.7215      0.0346     -4.3359    129.2322
   934.2000      7.9908      2.7684      0.0991     -7.1776    130.6822
   934.3000      7.9928      2.8046      0.1259     -9.3722    129.8956
   934.4000      7.9928      2.8080      0.1012     -9.5755    130.4864
   934.5000      7.9922      2.7965      0.0733     -8.8794    134.2151
   934.6000      7.9922      2.7875      0.0806     -8.3323    137.1127
   934.7000      7.9922      2.7677      0.0671     -7.1332    135.2347
   934.8000      7.9916      2.7247      0.0174     -4.5291    131.0343
   934.9000      7.9916      2.6754     -0.0243     -1.5413    127.2571
   935.0000      7.9921      2.6401      0.0431      0.5992    124.1397
   935.1000      7.9921      2.6216      0.0290      1.7232    122.3193
   935.2000      7.9921      2.6167      0.0999      2.0206    125.1360
   935.3000      7.9920      2.6117      0.1080      2.3184    133.2437
   935.4000      7.9920      2.5932      0.0858      3.4448    140.0080
   935.5000      7.9911      2.5689      0.0687      4.9170    139.3765
   935.6000      7.9911      2.5612      0.0507      5.3833    134.5750
   935.7000      7.9911      2.5828      0.0619      4.0744    133.8947
   935.8000      7.9907      2.6248      0.0942      1.5265    138.5057
   935.9000      7.9907      2.6692      0.1060     -1.1644    140.6336
   936.0000      7.9929      2.7066      0.1128     -3.4277    135.3200
   936.1000      7.9929      2.7339      0.1278     -5.0842    128.3936
   936.2000      7.9929      2.7400      0.1723     -5.4532    125.8260
   936.3000      7.9903      2.7183      0.0774     -4.1396    126.3565
   936.4000      7.9903      2.6857      0.0622     -2.1661    130.3187
   936.5000      7.9925      2.6579      0.0383     -0.4778    140.4314
   936.6000      7.9925      2.6309      0.0295      1.1604    150.4833
   936.7000      7.9925      2.5965     -0.0104      3.2416    150.2823
   936.8000      7.9942      2.5575     -0.0315      5.6053    141.0479
   936.9000      7.9942      2.5277     -0.0352      7.4127    134.6948
   937.0000      7.9920      2.5159      0.0206      8.1272    135.4052
   937.1000      7.9920      2.5125     -0.0005      8.3308    136.2927
   937.2000      7.9920      2.5061      0.0085      8.7187    137.4671
   937.3000      7.9932      2.5012     -0.0155      9.0156    144.6648
   937.4000      7.9932      2.5104     -0.0125      8.4580    156.2303
   937.5000      7.9943      2.5253      0.0241      7.5585    164.0440
   937.6000      7.9943      2.5230      0.0230      7.7000    162.5578
   937.7000      7.9943      2.5026     -0.0094      8.9353    153.3878
   937.8000      7.9947      2.4848     -0.0176     10.0115    144.6638
   937.9000      7.9947      2.4820      0.0282     10.1837    144.3428
   938.0000      7.9942      2.4941      0.0104      9.4494    151.3590
   938.1000      7.9942      2.5202      0.0299      7.8679    156.3935
   938.2000      7.9942      2.5465      0.0969      6.2741    153.8652
   938.3000      7.9922      2.5520      0.0565      5.9412    145.1033
   938.4000      7.9922      2.5341      0.0430      7.0239    135.1445
   938.5000      7.9932      2.5073      0.0411      8.6491    131.3557
   938.6000      7.9932      2.4886      0.0284      9.7813    136.6577
   938.7000      7.9932      2.4888      0.0244      9.7713    143.4904
   938.8000      7.9934      2.5025      0.0170      8.9380    142.5974
   938.9000      7.9934      2.5149      0.0195      8.1890    135.8712
   939.0000      7.9919      2.5259      0.0182      7.5239    129.1772
   939.1000      7.9919      2.5461      0.0513      6.2997    125.2544
   939.2000      7.9919      2.5722      0.0702      4.7144    125.5465
   939.3000      7.9911      2.5945      0.1244      3.3617    130.2836
   939.4000      7.9911      2.6041      0.1262      2.7809    138.0561
   939.5000      7.9917      2.5931      0.1010      3.4464    142.3536
   939.6000      7.9917      2.5700      0.0708      4.8481    137.6623
   939.7000      7.9917      2.5554      0.0395      5.7320    128.7771
   939.8000      7.9942      2.5561      0.0652      5.6926    123.8365
   939.9000      7.9942      2.5635      0.0284      5.2436    125.0663
   940.0000      7.9933      2.5703      0.0588      4.8327    129.6170
   940.1000      7.9933      2.5743      0.0650      4.5867    130.4265
   940.2000      7.9933      2.5781      0.0727      4.3575    125.4152
   940.3000      7.9942      2.5825      0.0880      4.0927    122.7641
   940.4000      7.9942      2.5843      0.1060      3.9835    126.8345
   940.5000      7.9915      2.5828      0.0822      4.0734    137.0145
   940.6000      7.9915      2.5822      0.0933      4.1087    146.1533
   940.7000      7.9915      2.5820      0.0909      4.1215    145.0322
   940.8000      7.9913      2.5768      0.0721      4.4392    138.9525
   940.9000      7.9913      2.5668      0.0542      5.0442    135.6640
   941.0000      7.9906      2.5590      0.0448      5.5145    135.1166
   941.1000      7.9906      2.5639      0.0073      5.2164    137.4742
   941.2000      7.9906      2.5788      0.0640      4.3152    138.4024
   941.3000      7.9896      2.5816      0.0736      4.1455    134.3776
   941.4000      7.9896      2.5571      0.0548      5.6329    131.4042
   941.5000      7.9871      2.5125      0.0299      8.3343    131.1321
   941.6000      7.9871      2.4725      0.0359     10.7591    129.2358
   941.7000      7.9871      2.4546      0.0287     11.8421    127.4053
   941.8000      7.9888      2.4479      0.0421     12.2505    125.4296
   941.9000      7.9888      2.4373     -0.0061     12.8938    119.9768
   942.0000      7.9888      2.4328     -0.0455     13.1635    115.5025
   942.1000      7.9888      2.4430      0.0146     12.5470    119.1819
   942.2000      7.9888      2.4585      0.0283     11.6059    129.8049
   942.3000      7.9910      2.4823      0.0239     10.1640    137.3538
   942.4000      7.9910      2.5213      0.0778      7.7978    133.3039
   942.5000      7.9903      2.5604      0.1362      5.4326    123.4722
   942.6000      7.9903      2.5813      0.1132      4.1631    118.1235
   942.7000      7.9903      2.5840      0.0590      4.0005    117.8014
   942.8000      7.9899      2.5767      0.0440      4.4420    119.5983
   942.9000      7.9899      2.5660      0.0022      5.0935    124.1947
   943.0000      7.9905      2.5574      0.0224      5.6097    129.5908
   943.1000      7.9905      2.5593     -0.0118      5.4993    128.2085
   943.2000      7.9905      2.5718      0.0435      4.7401    120.4873
   943.3000      7.9946      2.5831      0.0865      4.0526    114.0145
   943.4000      7.9946      2.5915      0.0611      3.5466    110.2527
   943.5000      7.9896      2.6014      0.0905      2.9445    106.7552
   943.6000      7.9896      2.6111      0.0548      2.3605    103.0430
   943.7000      7.9896      2.6169      0.0778      2.0038    101.2548
   943.8000      7.9876      2.6108      0.1003      2.3751    104.6193
   943.9000      7.9876      2.5905      0.0338      3.6078    110.3768
   944.0000      7.9885      2.5725      0.0222      4.6999    110.9489
   944.1000      7.9885      2.5763      0.0289      4.4680    107.8958
   944.2000      7.9885      2.5966      0.0778      3.2348    107.3335
   944.3000      7.9883      2.6110      0.0239      2.3664    107.7235
