~Version Information
VERS.                      2.0: CWLS Log ASCII Standard - VERSION 2.0
WRAP.                       NO: One line per depth step
~Well Information Block
STRT.FT                -6.5000: 
STOP.FT              1636.7500: 
STEP.FT                 0.2500: 
NULL.                -999.2500: 
COMP.          Pioneer Natural Resources: COMPANY
WELL.          Stock Canyon 34-33: WELL
FLD.           Purgatorie River: FIELD
LOC.           980' FSL & 2191' FEL--: LOCATION
PROV.                       CO: PROVINCE
CNTY.               Las Animas: COUNTRY
SRVC.          Patterson Wireline: SERVICE COMPANY
DATE.          Mon Dec 12 09:29:49 2005: LOG DATE
UWI.           05 071 08601 00: UNIQUE WELL ID
~Curve Information Block
DEPT.FT            0 000 00 00: Depth
CCL.                          : Casing Collar Locator
TT3.usec                      : CBL 3' Travel Time
AMP3.mV                       : CBL 3' Amplitude
GR.GAPI                       : Gamma Ray
~Parameter Information Block
~A  Depth       CCL         TT3         AMP3         GR     
# ...
  1166.0000      0.0000    278.6592     72.0272     71.9224
  1166.2500      0.0000    278.6412     72.1775     72.6171
  1166.5000      0.0000    278.6269     72.3090     74.5886
  1166.7500      0.0000    278.6186     72.3918     77.7146
  1167.0000      0.0000    278.6163     72.4082     80.9515
  1167.2500      0.0000    278.6182     72.3637     82.8491
  1167.5000      0.0000    278.6220     72.2915     82.4080
  1167.7500      0.0000    278.6255     72.2368     79.5511
  1168.0000      0.0000    278.6278     72.2243     74.9145
  1168.2500      0.0000    278.6291     72.2442     69.4187
  1168.5000      0.0000    278.6300     72.2737     63.9923
  1168.7500      0.0000    278.6301     72.3067     59.3616
  1169.0000      0.0000    278.6281     72.3571     55.8839
  1169.2500      0.0000    278.6240     72.4391     53.6370
  1169.5000      0.0000    278.6199     72.5500     52.5936
  1169.7500      0.0000    278.6189     72.6698     52.5584
  1170.0000      0.0000    278.6223     72.7755     53.1483
  1170.2500      0.0000    278.6290     72.8566     54.0517
  1170.5000      0.0000    278.6358     72.9149     55.1744
  1170.7500      0.0000    278.6393     72.9520     56.4076
  1171.0000      0.0000    278.6385     72.9627     57.3748
  1171.2500      0.0000    278.6350     72.9437     57.4907
  1171.5000      0.0000    278.6321     72.9019     56.3763
  1171.7500      0.0000    278.6318     72.8485     54.2994
  1172.0000      0.0000    278.6339     72.7893     52.0226
  1172.2500      0.0000    278.6371     72.7205     50.0623
  1172.5000      0.0000    278.6400     72.6321     48.4065
  1172.7500      0.0000    278.6404     72.5192     47.0411
  1173.0000      0.0000    278.6364     72.3910     46.1875
  1173.2500      0.0000    278.6274     72.2706     45.8284
  1173.5000      0.0000    278.6153     72.1810     45.5444
  1173.7500      0.0000    278.6030     72.1328     45.0476
  1174.0000      0.0000    278.5929     72.1218     44.4848
  1174.2500      0.0000    278.5862     72.1370     44.1762
  1174.5000      0.0000    278.5828     72.1660     44.4934
  1174.7500      0.0000    278.5826     72.1986     45.8995
  1175.0000      0.0000    278.5847     72.2269     48.6947
  1175.2500      0.0000    278.5873     72.2455     52.8607
  1175.5000      0.0000    278.5886     72.2478     58.3636
  1175.7500      0.0000    278.5875     72.2238     65.2484
  1176.0000      0.0000    278.5847     72.1628     73.3614
  1176.2500      0.0000    278.5805     72.0612     82.4940
  1176.5000      0.0000    278.5736     71.9252     92.8905
  1176.7500      0.0000    278.5620     71.7682    105.0442
  1177.0000      0.0000    278.5458     71.6115    118.5749
  1177.2500      0.0000    278.5283     71.4854    131.4516
  1177.5000      0.0000    278.5140     71.4203    140.7536
  1177.7500      0.0000    278.5065     71.4308    144.5940
  1178.0000      0.0000    278.5063     71.5039    143.3115
  1178.2500      0.0000    278.5113     71.6039    138.6079
  1178.5000      0.0000    278.5183     71.6924    131.9788
  1178.7500      0.0000    278.5242     71.7442    124.7299
  1179.0000      0.0000    278.5275     71.7480    119.0458
  1179.2500      0.0000    278.5273     71.7001    117.4818
  1179.5000      0.0000    278.5226     71.6068    120.7946
  1179.7500      0.0000    278.5128     71.4929    127.1300
  1180.0000      0.0000    278.5008     71.3908    133.7791
  1180.2500      0.0000    278.4925     71.3086    138.9332
  1180.5000      0.0000    278.4993     71.1793    141.6609
  1180.7500      0.0000    278.5266     70.8173    141.7190
  1181.0000      0.0000    278.5587     69.8901    140.3104
  1181.2500      0.0000    278.5370     67.9867    139.9829
  1181.5000      0.0000    278.3865     64.8711    142.6605
  1181.7500      0.0000    278.1689     60.8215    147.9297
  1182.0000      0.0000    278.2544     56.6884    153.3025
  1182.2500      0.0000    279.1601     53.4861    155.5676
  1182.5000      0.0000    281.0093     51.8343    152.2179
  1182.7500      0.0000    283.2595     51.6872    142.9256
  1183.0000      0.0000    285.1449     52.4738    130.3158
  1183.2500      0.0000    286.2983     53.4920    118.6377
  1183.5000      0.0000    286.8554     54.2444    110.7171
  1183.7500     -2.0000    287.1381     54.4657    106.0531
  1184.0000      0.0000    287.3654     53.9890    102.2459
  1184.2500      0.0000    287.5411     52.8502     98.0545
  1184.5000      0.0000    287.4646     51.6679     94.5532
  1184.7500      0.0000    286.8725     51.7143     93.6681
  1185.0000      0.0000    285.6748     54.1256     96.3510
  1185.2500      0.0000    284.0685     58.7919    101.8679
  1185.5000      0.0000    282.4133     64.1971    108.0209
  1185.7500      0.0000    281.0163     68.5587    112.1123
  1186.0000      0.0000    280.0238     71.0689    112.4612
  1186.2500      0.0000    279.4303     72.0517    109.4604
  1186.5000      0.0000    279.1356     72.2520    105.0679
  1186.7500      0.0000    279.0137     72.2082    100.9993
  1187.0000      0.0000    278.9677     72.1381     97.5933
  1187.2500      0.0000    278.9470     72.0982     94.7462
  1187.5000      0.0000    278.9330     72.1145     93.4758
  1187.7500      0.0000    278.9213     72.2056     95.6827
  1188.0000      0.0000    278.9105     72.3590    102.1376
  1188.2500      0.0000    278.9007     72.5252    111.1829
  1188.5000      0.0000    278.8934     72.6495    119.8583
  1188.7500      0.0000    278.8900     72.7085    126.2925
  1189.0000      0.0000    278.8891     72.7101    131.0898
  1189.2500      0.0000    278.8876     72.6657    136.6771
  1189.5000      0.0000    278.8833     72.5808    145.1912
  1189.7500      0.0000    278.8781     72.4742    156.3594
  1190.0000      0.0000    278.8766     72.3897    167.2808
  1190.2500      0.0000    278.8820     72.3719    174.5903
  1190.5000      0.0000    278.8923     72.4316    176.8104
  1190.7500      0.0000    278.9020     72.5369    174.6851
  1191.0000      0.0000    278.9056     72.6342    170.2500
  1191.2500      0.0000    278.9022     72.6783    166.0810
  1191.5000      0.0000    278.8961     72.6541    164.2812
  1191.7500      0.0000    278.8943     72.5794    165.1315
  1192.0000      0.0000    278.9014     72.4863    167.0305
  1192.2500      0.0000    278.9170     72.3996    167.9774
  1192.5000      0.0000    278.9374     72.3314    166.7105
  1192.7500      0.0000    278.9585     72.2903    162.6535
  1193.0000      0.0000    278.9777     72.2878    155.6946
  1193.2500      0.0000    278.9930     72.3283    146.3703
  1193.5000      0.0000    279.0021     72.3967    135.9216
  1193.7500      0.0000    279.0044     72.4597    125.8204
  1194.0000      0.0000    279.0016     72.4909    117.3071
  1194.2500      0.0000    278.9973     72.4960    111.2786
  1194.5000      0.0000    278.9939     72.5084    107.9807
  1194.7500      0.0000    278.9917     72.5567    106.5123
  1195.0000      0.0000    278.9904     72.6404    105.2591
  1195.2500      0.0000    278.9911     72.7341    103.2240
  1195.5000      0.0000    278.9951     72.8051    100.6040
  1195.7500      0.0000    279.0023     72.8321     98.0626
  1196.0000      0.0000    279.0092     72.8138     96.1703
  1196.2500      0.0000    279.0111     72.7631     95.9200
  1196.5000      0.0000    279.0050     72.6967     98.9751
  1196.7500      0.0000    278.9924     72.6326    106.1690
  1197.0000      0.0000    278.9771     72.5951    115.5838
  1197.2500      0.0000    278.9616     72.6070    123.3041
  1197.5000      0.0000    278.9459     72.6717    126.9080
  1197.7500      0.0000    278.9286     72.7713    127.4568
  1198.0000      0.0000    278.9109     72.8812    127.4590
  1198.2500      0.0000    278.8964     72.9812    127.9743
  1198.5000      0.0000    278.8880     73.0504    128.5421
  1198.7500      0.0000    278.8858     73.0625    128.7839
  1199.0000      0.0000    278.8867     72.9943    128.7247
  1199.2500      0.0000    278.8882     72.8354    127.9863
