~Version Information
VERS.                      2.0: CWLS Log ASCII Standard - VERSION 2.0
WRAP.                       NO: One line per depth step
~Well Information Block
STRT.FT               625.0000: 
STOP.FT              2053.7500: 
STEP.FT                 0.2500: 
NULL.                -999.2500: 
COMP.          Pioneer Natural Resources: COMPANY
WELL.            Zink 44-10 Tr: WELL
FLD.           Purgatoire River: FIELD
LOC.           486' FSL & 554' FEL--: LOCATION
PROV.                 Colorado: PROVINCE
CNTY.               Las Animas: COUNTRY
SRVC.                Patterson: SERVICE COMPANY
DATE.          Sun Jul 24 06:18:01 2005: LOG DATE
UWI.           05 071 08446 00: UNIQUE WELL ID
~Curve Information Block
DEPT.FT            0 000 00 00: Depth
SN.Ohm-m                      : IEL Short Normal
SP.mV                         : IEL Spontaneous Potential
DIR.Ohm-m                     : IEL Induction Resistivity
GR.GAPI                       : Gamma Ray
~Parameter Information Block
~A  Depth        SN          SP         DIR          GR     
# ...
  1295.0000     35.4405    -35.1611     23.8723     62.5190
  1295.2500     37.3708    -34.9041     23.9403     54.0798
  1295.5000     39.2334    -34.6518     23.7297     48.3910
  1295.7500     40.5148    -34.4147     23.2426     49.7676
  1296.0000     40.6292    -34.2034     22.5014     59.1312
  1296.2500     39.1155    -34.0265     21.5562     69.2959
  1296.5000     35.9697    -33.8883     20.4760     87.9179
  1296.7500     31.8101    -33.7875     19.3278    100.6431
  1297.0000     27.5973    -33.7177     18.1626    116.4088
  1297.2500     24.0953    -33.6681     17.0189    123.0460
  1297.5000     21.5400    -33.6260     15.9335    127.2573
  1297.7500     19.7405    -33.5790     14.9451    128.0087
  1298.0000     18.4115    -33.5174     14.0891    129.4634
  1298.2500     17.3981    -33.4356     13.3879    131.3905
  1298.5000     16.6601    -33.3326     12.8963    134.7630
  1298.7500     16.1585    -33.2121     12.4944    136.5763
  1299.0000     15.8154    -33.0811     12.2100    138.6493
  1299.2500     15.5640    -32.9483     12.0110    140.2682
  1299.5000     15.3798    -32.8221     11.8688    143.9148
  1299.7500     15.2517    -32.7094     11.7635    146.8505
  1300.0000     15.1490    -32.6136     11.6871    150.2808
  1300.2500     15.0387    -32.5346     11.6411    150.9827
  1300.5000     14.9182    -32.4681     11.6312    149.4417
  1300.7500     14.8114    -32.4071     11.6596    147.3167
  1301.0000     14.7435    -32.3424     11.7210    143.6403
  1301.2500     14.7319    -32.2646     11.8053    141.1788
  1301.5000     14.7876    -32.1657     11.9043    138.0449
  1301.7500     14.9080    -32.0403     12.0165    137.0578
  1302.0000     15.0706    -31.8872     12.1451    138.1992
  1302.2500     15.2359    -31.7092     12.2918    140.1570
  1302.5000     15.3569    -31.5130     12.4511    141.9911
  1302.7500     15.3971    -31.3085     12.6097    140.9223
  1303.0000     15.3473    -31.1065     12.7517    135.8042
  1303.2500     15.2250    -30.9168     12.8657    131.5542
  1303.5000     15.0576    -30.7458     12.9512    127.1344
  1303.7500     14.8694    -30.5951     13.0180    126.5636
  1304.0000     14.6670    -30.4611     13.0774    128.8154
  1304.2500     14.4304    -30.3355     13.1323    131.0845
  1304.5000     14.1409    -30.2084     13.1704    133.3362
  1304.7500     13.8365    -30.0710     13.1681    133.6369
  1305.0000     13.6170    -29.9192     13.1019    133.4190
  1305.2500     13.5697    -29.7565     12.9599    133.7934
  1305.5000     13.6857    -29.5948     12.7459    135.5770
  1305.7500     13.8580    -29.4539     12.4729    136.9969
  1306.0000     13.9622    -29.3573     12.1567    138.4406
  1306.2500     13.9386    -29.3266     11.8126    139.0223
  1306.5000     13.8035    -29.3728     11.4563    140.0566
  1306.7500     13.6022    -29.4879     11.1044    140.8002
  1307.0000     13.3662    -29.6381     10.7739    141.0246
  1307.2500     13.1110    -29.7621     10.4799    140.2816
  1307.5000     12.8568    -29.7773     10.2336    138.4125
  1307.7500     12.6321    -29.5926     10.0400    137.0819
  1308.0000     12.4492    -29.1292      9.8962    134.9340
  1308.2500     12.2839    -28.3409      9.7928    133.3057
  1308.5000     12.0961    -27.2312      9.7166    131.3728
  1308.7500     11.8812    -25.8600      9.6537    131.3723
  1309.0000     11.6901    -24.3373      9.5910    134.1284
  1309.2500     11.5827    -22.8051      9.5178    137.0772
  1309.5000     11.5571    -21.4109      9.4261    140.5079
  1309.7500     11.5354    -20.2805      9.3118    140.9507
  1310.0000     11.4254    -19.4956      9.1751    138.8826
  1310.2500     11.2013    -19.0828      9.0208    136.5522
  1310.5000     10.9233    -19.0149      8.8573    133.0912
  1310.7500     10.6794    -19.2222      8.6956    131.3601
  1311.0000     10.5093    -19.6127      8.5476    130.4161
  1311.2500     10.3840    -20.0914      8.4241    131.2239
  1311.5000     10.2485    -20.5769      8.3326    134.1608
  1311.7500     10.0753    -21.0110      8.2753    136.2833
  1312.0000      9.8853    -21.3601      8.2496    137.8478
  1312.2500      9.7318    -21.6122      8.2504    137.2984
  1312.5000      9.6624    -21.7696      8.2729    134.0835
  1312.7500      9.6834    -21.8428      8.3140    130.3886
  1313.0000      9.7574    -21.8452      8.3700    122.7488
  1313.2500      9.8471    -21.7911      8.4338    116.9653
  1313.5000      9.9594    -21.6936      8.4941    109.3621
  1313.7500     10.1415    -21.5659      8.5403    105.9677
  1314.0000     10.4442    -21.4210      8.5720    103.3259
  1314.2500     10.8994    -21.2710      8.6106    102.3683
  1314.5000     11.5121    -21.1266      8.7049    100.7675
  1314.7500     12.2451    -20.9958      8.9305     99.3122
  1315.0000     13.0070    -20.8827      9.3907     96.7683
  1315.2500     13.6820    -20.7868     10.2278     95.1074
  1315.5000     14.1882    -20.7035     11.6537     93.4678
  1315.7500     14.5036    -20.6251     14.0031     93.7558
  1316.0000     14.6554    -20.5433     17.8093     97.7195
  1316.2500     14.7055    -20.4505     23.8678    102.9446
  1316.5000     14.7155    -20.3421     33.1445    113.3949
  1316.7500     14.6807    -20.2169     46.3020    120.8302
  1317.0000     14.5183    -20.0763     63.1919    130.9597
  1317.2500     14.1557    -19.9241     83.8355    136.6507
  1317.5000     13.6232    -19.7646    109.9787    143.5570
  1317.7500     13.0357    -19.6018    137.6739    146.9848
  1318.0000     12.4842    -19.4395    133.8068    149.9166
  1318.2500     11.9661    -19.2813     85.6054    150.2561
  1318.5000     11.4352    -19.1316     45.2043    148.8470
  1318.7500     10.9090    -18.9964     24.8448    147.3265
  1319.0000     10.5020    -18.8849     15.2669    145.4775
  1319.2500     10.3451    -18.8106     10.6079    145.0821
  1319.5000     10.4849    -18.7929      8.3564    146.0843
  1319.7500     10.8572    -18.8582      7.5368    147.6054
  1320.0000     11.3277    -19.0409      7.9981    150.2760
  1320.2500     11.7485    -19.3854     10.7205    151.6774
  1320.5000     12.0007    -19.9466     23.5350    152.1132
  1320.7500     12.0219    -20.7927 100000.0000    150.8704
  1321.0000     11.8187    -22.0070 100000.0000    147.1550
  1321.2500     11.4516    -23.6899 100000.0000    144.4319
  1321.5000     10.9844    -25.9585 100000.0000    141.5306
  1321.7500     10.4422    -28.9414     12.1441    140.4404
  1322.0000      9.8340    -32.7654      3.3697    138.8906
  1322.2500      9.2024    -37.5336      1.6094    137.1324
  1322.5000      8.6177    -43.2960      0.9612    132.4667
  1322.7500      8.1334    -50.0177      0.6604    127.4750
  1323.0000      7.7791    -57.5517      0.5041    116.2647
  1323.2500      7.5946    -65.6256      0.4193    106.3518
  1323.5000      7.6363    -73.8484      0.3728     89.8290
  1323.7500      7.9321    -81.7412      0.3465     79.6557
  1324.0000      8.4449    -88.7891      0.3297     68.3678
  1324.2500      9.1371    -94.5061      0.3180     63.9133
  1324.5000     10.1605    -98.5013      0.3124     60.6848
  1324.7500     12.0479   -100.5319      0.3189     59.7205
  1325.0000     15.6472   -100.5313      0.3468     58.5828
  1325.2500     21.5766    -98.6067      0.4100     57.6993
  1325.5000     29.4559    -95.0083      0.5318     56.3738
  1325.7500     37.6984    -90.0787      0.7613     55.8703
  1326.0000     44.3533    -84.1971      1.2248     56.6560
  1326.2500     48.3099    -77.7309      2.3333     58.8532
  1326.5000     49.6868    -71.0039      6.1337     65.4584
  1326.7500     49.2193    -64.2833     84.2805     72.1538
  1327.0000     47.5034    -57.7798 100000.0000     85.0143
  1327.2500     44.8008    -51.6551 100000.0000     94.6739
  1327.5000     41.3146    -46.0299 100000.0000    108.9790
  1327.7500     37.4435    -40.9884     76.0023    117.3860
  1328.0000     33.7189    -36.5799     18.1316    127.0781
  1328.2500     30.5416    -32.8199     12.1107    131.0869
