~Version Information
VERS.                      2.0: CWLS Log ASCII Standard - VERSION 2.0
WRAP.                       NO: One line per depth step
~Well Information Block
STRT.FT               615.0000: 
STOP.FT              1609.0000: 
STEP.FT                 0.2500: 
NULL.                -999.2500: 
COMP.          Pioneer Natural Resources: COMPANY
WELL.          Galloway 32-13 Tr: WELL
FLD.           Purgatoire River: FIELD
LOC.           1910' FNL & 2002' FEL: LOCATION
PROV.                 Colorado: PROVINCE
CNTY.               Las Animas: COUNTRY
SRVC.                Patterson: SERVICE COMPANY
DATE.          Sat Nov 12 20:19:28 2005: LOG DATE
UWI.           05 071 08608 00: UNIQUE WELL ID
~Curve Information Block
DEPT.FT            0 000 00 00: Depth
SN.Ohm-m                      : IEL Short Normal
SP.mV                         : IEL Spontaneous Potential
DIR.Ohm-m                     : IEL Induction Resistivity
GR.GAPI                       : Gamma Ray
~Parameter Information Block
~A  Depth        SN          SP         DIR          GR     
# ...
  1385.5000     18.0623     71.8465     13.5599    103.6038
  1385.7500     19.9468     72.4306     13.9678    103.4123
  1386.0000     21.5638     72.9851     14.4242    108.7136
  1386.2500     22.7161     73.5130     14.9043    115.3254
  1386.5000     23.1940     74.0113     15.3718    127.7926
  1386.7500     23.0091     74.4723     15.7801    136.4978
  1387.0000     22.4220     74.8877     16.0759    148.1787
  1387.2500     21.6637     75.2479     16.2144    154.0542
  1387.5000     20.8176     75.5402     16.1846    158.6759
  1387.7500     19.9123     75.7558     16.0240    158.8015
  1388.0000     19.0071     75.8973     15.8054    156.1357
  1388.2500     18.2037     75.9742     15.6017    154.1360
  1388.5000     17.6007     75.9938     15.4572    152.8511
  1388.7500     17.2475     75.9566     15.3830    153.0121
  1389.0000     17.1497     75.8606     15.3720    153.0141
  1389.2500     17.2693     75.7079     15.4161    151.9460
  1389.5000     17.5236     75.5061     15.5132    148.3939
  1389.7500     17.8801     75.2647     15.6634    145.1400
  1390.0000     18.4327     74.9908     15.8637    140.1016
  1390.2500     19.2708     74.6899     16.1089    137.2255
  1390.5000     20.2895     74.3720     16.3979    133.9204
  1390.7500     21.2784     74.0549     16.7390    132.1532
  1391.0000     22.1513     73.7587     17.1488    129.7693
  1391.2500     22.8838     73.4975     17.6414    128.4385
  1391.5000     23.3711     73.2716     18.2115    127.2656
  1391.7500     23.5731     73.0695     18.8225    127.0434
  1392.0000     23.6416     72.8751     19.4128    126.6869
  1392.2500     23.7531     72.6780     19.9230    125.6060
  1392.5000     23.9362     72.4778     20.3257    121.5816
  1392.7500     24.1397     72.2809     20.6330    117.1016
  1393.0000     24.3538     72.0952     20.8785    108.2170
  1393.2500     24.5631     71.9268     21.0933    101.5524
  1393.5000     24.6832     71.7810     21.2944     91.9458
  1393.7500     24.6402     71.6612     21.4816     86.6393
  1394.0000     24.4572     71.5662     21.6383     81.5845
  1394.2500     24.1922     71.4897     21.7402     80.7964
  1394.5000     23.8665     71.4240     21.7719     84.0765
  1394.7500     23.5433     71.3643     21.7429     88.9421
  1395.0000     23.3265     71.3077     21.6858     98.5892
  1395.2500     23.2331     71.2479     21.6373    105.3132
  1395.5000     23.2157     71.1732     21.6185    113.7978
  1395.7500     23.2680     71.0712     21.6301    117.3804
  1396.0000     23.4171     70.9376     21.6624    118.5612
  1396.2500     23.6415     70.7783     21.7091    116.6520
  1396.5000     23.8305     70.6001     21.7756    111.2690
  1396.7500     23.8912     70.3991     21.8795    107.1966
  1397.0000     23.8939     70.1621     22.0454    101.7810
  1397.2500     24.0008     69.8777     22.2973     98.7809
  1397.5000     24.2595     69.5474     22.6492     94.6055
  1397.7500     24.5834     69.1859     23.0991     91.6783
  1398.0000     24.9119     68.8124     23.6240     86.9587
  1398.2500     25.2857     68.4416     24.1782     83.6243
  1398.5000     25.7978     68.0804     24.7018     78.0961
  1398.7500     26.5263     67.7295     25.1397     73.9664
  1399.0000     27.4496     67.3876     25.4651     67.8058
  1399.2500     28.4405     67.0538     25.6894     64.5560
  1399.5000     29.3919     66.7277     25.8497     61.9728
  1399.7500     30.3244     66.4074     25.9828     61.5992
  1400.0000     31.3093     66.0896     26.1069     61.7358
  1400.2500     32.2907     65.7723     26.2230     61.5940
  1400.5000     33.0887     65.4569     26.3244     61.0376
  1400.7500     33.5320     65.1459     26.4064     61.1390
  1401.0000     33.5105     64.8381     26.4639     63.3421
  1401.2500     33.0437     64.5276     26.4872     66.3727
  1401.5000     32.2966     64.2090     26.4576     72.2063
  1401.7500     31.4102     63.8831     26.3462     75.9349
  1402.0000     30.4228     63.5557     26.1243     80.0197
  1402.2500     29.4019     63.2290     25.7866     81.6281
  1402.5000     28.4766     62.8948     25.3761     83.0443
  1402.7500     27.6965     62.5420     24.9811     83.8526
  1403.0000     27.0538     62.1705     24.6975     85.3893
  1403.2500     26.6368     61.7956     24.5788     86.5690
  1403.5000     26.5034     61.4405     24.6107     88.0186
  1403.7500     26.4862     61.1241     24.7264     88.5068
  1404.0000     26.3934     60.8547     24.8512     88.7664
  1404.2500     26.2673     60.6315     24.9471     89.2004
  1404.5000     26.2473     60.4513     25.0275     91.2104
  1404.7500     26.3347     60.3159     25.1349     93.4733
  1405.0000     26.4417     60.2322     25.3072     97.0469
  1405.2500     26.5499     60.2046     25.5549     98.5230
  1405.5000     26.7432     60.2265     25.8610     98.1422
  1405.7500     27.0860     60.2798     26.1960     96.1045
  1406.0000     27.4697     60.3444     26.5334     91.4370
  1406.2500     27.6807     60.4120     26.8512     88.2836
  1406.5000     27.6435     60.4900     27.1138     85.1642
  1406.7500     27.4479     60.5927     27.2610     84.6352
  1407.0000     27.1171     60.7289     27.2292     85.8394
  1407.2500     26.5774     60.8941     26.9954     87.3715
  1407.5000     25.9066     61.0718     26.5984     89.7243
  1407.7500     25.3537     61.2385     26.1136     90.8883
  1408.0000     25.0748     61.3694     25.6141     91.5171
  1408.2500     25.0041     61.4448     25.1497     91.1014
  1408.5000     24.9512     61.4568     24.7445     89.5950
  1408.7500     24.7680     61.4110     24.3946     88.3466
  1409.0000     24.4431     61.3222     24.0719     86.3597
  1409.2500     24.0636     61.2067     23.7438     84.9414
  1409.5000     23.7190     61.0778     23.4025     82.8636
  1409.7500     23.4360     60.9455     23.0727     81.7483
  1410.0000     23.1948     60.8175     22.7922     80.6596
  1410.2500     22.9850     60.6973     22.5856     80.2618
  1410.5000     22.7984     60.5841     22.4561     80.0400
  1410.7500     22.6159     60.4737     22.3940     80.0963
  1411.0000     22.4730     60.3613     22.3890     80.3447
  1411.2500     22.4392     60.2447     22.4337     80.5259
  1411.5000     22.5036     60.1263     22.5213     80.7658
  1411.7500     22.5990     60.0136     22.6391     80.8866
  1412.0000     22.7095     59.9165     22.7670     80.8011
  1412.2500     22.8583     59.8436     22.8842     80.3965
  1412.5000     23.0256     59.7975     22.9833     79.3730
  1412.7500     23.1447     59.7743     23.0781     78.8573
  1413.0000     23.1772     59.7660     23.1981     79.2823
  1413.2500     23.1713     59.7659     23.3764     80.5578
  1413.5000     23.2081     59.7712     23.6407     83.3018
  1413.7500     23.2993     59.7805     24.0125     84.9299
  1414.0000     23.4159     59.7892     24.5044     85.7504
  1414.2500     23.5633     59.7897     25.1066     84.6963
  1414.5000     23.7704     59.7740     25.7694     80.7913
  1414.7500     24.0566     59.7367     26.4018     77.4521
  1415.0000     24.3757     59.6753     26.9043     73.4817
  1415.2500     24.6102     59.5912     27.2287     72.4409
  1415.5000     24.7386     59.4917     27.4125     73.3127
  1415.7500     24.8843     59.3890     27.5515     74.7816
  1416.0000     25.1287     59.2924     27.7339     76.8162
  1416.2500     25.4436     59.2027     27.9933     77.5725
  1416.5000     25.7486     59.1129     28.3079     77.9414
  1416.7500     25.9625     59.0161     28.6285     78.0649
  1417.0000     26.0804     58.9120     28.9088     78.6344
  1417.2500     26.1783     58.8057     29.1184     79.4353
  1417.5000     26.3184     58.7005     29.2392     81.2658
  1417.7500     26.4782     58.5933     29.2584     82.6525
  1418.0000     26.5631     58.4758     29.1665     84.2000
  1418.2500     26.5225     58.3410     28.9624     84.5421
  1418.5000     26.4335     58.1893     28.6621     84.0655
  1418.7500     26.4112     58.0306     28.3018     83.3433
