~Version Information
VERS.                      2.0: CWLS Log ASCII Standard - VERSION 2.0
WRAP.                       NO: One line per depth step
~Well Information Block
STRT.FT               350.0000: 
STOP.FT              2808.2500: 
STEP.FT                 0.2500: 
NULL.                -999.2500: 
COMP.          Pioneer Natural Resources: COMPANY
WELL.          Grey Goose 33-30: WELL
FLD.           Purgatoire River: FIELD
LOC.           2136' FSL & 2065' FEL--: LOCATION
STAT.                 Colorado: State
CNTY.               Las Animas: COUNTY
CTRY. USA : Country
SECT. 30 : Section
TOWN. 32S : Township
RANG. 67W : Range
SRVC.                Patterson: SERVICE COMPANY
DATE.          Fri Nov 04 09:00:45 2005: LOG DATE
API.           05 071 08546 00: UNIQUE WELL ID
~Curve Information Block
DEPT.FT            0 000 00 00: Depth
DIR.Ohm-m                     : IEL Induction Resistivity
SN.Ohm-m                      : IEL Short Normal
SP.mV                         : IEL Spontaneous Potential
GR.GAPI                       : Gamma Ray
~Parameter Information Block
~A  Depth       DIR          SN          SP          GR     
# ...
  2293.0000     11.8912     13.3514     44.7021    128.5548
  2293.2500     12.3796     13.9428     44.2021    126.6482
  2293.5000     12.9674     14.6099     43.6182    121.8687
  2293.7500     13.6587     15.3333     42.9674    117.0602
  2294.0000     14.4516     16.0952     42.2713    107.8067
  2294.2500     15.3363     16.8902     41.5544    100.8217
  2294.5000     16.2949     17.7330     40.8413     89.8195
  2294.7500     17.3045     18.6576     40.1547     82.2419
  2295.0000     18.3422     19.7058     39.5122     70.6599
  2295.2500     19.3886     20.9032     38.9249     63.2575
  2295.5000     20.4270     22.2303     38.3968     54.0633
  2295.7500     21.4411     23.6084     37.9245     49.8719
  2296.0000     22.4121     24.9179     37.4995     46.3955
  2296.2500     23.3149     26.0403     37.1096     45.3042
  2296.5000     24.1147     26.8986     36.7429     44.4354
  2296.7500     24.7708     27.4718     36.3900     44.0952
  2297.0000     25.2538     27.7867     36.0467     43.8634
  2297.2500     25.5691     27.9023     35.7158     43.8694
  2297.5000     25.7634     27.8949     35.4074     44.0700
  2297.7500     25.9023     27.8399     35.1384     44.3481
  2298.0000     26.0335     27.7867     34.9299     45.1012
  2298.2500     26.1627     27.7333     34.8038     45.9069
  2298.5000     26.2549     27.6201     34.7785     47.5564
  2298.7500     26.2514     27.3582     34.8643     48.7627
  2299.0000     26.0925     26.8838     35.0597     50.1895
  2299.2500     25.7400     26.2092     35.3503     50.6839
  2299.5000     25.1994     25.4336     35.7096     51.2383
  2299.7500     24.5314     24.7023     36.1020     52.4498
  2300.0000     23.8372     24.1385     36.4881     57.7536
  2300.2500     23.2196     23.7887     36.8304     64.3690
  2300.5000     22.7464     23.6085     37.0993     77.5604
  2300.7500     22.4334     23.4861     37.2770     86.0336
  2301.0000     22.2500     23.2914     37.3610     92.9697
  2301.2500     22.1370     22.9364     37.3642     91.7791
  2301.5000     22.0315     22.4251     37.3130     81.8317
  2301.7500     21.8906     21.8629     37.2429     72.0735
  2302.0000     21.7051     21.4087     37.1917     57.7444
  2302.2500     21.4972     21.1914     37.1928     50.6433
  2302.5000     21.3008     21.2428     37.2684     45.2974
  2302.7500     21.1394     21.4861     37.4262     45.0610
  2303.0000     21.0141     21.7809     37.6586     48.2269
  2303.2500     20.9056     21.9898     37.9453     51.6606
  2303.5000     20.7870     22.0297     38.2580     57.3179
  2303.7500     20.6367     21.8846     38.5656     60.7701
  2304.0000     20.4435     21.5913     38.8397     64.4872
  2304.2500     20.2059     21.2163     39.0569     65.5281
  2304.5000     19.9321     20.8362     39.2013     64.7506
  2304.7500     19.6432     20.5209     39.2642     63.0046
  2305.0000     19.3725     20.3196     39.2432     59.4276
  2305.2500     19.1556     20.2531     39.1411     56.8497
  2305.5000     19.0196     20.3134     38.9653     53.2820
  2305.7500     18.9779     20.4692     38.7275     51.3791
  2306.0000     19.0331     20.6767     38.4439     49.4573
  2306.2500     19.1795     20.8937     38.1365     48.6806
  2306.5000     19.3993     21.0872     37.8331     47.7230
  2306.7500     19.6551     21.2302     37.5665     46.8878
  2307.0000     19.8876     21.2902     37.3721     45.1416
  2307.2500     20.0255     21.2228     37.2837     43.8410
  2307.5000     20.0054     20.9871     37.3282     42.3106
  2307.7500     19.7945     20.5774     37.5212     41.8949
  2308.0000     19.4031     20.0448     37.8628     42.7124
  2308.2500     18.8792     19.4791     38.3369     44.7814
  2308.5000     18.2909     18.9624     38.9127     51.7364
  2308.7500     17.7044     18.5326     39.5483     59.7655
  2309.0000     17.1695     18.1836     40.1968     76.8639
  2309.2500     16.7119     17.8895     40.8117     90.3256
  2309.5000     16.3339     17.6252     41.3532    109.4609
  2309.7500     16.0218     17.3761     41.7908    118.7591
  2310.0000     15.7596     17.1427     42.1054    124.4111
  2310.2500     15.5440     16.9463     42.2886    122.6770
  2310.5000     15.3909     16.8263     42.3397    114.7887
  2310.7500     15.3300     16.8246     42.2629    108.3448
  2311.0000     15.3925     16.9648     42.0645     99.7661
  2311.2500     15.5991     17.2414     41.7506     95.2372
  2311.5000     15.9530     17.6292     41.3272     89.3881
  2311.7500     16.4380     18.1037     40.8001     85.3292
  2312.0000     17.0238     18.6584     40.1766     78.2271
  2312.2500     17.6760     19.3026     39.4665     72.9045
  2312.5000     18.3694     20.0446     38.6826     64.6734
  2312.7500     19.0951     20.8763     37.8415     59.3132
  2313.0000     19.8575     21.7734     36.9638     51.6914
  2313.2500     20.6635     22.7044     36.0744     47.0820
  2313.5000     21.5114     23.6377     35.2036     41.4160
  2313.7500     22.3829     24.5387     34.3866     38.6888
  2314.0000     23.2392     25.3639     33.6631     36.0644
  2314.2500     24.0231     26.0630     33.0745     35.0210
  2314.5000     24.6708     26.5891     32.6596     33.9187
  2314.7500     25.1327     26.9104     32.4486     33.1942
  2315.0000     25.3909     27.0184     32.4576     32.1593
  2315.2500     25.4626     26.9326     32.6831     32.0579
  2315.5000     25.3856     26.6985     33.0994     34.3764
  2315.7500     25.1994     26.3731     33.6587     38.4058
  2316.0000     24.9342     26.0071     34.2952     48.6971
  2316.2500     24.6131     25.6405     34.9308     57.8592
  2316.5000     24.2611     25.3123     35.4845     72.3372
  2316.7500     23.9108     25.0690     35.8821     80.0853
  2317.0000     23.5999     24.9585     36.0659     85.0686
  2317.2500     23.3677     25.0162     36.0028     83.0350
  2317.5000     23.2534     25.2581     35.6888     73.3897
  2317.7500     23.2926     25.6856     35.1505     64.6915
  2318.0000     23.5093     26.2871     34.4416     52.0795
  2318.2500     23.9059     27.0236     33.6363     45.3331
  2318.5000     24.4548     27.8131     32.8195     38.2055
  2318.7500     25.0977     28.5456     32.0771     35.1434
  2319.0000     25.7516     29.1282     31.4850     32.4334
  2319.2500     26.3208     29.5215     31.1007     31.5383
  2319.5000     26.7109     29.7312     30.9572     31.0121
  2319.7500     26.8458     29.7720     31.0595     31.0440
  2320.0000     26.6863     29.6445     31.3853     31.8424
  2320.2500     26.2472     29.3446     31.8884     33.0444
  2320.5000     25.6018     28.8849     32.5052     35.5672
  2320.7500     24.8635     28.3014     33.1637     37.1316
  2321.0000     24.1477     27.6444     33.7938     38.3116
  2321.2500     23.5353     26.9680     34.3370     38.2924
  2321.5000     23.0564     26.3280     34.7543     37.9139
  2321.7500     22.6971     25.7787     35.0312     37.8537
  2322.0000     22.4202     25.3578     35.1787     37.8445
  2322.2500     22.1889     25.0637     35.2295     37.4603
  2322.5000     21.9807     24.8423     35.2320     36.0297
  2322.7500     21.7862     24.5978     35.2411     34.8158
  2323.0000     21.5963     24.2286     35.3092     33.5437
  2323.2500     21.3893     23.6781     35.4784     33.6451
  2323.5000     21.1298     22.9702     35.7749     36.4114
  2323.7500     20.7831     22.1988     36.2065     40.7793
  2324.0000     20.3318     21.4708     36.7625     51.7598
  2324.2500     19.7839     20.8444     37.4163     61.5118
  2324.5000     19.1646     20.3092     38.1300     77.5930
  2324.7500     18.5038     19.8126     38.8593     87.8557
  2325.0000     17.8283     19.3013     39.5599    100.8815
  2325.2500     17.1625     18.7487     40.1934    107.7151
  2325.5000     16.5338     18.1652     40.7320    115.7226
  2325.7500     15.9760     17.5940     41.1614    119.9475
  2326.0000     15.5246     17.0955     41.4820    124.5020
  2326.2500     15.2081     16.7219     41.7063    125.9344
