~Version Information
VERS.                      2.0: CWLS Log ASCII Standard - VERSION 2.0
WRAP.                       NO: One line per depth step
~Well Information Block
STRT.FT               860.0000: 
STOP.FT              2362.5000: 
STEP.FT                 0.2500: 
NULL.                -999.2500: 
COMP.          Pioneer Natural Resources: COMPANY
WELL.            Cayenne 23-23: WELL
FLD.           Purgatoire River: FIELD
LOC.           2555' FSL & 2386' FWL: LOCATION
PROV.                 Colorado: PROVINCE
CNTY.               Las Animas: COUNTRY
SRVC.                Patterson: SERVICE COMPANY
DATE.          Wed Aug 17 06:47:40 2005: LOG DATE
UWI.           05 071 08476 00: UNIQUE WELL ID
~Curve Information Block
DEPT.FT            0 000 00 00: Depth
SN.Ohm-m                      : IEL Short Normal
SP.mV                         : IEL Spontaneous Potential
DIR.Ohm-m                     : IEL Induction Resistivity
GR.GAPI                       : Gamma Ray
~Parameter Information Block
~A  Depth        SN          SP         DIR          GR     
# ...
  2334.0000     22.0697     27.5104     22.1517     79.7349
  2334.2500     22.2416     28.2593     22.4172     82.7860
  2334.5000     22.4705     28.6810     22.7175     87.0601
  2334.7500     22.6753     28.7636     22.9945     88.7807
  2335.0000     22.8658     28.5623     23.2149     88.7857
  2335.2500     23.1060     28.1291     23.3734     87.3073
  2335.5000     23.4000     27.5231     23.4746     84.3893
  2335.7500     23.6849     26.8379     23.5208     82.9699
  2336.0000     23.9092     26.1829     23.5150     82.4333
  2336.2500     24.0847     25.6408     23.4668     82.8844
  2336.5000     24.2489     25.2550     23.3909     83.5665
  2336.7500     24.4011     25.0537     23.2985     83.3674
  2337.0000     24.4964     25.0768     23.1943     81.8745
  2337.2500     24.4953     25.3702     23.0821     80.5880
  2337.5000     24.3943     25.9434     22.9713     79.4125
  2337.7500     24.2054     26.7138     22.8759     79.4063
  2338.0000     23.9436     27.4915     22.8027     80.0216
  2338.2500     23.6211     28.0460     22.7393     80.3772
  2338.5000     23.2621     28.2235     22.6516     80.5990
  2338.7500     22.9140     28.0226     22.5001     80.7209
  2339.0000     22.6082     27.5723     22.2666     81.1885
  2339.2500     22.3612     27.0460     21.9744     81.7181
  2339.5000     22.1989     26.5822     21.6824     82.6144
  2339.7500     22.0973     26.2539     21.4556     83.0292
  2340.0000     21.9850     26.0796     21.3356     82.8869
  2340.2500     21.8645     26.0552     21.3279     82.1239
  2340.5000     21.8145     26.1876     21.4100     80.1983
  2340.7500     21.8687     26.5121     21.5490     78.7545
  2341.0000     22.0001     27.0809     21.7189     76.9799
  2341.2500     22.1831     27.9265     21.9084     76.3182
  2341.5000     22.4082     29.0233     22.1190     76.3142
  2341.7500     22.6620     30.2716     22.3565     76.7994
  2342.0000     22.9729     31.5200     22.6214     77.1091
  2342.2500     23.4276     32.6286     22.9049     75.9560
  2342.5000     24.0005     33.5422     23.1945     70.2207
  2342.7500     24.4954     34.3137     23.4810     62.9332
  2343.0000     24.7964     35.0551     23.7610     47.1257
  2343.2500     25.0354     35.8552     24.0355     34.9297
  2343.5000     25.3938     36.7274     24.3136     18.3273
  2343.7500     25.8440     37.6163     24.6182     10.2894
  2344.0000     26.2273     38.4466     24.9829      3.3953
  2344.2500     26.4705     39.1716     25.4320      1.3657
  2344.5000     26.5780     39.7833     25.9458      0.2656
  2344.7500     26.5752     40.2856     26.4380      0.0734
  2345.0000     26.4999     40.6662     26.7677      0.0070
  2345.2500     26.3232     40.9034     26.8029      0.0000
  2345.5000     26.0183     41.0023     26.5042   -999.2500
  2345.7500     25.7075     41.0143     25.9524   -999.2500
  2346.0000     25.5273     41.0114     25.2916   -999.2500
  2346.2500     25.4515     41.0424     24.6459   -999.2500
  2346.5000     25.3614     41.1116     24.0845   -999.2500
  2346.7500     25.1822     41.1924     23.6345   -999.2500
  2347.0000     24.9327     41.2538     23.3001   -999.2500
  2347.2500     24.7186     41.2769     23.0638   -999.2500
  2347.5000     24.6499     41.2581     22.8849   -999.2500
  2347.7500     24.7231     41.2037     22.7154   -999.2500
  2348.0000     24.8329     41.1169     22.5284   -999.2500
  2348.2500     24.8729     40.9881     22.3326   -999.2500
  2348.5000     24.7909     40.7991     22.1599   -999.2500
  2348.7500     24.6266     40.5445     22.0413   -999.2500
  2349.0000     24.4916     40.2450     21.9958   -999.2500
  2349.2500     24.4652     39.9345     22.0318   -999.2500
  2349.5000     24.5505     39.6375     21.8312   -999.2500
  2349.7500     24.7181     39.3608     22.0350   -999.2500
  2350.0000     24.9550     39.1016     22.3119   -999.2500
  2350.2500     25.3061     38.8551     22.6302   -999.2500
  2350.5000     25.8357     38.6174     22.9454   -999.2500
  2350.7500     26.4888     38.3867     23.2237   -999.2500
  2351.0000     27.0619     38.1674     23.4668   -999.2500
  2351.2500     27.3909     37.9737     23.7074   -999.2500
  2351.5000     27.4768     37.8281     23.9776   -999.2500
  2351.7500     27.4214     37.7485     24.2834   -999.2500
  2352.0000     27.3114     37.7297     24.6217   -999.2500
  2352.2500     27.1543     37.7354     25.0476   -999.2500
  2352.5000     26.9239     37.7120     25.7435   -999.2500
  2352.7500     26.6211     37.6164     27.0375   -999.2500
  2353.0000     26.2768     37.4429     30.0640   -999.2500
  2353.2500     25.9435     37.2500     34.1043   -999.2500
  2353.5000     25.6753     37.1786     40.2019   -999.2500
  2353.7500     25.4599     37.4421     48.4184   -999.2500
  2354.0000     25.1667     38.2605     57.9212   -999.2500
  2354.2500     24.6292     39.7423     66.8928   -999.2500
  2354.5000     23.7526     41.7843     73.5775   -999.2500
  2354.7500     22.5392     44.0844     77.5281   -999.2500
  2355.0000     21.1363     46.2840     79.4723   -999.2500
  2355.2500     19.8375     48.1300     80.3800   -999.2500
  2355.5000     18.8976     49.5350     80.9632   -999.2500
  2355.7500     18.3502     50.5319     81.6643   -999.2500
  2356.0000     18.0458     51.2047 100000.0000   -999.2500
  2356.2500     17.8244     51.6457 100000.0000   -999.2500
  2356.5000     17.6804     51.9337 100000.0000   -999.2500
  2356.7500     17.8392     52.1176 100000.0000   -999.2500
  2357.0000     18.6393     52.2144 100000.0000   -999.2500
  2357.2500     20.2629     52.2304 100000.0000   -999.2500
  2357.5000     22.5303     52.1807 100000.0000   -999.2500
  2357.7500     24.9372     52.0326 100000.0000   -999.2500
  2358.0000     26.8879     51.5462 100000.0000   -999.2500
  2358.2500     27.9258     50.0779 100000.0000   -999.2500
  2358.5000     27.8924     46.5868 100000.0000   -999.2500
  2358.7500     26.8737     40.1514 100000.0000   -999.2500
  2359.0000     24.7608     30.9108 100000.0000   -999.2500
  2359.2500     20.8479     20.5491 100000.0000   -999.2500
  2359.5000     14.6411     11.4738 100000.0000   -999.2500
  2359.7500      7.4812      5.2692 100000.0000   -999.2500
  2360.0000      1.9367      1.9601 100000.0000   -999.2500
  2360.2500     -0.8650      0.5841 100000.0000   -999.2500
  2360.5000     -1.7797      0.1381 100000.0000   -999.2500
  2360.7500     -1.9718      0.0255 100000.0000   -999.2500
  2361.0000     -1.9978      0.0034 100000.0000   -999.2500
  2361.2500   -999.2500   -999.2500 100000.0000   -999.2500
  2361.5000   -999.2500   -999.2500 100000.0000   -999.2500
  2361.7500   -999.2500   -999.2500 100000.0000   -999.2500
  2362.0000   -999.2500   -999.2500 100000.0000   -999.2500
  2362.2500   -999.2500   -999.2500 100000.0000   -999.2500
  2362.5000   -999.2500   -999.2500 100000.0000   -999.2500
