~Version Information
VERS.                      2.0: CWLS Log ASCII Standard - VERSION 2.0
WRAP.                       NO: One line per depth step
~Well Information Block
STRT.FT                -0.5000: 
STOP.FT              1417.0000: 
STEP.FT                 0.2500: 
NULL.                -999.2500: 
COMP.          Pioneer Natural Resources: COMPANY
WELL.              Darren 11-7: WELL
FLD.           Purgatoire River: FIELD
LOC.           230' FNL & 596' FWL: LOCATION
CNTY.               Las Animas: COUNTY
SRVC.                Patterson: SERVICE COMPANY
DATE.          Thu Mar 30 10:43:52 2006: LOG DATE
UWI.           05 071 08720 00: UNIQUE WELL ID
STAT.                 Colorado: STATE
~Curve Information Block
DEPT.FT            0 000 00 00: Depth
GR.GAPI                       : Gamma Ray
CCL.                          : Casing Collar Locator
TT3.usec                      : CBL 3' Travel Time
AMP3.mV                       : CBL 3' Amplitude
~Parameter Information Block
~A  Depth        GR         CCL         TT3         AMP3    
# ...
  1272.5000     77.5946      0.0000    609.0517      4.0774
  1272.7500     79.5072      0.0000    614.5869      4.1080
  1273.0000     80.7882      0.0000    625.7142      4.1115
  1273.2500     81.3966      0.0000    637.7642      4.0928
  1273.5000     81.6968      0.0000    646.8628      4.0682
  1273.7500     81.4006      0.0000    652.0507      4.0528
  1274.0000     79.8119      0.0000    654.3831      4.0484
  1274.2500     76.9955      0.0000    655.2153      4.0452
  1274.5000     74.1806      0.0000    655.4064      4.0325
  1274.7500     72.9422      0.0000    655.3766      4.0084
  1275.0000     74.1067      0.0000    655.3236      3.9796
  1275.2500     77.2592      0.0000    655.2992      3.9529
  1275.5000     81.0576      0.0000    655.2521      3.9277
  1275.7500     84.0488      0.0000    655.1022      3.8961
  1276.0000     85.4142      0.0000    654.8102      3.8511
  1276.2500     85.1846      0.0000    654.3907      3.7977
  1276.5000     83.9954      0.0000    653.8945      3.7541
  1276.7500     82.6287      0.0000    653.3893      3.7389
  1277.0000     81.4795      0.0000    652.9456      3.7544
  1277.2500     80.3475      0.0000    652.6174      3.7826
  1277.5000     78.9119      0.0000    652.4335      3.7996
  1277.7500     77.2917      0.0000    652.4102      3.7930
  1278.0000     75.9604      0.0000    652.6778      3.7664
  1278.2500     75.3261      0.0000    653.7581      3.7307
  1278.5000     75.5938      0.0000    656.8967      3.6950
  1278.7500     76.7365      0.0000    663.9641      3.6638
  1279.0000     78.3367      0.0000    676.2573      3.6403
  1279.2500     79.6351      0.0000    692.7394      3.6294
  1279.5000     80.0201      0.0000    709.7734      3.6343
  1279.7500     79.5332      0.0000    723.2113      3.6548
  1280.0000     78.8363      0.0000    730.6111      3.6884
  1280.2500     78.6412      0.0000    731.6556      3.7315
  1280.5000     79.1679      0.0000    727.7518      3.7781
  1280.7500     80.1341      0.0000    721.6273      3.8204
  1281.0000     81.1303      0.0000    716.1791      3.8535
  1281.2500     81.8622      0.0000    713.0606      3.8772
  1281.5000     82.1426      0.0000    712.3381      3.8965
  1281.7500     81.8869      0.0000    712.9127      3.9188
  1282.0000     81.2173      0.0000    712.7618      3.9495
  1282.2500     80.5676      0.0000    709.4213      3.9856
  1282.5000     80.7084      0.0000    701.4188      4.0161
  1282.7500     82.4525      0.0000    689.6465      4.0283
  1283.0000     85.8986      0.0000    677.0378      4.0139
  1283.2500     89.9182      0.0000    666.6436      3.9732
  1283.5000     92.7593      0.0000    659.9798      3.9142
  1283.7500     93.2279      0.0000    657.1614      3.8493
  1284.0000     91.0641      0.0000    658.4419      3.7948
  1284.2500     86.5905      0.0000    665.3451      3.7737
  1284.5000     80.6680      0.0000    679.7828      3.8106
  1284.7500     74.6957      0.0000    701.4723      3.9172
  1285.0000     69.7929      0.0000    726.2830      4.0822
  1285.2500     65.9366      0.0000    747.8949      4.2742
  1285.5000     62.4163      0.0000    761.3422      4.4557
  1285.7500     59.1573      0.0000    764.8409      4.5948
  1286.0000     57.2114      0.0000    759.1191      4.6710
  1286.2500     57.8184      0.0000    746.5297      4.6783
  1286.5000     61.1982      0.0000    730.7686      4.6263
  1286.7500     66.3709      0.0000    715.8911      4.5394
  1287.0000     71.8976      0.0000    704.6734      4.4493
  1287.2500     76.5597      0.0000    697.9581      4.3840
  1287.5000     79.6202      0.0000    695.1262      4.3574
  1287.7500     80.9395      0.0000    694.3300      4.3634
  1288.0000     80.9426      0.0000    692.7239      4.3775
  1288.2500     80.3267      0.0000    688.0104      4.3691
  1288.5000     79.6912      0.0000    680.6574      4.3194
  1288.7500     79.3036      0.0000    674.1037      4.2285
  1289.0000     79.0579      0.0000    671.7509      4.1040
  1289.2500     78.6368      0.0000    673.0704      3.9489
  1289.5000     77.8731      0.0000    672.5989      3.7684
  1289.7500     77.0923      0.0000    663.3768      3.5821
  1290.0000     77.0333      0.0000    642.8883      3.4201
  1290.2500     78.2137      0.0000    617.2141      3.3046
  1290.5000     80.3044      0.0000    599.1269      3.2393
  1290.7500     82.2643      0.0000    599.7368      3.2195
  1291.0000     83.0992      0.0000    619.9886      3.2516
  1291.2500     82.3552      0.0000    650.4254      3.3550
  1291.5000     80.0134      0.0000    679.7882      3.5371
  1291.7500     76.3318      0.0000    703.1945      3.7667
  1292.0000     71.8745      0.0000    722.3936      3.9759
  1292.2500     67.2991      0.0000    740.5976      4.0933
  1292.5000     62.8643      0.0000    758.3206      4.0849
  1292.7500     58.4289      0.0000    772.7396      3.9685
  1293.0000     54.2478      0.0000    779.5584      3.7887
  1293.2500     51.4557      0.0000    775.6204      3.5813
  1293.5000     51.1897      0.0000    761.1118      3.3654
  1293.7500     53.1423      0.0000    740.6499      3.1578
  1294.0000     55.3098      0.0000    722.1190      2.9837
  1294.2500     55.4240      0.0000    712.8962      2.8706
  1294.5000     52.7227      0.0000    715.9003      2.8335
  1294.7500     48.4005      0.0000    728.5549      2.8653
  1295.0000     44.4980      0.0000    744.6025      2.9406
  1295.2500     42.4307      0.0000    756.6709      3.0284
  1295.5000     42.4821      0.0000    759.0587      3.1064
  1295.7500     44.4024      0.0000    750.5657      3.1689
  1296.0000     48.1157      0.0000    735.1893      3.2277
  1296.2500     53.6454      0.0000    718.9729      3.3052
  1296.5000     60.4915      0.0000    705.5093      3.4233
  1296.7500     67.5255      0.0000    694.3420      3.5916
  1297.0000     73.7325      0.0000    683.0251      3.8010
  1297.2500     78.7707      0.0000    669.5314      4.0262
  1297.5000     82.6393      0.0000    652.6428      4.2337
  1297.7500     85.2564      0.0000    631.4836      4.3933
  1298.0000     86.6244      0.0000    605.9298      4.4871
  1298.2500     87.0462      0.0000    577.1242      4.5165
  1298.5000     86.9671      0.0000    547.0581      4.5022
  1298.7500     86.7783      0.0000    518.2384      4.4741
  1299.0000     86.7325      0.0000    493.6492      4.4554
  1299.2500     86.8398      0.0000    475.6552      4.4523
  1299.5000     86.8366      0.0000    464.4903      4.4573
  1299.7500     86.2309      0.0000    458.4181      4.4625
  1300.0000     84.4435      0.0000    455.3269      4.4690
  1300.2500     81.2497      0.0000    453.9799      4.4830
  1300.5000     77.2742      0.0000    454.4070      4.5070
  1300.7500     73.8779      0.0000    458.0346      4.5360
  1301.0000     72.4036      0.0000    467.5222      4.5623
  1301.2500     73.3626      0.0000    485.2815      4.5792
  1301.5000     76.1054      0.0000    510.7643      4.5824
  1301.7500     79.2410      0.0000    538.9354      4.5738
  1302.0000     81.6047      0.0000    562.5986      4.5633
  1302.2500     82.9399      0.0000    577.1368      4.5626
  1302.5000     83.6600      0.0000    582.9107      4.5744
  1302.7500     84.2156      0.0000    582.9941      4.5894
  1303.0000     84.7967      0.0000    578.9431      4.5953
  1303.2500     85.2355      0.0000    569.0634      4.5883
  1303.5000     84.9646      0.0000    550.8678      4.5731
  1303.7500     83.4536      0.0000    525.0778      4.5564
  1304.0000     80.8609      0.0000    496.8109      4.5420
  1304.2500     77.9014      0.0000    472.5389      4.5312
  1304.5000     75.0591      0.0000    455.9555      4.5230
  1304.7500     72.3218      0.0000    446.7127      4.5126
  1305.0000     69.6124      0.0000    442.3299      4.4913
  1305.2500     67.0375      0.0000    440.8842      4.4502
  1305.5000     64.6980      0.0000    442.9877      4.3886
  1305.7500     62.5903      0.0000    452.6577      4.3185
