~Version Information
VERS.                      2.0: CWLS Log ASCII Standard - VERSION 2.0
WRAP.                       NO: One line per depth step
~Well Information Block
STRT.FT               525.0000: 
STOP.FT              2377.2500: 
STEP.FT                 0.2500: 
NULL.                -999.2500: 
COMP.          Pioneer Natural Resources: COMPANY
WELL.          Sparrowhawk 22-12: WELL
FLD.           Purgatoire River: FIELD
LOC.           2049' FNL & 2060' FWL--: LOCATION
CNTY.               Las Animas: COUNTY
SRVC.                Patterson: SERVICE COMPANY
DATE.          Thu Mar 23 10:52:44 2006: LOG DATE
UWI.           05 071 08484 00: UNIQUE WELL ID
STAT.                 Colorado: STATE
~Curve Information Block
DEPT.FT            0 000 00 00: Depth
SN.Ohm-m                      : IEL Short Normal
SP.mV                         : IEL Spontaneous Potential
DIR.Ohm-m                     : IEL Induction Resistivity
GR.GAPI                       : Gamma Ray
~Parameter Information Block
~A  Depth        SN          SP         DIR          GR     
# ...
   893.5000   2000.0000   1979.0000     12.7978    132.2104
   893.7500   2000.0000   1979.0000     12.6314    134.1042
   894.0000   2000.0000   1979.0000     12.4977    136.4743
   894.2500   2000.0000   1979.0000     12.4113    137.6606
   894.5000   2000.0000   1979.0000     12.3816    139.6638
   894.7500   2000.0000   1979.0000     12.4098    141.6033
   895.0000   2000.0000   1979.0000     12.4902    145.0887
   895.2500   2000.0000   1979.0000     12.6140    146.9425
   895.5000   2000.0000   1979.0000     12.7751    147.5267
   895.7500   2000.0000   1979.0000     12.9733    146.2876
   896.0000   2000.0000   1979.0000     13.2125    143.2081
   896.2500   2000.0000   1979.0000     13.4974    141.4016
   896.5000   2000.0000   1979.0000     13.8312    140.1216
   896.7500   2000.0000   1979.0000     14.2143    140.1434
   897.0000   2000.0000   1979.0000     14.6439    140.6154
   897.2500   2000.0000   1979.0000     15.1114    140.4697
   897.5000   2000.0000   1979.0000     15.6029    138.0702
   897.7500   2000.0000   1979.0000     16.1026    134.6185
   898.0000   2000.0000   1979.0000     16.5980    127.9010
   898.2500   2000.0000   1979.0000     17.0812    123.8243
   898.5000   2000.0000   1979.0000     17.5430    119.8801
   898.7500   2000.0000   1979.0000     17.9622    118.6048
   899.0000   2000.0000   1979.0000     18.2989    117.6273
   899.2500   2000.0000   1979.0000     18.4987    117.0436
   899.5000   2000.0000   1979.0000     18.5117    116.1892
   899.7500   2000.0000   1979.0000     18.3154    116.0402
   900.0000   2000.0000   1979.0000     17.9276    117.0582
   900.2500   2000.0000   1979.0000     17.4012    118.5815
   900.5000   2000.0000   1979.0000     16.8055    122.1274
   900.7500   2000.0000   1979.0000     16.2057    125.5613
   901.0000   2000.0000   1979.0000     15.6500    132.4185
   901.2500   2000.0000   1979.0000     15.1646    137.6044
   901.5000   2000.0000   1979.0000     14.7579    144.8165
   901.7500   2000.0000   1979.0000     14.4280    148.5039
   902.0000   2000.0000   1979.0000     14.1705    151.4009
   902.2500   2000.0000   1979.0000     13.9855    151.0037
   902.5000   2000.0000   1979.0000     13.8808    146.2489
   902.7500   2000.0000   1979.0000     13.8706    140.7044
   903.0000   2000.0000   1979.0000     13.9700    131.3390
   903.2500   2000.0000   1979.0000     14.1878    126.2702
   903.5000   2000.0000   1979.0000     14.5233    122.2641
   903.7500   2000.0000   1979.0000     14.9638    121.7789
   904.0000   2000.0000   1979.0000     15.4865    122.7615
   904.2500   2000.0000   1979.0000     16.0609    123.7129
   904.5000   2000.0000   1979.0000     16.6516    124.6887
   904.7500   2000.0000   1979.0000     17.2211    124.6772
   905.0000   2000.0000   1979.0000     17.7304    123.3249
   905.2500   2000.0000   1979.0000     18.1398    121.6491
   905.5000   2000.0000   1979.0000     18.4161    118.6724
   905.7500   2000.0000   1979.0000     18.5453    116.8736
   906.0000   2000.0000   1979.0000     18.5437    115.1825
   906.2500   2000.0000   1979.0000     18.4563    115.0794
   906.5000   2000.0000   1979.0000     18.3403    116.9158
   906.7500   2000.0000   1979.0000     18.2440    119.5855
   907.0000   2000.0000   1979.0000     18.1933    125.4486
   907.2500   2000.0000   1979.0000     18.1882    129.9629
   907.5000   2000.0000   1979.0000     18.2088    135.8738
   907.7500   2000.0000   1979.0000     18.2259    138.1969
   908.0000   2000.0000   1979.0000     18.2150    138.3133
   908.2500   2000.0000   1979.0000     18.1701    136.3113
   908.5000   2000.0000   1979.0000     18.1115    131.4306
   908.7500   2000.0000   1979.0000     18.0820    127.8982
   909.0000   2000.0000   1979.0000     18.1336    123.6182
   909.2500   2000.0000   1979.0000     18.3123    121.9059
   909.5000   2000.0000   1979.0000     18.6475    121.1455
   909.7500   2000.0000   1979.0000     19.1460    121.6122
   910.0000   2000.0000   1979.0000     19.7891    123.0496
   910.2500   2000.0000   1979.0000     20.5312    123.9546
   910.5000   2000.0000   1979.0000     21.3050    124.2752
   910.7500   2000.0000   1979.0000     22.0415    123.3135
   911.0000   2000.0000   1979.0000     22.6997    119.6345
   911.2500   2000.0000   1979.0000     23.2916    115.8638
   911.5000   2000.0000   1979.0000     23.8806    109.5273
   911.7500   2000.0000   1979.0000     24.5526    105.8677
   912.0000   2000.0000   1979.0000     25.3740    102.2506
   912.2500   2000.0000   1979.0000     26.3535    100.9006
   912.5000   2000.0000   1979.0000     27.4251     99.3855
   912.7500   2000.0000   1979.0000     28.4665     98.3304
   913.0000   2000.0000   1979.0000     29.3512     97.0391
   913.2500   2000.0000   1979.0000     30.0008     96.8124
   913.5000   2000.0000   1979.0000     30.4022     97.5896
   913.7500   2000.0000   1979.0000     30.5948     98.4694
   914.0000   2000.0000   1979.0000     30.6508     99.3957
   914.2500   2000.0000   1979.0000     30.6573     99.4215
   914.5000   2000.0000   1979.0000     30.6863     98.6196
   914.7500   2000.0000   1979.0000     30.7617     97.7363
   915.0000   2000.0000   1979.0000     30.8411     96.2412
   915.2500   2000.0000   1979.0000     30.8281     95.3998
   915.5000   2000.0000   1979.0000     30.6091     95.1027
   915.7500   2000.0000   1979.0000     30.0988     95.9091
   916.0000   2000.0000   1979.0000     29.2746     98.5707
   916.2500   2000.0000   1979.0000     28.1818    100.9174
   916.5000   2000.0000   1979.0000     26.9092    104.5737
   916.7500   2000.0000   1979.0000     25.5538    106.8975
   917.0000   2000.0000   1979.0000     24.1937    110.2928
   917.2500   2000.0000   1979.0000     22.8779    112.7166
   917.5000   2000.0000   1979.0000     21.6288    116.9648
   917.7500   2000.0000   1979.0000     20.4491    120.1634
   918.0000   2000.0000   1979.0000     19.3320    124.6510
   918.2500   2000.0000   1979.0000     18.2716    126.7233
   918.5000   2000.0000   1979.0000     17.2727    128.1685
   918.7500   2000.0000   1979.0000     16.3518    128.7937
   919.0000   2000.0000   1979.0000     15.5298    130.9329
   919.2500   2000.0000   1979.0000     14.8238    133.2522
   919.5000   2000.0000   1979.0000     14.2409    136.4134
   919.7500   2000.0000   1979.0000     13.7790    137.4104
   920.0000   2000.0000   1979.0000     13.4304    137.5996
   920.2500   2000.0000   1979.0000     13.1829    137.7892
   920.5000   2000.0000   1979.0000     13.0196    138.9297
   920.7500   2000.0000   1979.0000     12.9187    139.7554
   921.0000   2000.0000   1979.0000     12.8554    139.7379
   921.2500   2000.0000   1979.0000     12.8074    138.5966
   921.5000   2000.0000   1979.0000     12.7606    135.7498
   921.7500   2000.0000   1979.0000     12.7112    133.6341
   922.0000   2000.0000   1979.0000     12.6612    130.7773
   922.2500   2000.0000   1979.0000     12.6101    129.2499
   922.5000   2000.0000   1979.0000     12.5467    127.7169
   922.7500   2000.0000   1979.0000     12.4487    127.3111
   923.0000   2000.0000   1979.0000     12.2900    127.5779
   923.2500   2000.0000   1979.0000     12.0557    128.1714
   923.5000   2000.0000   1979.0000     11.7516    129.6288
   923.7500   2000.0000   1979.0000     11.4041    131.1890
   924.0000   2000.0000   1979.0000     11.0494    134.5343
   924.2500   2000.0000   1979.0000     10.7209    136.9890
   924.5000   2000.0000   1979.0000     10.4413    139.6296
   924.7500   2000.0000   1979.0000     10.2196    140.1071
   925.0000   2000.0000   1979.0000     10.0515    138.9559
   925.2500   2000.0000   1979.0000      9.9215    137.4077
   925.5000   2000.0000   1979.0000      9.8075    134.6098
   925.7500   2000.0000   1979.0000      9.6895    132.5872
   926.0000   2000.0000   1979.0000      9.5579    129.5088
   926.2500   2000.0000   1979.0000      9.4187    127.6742
   926.5000   2000.0000   1979.0000      9.2898    125.8315
   926.7500   2000.0000   1979.0000      9.1928    125.4986
