~Version Information
VERS.                      2.0: CWLS Log ASCII Standard - VERSION 2.0
WRAP.                       NO: One line per depth step
~Well Information Block
STRT.FT                 0.0000: 
STOP.FT               712.5000: 
STEP.FT                 0.2500: 
NULL.                -999.2500: 
COMP.          Pioneer Natural Resources: COMPANY
WELL.                Mia 21-18: WELL
FLD.           Purgatorie River: FIELD
LOC.           1067' FNL & 1824' FWL: LOCATION
PROV.                 Colorado: PROVINCE
CNTY.               Las Animas: COUNTRY
SRVC.                Patterson: SERVICE COMPANY
DATE.          Mon Nov 28 13:12:22 2005: LOG DATE
UWI.           05-071-08559               : UNIQUE WELL ID
~Curve Information Block
DEPT.FT            0 000 00 00: Depth
CCL.                          : Casing Collar Locator
TT3.usec                      : CBL 3' Travel Time
AMP3.mV                       : CBL 3' Amplitude
GR.GAPI                       : Gamma Ray
~Parameter Information Block
~A  Depth       CCL         TT3         AMP3         GR     
# ...
   134.0000      0.0000    782.4297      8.4287     94.9366
   134.2500      0.0000    768.1714      8.4664     95.1178
   134.5000      0.0000    750.8186      8.5476     95.6797
   134.7500      0.0000    733.6201      8.6777     96.6191
   135.0000      0.0000    718.9304      8.8651     97.6457
   135.2500      0.0000    715.3746      9.0816     98.4517
   135.5000      0.0000    731.0579      9.2609     98.9541
   135.7500      0.0000    758.5989      9.3511     98.8910
   136.0000      0.0000    779.3757      9.3654     97.4115
   136.2500      0.0000    780.4785      9.3565     93.7287
   136.5000      0.0000    762.4982      9.2991     88.1935
   136.7500      0.0000    736.9003      9.0103     82.1406
   137.0000      0.0000    717.2415      8.3423     76.5932
   137.2500      0.0000    710.7163      7.5585     71.5704
   137.5000      0.0000    718.9230      7.1592     66.6828
   137.7500      0.0000    741.7242      7.1416     61.9257
   138.0000      0.0000    779.2086      7.1045     57.7083
   138.2500      0.0000    828.2854      7.0110     54.4560
   138.5000      0.0000    874.2577      7.0372     52.5083
   138.7500      0.0000    902.0010      7.1444     52.2107
   139.0000      2.0000    914.9011      7.2418     53.6293
   139.2500     -2.0000    922.5107      7.3193     56.0740
   139.5000      0.0000    926.6204      7.3355     58.3605
   139.7500      0.0000    923.3309      7.2482     59.8527
   140.0000      0.0000    901.8842      7.2474     61.0316
   140.2500      0.0000    856.1519      7.6722     62.8727
   140.5000      0.0000    797.6603      8.4418     65.8977
   140.7500      0.0000    746.1948      9.1101     69.8843
   141.0000      0.0000    715.2794      9.5213     74.1496
   141.2500      0.0000    704.1743      9.7357     77.9524
   141.5000      0.0000    702.7291      9.7452     80.8457
   141.7500      0.0000    703.2096      9.6010     82.7963
   142.0000      0.0000    703.2145      9.4252     83.9812
   142.2500      0.0000    702.0063      9.2844     84.6567
   142.5000      0.0000    698.6854      9.1716     85.3790
   142.7500      0.0000    693.9125      9.0636     87.0591
   143.0000      0.0000    691.4996      8.9651     90.4719
   143.2500      0.0000    694.0219      8.8885     95.6439
   143.5000      0.0000    698.5544      8.8125    101.6692
   143.7500      0.0000    700.4041      8.6994    107.0583
   144.0000      0.0000    697.6326      8.5620    110.4639
   144.2500      0.0000    691.3679      8.4689    111.3988
   144.5000      0.0000    684.9954      8.4665    110.4218
   144.7500      0.0000    681.1902      8.5269    108.5525
   145.0000      0.0000    679.7811      8.5763    106.4372
   145.2500      0.0000    679.9905      8.5605    104.2932
   145.5000      0.0000    683.3734      8.4960    102.6214
   145.7500      0.0000    693.4889      8.4595    102.3330
   146.0000      0.0000    709.7024      8.5042    103.7382
   146.2500      0.0000    721.3853      8.5785    105.8158
   146.5000      0.0000    717.6739      8.5653    106.9135
   146.7500      0.0000    702.4664      8.4305    106.0041
   147.0000      0.0000    688.4135      8.2994    103.2495
   147.2500      0.0000    681.6379      8.3294     99.7678
   147.5000      0.0000    680.8907      8.5262     97.0806
   147.7500      0.0000    684.1077      8.7503     96.4611
   148.0000      0.0000    689.1006      8.8741     98.2646
   148.2500      0.0000    691.8124      8.8749    101.5486
   148.5000      0.0000    690.2911      8.8112    104.4675
   148.7500      0.0000    689.1132      8.7615    105.4937
   149.0000      0.0000    694.8058      8.7782    104.5616
   149.2500      0.0000    706.5296      8.8707    102.9876
   149.5000      0.0000    714.7820      9.0109    102.1316
   149.7500      0.0000    715.1712      9.1463    102.2716
   150.0000      0.0000    716.2441      9.2304    102.8025
   150.2500      0.0000    722.4217      9.2409    103.0251
   150.5000      0.0000    724.2073      9.1767    102.4309
   150.7500      0.0000    716.7017      9.0716    100.7442
   151.0000      0.0000    708.8718      8.9808     98.1905
   151.2500      0.0000    706.0536      8.9226     95.4611
   151.5000      0.0000    702.3278      8.8729     93.1131
   151.7500      0.0000    693.9846      8.8181     91.1274
   152.0000      0.0000    685.2117      8.7619     89.1892
   152.2500      0.0000    680.1617      8.6832     87.2221
   152.5000      0.0000    678.6942      8.5491     85.4667
   152.7500      0.0000    678.8539      8.3794     84.2240
   153.0000      0.0000    679.1594      8.2531     83.8192
   153.2500      0.0000    679.1316      8.2393     84.7062
   153.5000      0.0000    679.0298      8.3338     87.1094
   153.7500      0.0000    679.1403      8.4680     90.4594
   154.0000      0.0000    679.3240      8.5687     93.5350
   154.2500      0.0000    679.3282      8.6004     95.2583
   154.5000      0.0000    679.2187      8.5716     95.0972
   154.7500      0.0000    679.1594      8.5104     92.8618
   155.0000      0.0000    679.0820      8.4330     88.7443
   155.2500      0.0000    678.8652      8.3528     83.7283
   155.5000      0.0000    678.6122      8.2949     79.2958
   155.7500      0.0000    678.8157      8.2788     76.2004
   156.0000      0.0000    680.7426      8.3038     73.8320
   156.2500      0.0000    686.8416      8.3425     71.1926
   156.5000      0.0000    699.8181      8.3586     68.3266
   156.7500      0.0000    720.0661      8.3491     66.4741
   157.0000      0.0000    743.1583      8.3426     66.8390
   157.2500      0.0000    758.8972      8.3802     69.3984
   157.5000      0.0000    757.2525      8.4978     72.9015
   157.7500      0.0000    740.6326      8.6880     75.7854
   158.0000      0.0000    723.2922      8.8983     76.9779
   158.2500      0.0000    714.3433      9.0512     76.2218
   158.5000      0.0000    711.3895      9.0851     74.1744
   158.7500      0.0000    711.2500      9.0367     72.1894
   159.0000      0.0000    715.0804      9.0396     71.5542
   159.2500      0.0000    726.4041      9.1722     72.6170
   159.5000      0.0000    750.2948      9.3453     74.5590
   159.7500      0.0000    783.6300      9.4150     76.0331
   160.0000      0.0000    809.2163      9.3673     76.1699
   160.2500      0.0000    814.0076      9.2850     75.1485
   160.5000      0.0000    802.9971      9.2034     73.8366
   160.7500      0.0000    788.4929      9.0953     72.8905
   161.0000      0.0000    778.9043      8.9334     72.3570
   161.2500      0.0000    775.4695      8.7191     72.0583
   161.5000      0.0000    772.8231      8.5088     71.8439
   161.7500      0.0000    766.7192      8.4225     71.3511
   162.0000      0.0000    757.7144      8.5448     70.1051
   162.2500      0.0000    747.1900      8.8006     68.2545
   162.5000      0.0000    738.1904      9.0203     66.9574
   162.7500      0.0000    734.4047      9.1272     67.7552
   163.0000      0.0000    732.1185      9.1771     71.6032
   163.2500      0.0000    725.2903      9.2398     78.3399
   163.5000      0.0000    716.5242      9.3181     86.4938
   163.7500      0.0000    710.0848      9.3538     93.4189
   164.0000      0.0000    703.3112      9.2957     96.4743
   164.2500      0.0000    694.3500      9.1899     94.8708
   164.5000      0.0000    688.4632      9.1743     90.1314
   164.7500      0.0000    692.0144      9.3548     84.3949
   165.0000      0.0000    704.5783      9.6779     78.6230
   165.2500      0.0000    717.5429      9.9606     72.6672
   165.5000      0.0000    723.8434     10.0875     66.5947
   165.7500      0.0000    726.5800     10.0899     61.4181
   166.0000      0.0000    729.9012      9.9960     58.4764
   166.2500      0.0000    731.4319      9.7643     58.3214
   166.5000      0.0000    729.8643      9.3973     60.4424
   166.7500      0.0000    727.8298      8.9803     63.9712
   167.0000      0.0000    726.9712      8.6013     68.2131
   167.2500      0.0000    726.9242      8.3195     72.5531
