~Version Information
VERS.                      2.0: CWLS Log ASCII Standard - VERSION 2.0
WRAP.                       NO: One line per depth step
~Well Information Block
STRT.FT               264.2500: 
STOP.FT              1134.7500: 
STEP.FT                 0.2500: 
NULL.                -999.2500: 
COMP.          Pioneer Natural Resources: COMPANY
WELL.          Black Cat 13-32 Tr: WELL
FLD.           Purgatoire River: FIELD
LOC.           1679' FSL & 1150' FWL--: LOCATION
CNTY.               Las Animas: COUNTY
SRVC.                Patterson: SERVICE COMPANY
DATE.          Tue Mar 07 10:58:06 2006: LOG DATE
UWI.           05 071 08721 00: UNIQUE WELL ID
STAT.                 Colorado: STATE
~Curve Information Block
DEPT.FT            0 000 00 00: Depth
SN.Ohm-m                      : IEL Short Normal
SP.mV                         : IEL Spontaneous Potential
DIR.Ohm-m                     : IEL Induction Resistivity
GR.GAPI                       : Gamma Ray
~Parameter Information Block
~A  Depth        SN          SP         DIR          GR     
# ...
   666.2500    596.4615   -487.1461     17.9482    138.7434
   666.5000    596.4615   -489.4788     17.6825    141.2517
   666.7500    596.4615   -491.9922     17.4451    142.3046
   667.0000    596.4615   -494.5391     17.2492    142.9454
   667.2500    596.4615   -496.9315     17.0935    143.0628
   667.5000    596.4392   -498.9441     16.9649    143.1752
   667.7500    596.2964   -500.3267     16.8466    143.0757
   668.0000    595.5870   -500.8163     16.7249    142.1718
   668.2500    592.8112   -500.1509     16.5900    141.0297
   668.5000    584.4250   -498.0745     16.4315    139.0978
   668.7500    564.8115   -494.3381     16.2377    138.1644
   669.0000    529.2821   -488.6976     16.0004    137.9348
   669.2500    479.1157   -480.9100     15.7234    138.6541
   669.5000    422.7925   -470.7541     15.4233    140.6149
   669.7500    370.0743   -458.0666     15.1248    142.0493
   670.0000    326.0485   -442.8080     14.8516    143.8359
   670.2500    292.7516   -425.1537     14.6217    144.8283
   670.5000    273.4643   -405.5917     14.4452    146.5181
   670.7500    270.4303   -385.0002     14.3243    147.9708
   671.0000    278.0037   -364.6657     14.2535    150.3710
   671.2500    281.1542   -346.2050     14.2202    151.7365
   671.5000    264.6245   -331.3772     14.2084    153.0607
   671.7500    226.8982   -321.8016     14.2055    153.6097
   672.0000    185.7655   -318.6399     14.2078    154.5169
   672.2500    168.5580   -322.3293     14.2208    155.5037
   672.5000    194.0993   -332.4510     14.2538    158.0974
   672.7500    259.7263   -347.7898     14.3127    160.8000
   673.0000    343.2522   -366.5764     14.3954    166.0325
   673.2500    419.7289   -386.8490     14.4895    169.5922
   673.5000    477.9778   -406.8280     14.5729    173.3574
   673.7500    520.6136   -425.2011     14.6187    174.0783
   674.0000    552.5238   -441.2586     14.6041    172.3784
   674.2500    574.8222   -454.8655     14.5224    170.0453
   674.5000    587.7866   -466.3175     14.3896    166.2222
   674.7500    593.6982   -476.1423     14.2402    163.8781
   675.0000    595.7721   -484.9100     14.1113    160.1583
   675.2500    596.3257   -493.0921     14.0269    156.8867
   675.5000    596.4407   -500.9821     13.9886    150.2271
   675.7500    596.4615   -508.6747     13.9798    144.9934
   676.0000    596.4615   -516.0827     13.9769    137.5845
   676.2500    596.4615   -522.9811     13.9626    134.0327
   676.5000    596.4615   -529.0637     13.9315    132.0885
   676.7500    596.4434   -534.0054     13.8894    133.2563
   677.0000    596.3434   -537.5214     13.8478    138.1953
   677.2500    595.8511   -539.4228     13.8195    142.9571
   677.5000    594.0193   -539.6584     13.8146    150.8291
   677.7500    588.7971   -538.3292     13.8399    155.6556
   678.0000    577.5143   -535.6868     13.9005    160.9980
   678.2500    559.3347   -532.1010     14.0033    162.8863
   678.5000    538.2949   -528.0052     14.1605    163.1431
   678.7500    522.8018   -523.8315     14.3882    161.8199
   679.0000    520.1834   -519.9477     14.6988    158.0699
   679.2500    531.2616   -516.6125     15.0921    154.5416
   679.5000    550.2888   -513.9573     15.5519    147.7131
   679.7500    569.4656   -511.9953     16.0495    142.2363
   680.0000    583.5499   -510.6516     16.5528    133.5355
   680.2500    591.4680   -509.8026     17.0334    128.3535
   680.5000    594.9169   -509.3133     17.4664    123.0717
   680.7500    596.0827   -509.0648     17.8274    121.6176
   681.0000    596.3905   -508.9680     18.0937    122.2137
   681.2500    596.4506   -508.9683     18.2518    124.0182
   681.5000    596.4615   -509.0415     18.3057    128.2613
   681.7500    596.4615   -509.1877     18.2783    131.8793
   682.0000    596.4615   -509.4238     18.2015    137.7832
   682.2500    596.4615   -509.7767     18.1040    141.3251
   682.5000    596.4615   -510.2784     18.0031    144.9104
   682.7500    596.4615   -510.9611     17.9045    146.1526
   683.0000    596.4615   -511.8539     17.8090    147.7866
   683.2500    596.4615   -512.9807     17.7200    149.7360
   683.5000    596.4615   -514.3593     17.6462    154.0372
   683.7500    596.4615   -515.9987     17.5969    156.8058
   684.0000    596.4615   -517.8978     17.5753    159.0621
   684.2500    596.4615   -520.0442     17.5754    159.2040
   684.5000    596.4615   -522.4096     17.5842    158.5459
   684.7500    596.4615   -524.9506     17.5847    158.2346
   685.0000    596.4615   -527.6023     17.5579    158.4593
   685.2500    596.4615   -530.2800     17.4879    159.0643
   685.5000    596.4615   -532.8801     17.3687    160.4086
   685.7500    596.4397   -535.2820     17.2072    161.2853
   686.0000    596.3170   -537.3553     17.0159    161.8833
   686.2500    595.7104   -538.9679     16.8023    161.5921
   686.5000    593.4373   -539.9929     16.5650    160.3862
   686.7500    586.8799   -540.3196     16.3004    159.3842
   687.0000    572.4808   -539.8666     16.0110    157.8848
   687.2500    548.6117   -538.6007     15.7091    156.9738
   687.5000    519.3159   -536.5595     15.4115    156.1692
   687.7500    493.8073   -533.8722     15.1334    156.3229
   688.0000    480.1031   -530.7700     14.8843    157.4587
   688.2500    479.2697   -527.5732     14.6706    158.2278
   688.5000    486.7629   -524.6546     14.4994    158.3799
   688.7500    497.7667   -522.3779     14.3805    157.7392
   689.0000    509.3968   -521.0325     14.3233    156.4984
   689.2500    518.4999   -520.7735     14.3307    156.1810
   689.5000    520.4341   -521.5931     14.3956    157.0769
   689.7500    513.2395   -523.3258     14.5028    158.1913
   690.0000    503.3094   -525.6852     14.6368    158.8773
   690.2500    502.8656   -528.3233     14.7894    157.7519
   690.5000    518.5549   -530.8908     14.9618    153.4822
   690.7500    544.4909   -533.0892     15.1606    149.5441
   691.0000    568.4175   -534.6988     15.3912    143.4845
   691.2500    581.4974   -535.5853     15.6525    140.1956
   691.5000    579.8423   -535.6876     15.9362    137.7129
   691.7500    559.7674   -534.9976     16.2294    138.0392
   692.0000    517.0254   -533.5426     16.5185    140.6161
   692.2500    453.8726   -531.3757     16.7926    142.5348
   692.5000    386.5180   -528.5746     17.0453    143.8312
   692.7500    340.9241   -525.2442     17.2746    143.1072
   693.0000    335.4577   -521.5036     17.4818    139.7270
   693.2500    364.7015   -517.4654     17.6735    136.4973
   693.5000    400.8076   -513.1929     17.8655    131.6526
   693.7500    412.9276   -508.6623     18.0816    129.0526
   694.0000    390.2249   -503.7413     18.3455    125.9301
   694.2500    351.4323   -498.1928     18.6694    123.7653
   694.5000    331.9997   -491.7115     19.0495    119.7902
   694.7500    356.2286   -483.9816     19.4709    116.9336
   695.0000    418.1925   -474.7284     19.9182    113.4269
   695.2500    489.7680   -463.7601     20.3828    112.1143
   695.5000    545.3301   -450.9780     20.8666    111.8048
   695.7500    576.9396   -436.3723     21.3811    112.3532
   696.0000    590.5301   -420.0145     21.9442    113.4980
   696.2500    594.9326   -402.0614     22.5758    114.1905
   696.5000    595.6738   -382.7802     23.2930    115.0245
   696.7500    594.3654   -362.5938     24.1036    115.4506
   697.0000    589.5884   -342.1280     24.9969    115.7494
   697.2500    577.3138   -322.2319     25.9382    115.4351
   697.5000    552.0740   -303.9604     26.8744    113.4448
   697.7500    510.3873   -288.5021     27.7542    110.9521
   698.0000    455.6026   -277.0601     28.5460    106.5361
   698.2500    399.9465   -270.7072     29.2380    104.2925
   698.5000    360.3397   -270.2329     29.8229    103.2387
   698.7500    349.7615   -276.0143     30.2897    103.8456
   699.0000    370.6082   -287.9262     30.6290    105.2114
   699.2500    414.5470   -305.3180     30.8368    105.5995
   699.5000    467.5438   -327.0573     30.9127    104.9225
