~Version Information
VERS.                      2.0: CWLS Log ASCII Standard - VERSION 2.0
WRAP.                       NO: One line per depth step
~Well Information Block
STRT.FT                10.0000: 
STOP.FT              1380.7500: 
STEP.FT                 0.2500: 
NULL.                -999.2500: 
COMP.          Pioneer Natural Resources: COMPANY
WELL.          Baa Baa 34-1 Tr: WELL
FLD.           Purgatoire River: FIELD
LOC.           785' FSL & 2304' FEL: LOCATION
CNTY.               Las Animas: COUNTY
SRVC.                Patterson: SERVICE COMPANY
DATE.          Tue Mar 07 13:08:19 2006: LOG DATE
UWI.           05 071 08710 00: UNIQUE WELL ID
STAT.                 Colorado: STATE
~Curve Information Block
DEPT.FT            0 000 00 00: Depth
GR.GAPI                       : Gamma Ray
CCL.                          : Casing Collar Locator
TT3.usec                      : CBL 3' Travel Time
AMP3.mV                       : CBL 3' Amplitude
~Parameter Information Block
~A  Depth        GR         CCL         TT3         AMP3    
# ...
  1350.0000     78.3182      0.0000    770.5991      9.1886
  1350.2500     79.4978      0.0000    767.1370      9.1484
  1350.5000     81.5989      0.0000    766.7449      9.1122
  1350.7500     85.0960      0.0000    768.9865      9.0730
  1351.0000     90.8661      0.0000    771.3239      9.0220
  1351.2500     99.9710      0.0000    771.2678      8.9618
  1351.5000    112.6094      0.0000    768.6185      8.9003
  1351.7500    127.1410      0.0000    765.4008      8.8365
  1352.0000    140.7118      0.0000    763.6113      8.7610
  1352.2500    151.2837      0.0000    763.3123      8.6684
  1352.5000    158.7407      0.0000    763.0032      8.5685
  1352.7500    163.6366      0.0000    761.5059      8.4872
  1353.0000    165.4809      0.0000    759.0856      8.4620
  1353.2500    163.0766      0.0000    756.8223      8.5313
  1353.5000    156.1216      0.0000    755.4138      8.7186
  1353.7500    145.7220      0.0000    754.8150      9.0198
  1354.0000    133.6156      0.0000    754.6677      9.4071
  1354.2500    121.3006      0.0000    754.7518      9.8449
  1354.5000    109.4694      0.0000    755.1265     10.3021
  1354.7500     97.9332      0.0000    756.0914     10.7525
  1355.0000     86.4574      0.0000    757.9733     11.1654
  1355.2500     75.9655      0.0000    760.6437     11.4992
  1355.5000     68.7495      0.0000    763.1060     11.7031
  1355.7500     67.1425      0.0000    763.8693     11.7276
  1356.0000     71.7927      0.0000    762.0677     11.5375
  1356.2500     81.0960      0.0000    758.1561     11.1238
  1356.5000     92.1634      0.0000    753.4785     10.5150
  1356.7500    102.1869      0.0000    749.3821      9.7786
  1357.0000    109.0333      0.0000    746.5323      9.0061
  1357.2500    111.2207      0.0000    744.5045      8.2855
  1357.5000    108.2537      0.0000    742.1922      7.6777
  1357.7500    101.3196      0.0000    739.2262      7.2080
  1358.0000     93.0870      0.0000    736.7880      6.8658
  1358.2500     86.1503      0.0000    736.2387      6.6135
  1358.5000     81.6268      0.0000    736.9953      6.4071
  1358.7500     79.4098      0.0000    736.6366      6.2199
  1359.0000     79.3741      0.0000    733.4454      6.0542
  1359.2500     81.8269      0.0000    728.4344      5.9321
  1359.5000     86.9146      0.0000    724.6249      5.8717
  1359.7500     94.0662      0.0000    724.5399      5.8738
  1360.0000    102.2580      0.0000    728.2988      5.9273
  1360.2500    110.8351      0.0000    733.7488      6.0210
  1360.5000    119.9914      0.0000    738.3494      6.1456
  1360.7500    130.2945      0.0000    741.1679      6.2861
  1361.0000    141.6573      0.0000    743.1081      6.4176
  1361.2500    152.9651      0.0000    745.3344      6.5102
  1361.5000    162.8773      0.0000    747.9255      6.5407
  1361.7500    170.7003      0.0000    750.1628      6.5034
  1362.0000    176.1872      0.0000    751.5588      6.4108
  1362.2500    178.8219      0.0000    752.2126      6.2862
  1362.5000    177.7872      0.0000    752.4653      6.1570
  1362.7500    172.7670      0.0000    752.5828      6.0501
  1363.0000    164.7856      0.0000    752.7189      5.9887
  1363.2500    156.2508      0.0000    752.9645      5.9877
  1363.5000    149.8283      0.0000    753.3444      6.0494
  1363.7500    146.7547      0.0000    753.8127      6.1668
  1364.0000    146.0517      0.0000    754.2824      6.3307
  1364.2500    145.4486      0.0000    754.6746      6.5288
  1364.5000    143.2091      0.0000    754.9754      6.7387
  1364.7500    139.1909      0.0000    755.3414      6.9273
  1365.0000    134.2587      0.0000    756.1829      7.0615
  1365.2500    128.9557      0.0000    757.9840      7.1189
  1365.5000    123.1938      0.0000    760.0816      7.0790
  1365.7500    117.4071      0.0000    758.0818      6.8930
  1366.0000    113.4682      0.0000    741.0621      6.4524
  1366.2500    113.7132      0.0000    692.3025      5.5895
  1366.5000    118.8947      0.0000    597.8013      4.1639
  1366.7500    127.4327      0.0000    460.3358      2.2283
  1367.0000    136.7579      0.0000    305.8735      0.1165
  1367.2500    145.1397      0.0000    170.6849     -1.7090
  1367.5000    152.2624      0.0000     78.3510     -2.9495
  1367.7500    158.4015      0.0000     29.1400     -3.6095
  1368.0000    163.4025      0.0000      8.6834     -3.8836
  1368.2500    166.6434      0.0000      2.0538     -3.9725
  1368.5000    167.8982      0.0000      0.3796     -3.9949
  1368.7500    167.7709      0.0000      0.0505     -3.9993
  1369.0000    167.0631      0.0000   -999.2500   -999.2500
  1369.2500    166.0027      0.0000   -999.2500   -999.2500
  1369.5000    164.4761      0.0000   -999.2500   -999.2500
  1369.7500    162.9055      0.0000   -999.2500   -999.2500
  1370.0000    162.3454      0.0000   -999.2500   -999.2500
  1370.2500    163.3516      0.0000   -999.2500   -999.2500
  1370.5000    164.8922      0.0000   -999.2500   -999.2500
  1370.7500    164.7127      0.0000   -999.2500   -999.2500
  1371.0000    161.0376      0.0000   -999.2500   -999.2500
  1371.2500    154.2462      0.0000   -999.2500   -999.2500
  1371.5000    147.0073      0.0000   -999.2500   -999.2500
  1371.7500    142.3487      0.0000   -999.2500   -999.2500
  1372.0000    141.3421      0.0000   -999.2500   -999.2500
  1372.2500    142.8038      0.0000   -999.2500   -999.2500
  1372.5000    145.0502      0.0000   -999.2500   -999.2500
  1372.7500    147.4644      0.0000   -999.2500   -999.2500
  1373.0000    150.5540      0.0000   -999.2500   -999.2500
  1373.2500    155.2439      0.0000   -999.2500   -999.2500
  1373.5000    162.3295      0.0000   -999.2500   -999.2500
  1373.7500    171.9996      0.0000   -999.2500   -999.2500
  1374.0000    183.2860      0.0000   -999.2500   -999.2500
  1374.2500    193.8801      0.0000   -999.2500   -999.2500
  1374.5000    200.7951   -999.2500   -999.2500   -999.2500
  1374.7500    201.6896   -999.2500   -999.2500   -999.2500
  1375.0000    196.1692   -999.2500   -999.2500   -999.2500
  1375.2500    186.1946   -999.2500   -999.2500   -999.2500
  1375.5000    174.9373   -999.2500   -999.2500   -999.2500
  1375.7500    164.6708   -999.2500   -999.2500   -999.2500
  1376.0000    155.4527   -999.2500   -999.2500   -999.2500
  1376.2500    145.3501   -999.2500   -999.2500   -999.2500
  1376.5000    131.4173   -999.2500   -999.2500   -999.2500
  1376.7500    111.1246   -999.2500   -999.2500   -999.2500
  1377.0000     84.5638   -999.2500   -999.2500   -999.2500
  1377.2500     55.8220   -999.2500   -999.2500   -999.2500
  1377.5000     31.0166   -999.2500   -999.2500   -999.2500
  1377.7500     14.1859   -999.2500   -999.2500   -999.2500
  1378.0000      5.2573   -999.2500   -999.2500   -999.2500
  1378.2500      1.5609   -999.2500   -999.2500   -999.2500
  1378.5000      0.3681   -999.2500   -999.2500   -999.2500
  1378.7500      0.0679   -999.2500   -999.2500   -999.2500
  1379.0000      0.0089   -999.2500   -999.2500   -999.2500
  1379.2500      0.0000   -999.2500   -999.2500   -999.2500
  1379.5000   -999.2500   -999.2500   -999.2500   -999.2500
  1379.7500   -999.2500   -999.2500   -999.2500   -999.2500
  1380.0000   -999.2500   -999.2500   -999.2500   -999.2500
  1380.2500   -999.2500   -999.2500   -999.2500   -999.2500
  1380.5000   -999.2500   -999.2500   -999.2500   -999.2500
  1380.7500   -999.2500   -999.2500   -999.2500   -999.2500
