~Version Information
VERS.                      2.0: CWLS Log ASCII Standard - VERSION 2.0
WRAP.                       NO: One line per depth step
~Well Information Block
STRT.FT               240.0000: 
STOP.FT              1342.0000: 
STEP.FT                 0.1000: 
NULL.                -999.2500: 
COMP.          Pioneer Natural Resources: COMPANY
WELL.          Lorencito 9-4-34-66: WELL
FLD.           Purgatoire River: FIELD
LOC.           2540' FSL & 438' FEL: LOCATION
STAT.                 Colorado: State
CNTY.               Las Animas: COUNTY
CTRY. USA : Country
SECT. 4 : Section
TOWN. 34S : Township
RANG. 68W : range
SRVC.                Patterson: SERVICE COMPANY
DATE.          Thu Sep 15 13:16:59 2005: LOG DATE
API.           05 071 08498 00: UNIQUE WELL ID
~Curve Information Block
DEPT.FT            0 000 00 00: Depth
DCAL.in                       : CDL Caliper
RHOB.g/cc                     : CDL Bulk Density
RHOC.g/cc                     : CDL Density Correction
DPOR.pu                       : CDL Density Porosity
GR.GAPI                       : Gamma Ray
NPOR.pu                       : Neutron Porosity
~Parameter Information Block
~A  Depth       DCAL        RHOB        RHOC        DPOR         GR         NPOR    
# ...
  1248.0000      8.0554      2.4467      0.0229     12.3239    112.1128     19.9623
  1248.1000      8.0554      2.4472      0.0599     12.2934    114.7379     20.9800
  1248.2000      8.0554      2.4707      0.0853     10.8650    118.9106     21.6892
  1248.3000      8.0579      2.5003      0.0972      9.0740    121.0697     21.3769
  1248.4000      8.0579      2.5145      0.1672      8.2137    114.9430     20.6468
  1248.5000      8.0502      2.5092      0.0830      8.5345     99.8008     20.5449
  1248.6000      8.0502      2.5038      0.0509      8.8606     87.6229     20.6513
  1248.7000      8.0502      2.5088      0.1208      8.5552     88.8047     20.2577
  1248.8000      8.0130      2.5154      0.0920      8.1568     98.0721     20.0791
  1248.9000      8.0130      2.5167      0.0985      8.0803    105.1746     20.3199
  1249.0000      8.0028      2.5111      0.1138      8.4188    106.7161     20.1733
  1249.1000      8.0028      2.5029      0.0806      8.9159    106.4923     19.4573
  1249.2000      8.0028      2.5055      0.0711      8.7583    109.3345     18.6520
  1249.3000      8.0026      2.5182      0.1049      7.9882    112.5344     18.2194
  1249.4000      8.0026      2.5247      0.0961      7.5919    107.7001     18.0660
  1249.5000      8.0402      2.5250      0.0878      7.5780     94.7438     18.0493
  1249.6000      8.0402      2.5302      0.0749      7.2629     84.6057     18.1435
  1249.7000      8.0402      2.5374      0.1259      6.8245     83.4068     18.1672
  1249.8000      8.0477      2.5341      0.0946      7.0219     85.6983     18.2508
  1249.9000      8.0477      2.5209      0.0608      7.8247     87.3903     18.6114
  1250.0000      8.0524      2.5073      0.0605      8.6500     89.7750     19.2227
  1250.1000      8.0524      2.5025      0.0349      8.9411     92.6749     19.5311
  1250.2000      8.0524      2.5153      0.0689      8.1637     96.7986     19.0376
  1250.3000      8.0569      2.5433      0.0725      6.4691    101.8923     18.3751
  1250.4000      8.0569      2.5693      0.1410      4.8880    102.5078     18.4556
  1250.5000      8.0535      2.5744      0.0733      4.5819     97.0982     19.1111
  1250.6000      8.0535      2.5508      0.1696      6.0099     90.8372     19.3445
  1250.7000      8.0535      2.5110      0.0954      8.4225     86.9863     18.7106
  1250.8000      8.0560      2.4850      0.0723      9.9972     84.6223     17.7664
  1250.9000      8.0560      2.4892      0.0593      9.7482     84.4069     17.1697
  1251.0000      8.0188      2.5068      0.1265      8.6769     89.6208     17.2025
  1251.1000      8.0188      2.5151      0.1224      8.1730     96.4161     17.4787
  1251.2000      8.0188      2.5137      0.1117      8.2610     95.3147     17.4193
  1251.3000      8.0157      2.5089      0.1382      8.5532     87.1146     17.3783
  1251.4000      8.0157      2.5025      0.1532      8.9392     83.4558     18.0681
  1251.5000      8.0244      2.4987      0.1811      9.1725     86.9299     18.8381
  1251.6000      8.0244      2.4970      0.1388      9.2747     90.4860     18.6958
  1251.7000      8.0244      2.4944      0.1371      9.4319     90.9041     18.2308
  1251.8000      8.0217      2.4958      0.1268      9.3484     90.2122     18.3083
  1251.9000      8.0217      2.5078      0.1498      8.6154     91.0547     19.1068
  1252.0000      7.9859      2.5223      0.1885      7.7418     92.2624     20.2311
  1252.1000      7.9859      2.5189      0.1497      7.9460     91.3884     20.6955
  1252.2000      7.9859      2.4977      0.1231      9.2312     88.2009     20.1280
  1252.3000      7.9759      2.4867      0.1146      9.8965     83.6746     19.1723
  1252.4000      7.9759      2.4945      0.1435      9.4228     79.2738     18.6315
  1252.5000      8.0080      2.4957      0.0967      9.3519     77.2782     18.8821
  1252.6000      8.0080      2.4813      0.0824     10.2245     78.8536     19.4929
  1252.7000      8.0080      2.4728      0.0746     10.7401     82.2744     19.8097
  1252.8000      8.0354      2.4818      0.0821     10.1945     83.3949     19.8205
  1252.9000      8.0354      2.4916      0.0508      9.6003     81.0589     20.1381
  1253.0000      8.0545      2.4856      0.0473      9.9607     79.3331     20.8848
  1253.1000      8.0545      2.4722      0.0389     10.7748     78.1685     21.3274
  1253.2000      8.0545      2.4650      0.0753     11.2109     74.9618     21.3700
  1253.3000      8.0617      2.4589      0.0600     11.5805     72.5688     21.3287
  1253.4000      8.0617      2.4484     -0.0022     12.2181     74.3101     20.9354
  1253.5000      8.0528      2.4400      0.0434     12.7285     79.7636     20.3772
  1253.6000      8.0528      2.4328      0.0413     13.1652     86.5507     20.2877
  1253.7000      8.0528      2.4215      0.0294     13.8502     93.4911     21.0616
  1253.8000      8.0324      2.4132     -0.0023     14.3508    101.1637     22.1256
  1253.9000      8.0324      2.4207      0.0516     13.8943    105.5787     22.2753
  1254.0000      8.0071      2.4484      0.0882     12.2171    100.7126     21.6798
  1254.1000      8.0071      2.4889      0.1127      9.7628     88.5912     21.4416
  1254.2000      8.0071      2.5246      0.1776      7.6004     75.7234     21.5357
  1254.3000      7.9916      2.5532      0.1432      5.8662     67.8156     21.1791
  1254.4000      7.9916      2.5902      0.1835      3.6272     65.2473     20.2051
  1254.5000      7.9509      2.6300      0.2179      1.2106     64.8301     19.2962
  1254.6000      7.9509      2.6514      0.2298     -0.0865     69.1496     19.3022
  1254.7000      7.9509      2.6464      0.1986      0.2156     77.8481     20.2011
  1254.8000      7.9283      2.6226      0.1736      1.6582     81.9149     20.7788
  1254.9000      7.9283      2.5933      0.1520      3.4367     79.4547     20.3659
  1255.0000      7.9408      2.5692      0.1342      4.8979     76.9324     19.7680
  1255.1000      7.9408      2.5537      0.0908      5.8347     79.0877     19.7652
  1255.2000      7.9408      2.5446      0.0803      6.3871     84.4221     20.2052
  1255.3000      7.9675      2.5411      0.0504      6.5982     86.7070     20.6761
  1255.4000      7.9675      2.5459      0.0734      6.3104     85.5451     21.2305
  1255.5000      7.9995      2.5611      0.0856      5.3849     87.5134     21.9499
  1255.6000      7.9995      2.5883      0.0818      3.7400     90.5670     22.5187
  1255.7000      7.9995      2.6138      0.1522      2.1951     88.1772     22.7420
  1255.8000      8.0316      2.6162      0.0859      2.0475     85.9488     22.5761
  1255.9000      8.0316      2.5980      0.0556      3.1521     89.1139     22.0486
  1256.0000      8.0717      2.5780      0.0041      4.3648     92.8818     21.8128
  1256.1000      8.0717      2.5719      0.0450      4.7307     93.9860     22.5195
  1256.2000      8.0717      2.5816      0.0295      4.1483     91.7430     23.5401
  1256.3000      8.0876      2.5949      0.0822      3.3416     85.0450     23.4615
  1256.4000      8.0876      2.6040      0.0348      2.7893     76.0995     22.4466
  1256.5000      8.0548      2.6037      0.0970      2.8078     70.4143     22.1246
  1256.6000      8.0548      2.5830      0.0395      4.0605     73.2611     23.0042
  1256.7000      8.0548      2.5555      0.0441      5.7283     82.1039     23.8545
  1256.8000      8.0541      2.5491      0.0470      6.1136     89.8290     23.9382
  1256.9000      8.0541      2.5673      0.0255      5.0133     94.5476     24.0002
  1257.0000      8.0415      2.5959      0.0705      3.2790     97.7717     23.9353
  1257.1000      8.0415      2.6233      0.0844      1.6192     97.8511     23.1653
  1257.2000      8.0415      2.6398      0.0730      0.6155     93.1583     22.3762
  1257.3000      8.0238      2.6321      0.1212      1.0843     86.0353     22.1100
  1257.4000      8.0238      2.5999      0.0500      3.0343     78.3399     21.9128
  1257.5000      8.0203      2.5676      0.0354      4.9916     74.7550     21.4750
