~Version Information
VERS.                      2.0: CWLS Log ASCII Standard - VERSION 2.0
WRAP.                       NO: One line per depth step
~Well Information Block
STRT.FT                 0.5000: 
STOP.FT              2166.0000: 
STEP.FT                 0.2500: 
NULL.                -999.2500: 
COMP.          Pioneer Natural Resources: COMPANY
WELL.          Bear Cub Federal 11-23: WELL
FLD.           Purgatoire River: FIELD
LOC.           1225' FNL & 1268 ' FWL--: LOCATION
CNTY.               Las Animas: COUNTY
SRVC.                Patterson: SERVICE COMPANY
DATE.          Mon Jul 17 10:21:31 2006: LOG DATE
UWI.           05 071 08509 00: UNIQUE WELL ID
STAT.                 Colorado: STATE
~Curve Information Block
DEPT.FT            0 000 00 00: Depth
CCL.                          : Casing Collar Locator
TT3.usec                      : CBL 3' Travel Time
AMP3.mV                       : CBL 3' Amplitude
GR.GAPI                       : Gamma Ray
~Parameter Information Block
~A  Depth       CCL         TT3         AMP3         GR     
# ...
  1575.0000      0.0000    630.3150      3.3552    145.4258
  1575.2500      0.0000    641.7575      3.3889    142.3012
  1575.5000      0.0000    655.2902      3.4248    134.8316
  1575.7500      0.0000    658.6662      3.4318    130.9212
  1576.0000      0.0000    652.2271      3.4191    130.2253
  1576.2500      0.0000    638.4363      3.4071    132.8994
  1576.5000      0.0000    601.9796      3.4075    137.8942
  1576.7500      0.0000    569.8496      3.4251    139.8047
  1577.0000      0.0000    521.7510      3.4673    140.0018
  1577.2500      0.0000    497.8687      3.4958    139.5374
  1577.5000      0.0000    483.6791      3.5261    139.7133
  1577.7500      0.0000    490.4474      3.5325    140.4089
  1578.0000      0.0000    522.5593      3.5138    141.5639
  1578.2500      0.0000    553.8226      3.4813    142.3216
  1578.5000      0.0000    602.5294      3.4087    143.7699
  1578.7500      0.0000    628.9830      3.3497    144.8436
  1579.0000      0.0000    654.2173      3.2552    145.8976
  1579.2500      0.0000    662.6685      3.1968    146.1311
  1579.5000      0.0000    668.0510      3.1397    146.5647
  1579.7500      0.0000    669.3239      3.1337    147.0753
  1580.0000      0.0000    669.9961      3.1730    146.5208
  1580.2500      0.0000    670.0842      3.2204    143.8278
  1580.5000      0.0000    669.9342      3.3002    135.8158
  1580.7500      0.0000    669.7198      3.3502    129.2961
  1581.0000      0.0000    669.3182      3.4115    121.5863
  1581.2500      0.0000    669.0679      3.4362    119.3907
  1581.5000      0.0000    669.0171      3.4314    120.8178
  1581.7500      0.0000    669.3478      3.3966    123.9132
  1582.0000      0.0000    669.9058      3.3269    128.8350
  1582.2500      0.0000    669.2156      3.3034    130.4918
  1582.5000      0.0000    664.1006      3.3429    128.9759
  1582.7500      0.0000    657.7169      3.4112    125.7219
  1583.0000      0.0000    646.9872      3.5338    119.2912
  1583.2500      0.0000    641.5675      3.6105    114.7684
  1583.5000      0.0000    636.6003      3.7017    108.3127
  1583.7500     -2.0000    633.4354      3.7383    104.6242
  1584.0000      2.0000    625.2398      3.7490    101.2163
  1584.2500      2.0000    616.0017      3.7306    101.2227
  1584.5000      0.0000    595.4568      3.6819    105.2644
  1584.7500      0.0000    579.3260      3.6509    109.9371
  1585.0000      0.0000    561.0542      3.6355    117.2483
  1585.2500      0.0000    558.3572      3.6504    120.8734
  1585.5000      0.0000    568.8768      3.6805    123.6447
  1585.7500      0.0000    580.3710      3.6839    124.3290
  1586.0000      0.0000    594.4318      3.6643    125.2536
  1586.2500      0.0000    598.7864      3.6551    126.1862
  1586.5000      0.0000    596.4495      3.6687    127.1551
  1586.7500      0.0000    588.2472      3.6857    126.6181
  1587.0000      0.0000    566.3842      3.6828    123.1267
  1587.2500      0.0000    549.9011      3.6463    119.1235
  1587.5000      0.0000    536.8439      3.5543    112.1520
  1587.7500      0.0000    541.8221      3.4974    108.4317
  1588.0000      0.0000    564.2324      3.4611    106.2939
  1588.2500      0.0000    579.4478      3.4650    106.8840
  1588.5000      0.0000    592.5058      3.4634    108.4613
  1588.7500      0.0000    597.7811      3.4346    109.1640
  1589.0000      0.0000    612.3046      3.3551    110.6325
  1589.2500      0.0000    628.6501      3.2951    112.8762
  1589.5000      0.0000    655.1992      3.2128    118.5882
  1589.7500      0.0000    667.9199      3.1662    123.4814
  1590.0000      0.0000    675.6796      3.1243    131.3108
  1590.2500      0.0000    675.4988      3.1300    136.2356
  1590.5000      0.0000    672.8685      3.1960    141.9938
  1590.7500      0.0000    671.4855      3.2622    144.0084
  1591.0000      0.0000    670.3580      3.3557    143.5173
  1591.2500      0.0000    669.2275      3.4036    140.9786
  1591.5000      0.0000    663.0051      3.4589    135.0428
  1591.7500      0.0000    652.2346      3.4877    130.6526
  1592.0000      0.0000    620.5407      3.5132    125.0730
  1592.2500      0.0000    589.3876      3.5153    122.6338
  1592.5000      0.0000    537.9009      3.5038    120.8181
  1592.7500      0.0000    509.5068      3.4939    120.2781
  1593.0000      0.0000    485.9836      3.4789    119.4277
  1593.2500      0.0000    481.7950      3.4628    118.3849
  1593.5000      0.0000    481.4548      3.4196    115.5940
  1593.7500      0.0000    478.9965      3.3788    112.9253
  1594.0000      0.0000    470.0349      3.3132    108.5948
  1594.2500      0.0000    463.9330      3.2766    106.2244
  1594.5000      0.0000    462.5582      3.2483    104.0458
  1594.7500      0.0000    471.0034      3.2518    103.3291
  1595.0000      0.0000    502.1666      3.2801    102.8587
  1595.2500      0.0000    534.1577      3.2986    102.8681
  1595.5000      0.0000    588.4625      3.3040    103.6936
  1595.7500      0.0000    620.4007      3.2930    105.2971
  1596.0000      0.0000    652.5067      3.2682    110.8765
  1596.2500      0.0000    663.3421      3.2516    117.7010
  1596.5000      0.0000    669.7470      3.2230    132.6227
  1596.7500      0.0000    671.1311      3.1968    143.9984
  1597.0000      0.0000    672.3251      3.1482    158.6240
  1597.2500      0.0000    673.1025      3.1178    164.9647
  1597.5000      0.0000    674.1895      3.0909    169.8687
  1597.7500      0.0000    674.7959      3.0873    171.4301
  1598.0000      0.0000    675.7831      3.0919    171.8449
  1598.2500      0.0000    676.6290      3.0933    169.6083
  1598.5000      0.0000    677.2727      3.0834    159.9406
  1598.7500      0.0000    675.4681      3.0641    149.1891
  1599.0000      0.0000    663.9807      3.0131    129.6558
  1599.2500      0.0000    646.9374      2.9706    117.1090
  1599.5000      0.0000    604.4746      2.9162    102.7490
  1599.7500      0.0000    567.8733      2.8966     96.9275
  1600.0000      0.0000    514.6956      2.8968     93.0410
  1600.2500      0.0000    489.7461      2.9131     92.6628
  1600.5000      0.0000    473.7681      2.9518     93.5204
  1600.7500      0.0000    472.8261      2.9823     94.0562
  1601.0000      0.0000    474.7047      3.0325     93.9435
  1601.2500      0.0000    475.6132      3.0674     93.5518
  1601.5000      0.0000    478.6888      3.1153     93.6641
  1601.7500      0.0000    483.2532      3.1438     94.4222
  1602.0000      0.0000    495.2362      3.1899     95.7415
  1602.2500      0.0000    509.1306      3.2247     96.4032
  1602.5000      0.0000    543.8953      3.2663     98.2237
  1602.7500      0.0000    574.9066      3.2735    101.2442
  1603.0000      0.0000    620.9061      3.2437    109.5395
  1603.2500      0.0000    643.6894      3.2014    117.1215
  1603.5000      0.0000    662.2676      3.1220    129.9281
  1603.7500      0.0000    667.0010      3.0708    138.4850
  1604.0000      0.0000    669.0447      3.0126    149.5743
  1604.2500      0.0000    669.3719      2.9888    154.5804
  1604.5000      0.0000    669.6907      2.9704    157.1168
  1604.7500      0.0000    669.8448      2.9648    155.7323
  1605.0000      0.0000    669.8152      2.9573    151.0731
  1605.2500      0.0000    669.5773      2.9474    147.7036
  1605.5000      0.0000    668.9307      2.9203    144.0174
  1605.7500      0.0000    668.3794      2.8965    142.6999
  1606.0000      0.0000    667.5394      2.8606    141.4480
  1606.2500      0.0000    667.0854      2.8383    140.1885
  1606.5000      0.0000    666.7545      2.8068    136.7519
  1606.7500      0.0000    666.8373      2.7887    133.6744
  1607.0000      0.0000    667.4059      2.7713    129.3246
  1607.2500      0.0000    668.0071      2.7682    127.5093
  1607.5000      0.0000    669.0807      2.7768    127.4547
  1607.7500      0.0000    669.8405      2.7913    129.3676
  1608.0000      0.0000    670.9896      2.8238    134.1989
  1608.2500      0.0000    671.7451      2.8504    137.4352
