~Version Information
VERS.                      2.0: CWLS Log ASCII Standard - VERSION 2.0
WRAP.                       NO: One line per depth step
~Well Information Block
STRT.FT                -8.5000: 
STOP.FT              2823.2500: 
STEP.FT                 0.2500: 
NULL.                -999.2500: 
COMP.          Pioneer Natural Resources: COMPANY
WELL.                AMX 13-13: WELL
FLD.           Purgatorie River: FIELD
LOC.           2316' FSL & 865' FWL--: LOCATION
PROV.                       CO: PROVINCE
CNTY.               Las Animas: COUNTRY
SRVC.          Patterson Wireline: SERVICE COMPANY
DATE.          Tue Dec 27 10:40:58 2005: LOG DATE
UWI.           05 071 08630 00: UNIQUE WELL ID
~Curve Information Block
DEPT.FT            0 000 00 00: Depth
CCL.                          : Casing Collar Locator
TT3.usec                      : CBL 3' Travel Time
AMP3.mV                       : CBL 3' Amplitude
GR.GAPI                       : Gamma Ray
~Parameter Information Block
~A  Depth       CCL         TT3         AMP3         GR     
# ...
  2805.5000      0.0000    702.6679      5.0698     86.2038
  2805.7500      0.0000    697.7659      4.8438     87.1354
  2806.0000      0.0000    687.0425      4.6430     87.8247
  2806.2500      0.0000    670.8873      4.4688     88.4692
  2806.5000      0.0000    652.5502      4.3239     89.5859
  2806.7500      0.0000    635.8318      4.2113     91.8548
  2807.0000      0.0000    622.0348      4.1266     95.7065
  2807.2500      0.0000    609.5457      4.0578    100.6131
  2807.5000      0.0000    596.3531      3.9935    104.7911
  2807.7500      0.0000    582.9830      3.9312    106.2433
  2808.0000      0.0000    573.3221      3.8757    104.4146
  2808.2500      0.0000    572.4874      3.8325    100.4989
  2808.5000      0.0000    583.0665      3.8049     95.7738
  2808.7500      0.0000    602.9196      3.7959     89.6293
  2809.0000      0.0000    626.6987      3.8105     79.5858
  2809.2500      0.0000    649.3668      3.8513     63.9142
  2809.5000      0.0000    668.4043      3.9137     44.3952
  2809.7500      0.0000    683.6812      3.9851     25.7876
  2810.0000      0.0000    695.8542      4.0516     12.2412
  2810.2500      0.0000    704.6913      4.1040      4.6773
  2810.5000      0.0000    709.1789      4.1394      1.4238
  2810.7500      0.0000    709.4395      4.1592      0.3427
  2811.0000      0.0000    707.6755      4.1652      0.0645
  2811.2500      0.0000    706.4312      4.1597      0.0089
  2811.5000      0.0000    705.7590      4.1462      0.0000
  2811.7500      0.0000    701.7120      4.1301   -999.2500
  2812.0000      0.0000    687.6855      4.1151   -999.2500
  2812.2500      0.0000    658.9975      4.1003   -999.2500
  2812.5000      0.0000    618.1059      4.0833   -999.2500
  2812.7500      0.0000    575.5472      4.0681   -999.2500
  2813.0000      0.0000    544.9432      4.0672   -999.2500
  2813.2500      0.0000    536.4086      4.0956   -999.2500
  2813.5000      0.0000    552.5068      4.1561   -999.2500
  2813.7500      0.0000    586.0703      4.2220   -999.2500
  2814.0000      0.0000    618.1387      4.2202   -999.2500
  2814.2500      0.0000    620.0425      4.0332   -999.2500
  2814.5000      0.0000    566.0911      3.5535   -999.2500
  2814.7500      0.0000    453.0626      2.7798   -999.2500
  2815.0000      0.0000    308.5211      1.8677   -999.2500
  2815.2500      0.0000    174.7295      1.0497   -999.2500
  2815.5000      0.0000     80.9057      0.4839   -999.2500
  2815.7500      0.0000     30.2419      0.1804   -999.2500
  2816.0000      0.0000      9.0393      0.0538   -999.2500
  2816.2500      0.0000      2.1427      0.0127   -999.2500
  2816.5000      0.0000      0.3966      0.0024   -999.2500
  2816.7500      0.0000      0.0527      0.0003   -999.2500
  2817.0000      0.0000   -999.2500   -999.2500   -999.2500
  2817.2500      0.0000   -999.2500   -999.2500   -999.2500
  2817.5000      0.0000   -999.2500   -999.2500   -999.2500
  2817.7500      0.0000   -999.2500   -999.2500   -999.2500
  2818.0000      0.0000   -999.2500   -999.2500   -999.2500
  2818.2500      0.0000   -999.2500   -999.2500   -999.2500
  2818.5000      0.0000   -999.2500   -999.2500   -999.2500
  2818.7500      0.0000   -999.2500   -999.2500   -999.2500
  2819.0000      0.0000   -999.2500   -999.2500   -999.2500
  2819.2500      0.0000   -999.2500   -999.2500   -999.2500
  2819.5000      0.0000   -999.2500   -999.2500   -999.2500
  2819.7500      0.0000   -999.2500   -999.2500   -999.2500
  2820.0000      0.0000   -999.2500   -999.2500   -999.2500
  2820.2500      0.0000   -999.2500   -999.2500   -999.2500
  2820.5000      0.0000   -999.2500   -999.2500   -999.2500
  2820.7500      0.0000   -999.2500   -999.2500   -999.2500
  2821.0000      0.0000   -999.2500   -999.2500   -999.2500
  2821.2500      0.0000   -999.2500   -999.2500   -999.2500
  2821.5000      0.0000   -999.2500   -999.2500   -999.2500
  2821.7500      0.0000   -999.2500   -999.2500   -999.2500
  2822.0000      0.0000   -999.2500   -999.2500   -999.2500
  2822.2500      0.0000   -999.2500   -999.2500   -999.2500
  2822.5000      0.0000   -999.2500   -999.2500   -999.2500
  2822.7500   -999.2500   -999.2500   -999.2500   -999.2500
  2823.0000   -999.2500   -999.2500   -999.2500   -999.2500
  2823.2500   -999.2500   -999.2500   -999.2500   -999.2500
