~Version Information
VERS.                      2.0: CWLS Log ASCII Standard - VERSION 2.0
WRAP.                       NO: One line per depth step
~Well Information Block
STRT.FT               305.0000: 
STOP.FT              1376.5000: 
STEP.FT                 0.1000: 
NULL.                -999.2500: 
COMP.          Pioneer Natural Resources: COMPANY
WELL.               LPGC 32-32: WELL
FLD.           Purgatoire River: FIELD
LOC.           1937' FNL & 1661' FEL: LOCATION
PROV.                 Colorado: PROVINCE
CNTY.               Las Animas: COUNTRY
SRVC.                Patterson: SERVICE COMPANY
DATE.          Mon Jan 30 07:33:36 2006: LOG DATE
UWI.           05 071 08641 00: UNIQUE WELL ID
~Curve Information Block
DEPT.FT            0 000 00 00: Depth
DCAL.in                       : CDL Caliper
RHOB.g/cc                     : CDL Bulk Density
RHOC.g/cc                     : CDL Density Correction
DPOR.pu                       : CDL Density Porosity
GR.GAPI                       : Gamma Ray
NPOR.pu                       : Neutron Porosity
~Parameter Information Block
~A  Depth       DCAL        RHOB        RHOC        DPOR         GR         NPOR    
# ...
   583.4000      8.4218      1.5532      0.1596     66.4709     50.1771     12.8215
   583.5000      8.4845      1.5690      0.2083     65.5136     47.5771     12.9185
   583.6000      8.4845      1.5793      0.1989     64.8882     46.7073     13.3319
   583.7000      8.4845      1.5813      0.1111     64.7691     49.1128     13.9144
   583.8000      8.6527      1.5718      0.1035     65.3452     50.0908     14.6148
   583.9000      8.6527      1.5447      0.0521     66.9903     47.2264     15.6550
   584.0000      8.4533      1.5089     -0.0216     69.1596     46.0382     16.8295
   584.1000      8.4533      1.4846      0.0259     70.6304     52.0921     17.8131
   584.2000      8.4533      1.4841      0.0186     70.6605     61.6460     18.7402
   584.3000      8.4323      1.5158     -0.0079     68.7406     66.1436     19.8106
   584.4000      8.4323      1.5787      0.0708     64.9253     63.5842     20.8299
   584.5000      8.5219      1.6579      0.1241     60.1269     61.1663     21.7070
   584.6000      8.5219      1.7450      0.0921     54.8458     65.0099     22.6112
   584.7000      8.5219      1.8462      0.1405     48.7158     73.7540     23.2677
   584.8000      8.6889      1.9662      0.2318     41.4406     84.1634     23.4648
   584.9000      8.6889      2.0961      0.2772     33.5678     94.6581     23.5019
   585.0000      8.5922      2.2091      0.3168     26.7212    103.4185     23.2598
   585.1000      8.5922      2.2719      0.2755     22.9163    107.8953     22.5482
   585.2000      8.5922      2.2847      0.0622     22.1416    108.1658     21.6974
   585.3000      8.4171      2.2926     -0.0345     21.6603    107.0069     20.8624
   585.4000      8.4171      2.3257      0.0996     19.6544    105.8959     19.8518
   585.5000      8.2393      2.3644      0.0466     17.3067    106.1491     18.9371
   585.6000      8.2393      2.3756      0.0342     16.6328    107.4046     18.5728
   585.7000      8.2393      2.3448      0.0214     18.4965    109.1984     18.6333
   585.8000      8.2067      2.2801     -0.0305     22.4212    112.3867     18.6362
   585.9000      8.2067      2.1866     -0.0001     28.0863    115.0032     18.1929
   586.0000      8.2469      2.0600     -0.0330     35.7567    112.6720     17.4191
   586.1000      8.2469      1.9133     -0.1084     44.6490    104.2208     16.8213
   586.2000      8.2469      1.7739     -0.1016     53.0943     95.9063     16.5311
   586.3000      8.3147      1.6624     -0.1489     59.8564     92.2713     16.2765
   586.4000      8.3147      1.5823     -0.1094     64.7064     91.0645     15.9110
   586.5000      8.3150      1.5229     -0.1134     68.3066     90.4263     15.6450
   586.6000      8.3150      1.4751     -0.0592     71.2076     89.8409     15.7616
   586.7000      8.3150      1.4383     -0.0635     73.4351     89.5671     15.9745
   586.8000      8.3455      1.4171     -0.0198     74.7193     91.4160     15.7834
   586.9000      8.3455      1.4069      0.0444     75.3383     92.7367     15.1668
   587.0000      8.3207      1.3947      0.1161     76.0763     88.6979     14.5168
   587.1000      8.3207      1.3793      0.0678     77.0122     84.2671     14.3556
   587.2000      8.3207      1.3720      0.0587     77.4553     85.1691     14.9372
   587.3000      8.2458      1.3903      0.0162     76.3484     88.3057     16.1727
   587.4000      8.2458      1.4652     -0.0129     71.8044     90.1527     17.7373
   587.5000      8.2204      1.6164      0.1231     62.6433     90.1467     19.0750
   587.6000      8.2204      1.8165      0.2581     50.5160     89.3383     19.9039
   587.7000      8.2204      2.0164      0.3707     38.3993     87.9243     20.6041
   587.8000      8.2065      2.1851      0.4645     28.1736     85.5527     21.4222
   587.9000      8.2065      2.3120      0.4763     20.4868     88.1215     22.1804
   588.0000      8.2477      2.4057      0.3867     14.8068     99.0371     22.8984
   588.1000      8.2477      2.4883      0.3111      9.7970    109.4325     23.6644
   588.2000      8.2477      2.5595      0.2776      5.4821    112.8840     24.2842
   588.3000      8.3264      2.5872      0.2057      3.8067    113.8806     24.5281
   588.4000      8.3264      2.5641      0.0418      5.2039    115.0164     24.3833
   588.5000      8.2434      2.5304      0.0059      7.2457    114.9883     24.0968
   588.6000      8.2434      2.5155      0.0123      8.1503    116.0192     23.8220
   588.7000      8.2434      2.5117      0.0404      8.3837    122.3009     23.6779
   588.8000      8.1528      2.5083     -0.0120      8.5852    131.3675     23.8668
   588.9000      8.1528      2.5121      0.0212      8.3563    137.5798     24.1596
   589.0000      8.1123      2.5297      0.0488      7.2917    141.6568     24.1623
   589.1000      8.1123      2.5526      0.0932      5.9009    143.0364     23.8324
   589.2000      8.1123      2.5678      0.0536      4.9789    139.4973     23.4113
   589.3000      8.1195      2.5774      0.0387      4.4012    133.6268     22.9761
   589.4000      8.1195      2.5851      0.0930      3.9324    128.0762     22.5261
   589.5000      8.1229      2.5788      0.0742      4.3135    124.6278     22.1288
   589.6000      8.1229      2.5553      0.0358      5.7379    126.4359     21.9742
   589.7000      8.1229      2.5330      0.0214      7.0914    132.8318     22.3643
   589.8000      8.1151      2.5253      0.0417      7.5601    136.7771     22.9927
   589.9000      8.1151      2.5275      0.0194      7.4237    133.0627     23.0723
   590.0000      8.1215      2.5325      0.0180      7.1211    125.0904     22.6259
   590.1000      8.1215      2.5340      0.0308      7.0320    118.3586     22.2320
   590.2000      8.1215      2.5308     -0.0238      7.2262    114.8707     22.0733
   590.3000      8.1636      2.5275     -0.0312      7.4265    115.5407     22.1850
   590.4000      8.1636      2.5183      0.0115      7.9796    118.0731     22.4308
   590.5000      8.1407      2.5006     -0.0644      9.0554    114.8859     22.1802
   590.6000      8.1407      2.4867     -0.0587      9.8954    105.4391     21.3122
   590.7000      8.1407      2.4771      0.0070     10.4816    100.1287     20.5231
   590.8000      8.1455      2.4677     -0.0466     11.0495    103.0676     20.2897
   590.9000      8.1455      2.4738     -0.0664     10.6772    106.8427     20.4542
   591.0000      8.1350      2.5010      0.0094      9.0326    104.1224     20.5435
   591.1000      8.1350      2.5274      0.0427      7.4276     96.6494     20.4009
   591.2000      8.1350      2.5353      0.0472      6.9513     89.1320     20.1515
   591.3000      8.1154      2.5268      0.0291      7.4683     84.4822     19.7633
   591.4000      8.1154      2.5063      0.0671      8.7092     85.2814     19.1914
   591.5000      8.1137      2.4861     -0.0585      9.9315     89.8865     18.6593
   591.6000      8.1137      2.4817     -0.0021     10.1989     92.5034     18.4551
   591.7000      8.1137      2.4751      0.0527     10.6003     93.5387     18.4823
   591.8000      8.0770      2.4484     -0.0125     12.2196     99.0612     18.4751
   591.9000      8.0770      2.4241     -0.0405     13.6932    109.6539     18.7226
   592.0000      8.0642      2.4188      0.0443     14.0131    114.3900     19.3098
   592.1000      8.0642      2.4214     -0.0438     13.8544    104.4061     19.5711
   592.2000      8.0642      2.4330     -0.0211     13.1533     88.1065     19.3283
   592.3000      8.0662      2.4531      0.0446     11.9347     77.2018     19.0899
   592.4000      8.0662      2.4671      0.0083     11.0832     73.3122     19.0160
   592.5000      8.0345      2.4759      0.0063     10.5510     75.6421     18.8983
   592.6000      8.0345      2.4838      0.0424     10.0737     83.7063     18.7189
   592.7000      8.0345      2.4891      0.0374      9.7507     93.4666     18.6427
   592.8000      8.0240      2.5026      0.0211      8.9342     98.3290     18.5713
   592.9000      8.0240      2.5271      0.0979      7.4503     95.2425     18.3703
