~Version Information
VERS.                      2.0: CWLS Log ASCII Standard - VERSION 2.0
WRAP.                       NO: One line per depth step
~Well Information Block
STRT.FT                10.0000: 
STOP.FT              1360.0000: 
STEP.FT                 0.1000: 
NULL.                -999.2500: 
COMP.          Pioneer Natural Resources: COMPANY
WELL.              Geyser 41-2: WELL
FLD.           Purgatorie River: FIELD
LOC.           506' FNL & 1127' FEL: LOCATION
PROV.                 Colorado: PROVINCE
CNTY.               Las Animas: COUNTRY
SRVC.                Patterson: SERVICE COMPANY
DATE.          Thu Dec 01 07:38:14 2005: LOG DATE
UWI.                          : UNIQUE WELL ID
~Curve Information Block
DEPT.FT            0 000 00 00: Depth
DCAL.in                       : CDL Caliper
RHOB.g/cc                     : CDL Bulk Density
RHOC.g/cc                     : CDL Density Correction
DPOR.pu                       : CDL Density Porosity
GR.GAPI                       : Gamma Ray
NPOR.pu                       : Neutron Porosity
~Parameter Information Block
~A  Depth       DCAL        RHOB        RHOC        DPOR         GR         NPOR    
# ...
   806.8000      7.9815      2.5514     -0.0029      5.9740    138.5325     23.6193
   806.9000      7.9815      2.5675      0.0126      5.0005    137.3333     24.0777
   807.0000      7.9877      2.5814      0.0281      4.1564    137.8096     24.7217
   807.1000      7.9877      2.5821      0.0088      4.1129    138.6119     25.2808
   807.2000      7.9877      2.5769      0.0261      4.4295    138.0132     25.5940
   807.3000      7.9845      2.5791     -0.0129      4.2970    136.2846     25.9352
   807.4000      7.9845      2.5873      0.0295      3.8029    135.7624     26.4075
   807.5000      7.9766      2.5893     -0.0170      3.6817    137.4493     26.8152
   807.6000      7.9766      2.5805      0.0163      4.2132    138.9732     27.1498
   807.7000      7.9766      2.5709     -0.0330      4.7913    137.8328     27.4993
   807.8000      7.9821      2.5713      0.0519      4.7672    133.6124     27.6964
   807.9000      7.9821      2.5780      0.0249      4.3633    128.9498     27.6055
   808.0000      7.9855      2.5882      0.0090      3.7458    127.4635     27.4882
   808.1000      7.9855      2.5942      0.0620      3.3817    128.8232     27.3730
   808.2000      7.9855      2.5827      0.0338      4.0799    130.5732     27.0355
   808.3000      7.9808      2.5592      0.0325      5.5045    132.8564     26.6389
   808.4000      7.9808      2.5401     -0.0118      6.6584    136.1433     26.4725
   808.5000      7.9734      2.5352     -0.0039      6.9551    139.1022     26.4836
   808.6000      7.9734      2.5412     -0.0058      6.5959    141.4247     26.2515
   808.7000      7.9734      2.5531      0.0072      5.8734    143.4490     25.5424
   808.8000      7.9751      2.5734      0.0307      4.6454    143.0115     24.7786
   808.9000      7.9751      2.5981      0.0437      3.1482    140.7035     24.4892
   809.0000      7.9723      2.6170      0.0783      2.0006    142.4937     24.7986
   809.1000      7.9723      2.6232      0.0613      1.6256    149.0632     25.4649
   809.2000      7.9723      2.6149      0.0852      2.1272    153.3510     26.0484
   809.3000      7.9725      2.5983      0.0357      3.1355    154.1285     26.1491
   809.4000      7.9725      2.5831      0.0458      4.0563    155.2042     25.8081
   809.5000      7.9845      2.5696      0.0440      4.8743    154.7809     25.5493
   809.6000      7.9845      2.5550     -0.0270      5.7588    153.1543     25.6678
   809.7000      7.9845      2.5432      0.0078      6.4734    154.6284     25.8627
   809.8000      7.9841      2.5385     -0.0059      6.7588    157.6875     25.9504
   809.9000      7.9841      2.5430      0.0086      6.4844    159.0860     26.1381
   810.0000      7.9843      2.5518      0.0191      5.9504    160.1400     26.4188
   810.1000      7.9843      2.5562      0.0137      5.6820    163.6348     26.5449
   810.2000      7.9843      2.5553      0.0312      5.7413    167.5367     26.5211
   810.3000      7.9871      2.5561      0.0181      5.6909    166.2029     26.5507
   810.4000      7.9871      2.5652      0.0347      5.1375    161.8572     26.7115
   810.5000      7.9860      2.5774      0.0804      4.3975    161.0786     26.9065
   810.6000      7.9860      2.5872      0.0266      3.8050    161.6971     27.1030
   810.7000      7.9860      2.6017      0.0674      2.9279    159.8195     27.4297
   810.8000      7.9899      2.6218      0.0840      1.7109    156.9777     27.8504
   810.9000      7.9899      2.6291      0.1352      1.2644    155.8284     28.0166
   811.0000      7.9899      2.6098      0.0428      2.4351    157.3597     27.8368
   811.1000      7.9899      2.5833      0.0407      4.0426    159.0751     27.7396
   811.2000      7.9899      2.5795     -0.0173      4.2702    158.7391     27.8736
   811.3000      7.9855      2.6019      0.0407      2.9160    156.1527     27.9305
   811.4000      7.9855      2.6227      0.0578      1.6559    151.7208     27.7712
   811.5000      7.9841      2.6217      0.0490      1.7136    148.1900     27.4351
   811.6000      7.9841      2.6103      0.0421      2.4035    147.5241     26.9203
   811.7000      7.9841      2.6062      0.0680      2.6548    147.5932     26.2730
   811.8000      7.9924      2.6074      0.0695      2.5813    147.8562     25.7006
   811.9000      7.9924      2.6037      0.0904      2.8046    150.5214     25.4393
   812.0000      7.9891      2.5954      0.0571      3.3121    154.6939     25.3115
   812.1000      7.9891      2.5840      0.0796      3.9992    157.6161     25.0412
   812.2000      7.9891      2.5668      0.0398      5.0444    159.1228     24.8848
   812.3000      7.9929      2.5534     -0.0111      5.8567    163.1072     25.0715
   812.4000      7.9929      2.5518      0.0304      5.9486    170.6696     25.4076
   812.5000      7.9949      2.5525      0.0663      5.9084    176.5392     25.5602
   812.6000      7.9949      2.5549      0.0453      5.7621    177.8928     25.3586
   812.7000      7.9949      2.5681      0.0950      4.9609    176.5307     25.0863
   812.8000      7.9835      2.5846      0.0979      3.9641    173.7095     25.2192
   812.9000      7.9835      2.6006      0.0631      2.9922    170.4972     25.7386
   813.0000      7.9872      2.6264      0.1055      1.4300    168.9527     26.3739
   813.1000      7.9872      2.6549      0.1603     -0.2997    167.6956     26.9984
   813.2000      7.9872      2.6707      0.1567     -1.2547    165.3342     27.4939
   813.3000      7.9965      2.6722      0.1583     -1.3432    164.3660     27.6751
   813.4000      7.9965      2.6616      0.1625     -0.7048    166.3738     27.4469
   813.5000      7.9938      2.6396      0.0893      0.6322    170.7141     26.9975
   813.6000      7.9938      2.6114      0.0745      2.3380    175.4075     26.7284
   813.7000      7.9938      2.5908      0.0432      3.5875    178.4541     26.8816
   813.8000      7.9940      2.5916      0.0342      3.5381    178.0346     27.1375
   813.9000      7.9940      2.6053      0.0428      2.7088    174.8315     27.1126
   814.0000      7.9923      2.6085      0.0498      2.5135    172.8471     26.9923
   814.1000      7.9923      2.5962      0.0201      3.2596    172.3061     26.9573
   814.2000      7.9923      2.5836      0.0030      4.0258    168.4456     26.8260
   814.3000      7.9955      2.5824      0.0624      4.0991    162.0820     26.5290
   814.4000      7.9955      2.5858      0.0610      3.8936    159.9734     26.2446
   814.5000      8.0061      2.5807      0.0749      4.1986    164.1800     26.2120
   814.6000      8.0061      2.5625      0.0034      5.3018    170.0172     26.4020
   814.7000      8.0061      2.5401     -0.0190      6.6623    172.9094     26.6712
   814.8000      8.0067      2.5288      0.0049      7.3474    173.7393     27.1569
   814.9000      8.0067      2.5350     -0.0250      6.9695    173.2342     27.8382
   815.0000      8.0020      2.5501      0.0175      6.0517    171.1052     28.3337
   815.1000      8.0020      2.5616      0.0484      5.3564    170.3403     28.3425
   815.2000      8.0020      2.5676      0.0350      4.9946    171.5186     27.9599
   815.3000      8.0100      2.5721      0.0294      4.7208    172.3874     27.6523
   815.4000      8.0100      2.5762      0.0045      4.4738    172.5369     27.4797
   815.5000      7.9924      2.5762      0.0515      4.4713    172.3184     27.2930
   815.6000      7.9924      2.5741     -0.0306      4.5986    170.7513     27.3746
   815.7000      7.9924      2.5812      0.0400      4.1706    168.7735     27.8150
   815.8000      7.9848      2.5944      0.0605      3.3682    169.6693     28.2905
   815.9000      7.9848      2.6050      0.0561      2.7274    172.2936     28.4759
   816.0000      7.9778      2.6109      0.0237      2.3722    172.3914     28.3657
   816.1000      7.9778      2.6041      0.0896      2.7845    168.9944     28.0698
   816.2000      7.9778      2.5780      0.0377      4.3607    164.7572     27.6169
   816.3000      7.9846      2.5485      0.0244      6.1487    162.6686     27.1870
