~Version Information
VERS.                      2.0: CWLS Log ASCII Standard - VERSION 2.0
WRAP.                       NO: One line per depth step
~Well Information Block
STRT.FT               430.0000: 
STOP.FT              2074.0000: 
STEP.FT                 0.1000: 
NULL.                -999.2500: 
COMP.          Pioneer Natural Resources: COMPANY
WELL.             Fleming 11-2: WELL
FLD.           Purgatoire River: FIELD
LOC.           534' FNL & 160' FWL: LOCATION
CNTY.               Las Animas: COUNTY
SRVC.                Patterson: SERVICE COMPANY
DATE.          Tue Jun 27 10:07:47 2006: LOG DATE
UWI.           05 071 08491 00: UNIQUE WELL ID
STAT.                 Colorado: STATE
~Curve Information Block
DEPT.FT            0 000 00 00: Depth
DCAL.in                       : CDL Caliper
RHOB.g/cc                     : CDL Bulk Density
RHOC.g/cc                     : CDL Density Correction
DPOR.pu                       : CDL Density Porosity
GR.GAPI                       : Gamma Ray
NPOR.pu                       : Neutron Porosity
~Parameter Information Block
~A  Depth       DCAL        RHOB        RHOC        DPOR         GR         NPOR    
# ...
  1956.4000      8.3068      2.0688      0.2970     35.2215     45.9014     33.0675
  1956.5000      8.1244      2.1953      0.2820     27.5591     46.9510     31.5200
  1956.6000      8.1244      2.3168      0.2941     20.1970     48.6207     30.2787
  1956.7000      8.1244      2.4267      0.3206     13.5346     49.6108     29.3461
  1956.8000      7.9653      2.4805      0.2636     10.2753     53.7433     28.5292
  1956.9000      7.9653      2.4804      0.1196     10.2794     64.2615     27.9206
  1957.0000      7.8904      2.4791      0.0926     10.3559     74.7041     27.4458
  1957.1000      7.8904      2.4941      0.1490      9.4482     78.1914     27.0397
  1957.2000      7.8904      2.5008      0.1092      9.0417     76.6554     26.7469
  1957.3000      7.8839      2.4879      0.0609      9.8219     75.3538     26.3722
  1957.4000      7.8839      2.4597      0.0534     11.5313     76.9853     26.1209
  1957.5000      7.8989      2.4231      0.0175     13.7525     80.9989     26.2012
  1957.6000      7.8989      2.3958      0.0166     15.4049     83.3988     25.9050
  1957.7000      7.8989      2.3874      0.0207     15.9132     80.1740     25.1436
  1957.8000      7.9088      2.3856      0.0201     16.0213     74.9059     25.0791
  1957.9000      7.9088      2.3858     -0.0208     16.0137     73.4209     26.3575
  1958.0000      7.9096      2.4007     -0.0105     15.1094     76.0361     28.1869
  1958.1000      7.9096      2.4303      0.0198     13.3180     80.8218     29.4409
  1958.2000      7.9096      2.4552      0.0709     11.8077     85.6713     29.9203
  1958.3000      7.9041      2.4643      0.0546     11.2544     88.3589     29.6780
  1958.4000      7.9041      2.4618      0.0508     11.4071     88.4868     28.8061
  1958.5000      7.8960      2.4524      0.0547     11.9754     87.5684     27.9792
  1958.6000      7.8960      2.4354      0.0427     13.0072     90.6372     28.0648
  1958.7000      7.8960      2.4109      0.0004     14.4922    100.1594     29.1112
  1958.8000      7.8915      2.3902     -0.0189     15.7440    109.9787     30.0379
  1958.9000      7.8915      2.3877     -0.0224     15.8957    115.2993     29.5459
  1959.0000      7.8943      2.4014     -0.0088     15.0638    118.2052     28.0192
  1959.1000      7.8943      2.4147      0.0143     14.2591    119.7522     27.1482
  1959.2000      7.8943      2.4179      0.0127     14.0652    118.9631     27.0975
  1959.3000      7.8986      2.4161      0.0115     14.1786    115.7231     26.8958
  1959.4000      7.8986      2.4173      0.0252     14.1007    110.1997     26.6726
  1959.5000      7.8972      2.4237      0.0385     13.7169    105.5909     26.8222
  1959.6000      7.8972      2.4313      0.0533     13.2528    107.0288     27.1016
  1959.7000      7.8972      2.4347      0.0500     13.0491    111.1627     27.4609
  1959.8000      7.8931      2.4360      0.0222     12.9686    112.0189     27.8763
  1959.9000      7.8931      2.4463     -0.0027     12.3471    112.9897     27.6707
  1960.0000      7.8907      2.4631      0.0772     11.3266    116.7363     27.0943
  1960.1000      7.8907      2.4668      0.0436     11.1001    118.7110     27.1423
  1960.2000      7.8907      2.4459      0.0901     12.3671    117.5605     27.8627
  1960.3000      7.8886      2.4087      0.0462     14.6257    114.4722     28.9781
  1960.4000      7.8886      2.3731      0.0405     16.7841    108.5546     30.1023
  1960.5000      7.8980      2.3371      0.0534     18.9628    102.5255     30.5572
  1960.6000      7.8980      2.2909     -0.0049     21.7650    100.6854     30.1451
  1960.7000      7.8980      2.2519     -0.0055     24.1300    102.2446     29.6223
  1960.8000      7.9018      2.2445      0.0032     24.5734    103.1970     29.3713
  1960.9000      7.9018      2.2684      0.0473     23.1289    102.1727     29.1700
  1961.0000      7.8795      2.3040      0.0743     20.9693    100.1665     29.0869
  1961.1000      7.8795      2.3421      0.0854     18.6588     97.4265     28.8241
  1961.2000      7.8795      2.3907      0.1439     15.7164     98.0804     28.3414
  1961.3000      7.8618      2.4531      0.1874     11.9360    105.4575     28.2761
  1961.4000      7.8618      2.5205      0.2268      7.8463    114.5179     28.7558
  1961.5000      7.8655      2.5763      0.2551      4.4680    117.9366     29.2358
  1961.6000      7.8655      2.6052      0.2150      2.7130    114.0535     28.9452
  1961.7000      7.8655      2.6107      0.1697      2.3814    106.9713     27.9031
  1961.8000      7.8789      2.6107      0.0980      2.3836    101.1271     27.0220
  1961.9000      7.8789      2.6118      0.1392      2.3132     99.2447     26.6250
  1962.0000      7.8869      2.6032      0.0787      2.8392    103.0267     25.7651
  1962.1000      7.8869      2.5845      0.0682      3.9699    109.8609     23.8442
  1962.2000      7.8869      2.5732      0.0387      4.6557    113.0750     21.8585
  1962.3000      7.8890      2.5813      0.0484      4.1619    108.7722     20.5051
  1962.4000      7.8890      2.5993      0.0467      3.0709     99.4437     19.5400
  1962.5000      7.8910      2.6113      0.0518      2.3440     92.6109     18.8823
  1962.6000      7.8910      2.6141      0.0807      2.1783     93.0113     19.0304
  1962.7000      7.8910      2.6080      0.0751      2.5475     96.3689     20.1695
  1962.8000      7.8925      2.5927      0.0346      3.4755     99.7407     21.2075
  1962.9000      7.8925      2.5763      0.0162      4.4691    105.0379     20.9086
  1963.0000      7.8942      2.5617      0.0588      5.3507    109.8832     19.5362
  1963.1000      7.8942      2.5420     -0.0002      6.5464    114.1983     18.4095
  1963.2000      7.8942      2.5197     -0.0139      7.8997    120.9443     18.1462
  1963.3000      7.8990      2.4947      0.0211      9.4151    127.0122     18.5425
  1963.4000      7.8990      2.4590     -0.0171     11.5753    129.6828     19.8452
  1963.5000      7.9015      2.4223     -0.0177     13.7982    130.9592     21.8380
  1963.6000      7.9015      2.4043     -0.0423     14.8923    129.8028     23.2328
  1963.7000      7.9015      2.4071     -0.0011     14.7184    124.0071     23.7750
  1963.8000      7.9027      2.4176      0.0115     14.0862    116.3861     24.1558
  1963.9000      7.9027      2.4328      0.0257     13.1628    110.5560     24.4318
  1964.0000      7.9146      2.4581      0.0581     11.6329    108.0140     24.2736
  1964.1000      7.9146      2.4887      0.0926      9.7783    108.1381     23.8742
  1964.2000      7.9146      2.5142      0.1346      8.2310    106.2010     23.6712
  1964.3000      7.9339      2.5258      0.1425      7.5263    102.6795     23.5146
  1964.4000      7.9339      2.5193      0.1469      7.9211    101.9304     23.2631
  1964.5000      7.9305      2.4989      0.1160      9.1604    102.9174     23.4954
  1964.6000      7.9305      2.4758      0.0703     10.5600    102.7175     24.0443
  1964.7000      7.9305      2.4646      0.0293     11.2361     98.7154     23.3342
  1964.8000      7.8984      2.4710      0.0575     10.8499     93.4109     21.5633
  1964.9000      7.8984      2.4792      0.0422     10.3544     90.4822     20.2628
  1965.0000      7.8740      2.4757      0.0206     10.5615     89.4050     20.1131
  1965.1000      7.8740      2.4674      0.0282     11.0653     92.9523     21.3715
  1965.2000      7.8740      2.4602      0.0436     11.5034    102.1232     23.5780
  1965.3000      7.8660      2.4572      0.0063     11.6830    110.2652     25.2635
  1965.4000      7.8660      2.4654      0.0407     11.1875    112.8694     25.4880
  1965.5000      7.8646      2.4814      0.0430     10.2177    109.5439     24.5852
  1965.6000      7.8646      2.4964      0.0414      9.3080    102.7034     22.8320
  1965.7000      7.8646      2.5086      0.0609      8.5707    100.0510     20.7665
  1965.8000      7.8667      2.5204      0.1016      7.8523    103.4281     19.4663
  1965.9000      7.8667      2.5353      0.0754      6.9501    104.8881     19.2637
