~Version Information
VERS.                      2.0: CWLS Log ASCII Standard - VERSION 2.0
WRAP.                       NO: One line per depth step
~Well Information Block
STRT.FT               800.0000: 
STOP.FT              3500.0000: 
STEP.FT                 0.2500: 
NULL.                -999.2500: 
COMP.          Pioneer Natural Resources: COMPANY
WELL.          Cordillera 34-7: WELL
FLD.           Purgatoire River: FIELD
LOC.           598' FSL & 1770' FEL--: LOCATION
PROV.                 Colorado: PROVINCE
CNTY.               Las Animas: COUNTRY
SRVC.                Patterson: SERVICE COMPANY
DATE.          Thu Oct 27 20:08:30 2005: LOG DATE
UWI.           05 071 08552 00: UNIQUE WELL ID
~Curve Information Block
DEPT.FT            0 000 00 00: Depth
SN.Ohm-m                      : IEL Short Normal
SP.mV                         : IEL Spontaneous Potential
DIR.Ohm-m                     : IEL Induction Resistivity
GR.GAPI                       : Gamma Ray
~Parameter Information Block
~A  Depth        SN          SP         DIR          GR     
# ...
  2575.5000     55.9080    155.9389     23.1103     68.9993
  2575.7500     54.5596    155.9808     22.9689     68.1100
  2576.0000     52.4623    155.9251     22.5795     68.7632
  2576.2500     49.6966    155.8705     21.9621     70.9802
  2576.5000     46.2855    155.8865     21.1518     76.2467
  2576.7500     42.2724    156.0094     20.2044     80.1653
  2577.0000     37.8675    156.2642     19.1847     85.7429
  2577.2500     33.4841    156.6819     18.1484     89.5000
  2577.5000     29.5420    157.2981     17.1318     96.3889
  2577.7500     26.2589    158.1214     16.1539    102.2460
  2578.0000     23.6390    159.0895     15.2226    112.3039
  2578.2500     21.5793    160.0753     14.3404    118.8793
  2578.5000     19.9538    160.9682     13.5090    127.0216
  2578.7500     18.5975    161.7502     12.7318    130.9973
  2579.0000     17.3152    162.4718     12.0148    135.2353
  2579.2500     16.0039    163.1612     11.3651    137.4450
  2579.5000     14.7358    163.7830     10.7877    140.8490
  2579.7500     13.6695    164.2825     10.2845    143.6625
  2580.0000     12.9030    164.6463      9.8550    148.7492
  2580.2500     12.4267    164.9116      9.4974    152.1128
  2580.5000     12.1440    165.1386      9.2085    155.6324
  2580.7500     11.8996    165.3838      8.9820    156.4021
  2581.0000     11.5370    165.6814      8.8063    155.1963
  2581.2500     10.9841    166.0236      8.6649    153.2358
  2581.5000     10.3094    166.3553      8.5396    149.5632
  2581.7500      9.6972    166.6032      8.4161    147.2073
  2582.0000      9.3447    166.7210      8.2894    144.4017
  2582.2500      9.3595    166.7105      8.1643    142.8926
  2582.5000      9.7468    166.6129      8.0534    140.2433
  2582.7500     10.4266    166.4889      7.9711    137.7013
  2583.0000     11.2278    166.3914      7.9293    132.5901
  2583.2500     11.9261    166.3366      7.9353    128.7264
  2583.5000     12.3324    166.2961      7.9919    123.8430
  2583.7500     12.3661    166.2330      8.0979    122.6402
  2584.0000     12.0957    166.1776      8.2488    126.0782
  2584.2500     11.7059    166.2838      8.4365    131.7746
  2584.5000     11.3919    166.7749      8.6501    142.2763
  2584.7500     11.2786    167.7491      8.8778    148.1942
  2585.0000     11.3855    168.9925      9.1114    153.3100
  2585.2500     11.6214    170.0262      9.3510    154.3842
  2585.5000     11.8652    170.4077      9.6059    153.3491
  2585.7500     12.1126    170.0227      9.8910    150.9479
  2586.0000     12.5302    169.1072     10.2218    144.8130
  2586.2500     13.3585    168.0278     10.6092    139.7303
  2586.5000     14.7389    167.0574     11.0586    132.6756
  2586.7500     16.5721    166.2932     11.5701    129.1599
  2587.0000     18.5417    165.6887     12.1382    125.3809
  2587.2500     20.3333    165.1367     12.7499    123.1093
  2587.5000     21.8334    164.5747     13.3841    119.2084
  2587.7500     23.1061    164.0372     14.0141    116.3354
  2588.0000     24.2312    163.5899     14.6152    112.0255
  2588.2500     25.1984    163.2103     15.1713    109.1167
  2588.5000     25.9067    162.7662     15.6784    104.3885
  2588.7500     26.2416    162.1259     16.1425    101.2938
  2589.0000     26.1877    161.2785     16.5745     98.6147
  2589.2500     25.8798    160.3483     16.9824     99.3988
  2589.5000     25.5321    159.5092     17.3627    104.9315
  2589.7500     25.3075    158.8852     17.6960    110.4198
  2590.0000     25.2361    158.5094     17.9505    118.0561
  2590.2500     25.2282    158.3544     18.0952    120.8927
  2590.5000     25.1685    158.3883     18.1126    119.8606
  2590.7500     25.0295    158.5954     18.0077    115.5403
  2591.0000     24.9066    158.9406     17.8072    105.1301
  2591.2500     24.9246    159.3261     17.5536     97.2482
  2591.5000     25.0959    159.6116     17.2947     87.5369
  2591.7500     25.2733    159.7011     17.0708     84.1525
  2592.0000     25.2425    159.6032     16.9050     84.4232
  2592.2500     24.8697    159.3919     16.7969     87.2481
  2592.5000     24.1733    159.1081     16.7244     93.2854
  2592.7500     23.2746    158.7089     16.6540     97.7653
  2593.0000     22.2986    158.1105     16.5584    104.6998
  2593.2500     21.3221    157.2887     16.4295    109.3053
  2593.5000     20.4100    156.3728     16.2773    116.2460
  2593.7500     19.6556    155.6702     16.1170    121.0900
  2594.0000     19.1495    155.5685     15.9570    128.1368
  2594.2500     18.9262    156.3129     15.7983    131.5900
  2594.5000     18.9447    157.7724     15.6425    133.2108
  2594.7500     19.1112    159.4113     15.4994    131.9555
  2595.0000     19.3253    160.5801     15.3843    128.0784
  2595.2500     19.5177    160.9308     15.3099    125.0616
  2595.5000     19.6602    160.5800     15.2778    120.5510
  2595.7500     19.7598    159.8937     15.2805    117.5541
  2596.0000     19.8431    159.1679     15.3092    113.1063
  2596.2500     19.9254    158.5175     15.3623    110.4269
  2596.5000     19.9853    157.9632     15.4463    107.5011
  2596.7500     19.9784    157.5166     15.5687    106.5940
  2597.0000     19.8871    157.1818     15.7292    106.9770
  2597.2500     19.7560    156.9458     15.9153    108.2339
  2597.5000     19.6659    156.7941     16.1058    110.8970
  2597.7500     19.6827    156.7188     16.2794    112.6522
  2598.0000     19.8472    156.7059     16.4238    114.5840
  2598.2500     20.1761    156.7398     16.5387    115.3006
  2598.5000     20.6338    156.8269     16.6305    115.6417
  2598.7500     21.1289    157.0008     16.7049    115.5256
  2599.0000     21.5876    157.2903     16.7619    115.2558
  2599.2500     22.0156    157.6814     16.7964    115.3010
  2599.5000     22.4440    158.1109     16.8005    115.7266
  2599.7500     22.8409    158.4908     16.7642    115.7705
  2600.0000     23.1114    158.7440     16.6738    114.4138
  2600.2500     23.1678    158.8407     16.5131    112.4771
  2600.5000     23.0007    158.8211     16.2685    109.2616
  2600.7500     22.6961    158.7827     15.9349    107.8222
  2601.0000     22.3523    158.8289     15.5200    107.1360
  2601.2500     21.9617    159.0083     15.0444    107.2373
  2601.5000     21.3932    159.2867     14.5366    107.5493
  2601.7500     20.5147    159.5741     14.0267    107.7443
  2602.0000     19.3316    159.7963     13.5380    107.7181
  2602.2500     17.9912    159.9663     13.0822    107.2426
  2602.5000     16.6705    160.1949     12.6583    106.1722
  2602.7500     15.4927    160.6095     12.2592    105.9658
  2603.0000     14.5233    161.2285     11.8782    107.5342
  2603.2500     13.7790    161.9042     11.5155    109.7779
  2603.5000     13.2255    162.4042     11.1775    113.6285
  2603.7500     12.8044    162.5608     10.8746    115.4873
  2604.0000     12.4770    162.3532     10.6168    116.0605
  2604.2500     12.2328    161.8829     10.4122    115.2031
  2604.5000     12.0775    161.3070     10.2660    114.1755
  2604.7500     12.0150    160.7721     10.1806    115.2170
  2605.0000     12.0356    160.3651     10.1558    120.7166
  2605.2500     12.1241    160.1023     10.1878    126.4710
  2605.5000     12.2760    159.9556     10.2693    135.4675
  2605.7500     12.4908    159.8755     10.3902    139.8251
  2606.0000     12.7573    159.7935     10.5405    141.9566
  2606.2500     13.0602    159.6300     10.7136    140.6188
  2606.5000     13.3941    159.3293     10.9077    136.6093
  2606.7500     13.7645    158.8980     11.1231    133.9554
  2607.0000     14.1786    158.4086     11.3583    130.8525
  2607.2500     14.6347    157.9588     11.6076    129.0399
  2607.5000     15.1129    157.6169     11.8611    126.1649
  2607.7500     15.5817    157.3936     12.1075    124.2357
  2608.0000     16.0015    157.2508     12.3354    121.3856
  2608.2500     16.3238    157.1306     12.5350    119.1210
  2608.5000     16.5108    156.9928     12.6995    114.5103
  2608.7500     16.5648    156.8440     12.8264    110.9230
