~Version Information
VERS.                      2.0: CWLS Log ASCII Standard - VERSION 2.0
WRAP.                       NO: One line per depth step
~Well Information Block
STRT.FT               555.0000: 
STOP.FT              2322.2500: 
STEP.FT                 0.2500: 
NULL.                -999.2500: 
COMP.          Pioneer Natural Resources: COMPANY
WELL.          Fittipaldi 21-12: WELL
FLD.           Purgatoire River: FIELD
LOC.           207' FNL & 2110' FWL--: LOCATION
CNTY.               Las Animas: COUNTY
SRVC.                Patterson: SERVICE COMPANY
DATE.          Tue Mar 21 10:27:48 2006: LOG DATE
UWI.           05 071 08492 00: UNIQUE WELL ID
STAT.                 Colorado: STATE
~Curve Information Block
DEPT.FT            0 000 00 00: Depth
SN.Ohm-m                      : IEL Short Normal
SP.mV                         : IEL Spontaneous Potential
DIR.Ohm-m                     : IEL Induction Resistivity
GR.GAPI                       : Gamma Ray
~Parameter Information Block
~A  Depth        SN          SP         DIR          GR     
# ...
   789.5000   2000.0000   1990.0000     36.6867     73.3810
   789.7500   2000.0000   1990.0000     39.3467     70.3326
   790.0000   2000.0000   1990.0000     42.0924     67.4763
   790.2500   2000.0000   1990.0000     44.8049     66.3346
   790.5000   2000.0000   1990.0000     47.3130     64.5557
   790.7500   2000.0000   1990.0000     49.4271     62.9867
   791.0000   2000.0000   1990.0000     50.9796     60.4199
   791.2500   2000.0000   1990.0000     51.8753     58.9810
   791.5000   2000.0000   1990.0000     52.1455     57.7130
   791.7500   2000.0000   1990.0000     51.9561     57.5740
   792.0000   2000.0000   1990.0000     51.5431     58.5214
   792.2500   2000.0000   1990.0000     51.1125     59.9543
   792.5000   2000.0000   1990.0000     50.7666     63.1588
   792.7500   2000.0000   1990.0000     50.4844     65.6646
   793.0000   2000.0000   1990.0000     50.1445     68.9858
   793.2500   2000.0000   1990.0000     49.5699     70.3645
   793.5000   2000.0000   1990.0000     48.5865     71.0118
   793.7500   2000.0000   1990.0000     47.0897     70.9594
   794.0000   2000.0000   1990.0000     45.1060     71.3743
   794.2500   2000.0000   1990.0000     42.8074     72.5284
   794.5000   2000.0000   1990.0000     40.4504     75.9330
   794.7500   2000.0000   1990.0000     38.2720     79.3128
   795.0000   2000.0000   1990.0000     36.4144     85.8972
   795.2500   2000.0000   1990.0000     34.9150     91.0340
   795.5000   2000.0000   1990.0000     33.7446     98.7975
   795.7500   2000.0000   1990.0000     32.8548    103.0887
   796.0000   2000.0000   1990.0000     32.2041    106.5980
   796.2500   2000.0000   1990.0000     31.7599    106.3877
   796.5000   2000.0000   1990.0000     31.4870    102.2902
   796.7500   2000.0000   1990.0000     31.3400     97.7070
   797.0000   2000.0000   1990.0000     31.2660     89.7708
   797.2500   2000.0000   1990.0000     31.2180     84.7419
   797.5000   2000.0000   1990.0000     31.1667     78.9524
   797.7500   2000.0000   1990.0000     31.1024     76.8958
   798.0000   2000.0000   1990.0000     31.0190     77.2197
   798.2500   2000.0000   1990.0000     30.8959     79.6965
   798.5000   2000.0000   1990.0000     30.6861     85.6744
   798.7500   2000.0000   1990.0000     30.3190     89.9761
   799.0000   2000.0000   1990.0000     29.7239     95.1425
   799.2500   2000.0000   1990.0000     28.8689     97.5342
   799.5000   2000.0000   1990.0000     27.7917    100.5096
   799.7500   2000.0000   1990.0000     26.5886    102.7322
   800.0000   2000.0000   1990.0000     25.3672    106.9841
   800.2500   2000.0000   1990.0000     24.2032    110.5301
   800.5000   2000.0000   1990.0000     23.1289    116.6606
   800.7500   2000.0000   1990.0000     22.1470    120.6922
   801.0000   2000.0000   1990.0000     21.2481    125.2169
   801.2500   2000.0000   1990.0000     20.4199    126.7372
   801.5000   2000.0000   1990.0000     19.6492    127.0879
   801.7500   2000.0000   1990.0000     18.9239    126.5858
   802.0000   2000.0000   1990.0000     18.2377    125.6959
   802.2500   2000.0000   1990.0000     17.5950    125.5674
   802.5000   2000.0000   1990.0000     17.0106    126.9134
   802.7500   2000.0000   1990.0000     16.5047    128.9083
   803.0000   2000.0000   1990.0000     16.0937    132.5661
   803.2500   2000.0000   1990.0000     15.7811    134.6337
   803.5000   2000.0000   1990.0000     15.5540    136.5418
   803.7500   2000.0000   1990.0000     15.3878    137.2248
   804.0000   2000.0000   1990.0000     15.2565    137.8422
   804.2500   2000.0000   1990.0000     15.1429    137.9072
   804.5000   2000.0000   1990.0000     15.0416    136.9074
   804.7500   2000.0000   1990.0000     14.9564    135.2708
   805.0000   2000.0000   1990.0000     14.8942    131.4423
   805.2500   2000.0000   1990.0000     14.8608    128.2802
   805.5000   2000.0000   1990.0000     14.8587    123.5287
   805.7500   2000.0000   1990.0000     14.8866    120.9987
   806.0000   2000.0000   1990.0000     14.9412    118.7164
   806.2500   2000.0000   1990.0000     15.0194    117.8427
   806.5000   2000.0000   1990.0000     15.1208    116.0939
   806.7500   2000.0000   1990.0000     15.2486    114.0452
   807.0000   2000.0000   1990.0000     15.4079    109.8494
   807.2500   2000.0000   1990.0000     15.6030    106.9358
   807.5000   2000.0000   1990.0000     15.8357    103.3808
   807.7500   2000.0000   1990.0000     16.1065    101.6865
   808.0000   2000.0000   1990.0000     16.4179     99.6152
   808.2500   2000.0000   1990.0000     16.7758     98.1770
   808.5000   2000.0000   1990.0000     17.1867     96.0376
   808.7500   2000.0000   1990.0000     17.6530     95.1049
   809.0000   2000.0000   1990.0000     18.1691     95.0306
   809.2500   2000.0000   1990.0000     18.7222     95.6083
   809.5000   2000.0000   1990.0000     19.2973     96.2101
   809.7500   2000.0000   1990.0000     19.8828     95.8575
   810.0000   2000.0000   1990.0000     20.4779     94.3788
   810.2500   2000.0000   1990.0000     21.0971     93.5789
   810.5000   2000.0000   1990.0000     21.7707     94.2436
   810.7500   2000.0000   1990.0000     22.5343     96.1360
   811.0000   2000.0000   1990.0000     23.4064     99.6360
   811.2500   2000.0000   1990.0000     24.3629    100.9725
   811.5000   2000.0000   1990.0000     25.3203     99.9162
   811.7500   2000.0000   1990.0000     26.1422     97.4379
   812.0000   2000.0000   1990.0000     26.6816     93.2463
   812.2500   2000.0000   1990.0000     26.8457     91.6200
   812.5000   2000.0000   1990.0000     26.6432     92.3864
   812.7500   2000.0000   1990.0000     26.1728     95.0293
   813.0000   2000.0000   1990.0000     25.5654    101.1906
   813.2500   2000.0000   1990.0000     24.9275    105.9279
   813.5000   2000.0000   1990.0000     24.3184    112.6038
   813.7500   2000.0000   1990.0000     23.7618    116.1871
   814.0000   2000.0000   1990.0000     23.2681    119.6450
   814.2500   2000.0000   1990.0000     22.8524    120.3616
   814.5000   2000.0000   1990.0000     22.5388    118.6517
   814.7500   2000.0000   1990.0000     22.3542    115.7905
   815.0000   2000.0000   1990.0000     22.3190    109.9760
   815.2500   2000.0000   1990.0000     22.4409    105.8269
   815.5000   2000.0000   1990.0000     22.7150     99.9996
   815.7500   2000.0000   1990.0000     23.1226     96.6236
   816.0000   2000.0000   1990.0000     23.6269     92.6970
   816.2500   2000.0000   1990.0000     24.1687     90.9504
   816.5000   2000.0000   1990.0000     24.6701     89.4432
   816.7500   2000.0000   1990.0000     25.0488     89.0342
   817.0000   2000.0000   1990.0000     25.2367     89.5326
   817.2500   2000.0000   1990.0000     25.1908     90.9358
   817.5000   2000.0000   1990.0000     24.8939     94.7244
   817.7500   2000.0000   1990.0000     24.3539     97.8240
   818.0000   2000.0000   1990.0000     23.6062    101.9448
   818.2500   2000.0000   1990.0000     22.7119    103.9636
   818.5000   2000.0000   1990.0000     21.7473    106.5762
   818.7500   2000.0000   1990.0000     20.7871    108.7682
   819.0000   2000.0000   1990.0000     19.8915    113.2558
   819.2500   2000.0000   1990.0000     19.1002    116.7101
   819.5000   2000.0000   1990.0000     18.4330    121.6963
   819.7500   2000.0000   1990.0000     17.8925    124.6705
   820.0000   2000.0000   1990.0000     17.4660    128.5518
   820.2500   2000.0000   1990.0000     17.1282    130.4377
   820.5000   2000.0000   1990.0000     16.8483    131.1499
   820.7500   2000.0000   1990.0000     16.5994    129.9247
   821.0000   2000.0000   1990.0000     16.3685    126.4976
   821.2500   2000.0000   1990.0000     16.1591    124.2486
   821.5000   2000.0000   1990.0000     15.9858    122.3755
   821.7500   2000.0000   1990.0000     15.8629    122.3486
   822.0000   2000.0000   1990.0000     15.7949    123.7068
   822.2500   2000.0000   1990.0000     15.7727    125.0490
   822.5000   2000.0000   1990.0000     15.7770    126.7928
   822.7500   2000.0000   1990.0000     15.7871    127.4085
