~Version Information
VERS.                      2.0: CWLS Log ASCII Standard - VERSION 2.0
WRAP.                       NO: One line per depth step
~Well Information Block
STRT.FT               860.0000: 
STOP.FT              2362.5000: 
STEP.FT                 0.2500: 
NULL.                -999.2500: 
COMP.          Pioneer Natural Resources: COMPANY
WELL.            Cayenne 23-23: WELL
FLD.           Purgatoire River: FIELD
LOC.           2555' FSL & 2386' FWL: LOCATION
PROV.                 Colorado: PROVINCE
CNTY.               Las Animas: COUNTRY
SRVC.                Patterson: SERVICE COMPANY
DATE.          Wed Aug 17 06:47:40 2005: LOG DATE
UWI.           05 071 08476 00: UNIQUE WELL ID
~Curve Information Block
DEPT.FT            0 000 00 00: Depth
SN.Ohm-m                      : IEL Short Normal
SP.mV                         : IEL Spontaneous Potential
DIR.Ohm-m                     : IEL Induction Resistivity
GR.GAPI                       : Gamma Ray
~Parameter Information Block
~A  Depth        SN          SP         DIR          GR     
# ...
  1463.0000     34.0548      1.1227     30.6821     52.7241
  1463.2500     35.0236      0.6253     31.4302     51.3987
  1463.5000     35.8333      0.1082     32.0331     49.7643
  1463.7500     36.4326     -0.4137     32.5300     48.9357
  1464.0000     36.8583     -0.9169     32.9203     47.6910
  1464.2500     37.1364     -1.3567     33.1483     46.5550
  1464.5000     37.2384     -1.6900     33.1573     44.3009
  1464.7500     37.1582     -1.8959     32.9693     42.8591
  1465.0000     36.9326     -1.9801     32.6969     42.0869
  1465.2500     36.5969     -1.9645     32.4623     43.0486
  1465.5000     36.2176     -1.8718     32.3051     46.3954
  1465.7500     35.8713     -1.7122     32.1679     49.0579
  1466.0000     35.5636     -1.4736     31.9598     52.2656
  1466.2500     35.3086     -1.1152     31.6425     53.5458
  1466.5000     35.1856     -0.5674     31.2647     54.3187
  1466.7500     35.2299      0.2621     30.9241     54.2504
  1467.0000     35.3656      1.4779     30.7007     53.6968
  1467.2500     35.4810      3.1763     30.6145     53.4524
  1467.5000     35.5403      5.4120     30.6230     53.9982
  1467.7500     35.5774      8.1661     30.6472     55.0417
  1468.0000     35.6054     11.3410     30.6008     57.0838
  1468.2500     35.6281     14.7809     30.4103     58.4545
  1468.5000     35.6780     18.2926     30.0254     60.7520
  1468.7500     35.6974     21.6666     29.4314     62.9739
  1469.0000     35.4552     24.7239     28.6622     68.0847
  1469.2500     34.7194     27.3788     27.7990     72.7411
  1469.5000     33.4928     29.6634     26.9461     81.4139
  1469.7500     31.9850     31.6753     26.1912     88.2423
  1470.0000     30.3367     33.4912     25.5733     99.6084
  1470.2500     28.5052     35.1166     25.0758    107.3058
  1470.5000     26.4845     36.5045     24.6457    117.7882
  1470.7500     24.4561     37.6118     24.2258    123.6168
  1471.0000     22.6848     38.4446     23.7828    130.3515
  1471.2500     21.4073     39.0617     23.3184    133.3958
  1471.5000     20.7447     39.5448     22.8599    135.4134
  1471.7500     20.6180     39.9652     22.4437    134.7206
  1472.0000     20.8194     40.3668     22.1020    130.0164
  1472.2500     21.1775     40.7686     21.8563    124.3557
  1472.5000     21.6436     41.1764     21.7152    113.1133
  1472.7500     22.2477     41.5925     21.6714    105.0182
  1473.0000     22.9566     42.0203     21.7001     93.9010
  1473.2500     23.6253     42.4621     21.7668     87.5778
  1473.5000     24.1331     42.9141     21.8454     79.4426
  1473.7500     24.4967     43.3641     21.9340     74.7046
  1474.0000     24.8017     43.7964     22.0527     68.5924
  1474.2500     25.0966     44.1986     22.2226     65.2814
  1474.5000     25.4108     44.5657     22.4442     61.6889
  1474.7500     25.7309     44.8961     22.6913     60.3099
  1475.0000     25.9205     45.1874     22.9237     59.7288
  1475.2500     25.8659     45.4357     23.1094     60.2149
  1475.5000     25.6761     45.6394     23.2411     62.0601
  1475.7500     25.5699     45.8010     23.3342     63.9799
  1476.0000     25.6427     45.9289     23.4121     67.8682
  1476.2500     25.8687     46.0398     23.4910     71.0528
  1476.5000     26.1980     46.1583     23.5765     76.2494
  1476.7500     26.5479     46.3056     23.6733     79.5824
  1477.0000     26.8295     46.4815     23.7939     83.8717
  1477.2500     27.0137     46.6589     23.9530     86.1808
  1477.5000     27.1165     46.8029     24.1504     88.8949
  1477.7500     27.1873     46.8997     24.3597     90.2967
  1478.0000     27.2878     46.9650     24.5359     92.0316
  1478.2500     27.4147     47.0263     24.6408     93.0464
  1478.5000     27.5002     47.0989     24.6661     94.2144
  1478.7500     27.4838     47.1769     24.6363     94.5838
  1479.0000     27.3687     47.2381     24.5881     94.6592
  1479.2500     27.2466     47.2542     24.5439     94.8510
  1479.5000     27.2095     47.1976     24.4999     96.0621
  1479.7500     27.2393     47.0442     24.4401     97.2641
  1480.0000     27.2466     46.7800     24.3624     98.0844
  1480.2500     27.1818     46.4086     24.2852     96.9854
  1480.5000     27.0571     45.9460     24.2291     92.3649
  1480.7500     26.9205     45.4033     24.1914     87.8700
  1481.0000     26.8385     44.7764     24.1421     80.7712
  1481.2500     26.8391     44.0540     24.0354     76.8160
  1481.5000     26.8496     43.2285     23.8209     73.0762
  1481.7500     26.7619     42.3004     23.4448     72.0012
  1482.0000     26.5479     41.2780     22.8581     71.4195
  1482.2500     26.2397     40.1826     22.0408     70.8259
  1482.5000     25.8885     39.0625     21.0231     68.4916
  1482.7500     25.5625     38.0003     19.8805     65.8756
  1483.0000     25.2542     37.0971     18.7060     61.4053
  1483.2500     24.8038     36.4294     17.5851     59.1725
  1483.5000     23.9810     35.9993     16.5842     58.8732
  1483.7500     22.6548     35.7208     15.7494     61.4384
  1484.0000     20.9223     35.4667     15.1074     69.5661
  1484.2500     19.0970     35.1460     14.6650     77.1817
  1484.5000     17.5354     34.7508     14.4100     90.0276
  1484.7500     16.4345     34.3374     14.3135     98.5600
  1485.0000     15.7623     33.9777     14.3348    110.3048
  1485.2500     15.3326     33.7261     14.4293    116.9780
  1485.5000     14.9461     33.6208     14.5561    124.2902
  1485.7500     14.5020     33.6942     14.6872    126.8976
  1486.0000     14.0310     33.9709     14.8128    127.3608
  1486.2500     13.7078     34.4534     14.9413    125.6783
  1486.5000     13.8037     35.1152     15.0933    120.3871
  1486.7500     14.5311     35.9158     15.2907    114.8596
  1487.0000     15.9486     36.8229     15.5480    103.9027
  1487.2500     18.0095     37.8202     15.8684     95.7972
  1487.5000     20.5990     38.9023     16.2463     84.6732
  1487.7500     23.4687     40.0703     16.6746     78.9091
  1488.0000     26.1690     41.3323     17.1506     73.6810
  1488.2500     28.1644     42.6960     17.6745     72.8719
  1488.5000     29.0769     44.1527     18.2391     75.9908
  1488.7500     28.8133     45.6717     18.8173     80.6790
  1489.0000     27.5710     47.2122     19.3570     90.3313
  1489.2500     25.7469     48.7350     19.7951     97.4942
  1489.5000     23.7280     50.2024     20.0852    107.4634
  1489.7500     21.8198     51.5757     20.2122    112.5799
  1490.0000     20.3115     52.8268     20.1765    116.7431
  1490.2500     19.3709     53.9618     19.9632    116.8543
  1490.5000     18.9896     55.0334     19.5400    112.8815
  1490.7500     19.1605     56.1176     18.8986    107.6096
  1491.0000     19.8712     57.2631     18.0966     97.1146
  1491.2500     20.9187     58.4505     17.2450     90.1603
  1491.5000     21.8841     59.5975     16.4498     83.4942
  1491.7500     22.2747     60.6060     15.7663     82.9076
  1492.0000     21.7614     61.4131     15.1933     87.4725
  1492.2500     20.3668     62.0109     14.6942     92.9239
  1492.5000     18.4425     62.4355     14.2239    102.7185
  1492.7500     16.4917     62.7408     13.7477    109.6367
  1493.0000     14.9216     62.9744     13.2502    119.7284
  1493.2500     13.8458     63.1587     12.7328    125.7492
  1493.5000     13.0927     63.2879     12.2068    133.0196
  1493.7500     12.3889     63.3413     11.6880    136.4681
  1494.0000     11.5816     63.3036     11.1937    139.2283
  1494.2500     10.7417     63.1763     10.7420    139.2407
  1494.5000     10.0389     62.9647     10.3488    136.2748
  1494.7500      9.6026     62.6531     10.0240    132.4418
  1495.0000      9.5216     62.2038      9.7695    124.7976
  1495.2500      9.8250     61.5965      9.5789    119.3008
  1495.5000     10.3906     60.8669      9.4383    112.1870
  1495.7500     10.9151     60.0920      9.3288    109.0203
  1496.0000     11.0646     59.3316      9.2307    107.0048
  1496.2500     10.7072     58.5869      9.1287    107.1028
