~Version Information
VERS.                      2.0: CWLS Log ASCII Standard - VERSION 2.0
WRAP.                       NO: One line per depth step
~Well Information Block
STRT.FT                 0.0000: 
STOP.FT              1507.7500: 
STEP.FT                 0.2500: 
NULL.                -999.2500: 
COMP.          Pioneer Natural Resources: COMPANY
WELL.          Pioneer 34-27 Tr: WELL
FLD.           Purgatorie River: FIELD
LOC.           243' FSL & 1593' FEL: LOCATION
STAT.                 Colorado: State
CNTY.               Las Animas: COUNTY
CTRY. USA : Country
SECT. 27 : Section
TOWN. 32S : Township
RANG. 67W : Range
SRVC.                Patterson: SERVICE COMPANY
DATE.          Wed Oct 12 09:30:25 2005: LOG DATE
API.                          : UNIQUE WELL ID
~Curve Information Block
DEPT.FT            0 000 00 00: Depth
GR.GAPI                       : Gamma Ray
CCL.                          : Casing Collar Locator
TT3.usec                      : CBL 3' Travel Time
AMP3.mV                       : CBL 3' Amplitude
~Parameter Information Block
~A  Depth        GR         CCL         TT3         AMP3    
# ...
   971.5000    124.7201      0.0000    381.2386     22.3913
   971.7500    121.3795      0.0000    353.9546     22.7768
   972.0000    118.0322      0.0000    345.9717     22.9174
   972.2500    113.9362      0.0000    335.9621     22.8650
   972.5000    108.8309      0.0000    322.4139     22.6368
   972.7500    103.4457      0.0000    313.1973     22.3672
   973.0000     98.9492      0.0000    310.0359     22.1426
   973.2500     95.9320      0.0000    311.2589     21.9714
   973.5000     94.0105      0.0000    318.1716     21.8280
   973.7500     92.3752      0.0000    333.5855     21.6758
   974.0000     90.7490      0.0000    353.7543     21.5054
   974.2500     90.0388      0.0000    365.9319     21.3497
   974.5000     92.0113      0.0000    361.7247     21.2301
   974.7500     97.7669      0.0000    347.5995     21.1297
   975.0000    106.3378      0.0000    334.6028     21.0345
   975.2500    115.1732      0.0000    325.8315     20.9585
   975.5000    122.0416      0.0000    318.9576     20.9359
   975.7500    126.1228      0.0000    313.5704     21.0154
   976.0000    127.5772      0.0000    311.5845     21.2277
   976.2500    126.8371      0.0000    315.8484     21.5353
   976.5000    124.4190      0.0000    330.3917     21.8617
   976.7500    120.8670      0.0000    353.7291     22.1772
   977.0000    116.5874      0.0000    370.7114     22.5092
   977.2500    111.8700      0.0000    365.6573     22.8823
   977.5000    107.1649      0.0000    343.7100     23.2878
   977.7500    103.2646      0.0000    322.9513     23.6878
   978.0000    101.0611      0.0000    312.2448     24.0092
   978.2500    101.0220      0.0000    308.9526     24.1658
   978.5000    102.8677      0.0000    309.1820     24.1214
   978.7500    105.6558      0.0000    313.2346     23.9130
   979.0000    108.1282      0.0000    324.6231     23.6007
   979.2500    109.2223      0.0000    343.2618     23.2116
   979.5000    108.6005      0.0000    359.8238     22.7519
   979.7500    106.8458      0.0000    365.8835     22.2589
   980.0000    105.1019      0.0000    367.9777     21.7972
   980.2500    104.3166      0.0000    380.5679     21.3941
   980.5000    104.5450      0.0000    409.6093     21.0227
   980.7500    104.9445      0.0000    450.7259     20.6456
   981.0000    104.5893      0.0000    500.9322     20.2403
   981.2500    103.2134      0.0000    559.1215     19.8239
   981.5000    101.0833      0.0000    608.2751     19.4748
   981.7500     98.5188      0.0000    623.0839     19.2772
   982.0000     95.9171      0.0000    605.4917     19.2429
   982.2500     93.9535      0.0000    576.1918     19.3204
   982.5000     93.2279      0.0000    535.2158     19.4443
   982.7500     93.7921      0.0000    475.6924     19.5481
   983.0000     95.3521      0.0000    414.9645     19.5769
   983.2500     97.6534      0.0000    375.0650     19.5124
   983.5000    100.3004      0.0000    359.7289     19.3672
   983.7500    102.5200      0.0000    363.6625     19.1541
   984.0000    103.6438      0.0000    381.9248     18.8845
   984.2500    103.7545      0.0000    406.7494     18.5996
   984.5000    103.5149      0.0000    429.5707     18.3551
   984.7500    103.5639      0.0000    451.9196     18.1702
   985.0000    104.4832      0.0000    485.8562     18.0254
   985.2500    107.0469      0.0000    534.7376     17.8812
   985.5000    111.7807      0.0000    575.9312     17.6718
   985.7500    118.0991      0.0000    579.6326     17.3578
   986.0000    124.3052      0.0000    547.8290     17.0064
   986.2500    128.6403      0.0000    511.5711     16.7489
   986.5000    130.1349      0.0000    493.2011     16.6664
   986.7500    128.6290      0.0000    496.5978     16.7548
   987.0000    124.6602      0.0000    524.9095     16.9515
   987.2500    119.6159      0.0000    579.9433     17.1720
   987.5000    115.5111      0.0000    642.4152     17.3595
   987.7500    113.9900      0.0000    678.2025     17.5053
   988.0000    115.2509      0.0000    676.7129     17.6144
   988.2500    117.8490      0.0000    664.1242     17.7034
   988.5000    119.7044      0.0000    666.2371     17.8300
   988.7500    119.4296      0.0000    678.8596     18.0397
   989.0000    116.6719      0.0000    687.6278     18.3011
   989.2500    111.5021      0.0000    690.1648     18.5581
   989.5000    104.2860      0.0000    690.5667     18.7985
   989.7500     96.3709      0.0000    691.6241     19.0227
   990.0000     90.2241      0.0000    695.0750     19.1948
   990.2500     88.1135      0.0000    701.4891     19.2830
   990.5000     90.3762      0.0000    708.5005     19.3069
   990.7500     95.1026      0.0000    713.2707     19.2913
   991.0000     99.6495      0.0000    716.8520     19.2214
   991.2500    102.4886      0.0000    720.4883     19.0960
   991.5000    103.6105      0.0000    721.4406     18.9707
   991.7500    103.4609      0.0000    720.2777     18.8870
   992.0000    102.0320      0.0000    723.2073     18.8267
   992.2500     99.2209      0.0000    730.0319     18.7806
   992.5000     95.5844      0.0000    733.3309     18.7756
   992.7500     92.1778      0.0000    732.6479     18.8367
   993.0000     89.7690      0.0000    733.8022     18.9916
   993.2500     88.4734      0.0000    735.4979     19.2698
   993.5000     87.9452      0.0000    728.7379     19.6397
   993.7500     87.5949      0.0000    702.9593     19.9873
   994.0000     86.7193      0.0000    653.0350     20.2018
   994.2500     84.6951      0.0000    595.9583     20.2720
   994.5000     81.2842      0.0000    568.7136     20.2765
   994.7500     77.0199      0.0000    590.9838     20.2770
   995.0000     73.4126      0.0000    642.1730     20.2432
   995.2500     72.4794      0.0000    684.7382     20.1024
   995.5000     75.6421      0.0000    702.2046     19.8586
   995.7500     82.7053      0.0000    705.8013     19.6079
   996.0000     91.6745      0.0000    708.9462     19.4182
   996.2500     99.7842      0.0000    710.6558     19.2685
   996.5000    105.0505      0.0000    705.9119     19.1081
   996.7500    107.0161      0.0000    697.7822     18.9131
   997.0000    106.3103      0.0000    692.6332     18.6914
   997.2500    103.9005      0.0000    693.5966     18.4778
   997.5000    100.7266      0.0000    702.5867     18.3187
   997.7500     97.7171      0.0000    719.6213     18.2310
   998.0000     95.7377      0.0000    736.6700     18.1822
   998.2500     95.1512      0.0000    740.1577     18.1319
   998.5000     95.5167      0.0000    722.6505     18.0729
   998.7500     96.1829      0.0000    686.1235     18.0181
   999.0000     97.2247      0.0000    641.6896     17.9810
   999.2500     99.4198      0.0000    611.1556     17.9734
   999.5000    103.3231      0.0000    606.0275     17.9942
   999.7500    108.5547      0.0000    613.0151     18.0383
  1000.0000    113.8698      0.0000    623.4914     18.1163
  1000.2500    117.7789      0.0000    641.9421     18.2401
  1000.5000    119.4659      0.0000    659.5776     18.4081
  1000.7500    119.4526      0.0000    659.5417     18.6187
  1001.0000    119.1538      0.0000    642.4844     18.8719
  1001.2500    119.5293      0.0000    625.7852     19.1507
  1001.5000    120.2417      0.0000    614.6110     19.4300
  1001.7500    120.1632      0.0000    591.3666     19.7153
  1002.0000    118.4649      0.0000    548.1163     20.0379
  1002.2500    115.2306      0.0000    501.0972     20.4117
  1002.5000    111.3261      0.0000    467.5403     20.8271
  1002.7500    107.8429      0.0000    456.5366     21.2614
  1003.0000    105.5842      0.0000    465.7986     21.6844
  1003.2500    104.7663      0.0000    471.0297     22.0778
  1003.5000    104.8492      0.0000    451.0323     22.4317
  1003.7500    104.6859      0.0000    418.9869     22.7137
  1004.0000    103.3584      0.0000    399.9154     22.8840
  1004.2500    101.1651      0.0000    401.3524     22.9599
  1004.5000     99.6273      0.0000    416.2694     23.0149
  1004.7500    100.3773      0.0000    429.7340     23.0951
