~Version Information
VERS.                      2.0: CWLS Log ASCII Standard - VERSION 2.0
WRAP.                       NO: One line per depth step
~Well Information Block
STRT.FT               410.0000: 
STOP.FT              1252.0000: 
STEP.FT                 0.2500: 
NULL.                -999.2500: 
COMP.          Petrogulf Corporation: COMPANY
WELL.           Parsons 15-23R: WELL
FLD.           Purgatorie River: FIELD
LOC.           2244' FSL & 1932' FWL: LOCATION
PROV.                 Colorado: PROVINCE
CNTY.               Las Animas: COUNTRY
SRVC.                Patterson: SERVICE COMPANY
DATE.          Mon Sep 12 10:30:11 2005: LOG DATE
UWI.                          : UNIQUE WELL ID
~Curve Information Block
DEPT.FT            0 000 00 00: Depth
SP.mV                         : DIL Spontaneous Potential
RILD.Ohm-m                    : DIL Deep Resistivity
RILM.Ohm-m                    : DIL Medium Resistivity
RLL3.Ohm-m                    : DIL Shallow Resistivity
GR.GAPI                       : Gamma Ray
~Parameter Information Block
~A  Depth        SP         RILD        RILM        RLL3         GR     
# ...
   830.0000    188.2995     14.0215     14.6187     15.5176    142.3203
   830.2500    187.9895     14.0527     14.2641     11.5498    152.9221
   830.5000    187.8031     13.7263     14.6849     10.7820    161.6813
   830.7500    187.3147     13.6715     14.8439     12.4338    142.3758
   831.0000    186.8632     13.3790     14.9452     16.1123    122.0644
   831.2500    186.6684     12.8490     15.0126     19.3946    118.1896
   831.5000    186.6809     12.3639     14.5162     20.5337    141.4460
   831.7500    186.8843     12.0443     13.6236     19.3130    148.9397
   832.0000    186.6283     11.6539     12.5634     16.0791    152.0962
   832.2500    186.2870     11.4053     11.6723     12.7399    161.5323
   832.5000    186.0048     11.1669     11.0132     10.3786    167.7397
   832.7500    186.3230     11.1853     10.6051     10.0213    165.7810
   833.0000    185.9538     10.9782     10.4400     10.1842    165.3169
   833.2500    185.8221     10.8038     10.5523     10.4803    165.2462
   833.5000    184.9238     11.0168     10.5657     10.8115    155.4330
   833.7500    184.7889     11.2596     10.3679     11.6852    141.8229
   834.0000    184.0729     11.1996     10.3796     11.6018    147.9304
   834.2500    183.0209     11.4331     10.6713     10.9964    134.1726
   834.5000    181.8128     11.4770     10.7416     11.7439    151.4720
   834.7500    180.8356     11.7812     11.0715     13.0467    152.7638
   835.0000    180.3121     12.0535     11.7106     13.5382    151.8037
   835.2500    179.4752     12.2624     12.5109     13.1512    162.5375
   835.5000    178.3598     12.2700     13.2644     15.6461    131.3373
   835.7500    177.2643     13.2945     14.2007     20.5132    111.1389
   836.0000    176.2647     13.7139     15.0089     23.5088     83.0600
   836.2500    175.5021     14.2758     15.9671     22.8389     87.7558
   836.5000    175.0607     14.8320     16.7727     22.8510     97.5595
   836.7500    174.6702     15.6300     18.2082     24.6222    101.1209
   837.0000    174.7351     16.1910     18.9949     26.1222     77.4189
   837.2500    174.9522     16.9067     20.0288     26.9431     82.1103
   837.5000    174.9887     17.2536     19.8214     26.7876     74.3412
   837.7500    174.7860     17.2155     20.7312     26.1715     76.7223
   838.0000    174.2070     17.8916     21.0779     25.3869     96.1084
   838.2500    173.3351     18.3456     22.0271     24.8046     95.0874
   838.5000    172.5379     18.1783     21.4797     24.7736     91.4553
   838.7500    171.6911     17.4532     21.4730     24.3508     90.3218
   839.0000    170.9540     18.2830     21.7415     22.9651     98.7588
   839.2500    170.1201     18.2840     22.8305     22.6799     93.9285
   839.5000    170.0000     18.3828     21.4586     23.0456     90.1698
   839.7500    169.6427     18.8627     21.7223     23.8582     86.6395
   840.0000    168.9219     18.8989     21.4415     24.3032    105.2830
   840.2500    168.0654     18.4550     21.5990     24.0308    101.9689
   840.5000    167.6275     17.6329     21.5697     24.1222     90.4958
   840.7500    167.4318     18.4466     20.8805     23.3332     91.2590
   841.0000    167.4701     18.2502     21.0175     23.3743     81.0470
   841.2500    167.6404     18.4900     21.4037     24.3257     75.4085
   841.5000    168.0340     18.5852     21.2705     24.9863     93.2263
   841.7500    168.6157     18.4162     20.5498     24.4288     93.8134
   842.0000    168.9715     19.2205     20.6872     23.3185     83.6339
   842.2500    168.7539     19.1344     20.3252     22.9397     93.7278
   842.5000    168.2836     18.7831     20.9866     23.0115    102.9000
   842.7500    167.7668     19.1794     20.7774     23.3565     85.9804
   843.0000    167.5490     19.3381     21.2408     24.1636     87.3704
   843.2500    167.3754     19.5412     20.7894     25.4390    107.0770
   843.5000    167.4110     19.2996     21.0379     25.4114     92.0028
   843.7500    168.0785     19.9478     21.7350     23.5556    105.4332
   844.0000    168.5453     20.7245     21.8207     21.8001    101.7956
   844.2500    169.0011     20.4700     22.9281     21.5976     92.8192
   844.5000    169.3956     21.1140     22.5394     22.9030     74.3908
   844.7500    170.1121     20.7646     24.3985     25.4449     87.6898
   845.0000    171.1714     20.7505     24.8545     30.4856     99.5917
   845.2500    172.6332     20.8968     24.7768     33.8397     94.9045
   845.5000    174.1919     20.3813     26.3765     32.3398     79.5325
   845.7500    176.0323     20.1569     25.4359     30.8890     91.4817
   846.0000    177.8184     19.3972     25.8480     33.6988     74.7157
   846.2500    179.7073     18.5562     25.5227     36.6390     81.2572
   846.5000    181.6912     17.7732     23.9953     35.7774    105.3298
   846.7500    183.3657     17.1268     21.9514     30.4480    115.6490
   847.0000    184.7807     16.6487     19.6354     23.8561    116.5685
   847.2500    185.8358     15.8709     18.2922     19.2406    127.7125
   847.5000    186.8709     15.2092     16.8450     15.7644    136.7829
   847.7500    187.9622     14.4065     15.6576     13.6325    142.2895
   848.0000    188.8040     13.8865     14.6896     12.9830    159.0893
   848.2500    189.4047     13.4846     13.6794     13.2060    155.0493
   848.5000    189.7107     13.1164     13.1957     12.7048    171.6923
   848.7500    189.9494     12.3486     12.7690     12.5747    170.2643
   849.0000    190.2007     11.7399     12.1907     12.7901    160.0034
   849.2500    190.3327     11.0684     11.7441     13.7956    159.1145
   849.5000    190.5446     10.6229     11.1616     14.8876    156.4025
   849.7500    190.7974     10.2818     10.6807     15.2484    166.1672
   850.0000    191.0072     10.1102      9.9788     14.6472    146.8277
   850.2500    191.2559      9.9784      9.4189     12.4567    151.6417
   850.5000    191.3388      9.9159      9.0172      9.5729    163.1599
   850.7500    191.4966     10.0130      8.7619      8.1917    157.4163
   851.0000    191.8252      9.9355      8.9029      9.0805    159.5115
   851.2500    192.5675     10.2724      9.0344     11.0839    153.5598
   851.5000    193.1441     10.5455      9.3402     11.4836    159.5506
   851.7500    193.7174     10.8080      9.6305     11.2907    151.9165
   852.0000    193.7860     10.9266      9.8682     11.5381    162.1626
   852.2500    193.8925     11.1714     10.2889     11.8426    152.5074
   852.5000    194.0426     11.3566     11.1876     12.6375    135.2772
   852.7500    194.3281     11.5741     12.0088     17.0181    124.1563
   853.0000    194.8711     12.2194     13.1124     30.8810    108.1402
   853.2500    195.8625     12.5850     14.3406     42.2710     90.1156
   853.5000    196.9464     13.2691     15.2453     32.7031     83.8782
   853.7500    197.5748     13.9973     15.9679     25.4577     90.0876
   854.0000    197.7527     14.3170     16.7882     24.2378     99.8837
   854.2500    197.7474     15.3269     17.4123     24.2702    101.1117
   854.5000    197.8081     16.2058     18.0381     25.0318    124.6023
   854.7500    197.8867     16.9637     19.4837     25.5832    112.7676
   855.0000    198.0565     17.0860     19.6020     24.6416    115.4412
   855.2500    198.1556     17.6501     20.3611     23.4799    102.8662
   855.5000    198.1224     17.1768     20.7318     24.1453     78.4746
   855.7500    198.1946     17.2593     21.8493     24.5867     92.9987
   856.0000    198.0888     17.3163     21.6458     26.1139    112.6093
   856.2500    197.9220     16.7799     21.3669     30.9504    100.2184
   856.5000    197.6612     16.3012     20.5821     31.7163    105.1670
   856.7500    197.0480     16.1067     19.4466     30.6268    126.7329
   857.0000    196.3895     15.8974     18.3525     29.7379    132.8205
   857.2500    195.7714     15.5944     17.1621     22.2877    117.9370
   857.5000    194.9998     15.9059     16.2505     15.7770    137.5155
   857.7500    194.2637     15.8653     15.7460     14.1563    142.7972
