~Version Information
VERS.                      2.0: CWLS Log ASCII Standard - VERSION 2.0
WRAP.                       NO: One line per depth step
~Well Information Block
STRT.FT               670.0000: 
STOP.FT              2110.0000: 
STEP.FT                 0.2500: 
NULL.                -999.2500: 
COMP.          Petrogulf Corporation: COMPANY
WELL.           Montoya 12-44R: WELL
FLD.           Purgatorie River: FIELD
LOC.           713' FSL & 798' FEL: LOCATION
PROV.                 Colorado: PROVINCE
CNTY.               Las Animas: COUNTRY
SRVC.                Patterson: SERVICE COMPANY
DATE.          Sun Oct 02 01:06:45 2005: LOG DATE
UWI.           05-071-08538               : UNIQUE WELL ID
~Curve Information Block
DEPT.FT            0 000 00 00: Depth
SP.mV                         : DIL Spontaneous Potential
RILD.Ohm-m                    : DIL Deep Resistivity
RILM.Ohm-m                    : DIL Medium Resistivity
RLL3.Ohm-m                    : DIL Shallow Resistivity
GR.GAPI                       : Gamma Ray
~Parameter Information Block
~A  Depth        SP         RILD        RILM        RLL3         GR     
# ...
   754.0000   2000.0000     18.4203     18.9326   2000.0000    130.8935
   754.2500   2000.0000     18.8860     19.1069   2000.0000    132.0034
   754.5000   2000.0000     19.3657     19.3563   2000.0000    131.3613
   754.7500   2000.0000     19.8426     19.7076   2000.0000    129.9183
   755.0000   2000.0000     20.3060     20.1755   2000.0000    127.9843
   755.2500   2000.0000     20.7493     20.7604   2000.0000    127.5999
   755.5000   2000.0000     21.1651     21.4480   2000.0000    128.3731
   755.7500   2000.0000     21.5457     22.2119   2000.0000    129.2379
   756.0000   2000.0000     21.8885     23.0169   2000.0000    130.1261
   756.2500   2000.0000     22.2004     23.8249   2000.0000    130.1307
   756.5000   2000.0000     22.4961     24.5998   2000.0000    128.8271
   756.7500   2000.0000     22.7903     25.3091   2000.0000    126.8724
   757.0000   2000.0000     23.0868     25.9231   2000.0000    122.6264
   757.2500   2000.0000     23.3705     26.4114   2000.0000    119.7452
   757.5000   2000.0000     23.6047     26.7401   2000.0000    117.1787
   757.7500   2000.0000     23.7373     26.8747   2000.0000    117.2216
   758.0000   2000.0000     23.7165     26.7861   2000.0000    119.4105
   758.2500   2000.0000     23.5097     26.4604   2000.0000    121.3839
   758.5000   2000.0000     23.1159     25.9054   2000.0000    123.7714
   758.7500   2000.0000     22.5638     25.1512   2000.0000    124.9287
   759.0000   2000.0000     21.9005     24.2443   2000.0000    127.2618
   759.2500   2000.0000     21.1790     23.2380   2000.0000    130.0141
   759.5000   2000.0000     20.4473     22.1833   2000.0000    135.8076
   759.7500   2000.0000     19.7395     21.1241   2000.0000    139.7639
   760.0000   2000.0000     19.0727     20.0946   2000.0000    144.0946
   760.2500   2000.0000     18.4494     19.1210   2000.0000    145.6834
   760.5000   2000.0000     17.8661     18.2217   2000.0000    146.7190
   760.7500   2000.0000     17.3209     17.4090   2000.0000    146.6987
   761.0000   2000.0000     16.8176     16.6895   2000.0000    145.0735
   761.2500   2000.0000     16.3634     16.0652   2000.0000    142.4873
   761.5000   2000.0000     15.9658     15.5343   2000.0000    136.2723
   761.7500   2000.0000     15.6301     15.0929   2000.0000    131.1380
   762.0000   2000.0000     15.3588     14.7364   2000.0000    123.8552
   762.2500   2000.0000     15.1529     14.4604   2000.0000    120.5765
   762.5000   2000.0000     15.0127     14.2615   2000.0000    119.3336
   762.7500   2000.0000     14.9394     14.1370   2000.0000    120.6474
   763.0000   2000.0000     14.9362     14.0855   2000.0000    123.8504
   763.2500   2000.0000     15.0075     14.1064   2000.0000    125.7007
   763.5000   2000.0000     15.1563     14.2008   2000.0000    127.4799
   763.7500   2000.0000     15.3808     14.3715   2000.0000    128.2599
   764.0000   2000.0000     15.6730     14.6230   2000.0000    129.1614
   764.2500   2000.0000     16.0204     14.9611   2000.0000    129.4586
   764.5000   2000.0000     16.4097     15.3904   2000.0000    129.0548
   764.7500   2000.0000     16.8298     15.9128   2000.0000    128.1645
   765.0000   2000.0000     17.2745     16.5245   2000.0000    126.2727
   765.2500   2000.0000     17.7436     17.2147   2000.0000    125.0000
   765.5000   2000.0000     18.2424     17.9666   2000.0000    123.5308
   765.7500   2000.0000     18.7810     18.7613   2000.0000    122.9318
   766.0000   2000.0000     19.3722     19.5842   2000.0000    122.6354
   766.2500   2000.0000     20.0305     20.4311   2000.0000    122.8766
   766.5000   2000.0000     20.7706     21.3124   2000.0000    123.8517
   766.7500   2000.0000     21.6034     22.2512   2000.0000    124.6719
   767.0000   2000.0000     22.5317     23.2789   2000.0000    125.4063
   767.2500   2000.0000     23.5469     24.4274   2000.0000    125.2107
   767.5000   2000.0000     24.6296     25.7241   2000.0000    124.0433
   767.7500   2000.0000     25.7538     27.1874   2000.0000    123.0926
   768.0000   2000.0000     26.8908     28.8264   2000.0000    121.7601
   768.2500   2000.0000     28.0154     30.6403   2000.0000    120.6929
   768.5000   2000.0000     29.1109     32.6193   2000.0000    118.0761
   768.7500   2000.0000     30.1729     34.7419   2000.0000    115.3808
   769.0000   2000.0000     31.2072     36.9727   2000.0000    109.8801
   769.2500   2000.0000     32.2244     39.2599   2000.0000    105.3364
   769.5000   2000.0000     33.2348     41.5373   2000.0000     97.4328
   769.7500   2000.0000     34.2495     43.7325   2000.0000     91.7339
   770.0000   2000.0000     35.2826     45.7809   2000.0000     83.5328
   770.2500   2000.0000     36.3520     47.6401   2000.0000     78.9689
   770.5000   2000.0000     37.4739     49.2978   2000.0000     74.1774
   770.7500   2000.0000     38.6520     50.7698   2000.0000     72.3956
   771.0000   2000.0000     39.8691     52.0904   2000.0000     71.6979
   771.2500   2000.0000     41.0820     53.2998   2000.0000     72.5133
   771.5000   2000.0000     42.2244     54.4346   2000.0000     75.2936
   771.7500   2000.0000     43.2174     55.5212   2000.0000     77.5196
   772.0000   2000.0000     43.9917     56.5732   2000.0000     79.9416
   772.2500   2000.0000     44.5120     57.5879   2000.0000     80.5760
   772.5000   2000.0000     44.7846     58.5426   2000.0000     80.7241
   772.7500   2000.0000     44.8390     59.3901   2000.0000     80.8896
   773.0000   2000.0000     44.7010     60.0567   2000.0000     81.4976
   773.2500   2000.0000     44.3775     60.4446   2000.0000     81.8414
   773.5000   2000.0000     43.8585     60.4393   2000.0000     81.6811
   773.7500   2000.0000     43.1263     59.9221   2000.0000     80.9849
   774.0000   2000.0000     42.1624     58.7863   2000.0000     79.1844
   774.2500   2000.0000     40.9577     56.9607   2000.0000     77.7069
   774.5000   2000.0000     39.5266     54.4357   2000.0000     75.5189
   774.7500   2000.0000     37.9165     51.2878   2000.0000     74.2463
   775.0000   2000.0000     36.2035     47.6821   2000.0000     72.8382
   775.2500   2000.0000     34.4743     43.8458   2000.0000     72.4998
   775.5000   2000.0000     32.8034     40.0191   2000.0000     73.6612
   775.7500   2000.0000     31.2343     36.4053   2000.0000     76.0369
   776.0000   2000.0000     29.7721     33.1422   2000.0000     82.5538
   776.2500   2000.0000     28.3926     30.2973   2000.0000     88.8113
   776.5000   2000.0000     27.0632     27.8804   2000.0000    100.0181
   776.7500   2000.0000     25.7643     25.8628   2000.0000    107.6247
   777.0000   2000.0000     24.4979     24.1935   2000.0000    117.4100
   777.2500   2000.0000     23.2815     22.8133   2000.0000    122.2683
   777.5000   2000.0000     22.1372     21.6631   2000.0000    127.2245
   777.7500   2000.0000     21.0854     20.6897   2000.0000    129.5687
   778.0000   2000.0000     20.1411     19.8493   2000.0000    132.6870
   778.2500   2000.0000     19.3128     19.1086   2000.0000    134.6639
   778.5000   2000.0000     18.6013     18.4445   2000.0000    136.6592
   778.7500   2000.0000     17.9998     17.8418   2000.0000    136.5247
   779.0000   2000.0000     17.4948     17.2912   2000.0000    133.4344
   779.2500   2000.0000     17.0682     16.7872   2000.0000    130.1078
   779.5000   2000.0000     16.6975     16.3255   2000.0000    125.9466
   779.7500   2000.0000     16.3584     15.9020   2000.0000    125.2071
   780.0000   2000.0000     16.0279     15.5112   2000.0000    127.5998
   780.2500   2000.0000     15.6883     15.1460   2000.0000    130.5845
   780.5000   2000.0000     15.3296     14.7978   2000.0000    135.1490
   780.7500   2000.0000     14.9526     14.4575   2000.0000    137.5922
   781.0000   2000.0000     14.5676     14.1173   2000.0000    139.8747
   781.2500   2000.0000     14.1915     13.7726   2000.0000    140.1990
   781.5000   2000.0000     13.8431     13.4238   2000.0000    138.7136
   781.7500   2000.0000     13.5391     13.0770   2000.0000    136.8569
