~Version Information
VERS.                      2.0: CWLS Log ASCII Standard - VERSION 2.0
WRAP.                       NO: One line per depth step
~Well Information Block
STRT.FT               440.0000: 
STOP.FT              1702.7500: 
STEP.FT                 0.2500: 
NULL.                -999.2500: 
COMP.          Pioneer Natural Resources: COMPANY
WELL.          Culver 14-12 Tr: WELL
FLD.           Purgatoire River: FIELD
LOC.           915' FSL & 1048' FWL--: LOCATION
STAT.                 Colorado: State
CNTY.               Las Animas: COUNTY
CTRY. USA : Country
SECT. 12 : Section
TOWN. 32S : Township
RANG. 66W : Range
SRVC.                Patterson: SERVICE COMPANY
DATE.          Tue Sep 27 23:38:23 2005: LOG DATE
API.           05 071 08520 00: UNIQUE WELL ID
~Curve Information Block
DEPT.FT            0 000 00 00: Depth
SN.Ohm-m                      : IEL Short Normal
SP.mV                         : IEL Spontaneous Potential
DIR.Ohm-m                     : IEL Induction Resistivity
GR.GAPI                       : Gamma Ray
~Parameter Information Block
~A  Depth        SN          SP         DIR          GR     
# ...
   674.5000   2000.0000   2014.0000     51.2896     67.1305
   674.7500   2000.0000   2014.0000     51.4410     67.5895
   675.0000   2000.0000   2014.0000     51.3089     67.6046
   675.2500   2000.0000   2014.0000     50.9752     67.3376
   675.5000   2000.0000   2014.0000     50.5202     66.9838
   675.7500   2000.0000   2014.0000     50.0060     66.9110
   676.0000   2000.0000   2014.0000     49.4682     66.9383
   676.2500   2000.0000   2014.0000     48.9167     67.0184
   676.5000   2000.0000   2014.0000     48.3482     67.4066
   676.7500   2000.0000   2014.0000     47.7658     67.8411
   677.0000   2000.0000   2014.0000     47.1897     68.4067
   677.2500   2000.0000   2014.0000     46.6552     68.6202
   677.5000   2000.0000   2014.0000     46.2069     68.9522
   677.7500   2000.0000   2014.0000     45.8967     69.2798
   678.0000   2000.0000   2014.0000     45.7662     69.6651
   678.2500   2000.0000   2014.0000     45.8111     69.7265
   678.5000   2000.0000   2014.0000     45.9510     69.7986
   678.7500   2000.0000   2014.0000     46.0473     70.0393
   679.0000   2000.0000   2014.0000     45.9704     70.4943
   679.2500   2000.0000   2014.0000     45.6694     70.5585
   679.5000   2000.0000   2014.0000     45.1710     70.4483
   679.7500   2000.0000   2014.0000     44.5182     70.9501
   680.0000   2000.0000   2014.0000     43.7237     73.7784
   680.2500   2000.0000   2014.0000     42.7894     76.8487
   680.5000   2000.0000   2014.0000     41.7535     81.0373
   680.7500   2000.0000   2014.0000     40.6998     82.1083
   681.0000   2000.0000   2014.0000     39.7173     80.4855
   681.2500   2000.0000   2014.0000     38.8582     78.2117
   681.5000   2000.0000   2014.0000     38.1311     75.5277
   681.7500   2000.0000   2014.0000     37.5185     75.2308
   682.0000   2000.0000   2014.0000     36.9835     77.3190
   682.2500   2000.0000   2014.0000     36.4562     79.9936
   682.5000   2000.0000   2014.0000     35.8239     85.0100
   682.7500   2000.0000   2014.0000     34.9573     88.6011
   683.0000   2000.0000   2014.0000     33.7713     93.7956
   683.2500   2000.0000   2014.0000     32.2746     96.8510
   683.5000   2000.0000   2014.0000     30.5628    100.7169
   683.7500   2000.0000   2014.0000     28.7638    103.0976
   684.0000   2000.0000   2014.0000     26.9845    107.0172
   684.2500   2000.0000   2014.0000     25.2859    109.9474
   684.5000   2000.0000   2014.0000     23.6900    114.3384
   684.7500   2000.0000   2014.0000     22.2014    116.8870
   685.0000   2000.0000   2014.0000     20.8265    119.8550
   685.2500   2000.0000   2014.0000     19.5812    121.3659
   685.5000   2000.0000   2014.0000     18.4841    123.4200
   685.7500   2000.0000   2014.0000     17.5459    124.9870
   686.0000   2000.0000   2014.0000     16.7628    127.7070
   686.2500   2000.0000   2014.0000     16.1197    129.1248
   686.5000   2000.0000   2014.0000     15.5988    128.9300
   686.7500   2000.0000   2014.0000     15.1865    126.9655
   687.0000   2000.0000   2014.0000     14.8738    122.9914
   687.2500   2000.0000   2014.0000     14.6522    121.0237
   687.5000   2000.0000   2014.0000     14.5099    119.8028
   687.7500   2000.0000   2014.0000     14.4326    119.5827
   688.0000   2000.0000   2014.0000     14.4076    119.1625
   688.2500   2000.0000   2014.0000     14.4275    118.6901
   688.5000   2000.0000   2014.0000     14.4878    117.5517
   688.7500   2000.0000   2014.0000     14.5828    116.1044
   689.0000   2000.0000   2014.0000     14.7021    112.1425
   689.2500   2000.0000   2014.0000     14.8325    108.3862
   689.5000   2000.0000   2014.0000     14.9654    102.3830
   689.7500   2000.0000   2014.0000     15.1025     99.1411
   690.0000   2000.0000   2014.0000     15.2564     96.4693
   690.2500   2000.0000   2014.0000     15.4446     96.0916
   690.5000   2000.0000   2014.0000     15.6839     96.7047
   690.7500   2000.0000   2014.0000     15.9871     97.2500
   691.0000   2000.0000   2014.0000     16.3617     97.4164
   691.2500   2000.0000   2014.0000     16.8059     96.8114
   691.5000   2000.0000   2014.0000     17.3030     94.7814
   691.7500   2000.0000   2014.0000     17.8191     92.9678
   692.0000   2000.0000   2014.0000     18.3110     90.5608
   692.2500   2000.0000   2014.0000     18.7469     89.9082
   692.5000   2000.0000   2014.0000     19.1246     91.4211
   692.7500   2000.0000   2014.0000     19.4714     94.2796
   693.0000   2000.0000   2014.0000     19.8222    100.5525
   693.2500   2000.0000   2014.0000     20.1940    105.0311
   693.5000   2000.0000   2014.0000     20.5780    110.2980
   693.7500   2000.0000   2014.0000     20.9520    112.2286
   694.0000   2000.0000   2014.0000     21.3020    113.0525
   694.2500   2000.0000   2014.0000     21.6374    112.8948
   694.5000   2000.0000   2014.0000     21.9919    112.3690
   694.7500   2000.0000   2014.0000     22.4128    111.6097
   695.0000   2000.0000   2014.0000     22.9463    108.7921
   695.2500   2000.0000   2014.0000     23.6264    105.3939
   695.5000   2000.0000   2014.0000     24.4702     98.3808
   695.7500   2000.0000   2014.0000     25.4776     93.1181
   696.0000   2000.0000   2014.0000     26.6340     85.6904
   696.2500   2000.0000   2014.0000     27.9115     81.6460
   696.5000   2000.0000   2014.0000     29.2692     77.4017
   696.7500   2000.0000   2014.0000     30.6529     75.7176
   697.0000   2000.0000   2014.0000     31.9980     74.2732
   697.2500   2000.0000   2014.0000     33.2352     73.4509
   697.5000   2000.0000   2014.0000     34.3018     71.4631
   697.7500   2000.0000   2014.0000     35.1571     69.4313
   698.0000   2000.0000   2014.0000     35.7971     65.9849
   698.2500   2000.0000   2014.0000     36.2596     64.1928
   698.5000   2000.0000   2014.0000     36.6124     63.2109
   698.7500   2000.0000   2014.0000     36.9249     63.6120
   699.0000   2000.0000   2014.0000     37.2373     64.7934
   699.2500   2000.0000   2014.0000     37.5452     65.4010
   699.5000   2000.0000   2014.0000     37.8064     65.8466
   699.7500   2000.0000   2014.0000     37.9664     66.0677
   700.0000   2000.0000   2014.0000     37.9862     66.4409
   700.2500   2000.0000   2014.0000     37.8564     66.4588
   700.5000   2000.0000   2014.0000     37.5915     65.7432
   700.7500   2000.0000   2014.0000     37.2098     64.9837
   701.0000   2000.0000   2014.0000     36.7198     64.3342
   701.2500   2000.0000   2014.0000     36.1276     64.5948
   701.5000   2000.0000   2014.0000     35.4629     65.8729
   701.7500   2000.0000   2014.0000     34.7936     66.9002
   702.0000   2000.0000   2014.0000     34.2086     67.9655
   702.2500   2000.0000   2014.0000     33.7788     68.1757
   702.5000   2000.0000   2014.0000     33.5233     68.0168
   702.7500   2000.0000   2014.0000     33.4055     67.8797
   703.0000   2000.0000   2014.0000     33.3542     67.6909
   703.2500   2000.0000   2014.0000     33.2988     67.3652
   703.5000   2000.0000   2014.0000     33.1974     66.4849
   703.7500   2000.0000   2014.0000     33.0455     65.9239
   704.0000   2000.0000   2014.0000     32.8630     65.5992
   704.2500   2000.0000   2014.0000     32.6734     65.6340
   704.5000   2000.0000   2014.0000     32.4906     65.4492
   704.7500   2000.0000   2014.0000     32.3219     64.9293
   705.0000   2000.0000   2014.0000     32.1761     63.6706
   705.2500   2000.0000   2014.0000     32.0678     62.7634
   705.5000   2000.0000   2014.0000     32.0145     61.7675
   705.7500   2000.0000   2014.0000     32.0305     61.5968
   706.0000   2000.0000   2014.0000     32.1261     62.3685
   706.2500   2000.0000   2014.0000     32.3132     63.5395
   706.5000   2000.0000   2014.0000     32.6135     65.8276
   706.7500   2000.0000   2014.0000     33.0568     67.3067
   707.0000   2000.0000   2014.0000     33.6629     68.8147
   707.2500   2000.0000   2014.0000     34.4124     69.1120
   707.5000   2000.0000   2014.0000     35.2290     68.4850
   707.7500   2000.0000   2014.0000     35.9898     67.5688
