~Version Information
VERS.                      2.0: CWLS Log ASCII Standard - VERSION 2.0
WRAP.                       NO: One line per depth step
~Well Information Block
STRT.FT                -8.7500: 
STOP.FT              1525.0000: 
STEP.FT                 0.2500: 
NULL.                -999.2500: 
COMP.          Pioneer Natural Resources: COMPANY
WELL.          Grand Prix 13-12 Tr: WELL
FLD.           Purgatorie River: FIELD
LOC.           2595' FSL & 1277' FWL--: LOCATION
CNTY.               Las Animas: COUNTY
SRVC.          Patterson Wireline: SERVICE COMPANY
DATE.          Thu Apr 13 10:28:30 2006: LOG DATE
UWI.           05 071 08711 00: UNIQUE WELL ID
STAT.                       CO: STATE
~Curve Information Block
DEPT.FT            0 000 00 00: Depth
CCL.                          : Casing Collar Locator
TT3.usec                      : CBL 3' Travel Time
AMP3.mV                       : CBL 3' Amplitude
GR.GAPI                       : Gamma Ray
~Parameter Information Block
~A  Depth       CCL         TT3         AMP3         GR     
# ...
   996.2500      0.0000    569.7126      4.4038    146.6037
   996.5000      0.0000    557.4773      4.4161    144.4606
   996.7500      0.0000    547.7822      4.4289    140.1215
   997.0000      0.0000    537.1325      4.4355    133.0733
   997.2500      0.0000    528.3872      4.4312    124.7126
   997.5000      0.0000    526.7930      4.4155    117.3295
   997.7500      0.0000    533.2965      4.3939    112.7053
   998.0000      0.0000    544.7352      4.3755    111.3110
   998.2500      0.0000    559.6769      4.3655    112.4025
   998.5000      0.0000    580.2277      4.3579    114.6885
   998.7500      0.0000    606.7727      4.3323    117.0217
   999.0000      0.0000    633.7900      4.2623    118.7391
   999.2500      0.0000    653.1163      4.1369    119.6556
   999.5000      0.0000    660.5402      3.9826    119.7790
   999.7500      0.0000    658.4720      3.8596    118.9136
  1000.0000      0.0000    653.4019      3.8164    116.6849
  1000.2500      0.0000    652.2029      3.8460    113.2087
  1000.5000      0.0000    659.8786      3.9023    109.7839
  1000.7500      0.0000    677.2849      3.9536    108.6518
  1001.0000      0.0000    698.8640      4.0033    111.5103
  1001.2500      2.0000    715.0658      4.0657    117.8853
  1001.5000      0.0000    719.6888      4.1433    125.2669
  1001.7500      0.0000    714.2017      4.2242    131.1996
  1002.0000      0.0000    704.5045      4.2919    134.8551
  1002.2500      0.0000    694.9102      4.3359    136.4635
  1002.5000      0.0000    685.2010      4.3574    136.2170
  1002.7500      0.0000    671.7547      4.3603    134.5344
  1003.0000      0.0000    650.9778      4.3386    132.9066
  1003.2500      0.0000    622.7519      4.2851    133.5182
  1003.5000      0.0000    591.4388      4.2078    137.5862
  1003.7500      0.0000    563.5247      4.1308    144.1104
  1004.0000      0.0000    544.3076      4.0830    150.4838
  1004.2500      0.0000    536.6399      4.0879    154.4667
  1004.5000      0.0000    541.4799      4.1530    155.2800
  1004.7500      0.0000    557.7094      4.2588    152.8226
  1005.0000      0.0000    580.1533      4.3610    147.0058
  1005.2500      0.0000    599.0403      4.4128    138.5665
  1005.5000      0.0000    605.0300      4.3927    129.3703
  1005.7500      0.0000    597.0386      4.3124    120.9751
  1006.0000      0.0000    582.9832      4.2001    113.7943
  1006.2500      0.0000    570.3151      4.0810    108.2866
  1006.5000      0.0000    557.8306      3.9716    105.7089
  1006.7500      0.0000    539.8770      3.8857    106.6933
  1007.0000      0.0000    516.7612      3.8397    109.8681
  1007.2500      0.0000    496.8759      3.8466    112.9167
  1007.5000      0.0000    487.7470      3.9058    114.7425
  1007.7500      0.0000    487.3164      3.9969    115.8498
  1008.0000      0.0000    486.0118      4.0879    116.7137
  1008.2500      0.0000    477.3734      4.1528    116.6385
  1008.5000      0.0000    465.2733      4.1819    114.6024
  1008.7500      0.0000    460.0795      4.1796    110.7941
  1009.0000      0.0000    468.4329      4.1564    106.6478
  1009.2500      0.0000    487.5081      4.1227    103.4114
  1009.5000      0.0000    508.5129      4.0842    101.4300
  1009.7500      0.0000    524.0535      4.0449    100.9429
  1010.0000      0.0000    531.6458      4.0122    102.5151
  1010.2500      0.0000    531.9103      3.9992    106.0032
  1010.5000      0.0000    525.8578      4.0177    109.8328
  1010.7500      0.0000    515.4295      4.0703    112.0817
  1011.0000      0.0000    506.2628      4.1483    112.0744
  1011.2500      0.0000    507.2629      4.2352    110.5936
  1011.5000      0.0000    524.0458      4.3151    108.8549
  1011.7500      0.0000    552.3220      4.3801    107.7292
  1012.0000      0.0000    579.9415      4.4315    107.7314
  1012.2500      0.0000    595.8310      4.4712    109.0480
  1012.5000      0.0000    595.7461      4.4968    111.3630
  1012.7500      0.0000    581.1949      4.5068    114.0238
  1013.0000      0.0000    557.4855      4.5073    116.3442
  1013.2500      0.0000    534.2495      4.5085    117.5309
  1013.5000      0.0000    523.4729      4.5152    116.8832
  1013.7500      0.0000    531.5964      4.5230    114.7682
  1014.0000      0.0000    552.4675      4.5224    112.9558
  1014.2500      0.0000    570.5627      4.5072    113.1105
  1014.5000      0.0000    573.8242      4.4804    115.1206
  1014.7500      0.0000    564.8806      4.4527    117.4555
  1015.0000      0.0000    559.5495      4.4329    118.8007
  1015.2500      0.0000    573.4202      4.4194    118.7810
  1015.5000      0.0000    608.6147      4.4063    117.5286
  1015.7500      0.0000    651.6382      4.3924    115.3410
  1016.0000      0.0000    682.4282      4.3829    112.8919
  1016.2500      0.0000    686.5264      4.3789    111.3158
  1016.5000      0.0000    662.8879      4.3712    111.6051
  1016.7500      0.0000    623.6665      4.3446    113.7151
  1017.0000      0.0000    585.8229      4.2878    116.5283
  1017.2500      0.0000    560.0093      4.2009    118.8997
  1017.5000      0.0000    545.8413      4.0982    120.4413
  1017.7500      0.0000    536.4908      4.0007    121.2829
  1018.0000      0.0000    526.3769      3.9257    121.7949
  1018.2500      0.0000    514.8999      3.8796    122.7370
  1018.5000      0.0000    505.1100      3.8589    124.8956
  1018.7500      0.0000    500.3504      3.8540    128.0843
  1019.0000      0.0000    501.6421      3.8542    130.8682
  1019.2500      0.0000    507.1799      3.8518    131.6107
  1019.5000      0.0000    513.7947      3.8464    129.8468
  1019.7500      0.0000    518.8468      3.8434    126.7260
  1020.0000      0.0000    520.9951      3.8498    124.2749
  1020.2500      0.0000    519.7620      3.8687    124.1251
  1020.5000      0.0000    515.1119      3.8967    126.5781
  1020.7500      0.0000    507.7628      3.9279    130.4425
  1021.0000      0.0000    499.5176      3.9580    133.5587
  1021.2500      0.0000    492.6189      3.9871    133.7547
  1021.5000      0.0000    488.4515      4.0193    130.2722
  1021.7500      0.0000    486.9157      4.0575    124.9562
  1022.0000      0.0000    486.9498      4.0988    121.5597
  1022.2500      0.0000    487.4305      4.1345    122.8402
  1022.5000      0.0000    487.5943      4.1555    128.0802
  1022.7500      0.0000    486.8369      4.1594    133.8116
  1023.0000      0.0000    484.2815      4.1522    136.9657
  1023.2500      0.0000    478.7075      4.1431    136.7766
  1023.5000      0.0000    469.5601      4.1368    133.9866
  1023.7500      0.0000    458.6361      4.1324    129.7105
  1024.0000      0.0000    450.3026      4.1260    125.5953
  1024.2500      0.0000    448.9250      4.1136    123.6382
  1024.5000      0.0000    455.7751      4.0933    124.6946
  1024.7500      0.0000    468.7214      4.0677    127.6049
  1025.0000      0.0000    484.3909      4.0450    130.3650
  1025.2500      0.0000    500.5323      4.0334    131.8660
  1025.5000      0.0000    516.9970      4.0318    132.2512
  1025.7500      0.0000    534.7606      4.0266    132.0148
  1026.0000      0.0000    554.2840      3.9999    131.4957
  1026.2500      0.0000    575.5748      3.9412    131.2979
  1026.5000      0.0000    599.0054      3.8537    132.4066
  1026.7500      0.0000    624.1487      3.7491    135.0379
  1027.0000      0.0000    648.3642      3.6351    137.4133
  1027.2500      0.0000    668.6298      3.5082    136.3837
  1027.5000      0.0000    684.5043      3.3609    129.7775
  1027.7500      0.0000    697.7693      3.1945    118.0688
  1028.0000      0.0000    709.7344      3.0235    103.7189
  1028.2500      0.0000    720.3623      2.8697     89.2832
  1028.5000      0.0000    729.6013      2.7503     76.3795
  1028.7500      0.0000    737.8873      2.6705     65.8247
  1029.0000      0.0000    744.7916      2.6230     57.8099
  1029.2500      0.0000    748.4427      2.5962     51.7742
  1029.5000      0.0000    746.9899      2.5835     46.8055
