~Version Information
VERS.                      2.0: CWLS Log ASCII Standard - VERSION 2.0
WRAP.                       NO: One line per depth step
~Well Information Block
STRT.FT               555.0000: 
STOP.FT              1159.0000: 
STEP.FT                 0.2500: 
NULL.                -999.2500: 
COMP.          Pioneer Natural Resources: COMPANY
WELL.              Draco 31-21: WELL
FLD.           Purgatoire River: FIELD
LOC.           491' FNL & 2446' FEL: LOCATION
CNTY.               Las Animas: COUNTY
SRVC.                Patterson: SERVICE COMPANY
DATE.          Tue Jan 31 17:48:38 2006: LOG DATE
UWI.           05 071 08672 00: UNIQUE WELL ID
STAT.                 Colorado: STATE
~Curve Information Block
DEPT.FT            0 000 00 00: Depth
SN.Ohm-m                      : IEL Short Normal
SP.mV                         : IEL Spontaneous Potential
DIR.Ohm-m                     : IEL Induction Resistivity
GR.GAPI                       : Gamma Ray
~Parameter Information Block
~A  Depth        SN          SP         DIR          GR     
# ...
   957.0000     20.5311     26.6259     20.3902     49.5974
   957.2500     20.8329     26.5926     20.4773     47.9588
   957.5000     21.0368     26.5969     20.5328     46.6061
   957.7500     21.0377     26.6274     20.5784     46.6217
   958.0000     20.9691     26.6677     20.6316     47.4570
   958.2500     20.9714     26.7092     20.6962     48.0957
   958.5000     20.9999     26.7532     20.7557     48.9006
   958.7500     20.9652     26.8032     20.7726     49.4076
   959.0000     20.8873     26.8590     20.6999     50.0403
   959.2500     20.8186     26.9155     20.5010     50.1710
   959.5000     20.7170     26.9672     20.1668     49.9006
   959.7500     20.4956     27.0127     19.7204     49.7775
   960.0000     20.1730     27.0593     19.2063     50.5205
   960.2500     19.8910     27.1277     18.6757     51.8763
   960.5000     19.7267     27.2464     18.1730     54.9938
   960.7500     19.5512     27.4339     17.7279     57.4705
   961.0000     19.1887     27.6825     17.3519     61.2273
   961.2500     18.6446     27.9617     17.0386     63.5905
   961.5000     18.0461     28.2353     16.7671     67.0058
   961.7500     17.4597     28.4743     16.5096     69.2657
   962.0000     16.9007     28.6613     16.2427     72.1839
   962.2500     16.4455     28.7905     15.9572     73.2539
   962.5000     16.1651     28.8643     15.6613     72.9670
   962.7500     15.9954     28.8904     15.3752     71.7252
   963.0000     15.8397     28.8800     15.1223     69.1221
   963.2500     15.7218     28.8488     14.9238     67.2450
   963.5000     15.7227     28.8182     14.7974     64.4328
   963.7500     15.8599     28.8117     14.7566     62.6192
   964.0000     16.0786     28.8428     14.8087     60.2843
   964.2500     16.2860     28.9056     14.9499     59.2982
   964.5000     16.4259     28.9763     15.1589     59.1633
   964.7500     16.5450     29.0255     15.3957     60.0209
   965.0000     16.7232     29.0319     15.6110     62.4305
   965.2500     16.9577     28.9884     15.7673     64.5105
   965.5000     17.1856     28.9029     15.8572     67.8149
   965.7500     17.3971     28.7949     15.9056     69.8485
   966.0000     17.6001     28.6915     15.9527     72.3230
   966.2500     17.7419     28.6197     16.0321     73.5610
   966.5000     17.7949     28.5954     16.1579     75.0181
   966.7500     17.8176     28.6144     16.3229     75.8422
   967.0000     17.8764     28.6517     16.5067     76.5949
   967.2500     17.9690     28.6721     16.6860     76.4013
   967.5000     18.0353     28.6440     16.8437     74.8616
   967.7500     18.0314     28.5513     16.9732     73.3600
   968.0000     17.9820     28.3957     17.0795     71.1253
   968.2500     17.9516     28.1890     17.1764     69.7260
   968.5000     17.9902     27.9447     17.2808     67.5710
   968.7500     18.1160     27.6717     17.4055     66.1681
   969.0000     18.3094     27.3735     17.5521     64.4787
   969.2500     18.4971     27.0516     17.7086     63.6328
   969.5000     18.6222     26.7139     17.8526     62.2556
   969.7500     18.7512     26.3769     17.9615     60.9612
   970.0000     18.9871     26.0587     18.0203     58.6238
   970.2500     19.3077     25.7658     18.0249     57.3216
   970.5000     19.5891     25.4853     17.9792     56.7130
   970.7500     19.7278     25.1853     17.8930     57.4002
   971.0000     19.7141     24.8224     17.7834     59.6192
   971.2500     19.6345     24.3519     17.6737     61.4412
   971.5000     19.5872     23.7385     17.5861     64.1270
   971.7500     19.5989     22.9646     17.5347     65.7066
   972.0000     19.6237     22.0313     17.5235     67.4908
   972.2500     19.6036     20.9499     17.5518     68.1203
   972.5000     19.5423     19.7320     17.6190     68.0198
   972.7500     19.4774     18.3916     17.7208     67.2584
   973.0000     19.3894     16.9643     17.8394     65.1411
   973.2500     19.2480     15.5433     17.9389     62.9706
   973.5000     19.1241     14.3121     17.9755     58.2619
   973.7500     19.1133     13.5398     17.9181     54.3311
   974.0000     19.1922     13.5147     17.7611     48.5897
   974.2500     19.2837     14.4342     17.5216     45.9326
   974.5000     19.3913     16.3159     17.2259     45.2263
   974.7500     19.5551     18.9915     16.9001     47.4922
   975.0000     19.7259     22.1826     16.5659     55.1029
   975.2500     19.7678     25.5977     16.2384     62.3871
   975.5000     19.6074     28.9885     15.9252     74.7192
   975.7500     19.3275     32.1566     15.6262     82.6932
   976.0000     19.0340     34.9484     15.3382     92.7707
   976.2500     18.7121     37.2667     15.0597     97.7311
   976.5000     18.2712     39.0912     14.7957    102.4157
   976.7500     17.6656     40.4755     14.5595    104.1745
   977.0000     16.9871     41.5095     14.3701    106.3612
   977.2500     16.4244     42.2751     14.2460    108.4188
   977.5000     16.0842     42.8248     14.1975    112.7780
   977.7500     15.9567     43.1930     14.2225    115.8721
   978.0000     16.0126     43.4181     14.3079    118.7341
   978.2500     16.2000     43.5525     14.4369    118.2501
   978.5000     16.4740     43.6553     14.5968    112.9572
   978.7500     16.8491     43.7727     14.7827    106.9103
   979.0000     17.3516     43.9241     14.9973     96.7619
   979.2500     18.0442     44.1019     15.2494     91.2350
   979.5000     19.0163     44.2864     15.5562     87.4148
   979.7500     20.1853     44.4605     15.9444     88.5981
   980.0000     21.2900     44.6150     16.4463     96.0062
   980.2500     22.1581     44.7461     17.0865    104.0809
   980.5000     22.7810     44.8551     17.8652    118.8182
   980.7500     23.1859     44.9507     18.7479    128.7434
   981.0000     23.3933     45.0488     19.6691    140.8689
   981.2500     23.4150     45.1668     20.5478    145.8501
   981.5000     23.2574     45.3158     21.3073    147.9973
   981.7500     22.9715     45.4949     21.8889    146.3423
   982.0000     22.6486     45.6891     22.2602    140.7608
   982.2500     22.3812     45.8737     22.4199    135.8967
   982.5000     22.2684     46.0219     22.4014    128.1660
   982.7500     22.3506     46.1164     22.2643    123.1774
   983.0000     22.5033     46.1564     22.0769    116.0619
   983.2500     22.5420     46.1563     21.8975    111.3697
   983.5000     22.4431     46.1358     21.7648    104.2100
   983.7500     22.3366     46.1106     21.6963     99.4859
   984.0000     22.3017     46.0906     21.6924     92.8564
   984.2500     22.2777     46.0800     21.7428     88.9505
   984.5000     22.2077     46.0760     21.8346     84.3189
   984.7500     22.1729     46.0659     21.9556     82.2127
   985.0000     22.2864     46.0301     22.0926     79.8700
   985.2500     22.5307     45.9501     22.2278     77.9678
   985.5000     22.7745     45.8134     22.3404     73.4001
   985.7500     22.9058     45.6132     22.4099     69.2238
   986.0000     22.9196     45.3446     22.4168     62.2378
   986.2500     22.8487     45.0034     22.3394     57.7820
   986.5000     22.7115     44.5894     22.1542     52.3354
   986.7500     22.5884     44.1123     21.8429     49.9123
   987.0000     22.5547     43.5974     21.4053     48.4538
   987.2500     22.5665     43.0844     20.8659     48.9775
   987.5000     22.5711     42.6152     20.2729     51.9254
   987.7500     22.5594     42.2151     19.6858     55.2670
   988.0000     22.4453     41.8771     19.1577     62.1413
   988.2500     22.1150     41.5621     18.7186     67.6972
   988.5000     21.5628     41.2152     18.3646     76.8062
   988.7500     20.8657     40.7914     18.0567     83.0166
   989.0000     20.1301     40.2787     17.7330     91.8026
   989.2500     19.4513     39.7122     17.3335     96.4591
   989.5000     18.8370     39.1762     16.8269     99.4961
   989.7500     18.2261     38.7882     16.2231     98.1179
   990.0000     17.5853     38.6662     15.5652     92.3605
   990.2500     16.9604     38.8875     14.9099     88.4031
