~Version Information
VERS.                      2.0: CWLS Log ASCII Standard - VERSION 2.0
WRAP.                       NO: One line per depth step
~Well Information Block
STRT.FT               550.0000: 
STOP.FT              1500.5000: 
STEP.FT                 0.2500: 
NULL.                -999.2500: 
COMP.          Pioneer Natural Resources: COMPANY
WELL.          Surtees 23-34 Tr: WELL
FLD.           Purgatoire River: FIELD
LOC.           1559' FSL & 1997' FWL: LOCATION
PROV.                 Colorado: PROVINCE
CNTY.               Las Animas: COUNTRY
SRVC.                Patterson: SERVICE COMPANY
DATE.          Tue Jul 26 23:47:42 2005: LOG DATE
UWI.           05 071 08449 00: UNIQUE WELL ID
~Curve Information Block
DEPT.FT            0 000 00 00: Depth
SN.Ohm-m                      : IEL Short Normal
SP.mV                         : IEL Spontaneous Potential
DIR.Ohm-m                     : IEL Induction Resistivity
GR.GAPI                       : Gamma Ray
~Parameter Information Block
~A  Depth        SN          SP         DIR          GR     
# ...
   617.0000   2000.0000   2000.0000     22.5945    114.2767
   617.2500   2000.0000   2000.0000     21.4424    126.1217
   617.5000   2000.0000   2000.0000     20.4628    138.5509
   617.7500   2000.0000   2000.0000     19.6167    142.7659
   618.0000   2000.0000   2000.0000     18.8496    144.2086
   618.2500   2000.0000   2000.0000     18.1149    143.3981
   618.5000   2000.0000   2000.0000     17.3909    142.1318
   618.7500   2000.0000   2000.0000     16.6844    142.1345
   619.0000   2000.0000   2000.0000     16.0197    143.3224
   619.2500   2000.0000   2000.0000     15.4225    144.3202
   619.5000   2000.0000   2000.0000     14.9092    145.3663
   619.7500   2000.0000   2000.0000     14.4840    145.7007
   620.0000   2000.0000   2000.0000     14.1424    145.9489
   620.2500   2000.0000   2000.0000     13.8760    146.1429
   620.5000   2000.0000   2000.0000     13.6758    146.6384
   620.7500   2000.0000   2000.0000     13.5348    147.0817
   621.0000   2000.0000   2000.0000     13.4474    147.8699
   621.2500   2000.0000   2000.0000     13.4083    148.5443
   621.5000   2000.0000   2000.0000     13.4063    149.9596
   621.7500   2000.0000   2000.0000     13.4201    151.2119
   622.0000   2000.0000   2000.0000     13.4228    153.3686
   622.2500   2000.0000   2000.0000     13.3963    154.6592
   622.5000   2000.0000   2000.0000     13.3482    155.4010
   622.7500   2000.0000   2000.0000     13.3094    154.5867
   623.0000   2000.0000   2000.0000     13.3132    151.4994
   623.2500   2000.0000   2000.0000     13.3710    148.9778
   623.5000   2000.0000   2000.0000     13.4664    146.1177
   623.7500   2000.0000   2000.0000     13.5695    145.1685
   624.0000   2000.0000   2000.0000     13.6603    144.3639
   624.2500   2000.0000   2000.0000     13.7419    143.4917
   624.5000   2000.0000   2000.0000     13.8330    141.0837
   624.7500   2000.0000   2000.0000     13.9538    138.9217
   625.0000   2000.0000   2000.0000     14.1177    135.5292
   625.2500   2000.0000   2000.0000     14.3343    133.5173
   625.5000   2000.0000   2000.0000     14.6145    131.2351
   625.7500   2000.0000   2000.0000     14.9730    130.2858
   626.0000   2000.0000   2000.0000     15.4249    129.6373
   626.2500   2000.0000   2000.0000     15.9793    129.5229
   626.5000   2000.0000   2000.0000     16.6325    129.1917
   626.7500   2000.0000   2000.0000     17.3662    128.3052
   627.0000   2000.0000   2000.0000     18.1547    124.7492
   627.2500   2000.0000   2000.0000     18.9815    120.1236
   627.5000   2000.0000   2000.0000     19.8526    108.8331
   627.7500   2000.0000   2000.0000     20.7955     98.4818
   628.0000   2000.0000   2000.0000     21.8440     80.6335
   628.2500   2000.0000   2000.0000     23.0138     69.1200
   628.5000   2000.0000   2000.0000     24.2862     55.6024
   628.7500   2000.0000   2000.0000     25.6021     50.0680
   629.0000   2000.0000   2000.0000     26.8659     46.8092
   629.2500   2000.0000   2000.0000     27.9574     47.2223
   629.5000   2000.0000   2000.0000     28.7536     50.1393
   629.7500   2000.0000   2000.0000     29.1642     52.8098
   630.0000   2000.0000   2000.0000     29.1607     57.0331
   630.2500   2000.0000   2000.0000     28.7740     60.0175
   630.5000   2000.0000   2000.0000     28.0686     65.8046
   630.7500   2000.0000   2000.0000     27.1219     71.2945
   631.0000   2000.0000   2000.0000     26.0191     82.1593
   631.2500   2000.0000   2000.0000     24.8442     90.2608
   631.5000   2000.0000   2000.0000     23.6603    101.2799
   631.7500   2000.0000   2000.0000     22.4956    106.8069
   632.0000   2000.0000   2000.0000     21.3498    112.0679
   632.2500   2000.0000   2000.0000     20.2181    114.0991
   632.5000   2000.0000   2000.0000     19.1152    116.1357
   632.7500   2000.0000   2000.0000     18.0815    117.2742
   633.0000   2000.0000   2000.0000     17.1693    118.9402
   633.2500   2000.0000   2000.0000     16.4177    120.1557
   633.5000   2000.0000   2000.0000     15.8344    122.5939
   633.7500   2000.0000   2000.0000     15.3932    124.8179
   634.0000   2000.0000   2000.0000     15.0467    128.5557
   634.2500   2000.0000   2000.0000     14.7497    130.5576
   634.5000   2000.0000   2000.0000     14.4777    131.7236
   634.7500   2000.0000   2000.0000     14.2297    131.2670
   635.0000   2000.0000   2000.0000     14.0141    129.6350
   635.2500   2000.0000   2000.0000     13.8341    128.5480
   635.5000   2000.0000   2000.0000     13.6834    127.7712
   635.7500   2000.0000   2000.0000     13.5539    128.1679
   636.0000   2000.0000   2000.0000     13.4442    130.2617
   636.2500   2000.0000   2000.0000     13.3601    132.3808
   636.5000   2000.0000   2000.0000     13.3058    135.9194
   636.7500   2000.0000   2000.0000     13.2728    138.2477
   637.0000   2000.0000   2000.0000     13.2362    141.5744
   637.2500   2000.0000   2000.0000     13.1648    143.6021
   637.5000   2000.0000   2000.0000     13.0408    145.9223
   637.7500   2000.0000   2000.0000     12.8756    146.7043
   638.0000   2000.0000   2000.0000     12.7064    146.5757
   638.2500   2000.0000   2000.0000     12.5767    145.6874
   638.5000   2000.0000   2000.0000     12.5188    143.1951
   638.7500   2000.0000   2000.0000     12.5472    140.7798
   639.0000   2000.0000   2000.0000     12.6621    136.4481
   639.2500   2000.0000   2000.0000     12.8538    133.5109
   639.5000   2000.0000   2000.0000     13.1075    129.3814
   639.7500   2000.0000   2000.0000     13.4061    126.6266
   640.0000   2000.0000   2000.0000     13.7351    122.0916
   640.2500   2000.0000   2000.0000     14.0878    118.8777
   640.5000   2000.0000   2000.0000     14.4681    114.3685
   640.7500   2000.0000   2000.0000     14.8864    111.8474
   641.0000   2000.0000   2000.0000     15.3512    108.6612
   641.2500   2000.0000   2000.0000     15.8596    106.5857
   641.5000   2000.0000   2000.0000     16.3917    103.3299
   641.7500   2000.0000   2000.0000     16.9135    101.4896
   642.0000   2000.0000   2000.0000     17.3852    100.3197
   642.2500   2000.0000   2000.0000     17.7747    100.8290
   642.5000   2000.0000   2000.0000     18.0644    103.0261
   642.7500   2000.0000   2000.0000     18.2503    105.0590
   643.0000   2000.0000   2000.0000     18.3381    108.6228
   643.2500   2000.0000   2000.0000     18.3424    111.2384
   643.5000   2000.0000   2000.0000     18.2918    115.3755
   643.7500   2000.0000   2000.0000     18.2272    118.2866
   644.0000   2000.0000   2000.0000     18.1884    123.0313
   644.2500   2000.0000   2000.0000     18.1970    126.4925
   644.5000   2000.0000   2000.0000     18.2477    131.9328
   644.7500   2000.0000   2000.0000     18.3172    135.2806
   645.0000   2000.0000   2000.0000     18.3782    138.2726
   645.2500   2000.0000   2000.0000     18.4067    137.7645
   645.5000   2000.0000   2000.0000     18.3804    132.3362
   645.7500   2000.0000   2000.0000     18.2787    126.2782
   646.0000   2000.0000   2000.0000     18.0982    116.3582
   646.2500   2000.0000   2000.0000     17.8691    110.9988
   646.5000   2000.0000   2000.0000     17.6540    106.6238
   646.7500   2000.0000   2000.0000     17.5250    106.0383
   647.0000   2000.0000   2000.0000     17.5341    107.2027
   647.2500   2000.0000   2000.0000     17.6964    108.6273
   647.5000   2000.0000   2000.0000     17.9898    111.5988
   647.7500   2000.0000   2000.0000     18.3742    114.3758
   648.0000   2000.0000   2000.0000     18.8166    119.7797
   648.2500   2000.0000   2000.0000     19.3040    123.9008
   648.5000   2000.0000   2000.0000     19.8325    130.1030
   648.7500   2000.0000   2000.0000     20.3843    133.8237
   649.0000   2000.0000   2000.0000     20.9219    137.8940
   649.2500   2000.0000   2000.0000     21.4077    138.8112
   649.5000   2000.0000   2000.0000     21.8284    136.1273
   649.7500   2000.0000   2000.0000     22.1972    131.5795
   650.0000   2000.0000   2000.0000     22.5340    122.6157
   650.2500   2000.0000   2000.0000     22.8464    116.9545
