~Version Information
VERS.                      2.0: CWLS Log ASCII Standard - VERSION 2.0
WRAP.                       NO: One line per depth step
~Well Information Block
STRT.FT                -4.0000: 
STOP.FT               675.2500: 
STEP.FT                 0.2500: 
NULL.                -999.2500: 
COMP.          Pioneer Natural Resources: COMPANY
WELL.          Razor Clam 23-27: WELL
FLD.           Purgatoire River: FIELD
LOC.           2499' FSL & 2636' FWL: LOCATION
CNTY.               Las Animas: COUNTY
SRVC.                         : SERVICE COMPANY
DATE.          Thu Mar 09 13:15:19 2006: LOG DATE
UWI.           05 071 08667 00: UNIQUE WELL ID
STAT.                       CO: STATE
~Curve Information Block
DEPT.FT            0 000 00 00: Depth
GR.GAPI                       : Gamma Ray
CCL.                          : Casing Collar Locator
TT3.usec                      : CBL 3' Travel Time
AMP3.mV                       : CBL 3' Amplitude
~Parameter Information Block
~A  Depth        GR         CCL         TT3         AMP3    
# ...
   599.0000     76.4413      0.0000    261.3303     71.0417
   599.2500     70.7422      0.0000    261.0360     72.1888
   599.5000     64.0970      0.0000    260.9130     72.7238
   599.7500     59.4844      0.0000    260.8704     72.9542
   600.0000     58.7581      0.0000    260.8593     73.0927
   600.2500     61.8242      0.0000    260.8589     73.2047
   600.5000     67.1153      0.0000    260.8608     73.2750
   600.7500     72.6438      0.0000    260.8611     73.2933
   601.0000     76.9649      0.0000    260.8588     73.2787
   601.2500     79.7115      0.0000    260.8540     73.2532
   601.5000     81.5508      0.0000    260.8482     73.2271
   601.7500     83.5007      0.0000    260.8444     73.2137
   602.0000     86.0716      0.0000    260.8451     73.2331
   602.2500     89.0299      0.0000    260.8509     73.2907
   602.5000     91.9443      0.0000    260.8591     73.3700
   602.7500     94.6190      0.0000    260.8659     73.4479
   603.0000     96.7587      0.0000    260.8681     73.5027
   603.2500     97.5689      0.0000    260.8645     73.5115
   603.5000     96.3643      0.0000    260.8560     73.4668
   603.7500     93.6238      0.0000    260.8454     73.3944
   604.0000     90.8572      0.0000    260.8356     73.3315
   604.2500     89.0645      0.0000    260.8288     73.2939
   604.5000     87.6384      0.0000    260.8260     73.2734
   604.7500     85.2617      0.0000    260.8267     73.2499
   605.0000     81.7308      0.0000    260.8286     73.1975
   605.2500     78.3695      0.0000    260.8295     73.1003
   605.5000     76.6962      0.0000    260.8282     72.9694
   605.7500     77.0831      0.0000    260.8260     72.8362
   606.0000     78.7021      0.0000    260.8253     72.7361
   606.2500     80.3520      0.0000    260.8293     72.7004
   606.5000     81.2833      0.0000    260.8384     72.7374
   606.7500     81.4147      0.0000    260.8491     72.8021
   607.0000     80.8414      0.0000    260.8554     72.8112
   607.2500     79.3747      0.0000    260.8540     72.7162
   607.5000     77.0416      0.0000    260.8472     72.5494
   607.7500     74.8186      0.0000    260.8393     72.3817
   608.0000     74.0049      0.0000    260.8329     72.2542
   608.2500     74.7132      0.0000    260.8282     72.1673
   608.5000     75.6756      0.0000    260.8252     72.1140
   608.7500     75.6896      0.0000    260.8243     72.0935
   609.0000     74.7804      0.0000    260.8244     72.0970
   609.2500     73.9245      0.0000    260.8229     72.1036
   609.5000     74.0066      0.0000    260.8187     72.0983
   609.7500     75.0695      0.0000    260.8132     72.0834
   610.0000     76.4559      0.0000    260.8084     72.0709
   610.2500     77.6447      0.0000    260.8060     72.0717
   610.5000     78.8235      0.0000    260.8065     72.0958
   610.7500     80.5499      0.0000    260.8092     72.1539
   611.0000     83.0439      0.0000    260.8122     72.2467
   611.2500     85.8155      0.0000    260.8129     72.3559
   611.5000     87.8204      0.0000    260.8100     72.4532
   611.7500     88.0805      0.0000    260.8054     72.5225
   612.0000     86.4177      0.0000    260.8031     72.5613
   612.2500     83.6007      0.0000    260.8062     72.5649
   612.5000     80.8271      0.0000    260.8134     72.5262
   612.7500     79.3081      0.0000    260.8212     72.4548
   613.0000     80.1212      0.0000    260.8268     72.3785
   613.2500     83.7304      0.0000    260.8296     72.3171
   613.5000     89.3228      0.0000    260.8310     72.2619
   613.7500     94.8607      0.0000    260.8338     72.1934
   614.0000     98.1432      0.0000    260.8404     72.1174
   614.2500     98.1166      0.0000    260.8515     72.0769
   614.5000     95.4041      0.0000    260.8651     72.1209
   614.7500     91.6496      0.0000    260.8770     72.2618
   615.0000     88.1932      0.0000    260.8835     72.4618
   615.2500     85.1755      0.0000    260.8833     72.6625
   615.5000     81.8947      0.0000    260.8784     72.8274
   615.7500     77.9156      0.0000    260.8726     72.9513
   616.0000     73.5443      0.0000    260.8688     73.0286
   616.2500     69.2709      0.0000    260.8687     73.0361
   616.5000     65.2608      0.0000    260.8723     72.9680
   616.7500     61.6693      0.0000    260.8795     72.8702
   617.0000     59.2105      0.0000    260.8890     72.8152
   617.2500     59.0503      0.0000    260.8981     72.8443
   617.5000     61.8360      0.0000    260.9051     72.9401
   617.7500     66.7164      0.0000    260.9102     73.0468
   618.0000     71.5803      0.0000    260.9157     73.1155
   618.2500     74.6366      0.0000    260.9236     73.1331
   618.5000     75.8370      0.0000    260.9340     73.0973
   618.7500     76.6771      0.0000    260.9452     72.9517
   619.0000     78.7301      0.0000    260.9567     72.5482
   619.2500     82.4129      0.0000    260.9736     71.6837
   619.5000     86.8704      0.0000    261.0134     70.1872
   619.7500     90.8082      0.0000    261.1127     68.0022
   620.0000     93.5682      0.0000    261.3554     65.2136
   620.2500     95.5947      0.0000    261.9478     61.9771
   620.5000     97.8887      0.0000    263.3753     58.3879
   620.7500    100.9681      0.0000    266.5146     54.4189
   621.0000    104.4365      0.0000    272.7397     49.9942
   621.2500    107.6858      0.0000    284.3435     45.1146
   621.5000    110.8229      0.0000    305.8401     39.9208
   621.7500    114.5281      0.0000    344.8177     34.6714
   622.0000    119.0719      0.0000    408.5078     29.6747
   622.2500    123.8430      0.0000    495.4113     25.2057
   622.5000    127.8447      0.0000    590.4075     21.4455
   622.7500    130.3739      0.0000    672.2118     18.4689
   623.0000    131.1936      0.0000    727.4223     16.2581
   623.2500    130.4094      0.0000    756.3754     14.7166
   623.5000    128.5239      0.0000    767.3847     13.6975
   623.7500    126.4643      0.0000    768.9769     13.0503
   624.0000    125.0981      0.0000    766.8920     12.6533
   624.2500    124.5714      0.0000    764.3027     12.4118
   624.5000    124.2798      0.0000    762.4885     12.2531
   624.7500    123.4939      0.0000    761.5391     12.1396
   625.0000    121.9228      0.0000    761.1616     12.0751
   625.2500    119.6855      0.0000    761.1751     12.0767
   625.5000    116.9352      0.0000    761.6901     12.1391
   625.7500    113.7512      0.0000    763.1205     12.2324
   626.0000    110.3772      0.0000    766.0943     12.3366
   626.2500    107.2279      0.0000    771.0135     12.4682
   626.5000    104.6068      0.0000    777.3723     12.6540
   626.7500    102.7322      0.0000    783.6522     12.8718
   627.0000    101.9517      0.0000    788.3013     13.0406
   627.2500    102.5039      0.0000    790.8049     13.0935
   627.5000    104.0407      0.0000    791.6285     13.0432
   627.7500    105.6884      0.0000    791.4000     12.9566
   628.0000    106.6631      0.0000    790.3268     12.8816
   628.2500    106.7373      0.0000    788.0575     12.8164
   628.5000    106.2008      0.0000    784.0815     12.7342
   628.7500    105.6702      0.0000    778.5859     12.6199
   629.0000    106.0493      0.0000    772.7531     12.4867
   629.2500    108.3417      0.0000    767.9351     12.3671
   629.5000    112.9454      0.0000    764.7153     12.2903
   629.7500    118.8108      0.0000    762.8479     12.2634
   630.0000    123.5463      0.0000    761.7864     12.2697
   630.2500    124.8320      0.0000    761.1066     12.2816
   630.5000    122.0873      0.0000    760.6212     12.2788
   630.7500    116.9772      0.0000    760.3108     12.2594
   631.0000    112.2783      0.0000    760.1996     12.2350
   631.2500    109.9207      0.0000    760.2709     12.2173
   631.5000    109.8401      0.0000    760.4566     12.2125
   631.7500    110.6434      0.0000    760.6684     12.2236
   632.0000    111.2417      0.0000    760.8293     12.2550
   632.2500    111.6965      0.0000    760.8901     12.3093
