~Version Information
VERS.                      2.0: CWLS Log ASCII Standard - VERSION 2.0
WRAP.                       NO: One line per depth step
~Well Information Block
STRT.FT                -9.5000: 
STOP.FT              1401.5000: 
STEP.FT                 0.2500: 
NULL.                -999.2500: 
COMP.          Pioneer Natural Resources: COMPANY
WELL.             John K 12-28: WELL
FLD.           Purgatorie River: FIELD
LOC.           1476' FNL & 465' FWL--: LOCATION
CNTY.               Las Animas: COUNTY
SRVC.          Patterson Wireline: SERVICE COMPANY
DATE.          Fri Apr 28 08:36:46 2006: LOG DATE
UWI.           05 071 08723 00: UNIQUE WELL ID
STAT.                       CO: STATE
~Curve Information Block
DEPT.FT            0 000 00 00: Depth
CCL.                          : Casing Collar Locator
TT3.usec                      : CBL 3' Travel Time
AMP3.mV                       : CBL 3' Amplitude
GR.GAPI                       : Gamma Ray
~Parameter Information Block
~A  Depth       CCL         TT3         AMP3         GR     
    -9.5000   -999.2500   -999.2500   -999.2500    127.2999
    -9.2500   -999.2500   -999.2500   -999.2500    126.5720
    -9.0000   -999.2500   -999.2500   -999.2500    127.2268
    -8.7500   -999.2500   -999.2500   -999.2500    129.3914
    -8.5000   -999.2500   -999.2500   -999.2500    131.7717
    -8.2500   -999.2500   -999.2500   -999.2500    132.1990
    -8.0000   -999.2500   -999.2500   -999.2500    129.4462
    -7.7500   -999.2500   -999.2500   -999.2500    124.5200
    -7.5000   -999.2500   -999.2500   -999.2500    119.8909
    -7.2500   -999.2500   -999.2500   -999.2500    117.3206
    -7.0000   -999.2500   -999.2500   -999.2500    116.5363
    -6.7500   -999.2500   -999.2500   -999.2500    116.1004
    -6.5000   -999.2500   -999.2500   -999.2500    115.1049
    -6.2500   -999.2500   -999.2500   -999.2500    113.4110
    -6.0000   -999.2500   -999.2500   -999.2500    110.7421
    -5.7500   -999.2500   -999.2500   -999.2500    106.8883
    -5.5000   -999.2500   -999.2500   -999.2500    102.9294
    -5.2500   -999.2500   -999.2500   -999.2500    101.0106
    -5.0000   -999.2500   -999.2500   -999.2500    102.3146
    -4.7500   -999.2500   1161.0000      1.6997    105.8346
    -4.5000   -999.2500   1161.0000      1.6942    109.4642
    -4.2500   -999.2500   1161.0000      1.6915    111.8958
    -4.0000   -999.2500   1161.0000      1.6916    113.0781
    -3.7500   -999.2500   1161.0000      1.6924    112.9853
    -3.5000   -999.2500   1161.0000      1.6910    110.7507
    -3.2500   -999.2500   1161.0000      1.6869    105.6636
    -3.0000   -999.2500   1161.0000      1.6822     98.4940
    -2.7500   -999.2500   1161.0000      1.6798     90.8654
    -2.5000   -999.2500   1161.0000      1.6804     83.5022
    -2.2500   -999.2500   1161.0000      1.6822     76.0245
    -2.0000   -999.2500   1161.0000      1.6821     68.2666
    -1.7500   -999.2500   1161.0000      1.6792     60.7519
    -1.5000   -999.2500   1161.0000      1.6762     54.0969
    -1.2500   -999.2500   1161.0000      1.6762     49.1218
    -1.0000   -999.2500   1161.0000      1.6792     47.2823
    -0.7500   -999.2500   1161.0000      1.6819     49.7086
    -0.5000   -999.2500   1161.0000      1.6813     55.5218
    -0.2500   -999.2500   1161.0000      1.6777     61.6319
     0.0000   -999.2500   1161.0000      1.6726     64.4936
     0.2500   -999.2500   1161.0000      1.6672     62.2169
     0.5000      0.0000   1161.0000      1.6590     46.8364
     0.7500      0.0000   1161.0000      1.6599     39.3129
     1.0000      0.0000   1161.0000      1.6654     34.9481
     1.2500      0.0000   1161.0000      1.6726     34.3252
     1.5000      0.0000   1161.0000      1.6773     36.8582
     1.7500      0.0000   1161.0000      1.6778     41.4918
     2.0000      0.0000   1161.0000      1.6774     47.2659
     2.2500      0.0000   1161.0000      1.6803     53.4330
     2.5000      0.0000   1161.0000      1.6868     59.2998
     2.7500      0.0000   1161.0000      1.6922     64.2206
     3.0000      0.0000   1161.0000      1.6927     67.8113
     3.2500      0.0000   1161.0000      1.6892     70.0710
     3.5000      0.0000   1161.0000      1.6864     71.4008
     3.7500      0.0000   1161.0000      1.6869     72.5784
     4.0000      0.0000   1161.0000      1.6888     74.3175
     4.2500      0.0000   1161.0000      1.6889     76.5550
     4.5000      0.0000   1161.0000      1.6873     78.4419
     4.7500      0.0000   1161.0000      1.6880     79.1616
     5.0000      0.0000   1161.0000      1.6944     78.3698
     5.2500      0.0000   1161.0000      1.7062     75.9291
     5.5000      0.0000   1161.0000      1.7195     71.9459
     5.7500      0.0000   1160.9484      1.7311     67.2349
     6.0000      2.0000   1160.6090      1.7412     63.1429
     6.2500      0.0000   1158.8817      1.7649     60.6648
     6.5000      0.0000   1152.0325      1.8627     59.9129
     6.7500      0.0000   1130.8645      2.1911     60.3979
     7.0000      0.0000   1079.8975      3.0180     61.4873
     7.2500      0.0000    984.3286      4.6043     62.5807
     7.5000      0.0000    845.0313      6.9407     63.3126
     7.7500      0.0000    688.0730      9.5808     63.9468
     8.0000      0.0000    553.6827     11.8435     65.2554
     8.2500      0.0000    471.3248     13.2644     67.5785
     8.5000      0.0000    444.5873     13.8526     70.1481
     8.7500      0.0000    456.2842     13.9526     71.7430
     9.0000      0.0000    482.9831     13.9370     72.0721
     9.2500      0.0000    506.0868     14.0170     72.2784
     9.5000      0.0000    515.9190     14.2315     73.8299
     9.7500      0.0000    510.9046     14.5249     76.8041
    10.0000      0.0000    495.3716     14.8213     79.4927
    10.2500      0.0000    478.2608     15.0641     79.9961
    10.5000      0.0000    471.5652     15.2266     78.0876
    10.7500      0.0000    485.4081     15.3086     75.2855
    11.0000      0.0000    519.2725     15.3316     73.3991
    11.2500      0.0000    556.1594     15.3355     73.3174
    11.5000      0.0000    570.2558     15.3657     74.7403
    11.7500      0.0000    546.4365     15.4523     76.5151
    12.0000      0.0000    492.9912     15.5966     77.3462
    12.2500      0.0000    433.6528     15.7802     76.6090
    12.5000      0.0000    388.4076     15.9822     74.6805
    12.7500      0.0000    362.8240     16.1838     72.6269
    13.0000      0.0000    351.8094     16.3652     71.5622
    13.2500      0.0000    348.2003     16.5101     72.0574
    13.5000      0.0000    347.3751     16.6141     73.9337
    13.7500      0.0000    347.3430     16.6901     76.4279
    14.0000      0.0000    347.4294     16.7676     78.4167
    14.2500      0.0000    347.4171     16.8823     78.8570
    14.5000      0.0000    347.2187     17.0582     77.7338
    14.7500      0.0000    346.8414     17.2938     76.5187
    15.0000      0.0000    346.3678     17.5634     76.9578
    15.2500      0.0000    345.9295     17.8296     79.1963
    15.5000      0.0000    345.6532     18.0521     81.4868
    15.7500      0.0000    345.6074     18.1932     81.8591
    16.0000      0.0000    345.7699     18.2265     79.8544
    16.2500      0.0000    346.0285     18.1471     76.7563
    16.5000      0.0000    346.2213     17.9760     74.4287
    16.7500      0.0000    346.2093     17.7474     73.9009
    17.0000      0.0000    345.9442     17.4874     74.8630
    17.2500      0.0000    345.4840     17.2001     76.3400
    17.5000      0.0000    344.9395     16.8764     77.5687
    17.7500      0.0000    344.3999     16.5200     78.2841
    18.0000      0.0000    343.9038     16.1631     78.7066
    18.2500      0.0000    343.4674     15.8501     79.3683
    18.5000      0.0000    343.1270     15.6025     80.4138
    18.7500      0.0000    342.9479     15.4059     80.8839
    19.0000      0.0000    342.9918     15.2299     79.3506
    19.2500      0.0000    343.3236     15.0496     75.7580
    19.5000      0.0000    344.1103     14.8433     72.1157
    19.7500      0.0000    345.7863     14.5845     70.5747
    20.0000      0.0000    349.0005     14.2515     71.0777
    20.2500      0.0000    354.0583     13.8497     71.7913
    20.5000      0.0000    360.2181     13.4185     71.6861
    20.7500      0.0000    365.8308     13.0168     71.5306
    21.0000      0.0000    369.4978     12.6997     72.1662
    21.2500      0.0000    371.0044     12.4993     73.0776
    21.5000      0.0000    371.6506     12.4161     73.4041
    21.7500      0.0000    374.9895     12.4221     73.5492
    22.0000      0.0000    387.5648     12.4748     74.8646
    22.2500      0.0000    416.7716     12.5327     77.9759
    22.5000      0.0000    464.3309     12.5636     82.1460
    22.7500      0.0000    520.0819     12.5455     86.3447
    23.0000      0.0000    565.8903     12.4679     90.4497
    23.2500      0.0000    591.7894     12.3382     95.0567
    23.5000      0.0000    607.8853     12.1829    100.2102
    23.7500      0.0000    634.2490     12.0327    104.7052
