~Version Information
 VERS.                                  2.0 : CWLS LAS VERSION
 WRAP.                                   NO : WRAPING MODE
 SWARE .                 MController 2.5.0N : SOFTWARE VERSION
~Well Information
 WELL.                      Whitecoat 14-36 : WELL
 COMP.   Pioneer Natural Resources USA Inc. : COMPANY
 FLD.                      Purgatoire River : FIELD
 LOC.               SW/SW Sec 36 T34S  R65W : LOCATION
 DATE.                            12/4-5/05 : DATE(S) LOGGED
 SRVC.       BLANCO Geological Services LLC : SERVICE COMPANY
 STAT.                                   CO : STATE
 CNTY.                           Las Animas : COUNTY
 CTRY.                                  USA : COUNTRY
 API.                       05-071-08593-00 : API NUMBER
 STRT.FT                             161.00 : START DEPTH
 STOP.FT                            1182.00 : STOP DEPTH
 STEP.FT                               1.00 : DEPTH INCREMENT
 NULL.                                -9999 : NULL VALUE
~Curve information
 DEPTH.FT                                   :
 ROP.MIN/FT                                 :
 GAS.UNITS                                  :
~ASCII Log data
# ...
       761.0         0.23          5.7 
       762.0         0.17          5.9 
       763.0         0.20          5.8 
       764.0         0.33          5.8 
       765.0         0.33          5.5 
       766.0         0.32          5.4 
       767.0         0.20          5.8 
       768.0         0.17          5.3 
       769.0         0.33          6.0 
       770.0         0.30          5.7 
       771.0         0.37          5.4 
       772.0         5.05          6.0 
       773.0         0.35          6.0 
       774.0         0.37          5.7 
       775.0         0.33          6.0 
       776.0         0.27          5.3 
       777.0         0.30          6.5 
       778.0         0.50          6.2 
       779.0         0.30          6.2 
       780.0         0.27          6.1 
       781.0         0.20          6.2 
       782.0         0.20          6.7 
       783.0         0.20          6.4 
       784.0         0.18          6.2 
       785.0         0.17          6.6 
       786.0         0.23          7.0 
       787.0         0.33          6.7 
       788.0         0.33          6.6 
       789.0         0.30          6.6 
       790.0         0.23          6.5 
       791.0         0.27          6.5 
       792.0         0.30          6.5 
       793.0         0.20          6.5 
       794.0         0.20          6.6 
       795.0         0.27          6.9 
       796.0         0.23          6.5 
       797.0         0.20          7.0 
       798.0         0.32          6.9 
       799.0         0.27          6.9 
       800.0         0.43          6.7 
       801.0         3.35          7.3 
       802.0         0.43          6.9 
       803.0         0.27          6.8 
       804.0         0.37          7.1 
       805.0         0.20          6.9 
       806.0         0.23          7.2 
       807.0         0.37          7.0 
       808.0         0.33          7.2 
       809.0         0.28          7.0 
       810.0         0.27          6.8 
       811.0         0.30          6.9 
       812.0         0.27          7.0 
       813.0         0.27          6.7 
       814.0         0.30          6.7 
       815.0         0.27          7.1 
       816.0         0.27          6.9 
       817.0         0.30          6.8 
       818.0         0.30          7.0 
       819.0         0.33          6.8 
       820.0         0.33          6.8 
       821.0         0.32          6.6 
       822.0         0.27          6.8 
       823.0         0.30          6.7 
       824.0         0.30          6.8 
       825.0         0.30          6.8 
       826.0         0.33          6.6 
       827.0         0.30          6.7 
       828.0         0.30          7.0 
       829.0         0.33          6.9 
       830.0         0.43          7.1 
       831.0         0.62          7.1 
       832.0         4.05          7.5 
       833.0         0.43          7.2 
       834.0         0.43          6.9 
       835.0         0.40          6.6 
       836.0         0.47          6.5 
       837.0         0.43          6.6 
       838.0         0.32          6.9 
       839.0         0.33          6.8 
       840.0         0.33          6.9 
       841.0         0.30          6.8 
       842.0         0.37          7.3 
       843.0         0.33          7.3 
       844.0         0.30          7.5 
       845.0         0.33          7.3 
       846.0         0.30          7.2 
       847.0         0.30          6.8 
       848.0         0.35          6.8 
       849.0         0.33          6.9 
       850.0         0.30          7.1 
       851.0         0.33          7.4 
       852.0         0.33          7.2 
       853.0         0.33          7.5 
       854.0         0.33          7.0 
       855.0         0.33          7.2 
       856.0         0.33          7.2 
       857.0         0.33          7.1 
       858.0         0.35          7.2 
       859.0         0.43          7.2 
       860.0         0.33          7.1 
       861.0         0.37          7.3 
       862.0         3.88          7.6 
       863.0         0.57          7.7 
       864.0         0.43          7.2 
       865.0         0.30          7.4 
       866.0         0.42          7.6 
       867.0         0.37          7.3 
       868.0         0.33          7.1 
       869.0         0.37          7.5 
       870.0         0.33          7.4 
       871.0         0.43          7.4 
       872.0         0.47          7.6 
       873.0         0.43          7.5 
       874.0         0.45          7.3 
       875.0         0.43          7.7 
       876.0         0.47          7.2 
       877.0         0.43          7.9 
       878.0         0.37          7.5 
       879.0         0.37          7.5 
       880.0         0.37          7.7 
       881.0         0.33          7.4 
       882.0         0.33          7.8 
       883.0         0.25          8.0 
       884.0         0.30          7.6 
       885.0         0.30          7.9 
       886.0         0.50          7.8 
       887.0         0.23          8.1 
       888.0         0.20          8.1 
       889.0         0.27          7.5 
       890.0         0.27          7.3 
       891.0         0.23          7.6 
       892.0         5.70          9.8 
       893.0         0.50          9.6 
       894.0         0.47          9.2 
       895.0         0.47          9.6 
       896.0         0.47          9.5 
       897.0         0.38          9.2 
       898.0         0.43          9.3 
       899.0         0.40          9.3 
       900.0         0.43         10.5 
       901.0         0.37         17.7 
       902.0         0.40         13.0 
       903.0         0.40         94.9 
       904.0         0.30        111.0 
       905.0         0.27        105.6 
       906.0         0.35         52.4 
       907.0         0.23         10.7 
       908.0         0.17         14.4 
       909.0         0.17         21.5 
       910.0         0.17         30.9 
       911.0         0.27         44.2 
       912.0         0.30         54.0 
       913.0         0.33         71.2 
       914.0         0.30         89.0 
       915.0         0.17        123.1 
       916.0         0.20        130.4 
       917.0         0.33        117.3 
       918.0         0.30          8.8 
       919.0         0.32          8.1 
       920.0         0.27         40.8 
       921.0         0.30        111.6 
       922.0         4.08        145.5 
       923.0         0.40        105.6 
       924.0         0.47         95.8 
       925.0         0.43        104.5 
       926.0         0.47         96.9 
       927.0         0.45         89.7 
       928.0         0.40         78.4 
       929.0         0.43         72.9 
       930.0         0.40         73.3 
       931.0         0.37         63.1 
       932.0         0.37         60.8 
       933.0         0.37         61.2 
       934.0         0.33         63.5 
       935.0         0.23         66.2 
       936.0         0.32         74.1 
       937.0         0.23         71.5 
       938.0         0.20         66.0 
       939.0         0.23         68.9 
       940.0         0.30         70.8 
       941.0         0.33         91.3 
       942.0         0.33         91.6 
       943.0         0.37        116.2 
       944.0         0.30        207.9 
       945.0         0.23        103.3 
       946.0         0.20          9.8 
       947.0         0.27          7.7 
       948.0         0.38          8.0 
       949.0         0.40         15.1 
       950.0         0.73        104.9 
       951.0         0.60        245.8 
       952.0         2.72        253.5 
       953.0         0.60        141.2 
       954.0         0.63        116.6 
       955.0         0.50         98.7 
       956.0         0.45         90.0 
       957.0         0.43         85.7 
       958.0         0.43         81.7 
       959.0         0.33         69.4 
       960.0         0.37         53.6 
