~Version Information
VERS.                      2.0: CWLS Log ASCII Standard - VERSION 2.0
WRAP.                       NO: One line per depth step
~Well Information Block
STRT.FT                -5.5000: 
STOP.FT              2262.7500: 
STEP.FT                 0.2500: 
NULL.                -999.2500: 
COMP.          Pioneer Natural Resources: COMPANY
WELL.             Baa Baa 34-1: WELL
FLD.           Purgatorie River: FIELD
LOC.           617' FSL & 2289' FEL------: LOCATION
STAT.                       CO: State
CNTY.               Las Animas: COUNTY
CTRY. USA : Country
SECT. 1 : Section
TOWN. 33S : Township
RANG. 67W : Range
SRVC.          Patterson Wireline: SERVICE COMPANY
DATE.          Mon Sep 12 14:08:52 2005: LOG DATE
API.           05 071 08502 00: UNIQUE WELL ID
~Curve Information Block
DEPT.FT            0 000 00 00: Depth
LTEN.lb                       : Surface Line Tension
CCL.                          : Casing Collar Locator
TT3.usec                      : CBL 3' Travel Time
AMP3.mV                       : CBL 3' Amplitude
GR.GAPI                       : Gamma Ray
~Parameter Information Block
~A  Depth       LTEN        CCL         TT3         AMP3         GR     
# ...
   442.5000  -4535.8604      0.0000    422.4728      9.4626     86.2050
   442.7500  -4531.8638      0.0000    395.8073      9.4924     83.3208
   443.0000  -4541.1890      0.0000    384.5908      9.5143     81.2289
   443.2500  -4535.8604      0.0000    382.9640      9.5309     80.5299
   443.5000  -4537.1924      0.0000    390.6758      9.5434     81.1280
   443.7500  -4533.1958      0.0000    415.0421      9.5508     82.2345
   444.0000  -4531.8638      0.0000    467.7801      9.5501     82.9380
   444.2500  -4539.8569      0.0000    554.4075      9.5364     82.8398
   444.5000  -4539.8569      0.0000    660.9752      9.4957     82.2447
   444.7500  -4529.1997      0.0000    754.1868      9.3928     81.7551
   445.0000  -4535.8604      0.0000    802.5770      9.1710     81.6587
   445.2500  -4533.1958      0.0000    799.5641      8.7923     81.7045
   445.5000  -4535.8604      0.0000    764.5411      8.2965     81.3430
   445.7500  -4533.1958      0.0000    726.9855      7.7960     80.0106
   446.0000  -4530.5317      0.0000    713.4630      7.3752     77.4209
   446.2500  -4537.1924      0.0000    740.8203      7.0163     74.1023
   446.5000  -4537.1924      0.0000    809.8693      6.6635     71.5575
   446.7500  -4534.5283      0.0000    903.4009      6.3266     71.2807
   447.0000  -4537.1924      0.0000    994.3526      6.0704     73.4361
   447.2500  -4533.1958      0.0000   1059.2578      5.9294     76.8083
   447.5000  -4535.8604      0.0000   1087.5939      5.8791     79.8767
   447.7500  -4530.5317     -2.0000   1083.4443      5.8802     81.6897
   448.0000  -4539.8569      0.0000   1061.3778      5.9372     82.1032
   448.2500  -4534.5283      0.0000   1037.3837      6.1219     81.7257
   448.5000  -4538.5244      0.0000   1017.8444      6.5224     81.5961
   448.7500  -4533.1958      0.0000    996.0893      7.1269     82.5970
   449.0000  -4534.5283      0.0000    962.6893      7.7705     84.9230
   449.2500  -4533.1958      0.0000    919.4414      8.2506     87.8279
   449.5000  -4537.1924      0.0000    881.5158      8.4893     89.7339
   449.7500  -4537.1924      0.0000    866.0770      8.5487     89.0637
   450.0000  -4530.5317      0.0000    878.9312      8.5190     85.5298
   450.2500  -4537.1924      0.0000    909.4741      8.4439     80.5244
   450.5000  -4534.5283      0.0000    937.3956      8.3339     75.9808
   450.7500  -4537.1924      0.0000    948.4485      8.2018     73.0005
   451.0000  -4535.8604      0.0000    946.3759      8.0683     71.5646
   451.2500  -4535.8604      0.0000    946.9626      7.9468     71.1097
   451.5000  -4531.8638      0.0000    961.0871      7.8332     71.1343
   451.7500  -4533.1958      0.0000    987.5790      7.7137     71.4866
   452.0000  -4539.8569      0.0000   1019.2789      7.5812     72.2805
   452.2500  -4537.1924      0.0000   1047.2329      7.4419     73.5064
   452.5000  -4535.8604      0.0000   1059.3125      7.3100     74.7413
   452.7500  -4535.8604      0.0000   1044.1484      7.1968     75.4822
   453.0000  -4531.8638      0.0000   1000.7194      7.1031     75.7829
   453.2500  -4537.1924      0.0000    939.7439      7.0204     76.1242
   453.5000  -4530.5317      0.0000    872.3557      6.9378     76.3794
   453.7500  -4529.1997      0.0000    801.1589      6.8496     75.4887
   454.0000  -4533.1958      0.0000    726.2040      6.7557     72.7474
   454.2500  -4533.1958      0.0000    654.8705      6.6578     69.0341
   454.5000  -4533.1958      0.0000    599.2840      6.5581     66.0738
   454.7500  -4531.8638      0.0000    566.0859      6.4602     64.7060
   455.0000  -4535.8604      0.0000    553.4660      6.3690     64.4838
   455.2500  -4533.1958      0.0000    556.6794      6.2893     64.7010
   455.5000  -4535.8604      0.0000    572.7091      6.2246     65.0196
   455.7500  -4538.5244      0.0000    599.9833      6.1731     65.0806
   456.0000  -4534.5283      0.0000    636.1688      6.1237     64.2662
   456.2500  -4537.1924      0.0000    676.7581      6.0607     62.3286
   456.5000  -4539.8569      0.0000    714.4176      5.9748     60.0596
   456.7500  -4533.1958      0.0000    740.5385      5.8688     58.9450
   457.0000  -4537.1924      0.0000    750.2690      5.7498     60.0215
   457.2500  -4538.5244      0.0000    747.3197      5.6221     63.1451
   457.5000  -4539.8569      0.0000    741.7620      5.4881     67.2696
   457.7500  -4531.8638      0.0000    741.2972      5.3514     71.1373
   458.0000  -4537.1924      0.0000    745.0756      5.2145     73.6551
   458.2500  -4538.5244      0.0000    746.6432      5.0810     74.1340
   458.5000  -4537.1924      0.0000    741.9023      4.9635     72.7638
   458.7500  -4533.1958      0.0000    733.7324      4.8875     70.8418
   459.0000  -4538.5244      0.0000    729.7546      4.8813     70.0349
   459.2500  -4535.8604      0.0000    735.9611      4.9603     71.0880
   459.5000  -4533.1958      0.0000    752.2935      5.1174     73.1848
   459.7500  -4535.8604      0.0000    773.6542      5.3271     74.5620
   460.0000  -4533.1958      0.0000    794.1494      5.5590     73.8960
   460.2500  -4535.8604      0.0000    810.1714      5.7878     71.4400
   460.5000  -4534.5283      0.0000    820.5612      5.9963     68.8811
   460.7500  -4538.5244      0.0000    825.5860      6.1741     67.8251
   461.0000  -4537.1924      0.0000    826.6832      6.3190     68.4105
   461.2500  -4533.1958      0.0000    826.3843      6.4346     69.6310
   461.5000  -4539.8569      0.0000    826.8436      6.5235     70.7579
   461.7500  -4534.5283      0.0000    828.4282      6.5833     71.8841
   462.0000  -4537.1924      0.0000    830.5173      6.6107     73.2902
   462.2500  -4533.1958      0.0000    833.1332      6.6055     75.1710
   462.5000  -4537.1924      0.0000    836.5372      6.5678     78.0674
   462.7500  -4535.8604      0.0000    839.9146      6.4944     82.7608
   463.0000  -4534.5283      0.0000    841.8967      6.3818     89.2563
   463.2500  -4533.1958      0.0000    842.3234      6.2338     96.2013
   463.5000  -4535.8604      0.0000    842.5229      6.0631    101.6835
   463.7500  -4541.1890      0.0000    843.7422      5.8889    104.6365
   464.0000  -4530.5317      0.0000    845.9081      5.7350    105.3545
   464.2500  -4535.8604      0.0000    848.0482      5.6270    104.7521
   464.5000  -4534.5283      0.0000    849.4252      5.5866    103.5468
   464.7500  -4539.8569      0.0000    849.9893      5.6237    102.2811
   465.0000  -4534.5283      0.0000    850.0720      5.7332    101.5174
   465.2500  -4537.1924      0.0000    849.9791      5.8973    101.3815
   465.5000  -4533.1958      0.0000    849.8568      6.0901    101.2972
   465.7500  -4539.8569      0.0000    849.7495      6.2875    100.8401
   466.0000  -4530.5317      0.0000    849.6915      6.4761    100.5448
   466.2500  -4535.8604      0.0000    849.7418      6.6559    101.1323
   466.5000  -4535.8604      0.0000    849.9564      6.8321    102.2316
   466.7500  -4533.1958      0.0000    850.3696      7.0049    102.5770
   467.0000  -4539.8569      0.0000    851.1905      7.1695    101.2480
   467.2500  -4530.5317      0.0000    853.2300      7.3233     98.1509
   467.5000  -4535.8604      0.0000    858.2880      7.4669     93.5176
   467.7500  -4534.5283      0.0000    868.6063      7.5937     87.7054
   468.0000  -4535.8604      0.0000    884.6016      7.6859     81.5555
   468.2500  -4537.1924      0.0000    902.6863      7.7345     76.2055
   468.5000  -4537.1924      0.0000    916.7581      7.7586     72.1145
   468.7500  -4539.8569      0.0000    922.7407      7.7961     68.6364
   469.0000  -4533.1958      0.0000    920.3810      7.8715     64.9615
   469.2500  -4534.5283      0.0000    910.9308      7.9776     61.2540
   469.5000  -4530.5317      0.0000    896.1379      8.0861     58.5518
   469.7500  -4538.5244      0.0000    879.6891      8.1668     57.7133
   470.0000  -4541.1890      0.0000    866.4761      8.2017     58.7182
   470.2500  -4534.5283      0.0000    859.4072      8.1895     60.9404
