~Version Information
VERS.                      2.0: CWLS Log ASCII Standard - VERSION 2.0
WRAP.                       NO: One line per depth step
~Well Information Block
STRT.FT               345.0000: 
STOP.FT              2167.7000: 
STEP.FT                 0.1000: 
NULL.                -999.2500: 
COMP.          Pioneer Natural Resources: COMPANY
WELL.          Hemisphere 32-24: WELL
FLD.           Purgatoire River: FIELD
LOC.           1850' FNL & 2284' FEL--: LOCATION
PROV.                 Colorado: PROVINCE
CNTY.               Las Animas: COUNTRY
SRVC.                Patterson: SERVICE COMPANY
DATE.          Mon Aug 15 07:19:13 2005: LOG DATE
UWI.           05 071 08440 00: UNIQUE WELL ID
~Curve Information Block
DEPT.FT            0 000 00 00: Depth
DCAL.in                       : CDL Caliper
RHOB.g/cc                     : CDL Bulk Density
RHOC.g/cc                     : CDL Density Correction
DPOR.pu                       : CDL Density Porosity
NPOR.pu                       : Neutron Porosity
GR.GAPI                       : Gamma Ray
~Parameter Information Block
~A  Depth       DCAL        RHOB        RHOC        DPOR        NPOR         GR     
# ...
  1305.0000      7.9539      2.5986      0.1028      3.1161     22.0756    158.1176
  1305.1000      7.9539      2.5976      0.1366      3.1758     22.3344    155.9679
  1305.2000      7.9539      2.5918      0.0992      3.5269     23.0252    150.3112
  1305.3000      7.9477      2.5842      0.0457      3.9894     23.7105    144.8186
  1305.4000      7.9477      2.5753      0.0567      4.5261     24.2617    140.9359
  1305.5000      7.9465      2.5681     -0.0030      4.9649     24.6746    138.1829
  1305.6000      7.9465      2.5659      0.0302      5.0941     24.6405    137.5812
  1305.7000      7.9465      2.5687      0.0039      4.9275     24.4148    138.9534
  1305.8000      7.9496      2.5728      0.0551      4.6792     24.4987    137.2039
  1305.9000      7.9496      2.5661      0.0557      5.0854     24.5655    133.5462
  1306.0000      7.9514      2.5468     -0.0036      6.2561     24.1336    132.2051
  1306.1000      7.9514      2.5305      0.0143      7.2450     23.4340    129.1273
  1306.2000      7.9514      2.5197      0.0229      7.8972     23.0135    126.0053
  1306.3000      7.9491      2.5031      0.0077      8.9008     23.0787    129.4284
  1306.4000      7.9491      2.4775      0.0092     10.4519     23.2456    133.5161
  1306.5000      7.9424      2.4466     -0.0111     12.3267     22.8735    132.1737
  1306.6000      7.9424      2.4188     -0.0124     14.0131     21.8055    130.6813
  1306.7000      7.9424      2.4033      0.0113     14.9531     20.5881    133.1369
  1306.8000      7.9317      2.4029     -0.0067     14.9737     19.7474    134.2937
  1306.9000      7.9317      2.4232     -0.0315     13.7452     19.4199    128.0571
  1307.0000      7.9196      2.4653      0.0573     11.1942     19.5623    116.4064
  1307.1000      7.9196      2.5155      0.1004      8.1540     19.9215    103.8026
  1307.2000      7.9196      2.5600      0.0956      5.4547     20.0171     94.9686
  1307.3000      7.9124      2.5872      0.1532      3.8038     19.7212     93.0901
  1307.4000      7.9124      2.5896      0.1020      3.6587     19.3915     93.7106
  1307.5000      7.9110      2.5785      0.0775      4.3344     19.2013     89.5133
  1307.6000      7.9110      2.5722      0.0815      4.7134     18.9913     80.1713
  1307.7000      7.9110      2.5753      0.0664      4.5260     18.7613     72.0637
  1307.8000      7.9156      2.5823      0.0505      4.1047     18.8175     69.5274
  1307.9000      7.9156      2.5907      0.0436      3.5944     19.3411     69.7263
  1308.0000      7.9262      2.6009      0.0236      2.9758     19.9608     68.0874
  1308.1000      7.9262      2.6120      0.0452      2.3056     20.1162     63.4014
  1308.2000      7.9262      2.6218      0.0553      1.7082     19.7410     60.2003
  1308.3000      7.9336      2.6261      0.0475      1.4460     19.2584     62.5238
  1308.4000      7.9336      2.6172      0.0689      1.9903     19.1982     65.9660
  1308.5000      7.9368      2.6013      0.0156      2.9535     19.4013     65.8360
  1308.6000      7.9368      2.6050      0.0019      2.7247     19.2101     63.9983
  1308.7000      7.9368      2.6353      0.0391      0.8902     18.7112     64.7361
  1308.8000      7.9360      2.6617      0.0922     -0.7065     18.5383     68.1866
  1308.9000      7.9360      2.6632      0.0522     -0.7992     18.7959     68.4064
  1309.0000      7.9325      2.6531      0.0864     -0.1900     19.0711     63.1553
  1309.1000      7.9325      2.6461      0.0472      0.2386     19.1795     58.8272
  1309.2000      7.9325      2.6411      0.0727      0.5370     19.2181     58.0447
  1309.3000      7.9320      2.6373      0.0427      0.7669     19.0734     56.9242
  1309.4000      7.9320      2.6398      0.0619      0.6169     18.7485     54.1238
  1309.5000      7.9354      2.6449      0.0665      0.3119     18.5032     52.3844
  1309.6000      7.9354      2.6423      0.0896      0.4670     18.2953     53.3521
  1309.7000      7.9354      2.6317      0.0620      1.1076     18.0921     55.7576
  1309.8000      7.9377      2.6197      0.0530      1.8334     18.2792     58.9424
  1309.9000      7.9377      2.6128      0.0052      2.2545     18.8497     63.2467
  1310.0000      7.9378      2.6191      0.0491      1.8714     19.2780     65.6557
  1310.1000      7.9378      2.6365      0.0892      0.8169     19.2023     64.4651
  1310.2000      7.9378      2.6529      0.0594     -0.1786     18.6869     62.7086
  1310.3000      7.9370      2.6555      0.1250     -0.3342     18.2565     63.1683
  1310.4000      7.9370      2.6397      0.0325      0.6217     18.4760     64.8795
  1310.5000      7.9374      2.6196      0.0625      1.8403     19.0569     64.9907
  1310.6000      7.9374      2.6039      0.0398      2.7929     19.0387     62.7880
  1310.7000      7.9374      2.5891      0.0242      3.6914     18.4401     60.4960
  1310.8000      7.9387      2.5769      0.0426      4.4273     18.1308     60.5889
  1310.9000      7.9387      2.5742      0.0155      4.5958     18.3768     61.3673
  1311.0000      7.9394      2.5812      0.0421      4.1685     18.9068     59.4519
  1311.1000      7.9394      2.5878      0.0467      3.7669     19.4385     57.5252
  1311.2000      7.9394      2.5889      0.0423      3.7059     19.8455     59.9042
  1311.3000      7.9384      2.5954     -0.0015      3.3069     20.1999     64.7612
  1311.4000      7.9384      2.6134      0.0559      2.2169     20.5859     66.2303
  1311.5000      7.9370      2.6210      0.1148      1.7563     20.8627     64.3826
  1311.6000      7.9370      2.5996      0.1012      3.0567     20.8969     65.0616
  1311.7000      7.9370      2.5706     -0.0098      4.8132     20.6052     68.5661
  1311.8000      7.9380      2.5637      0.0319      5.2331     20.2212     71.7229
  1311.9000      7.9380      2.5707      0.0697      4.8042     20.2084     72.4043
  1312.0000      7.9387      2.5682      0.0456      4.9562     20.3160     69.9888
  1312.1000      7.9387      2.5576      0.0123      5.5980     19.9478     68.1367
  1312.2000      7.9387      2.5575      0.0243      5.6061     19.3679     68.5857
  1312.3000      7.9360      2.5651      0.0525      5.1455     19.1457     69.5721
  1312.4000      7.9360      2.5623      0.0049      5.3134     19.1661     70.4342
  1312.5000      7.9326      2.5515      0.0445      5.9703     19.0742     69.1472
  1312.6000      7.9326      2.5489     -0.0111      6.1277     18.8445     65.3897
  1312.7000      7.9326      2.5596      0.0267      5.4759     18.6956     63.4245
  1312.8000      7.9323      2.5628      0.1099      5.2826     18.8082     65.6955
  1312.9000      7.9323      2.5414      0.0695      6.5836     19.1066     69.8756
  1313.0000      7.9350      2.5180      0.0108      8.0014     19.3185     74.5135
  1313.1000      7.9350      2.5162      0.0365      8.1104     19.3953     79.2419
  1313.2000      7.9350      2.5243      0.0461      7.6205     19.5821     80.3300
  1313.3000      7.9391      2.5279      0.0444      7.3985     19.9345     78.3142
  1313.4000      7.9391      2.5340      0.0468      7.0287     20.1928     78.8688
  1313.5000      7.9400      2.5506      0.0381      6.0245     20.1499     83.2891
  1313.6000      7.9400      2.5725      0.0699      4.6978     20.0294     90.1886
  1313.7000      7.9400      2.5929      0.0618      3.4595     19.9928     98.5088
  1313.8000      7.9381      2.6070      0.1068      2.6087     19.9054    104.9733
  1313.9000      7.9381      2.6049      0.0768      2.7355     19.8085    105.6530
  1314.0000      7.9353      2.5854      0.0392      3.9136     19.8952    102.3282
  1314.1000      7.9353      2.5643      0.0144      5.1961     20.2658    100.2398
  1314.2000      7.9353      2.5625     -0.0132      5.3044     20.7869     99.9962
  1314.3000      7.9329      2.5805      0.0566      4.2138     21.2650    101.2141
  1314.4000      7.9329      2.5884      0.1018      3.7335     21.7288    104.8912
  1314.5000      7.9326      2.5824     -0.0067      4.0946     22.1068    110.3543
