~Version Information
VERS.                      2.0: CWLS Log ASCII Standard - VERSION 2.0
WRAP.                       NO: One line per depth step
~Well Information Block
STRT.FT               380.0000: 
STOP.FT              1887.5000: 
STEP.FT                 0.1000: 
NULL.                -999.2500: 
COMP.          Pioneer Natural Resources: COMPANY
WELL.          Cortina 23-25 Tr: WELL
FLD.           Purgatoire River: FIELD
LOC.           2521' FSL & 2345' FWL: LOCATION
STAT.                 Colorado: State
CNTY.               Las Animas: COUNTY
CTRY. USA : Country
SECT. 25 : Section
TOWN. 32S : Township
RANG. 67W : Range
SRVC.                Patterson: SERVICE COMPANY
DATE.          Mon Sep 26 06:09:01 2005: LOG DATE
API.           05 071 08534 00: UNIQUE WELL ID
~Curve Information Block
DEPT.FT            0 000 00 00: Depth
DCAL.in                       : CDL Caliper
RHOB.g/cc                     : CDL Bulk Density
RHOC.g/cc                     : CDL Density Correction
DPOR.pu                       : CDL Density Porosity
GR.GAPI                       : Gamma Ray
NPOR.pu                       : Neutron Porosity
~Parameter Information Block
~A  Depth       DCAL        RHOB        RHOC        DPOR         GR         NPOR    
# ...
   581.6000      8.0026      2.5546      0.1647      5.7796    140.3117     26.2853
   581.7000      8.0123      2.5457      0.1363      6.3242    148.0501     26.8168
   581.8000      8.0199      2.5462      0.0685      6.2898    148.6791     27.4854
   581.9000      8.0252      2.5617      0.1966      5.3511    146.3258     27.8996
   582.0000      8.0279      2.5721      0.1681      4.7195    147.9138     27.9825
   582.1000      8.0282      2.5666      0.1761      5.0522    149.0772     27.6920
   582.2000      8.0263      2.5627      0.0698      5.2935    148.3408     27.4097
   582.3000      8.0223      2.5770      0.0583      4.4216    145.9359     27.3487
   582.4000      8.0166      2.5965      0.1507      3.2445    140.3087     27.2103
   582.5000      8.0094      2.6031      0.1319      2.8419    136.9243     26.9647
   582.6000      8.0010      2.6029      0.0962      2.8562    140.5373     26.7638
   582.7000      7.9916      2.6040      0.0981      2.7896    146.6064     26.7027
   582.8000      7.9813      2.6019      0.0966      2.9124    150.7105     26.8439
   582.9000      7.9703      2.5996      0.0590      3.0574    148.7545     27.1993
   583.0000      7.9589      2.6094      0.0651      2.4617    140.9050     27.6259
   583.1000      7.9471      2.6257      0.0920      1.4738    135.8715     27.8661
   583.2000      7.9353      2.6260      0.0819      1.4529    134.8281     27.8670
   583.3000      7.9237      2.6040      0.0356      2.7861    133.2978     27.7590
   583.4000      7.9127      2.5760      0.0337      4.4864    131.1276     27.6423
   583.5000      7.9027      2.5555      0.0247      5.7248    126.2961     27.5048
   583.6000      7.8939      2.5481     -0.0278      6.1752    117.9270     27.2812
   583.7000      7.8867      2.5524     -0.0053      5.9156    113.4446     26.9383
   583.8000      7.8813      2.5604     -0.0209      5.4294    114.5314     26.6806
   583.9000      7.8779      2.5662      0.0318      5.0760    111.5115     26.5924
   584.0000      7.8765      2.5675      0.0102      5.0025     99.9675     26.3253
   584.1000      7.8772      2.5672     -0.0089      5.0203     86.3594     25.6025
   584.2000      7.8798      2.5651      0.0350      5.1477     80.4512     24.8648
   584.3000      7.8843      2.5517      0.0485      5.9598     84.1938     24.5935
   584.4000      7.8904      2.5361     -0.0711      6.9023     92.5597     24.5162
   584.5000      7.8976      2.5421     -0.0208      6.5373    100.7961     24.3345
   584.6000      7.9056      2.5622      0.0373      5.3199    104.1252     24.1801
   584.7000      7.9139      2.5758      0.0171      4.4948    103.3543     24.0728
   584.8000      7.9218      2.5847      0.0632      3.9558    103.3476     23.8961
   584.9000      7.9290      2.5940      0.1048      3.3916    103.1730     23.6121
   585.0000      7.9349      2.5979      0.1247      3.1554     99.8748     23.3554
   585.1000      7.9392      2.5925      0.0706      3.4852     95.1035     23.1667
   585.2000      7.9419      2.5815      0.0862      4.1531     92.3805     22.8598
   585.3000      7.9431      2.5746      0.0192      4.5706     91.6799     22.4042
   585.4000      7.9429      2.5783      0.0999      4.3425     91.1160     21.8662
   585.5000      7.9418      2.5833      0.0527      4.0419     91.6270     21.4298
   585.6000      7.9404      2.5792      0.0999      4.2889     94.2506     21.4554
   585.7000      7.9393      2.5640      0.0565      5.2147     97.8411     21.7382
   585.8000      7.9391      2.5420      0.0443      6.5440    103.6540     21.7405
   585.9000      7.9402      2.5170      0.0535      8.0582    106.8663     21.5995
   586.0000      7.9430      2.4945     -0.0274      9.4253    101.1355     21.9207
   586.1000      7.9476      2.4924     -0.0280      9.5514     94.3706     22.5897
   586.2000      7.9537      2.5197      0.0105      7.8983     94.0066     22.7513
   586.3000      7.9610      2.5558      0.0996      5.7095     94.8695     22.2900
   586.4000      7.9689      2.5772      0.1053      4.4133     91.6966     21.8853
   586.5000      7.9767      2.5889      0.0968      3.7010     85.5353     21.8430
   586.6000      7.9839      2.6039      0.1044      2.7966     80.2462     22.1302
   586.7000      7.9900      2.6118      0.1557      2.3177     76.3300     22.5316
   586.8000      7.9946      2.6038      0.1120      2.7974     72.6110     22.6298
   586.9000      7.9976      2.5946      0.1298      3.3601     72.7262     22.3647
   587.0000      7.9990      2.5958      0.1045      3.2849     78.7120     21.9842
   587.1000      7.9990      2.6044      0.0996      2.7613     86.8159     21.8060
   587.2000      7.9978      2.6068      0.1027      2.6208     94.7658     22.0227
   587.3000      7.9956      2.5950      0.0705      3.3357    103.3410     22.3763
   587.4000      7.9926      2.5836      0.0491      4.0260    111.1520     22.4206
   587.5000      7.9891      2.5847      0.1163      3.9600    114.5215     21.9350
   587.6000      7.9850      2.5912      0.1034      3.5634    111.5452     21.0464
   587.7000      7.9805      2.5966      0.1003      3.2336    102.5107     20.3166
   587.8000      7.9757      2.5983      0.0972      3.1311     93.4133     20.3057
   587.9000      7.9707      2.5921      0.1010      3.5118     90.1209     20.7401
   588.0000      7.9655      2.5773      0.0634      4.4037     87.6371     20.7712
   588.1000      7.9603      2.5613      0.0663      5.3770     82.3116     20.2284
   588.2000      7.9554      2.5465      0.0508      6.2718     79.0770     19.6465
   588.3000      7.9508      2.5316      0.0502      7.1740     79.0348     19.2834
   588.4000      7.9468      2.5157      0.0664      8.1392     76.3334     19.0852
   588.5000      7.9434      2.5012      0.0809      9.0184     69.7699     18.9172
   588.6000      7.9409      2.4944      0.0136      9.4295     64.9813     18.7853
   588.7000      7.9391      2.4929      0.0427      9.5212     62.4155     18.9793
   588.8000      7.9380      2.4853      0.0510      9.9797     59.2388     19.3011
   588.9000      7.9376      2.4720      0.0757     10.7879     58.7259     19.1467
   589.0000      7.9377      2.4626      0.0527     11.3574     63.2879     18.6554
   589.1000      7.9383      2.4615      0.0422     11.4240     67.8564     18.5479
   589.2000      7.9392      2.4654      0.0724     11.1858     67.2252     18.9734
   589.3000      7.9403      2.4714      0.0344     10.8250     63.4347     19.4309
   589.4000      7.9415      2.4751      0.1005     10.5971     63.2212     19.6439
   589.5000      7.9428      2.4745      0.0431     10.6354     68.7208     19.8862
   589.6000      7.9441      2.4859      0.0198      9.9451     71.7991     20.4620
   589.7000      7.9453      2.5153      0.0688      8.1655     68.2071     20.8830
   589.8000      7.9464      2.5359      0.1400      6.9149     65.6855     20.4606
   589.9000      7.9475      2.5288      0.0528      7.3426     67.1488     19.6661
   590.0000      7.9483      2.5097      0.0394      8.5040     68.6613     19.2029
   590.1000      7.9490      2.5015      0.0372      8.9991     68.5955     18.9709
   590.2000      7.9493      2.5183      0.0525      7.9841     66.4279     18.9435
   590.3000      7.9491      2.5574      0.0383      5.6133     63.1287     19.3271
   590.4000      7.9483      2.5914      0.1266      3.5499     61.4004     19.7880
   590.5000      7.9466      2.5912      0.1118      3.5651     60.8518     19.7212
   590.6000      7.9441      2.5605      0.0800      5.4260     59.9148     19.1309
   590.7000      7.9406      2.5329      0.0200      7.0954     58.7698     18.4845
   590.8000      7.9362      2.5316      0.0520      7.1750     57.2870     18.0930
   590.9000      7.9310      2.5427      0.0780      6.5058     55.5450     18.1557
   591.0000      7.9250      2.5437      0.0662      6.4451     54.9051     18.5245
   591.1000      7.9185      2.5282      0.0744      7.3841     55.8587     18.5315
