~Version Information
VERS.                      2.0: CWLS Log ASCII Standard - VERSION 2.0
WRAP.                       NO: One line per depth step
~Well Information Block
STRT.FT                 0.0000: 
STOP.FT              1238.2500: 
STEP.FT                 0.2500: 
NULL.                -999.2500: 
COMP.          Pioneer Natural Resources: COMPANY
WELL.                 Ray 34-6: WELL
FLD.           Purgatoire River: FIELD
LOC.           684' FSL & 2254' FEL: LOCATION
CNTY.               Las Animas: COUNTY
SRVC.                         : SERVICE COMPANY
DATE.          Fri Jun 23 09:23:24 2006: LOG DATE
UWI.           05 071 08695 00: UNIQUE WELL ID
STAT.                       CO: STATE
~Curve Information Block
DEPT.FT            0 000 00 00: Depth
GR.GAPI                       : Gamma Ray
CCL.                          : Casing Collar Locator
TT3.usec                      : CBL 3' Travel Time
AMP3.mV                       : CBL 3' Amplitude
~Parameter Information Block
~A  Depth        GR         CCL         TT3         AMP3    
# ...
   871.0000    111.9592      0.0000    756.1712      6.9233
   871.2500    109.5231      0.0000    752.1834      6.8596
   871.5000    107.4689      0.0000    746.6542      6.7905
   871.7500    106.1830      0.0000    739.7606      6.7216
   872.0000    105.6418      0.0000    733.4609      6.6611
   872.2500    105.2583      0.0000    729.9280      6.6095
   872.5000    104.4840      0.0000    728.9054      6.5580
   872.7500    103.2524      0.0000    726.9646      6.5041
   873.0000    101.6582      0.0000    720.5720      6.4657
   873.2500     99.5779      0.0000    710.2590      6.4661
   873.5000     96.8523      0.0000    700.5918      6.5041
   873.7500     93.5554      0.0000    695.0462      6.5424
   874.0000     89.9174      0.0000    691.5297      6.5333
   874.2500     86.3406      0.0000    684.4581      6.4597
   874.5000     83.6393      0.0000    671.9003      6.3476
   874.7500     82.9365      0.0000    659.6367      6.2419
   875.0000     85.0218      0.0000    656.4269      6.1766
   875.2500     89.6493      0.0000    665.0554      6.1630
   875.5000     95.2355      0.0000    678.9632      6.1939
   875.7500     99.4043      0.0000    686.7886      6.2498
   876.0000    100.5767      0.0000    678.6808      6.3062
   876.2500     99.3973      0.0000    650.6315      6.3428
   876.5000     98.2851      0.0000    607.6006      6.3522
   876.7500     99.3112      0.0000    562.9730      6.3441
   877.0000    102.5135      0.0000    530.8951      6.3385
   877.2500    106.1448      0.0000    516.7343      6.3512
   877.5000    108.3816      0.0000    515.7060      6.3837
   877.7500    108.7639      0.0000    520.5264      6.4289
   878.0000    108.1927      0.0000    529.1429      6.4825
   878.2500    107.8598      0.0000    545.6541      6.5456
   878.5000    108.2390      0.0000    575.0244      6.6170
   878.7500    108.8477      0.0000    616.5914      6.6873
   879.0000    108.7310      0.0000    661.9462      6.7427
   879.2500    107.2074      0.0000    699.6233      6.7803
   879.5000    104.2598      0.0000    722.7054      6.8278
   879.7500    100.3274      0.0000    732.3949      6.9413
   880.0000     95.9499      0.0000    735.1382      7.1662
   880.2500     91.7116      0.0000    737.0040      7.4868
   880.5000     88.1267      0.0000    740.1204      7.8290
   880.7500     85.2292      0.0000    743.0539      8.1263
   881.0000     82.6177      0.0000    743.7466      8.3775
   881.2500     80.3526      0.0000    742.1469      8.6286
   881.5000     79.6308      0.0000    740.4730      8.9004
   881.7500     81.9699      0.0000    741.1124      9.1450
   882.0000     87.5001      0.0000    744.3242      9.2770
   882.2500     94.4394      0.0000    748.0241      9.2446
   882.5000    100.7234      0.0000    749.6437      9.0670
   882.7500    105.9513      0.0000    748.1241      8.8053
   883.0000    111.0982      0.0000    744.6324      8.5049
   883.2500    116.3100      0.0000    741.7526      8.1786
   883.5000    119.8804      0.0000    741.4999      7.8403
   883.7500    119.9599      0.0000    743.5159      7.5347
   884.0000    116.7628      0.0000    745.2554      7.3132
   884.2500    112.4839      0.0000    744.1820      7.1846
   884.5000    109.1747      0.0000    739.8956      7.1020
   884.7500    107.1054      0.0000    734.2735      7.0041
   885.0000    105.2047      0.0000    729.4669      6.8651
   885.2500    102.5816      0.0000    725.4913      6.7057
   885.5000     99.2469      0.0000    720.1606      6.5658
   885.7500     95.6809      0.0000    712.2396      6.4705
   886.0000     92.2592      0.0000    704.4178      6.4196
   886.2500     89.1611      0.0000    701.3632      6.4006
   886.5000     86.4502      0.0000    703.5277      6.4078
   886.7500     83.8582      0.0000    703.2017      6.4452
   887.0000     80.5835      0.0000    687.7117      6.5135
   887.2500     75.7328      0.0000    648.0208      6.6018
   887.5000     69.1933      0.0000    586.5023      6.6943
   887.7500     62.0635      0.0000    517.6649      6.7809
   888.0000     56.2204      0.0000    460.2430      6.8572
   888.2500     53.3487      0.0000    427.4056      6.9190
   888.5000     54.0447      0.0000    423.1733      6.9623
   888.7500     57.5832      0.0000    444.8311      6.9853
   889.0000     62.4948      0.0000    485.8798      6.9899
   889.2500     67.3185      0.0000    538.1772      6.9836
   889.5000     71.0481      0.0000    594.1415      6.9776
   889.7500     73.5303      0.0000    647.2826      6.9745
   890.0000     75.7903      0.0000    691.4550      6.9661
   890.2500     79.4335      0.0000    722.3759      6.9483
   890.5000     85.1272      0.0000    740.5031      6.9272
   890.7500     91.8111      0.0000    750.9036      6.8929
   891.0000     97.7134      0.0000    760.1039      6.7945
   891.2500    101.9385      0.0000    772.9977      6.5729
   891.5000    104.8285      0.0000    791.1094      6.2352
   891.7500    107.0079      0.0000    812.1884      5.8937
   892.0000    108.4222      0.0000    831.3848      5.7103
   892.2500    108.3715      0.0000    843.9257      5.7802
   892.5000    106.3481      0.0000    847.8025      6.0607
   892.7500    102.7989      1.3495    844.5118      6.4105
   893.0000     99.2132     -2.0000    836.6003      6.6856
   893.2500     97.4973      0.0000    824.7281      6.8010
   893.5000     98.8014      0.0000    808.7544      6.7449
   893.7500    102.4260      0.0000    791.4582      6.5779
   894.0000    105.9748      0.0000    778.3740      6.4142
   894.2500    106.9591      0.0000    772.8915      6.3709
   894.5000    104.5308      0.0000    773.1558      6.5146
   894.7500     99.9158      0.0000    774.4875      6.8359
   895.0000     95.3765      0.0000    773.3961      7.2530
   895.2500     92.5672      0.0000    768.8034      7.6441
   895.5000     91.6574      0.0000    761.3327      7.9052
   895.7500     91.9961      0.0000    753.0775      7.9999
   896.0000     93.3522      0.0000    747.2493      7.9651
   896.2500     96.0387      0.0000    746.1454      7.8783
   896.5000     99.9977      0.0000    748.6978      7.8078
   896.7500    104.4529      0.0000    750.3098      7.7758
   897.0000    108.6451      0.0000    745.6104      7.7592
   897.2500    112.3758      0.0000    732.3508      7.7292
   897.5000    115.4555      0.0000    713.5240      7.6847
   897.7500    117.0369      0.0000    695.5816      7.6476
   898.0000    116.1570      0.0000    684.2825      7.6362
   898.2500    112.9583      0.0000    682.1114      7.6472
   898.5000    108.7986      0.0000    688.4504      7.6574
   898.7500    104.9304      0.0000    700.3999      7.6417
   899.0000    101.4796      0.0000    713.4291      7.5954
   899.2500     97.9849      0.0000    723.3035      7.5404
   899.5000     94.5255      0.0000    728.7946      7.5038
   899.7500     91.8227      0.0000    732.0530      7.4947
   900.0000     90.4735      0.0000    735.7604      7.5039
   900.2500     90.4423      0.0000    740.4988      7.5193
   900.5000     91.0443      0.0000    745.2037      7.5392
   900.7500     91.2077      0.0000    749.2682      7.5753
   901.0000     90.0737      0.0000    753.4270      7.6518
   901.2500     87.4867      0.0000    758.7875      7.7941
   901.5000     83.8875      0.0000    765.3066      8.0048
   901.7500     79.9762      0.0000    771.0582      8.2466
   902.0000     76.4640      0.0000    773.1802      8.4598
   902.2500     73.7261      0.0000    770.1755      8.6011
   902.5000     71.6322      0.0000    763.6210      8.6636
   902.7500     70.0301      0.0000    757.1011      8.6646
   903.0000     69.2999      0.0000    753.0071      8.6248
   903.2500     70.1253      0.0000    750.6269      8.5575
   903.5000     72.7846      0.0000    747.3594      8.4656
   903.7500     76.9158      0.0000    741.0078      8.3468
   904.0000     81.7848      0.0000    730.8636      8.2024
   904.2500     86.5118      0.0000    717.7663      8.0399
