~Version Information
VERS.                      2.0: CWLS Log ASCII Standard - VERSION 2.0
WRAP.                       NO: One line per depth step
~Well Information Block
STRT.FT               570.0000: 
STOP.FT              1954.5000: 
STEP.FT                 0.1000: 
NULL.                -999.2500: 
COMP.          Petrogulf Corporation: COMPANY
WELL.            Montoya 7-14R: WELL
FLD.           Purgatorie River: FIELD
LOC.           628' FSL & 454' FWL: LOCATION
PROV.                 Colorado: PROVINCE
CNTY.               Las Animas: COUNTRY
SRVC.                Patterson: SERVICE COMPANY
DATE.          Mon Oct 10 07:31:15 2005: LOG DATE
UWI.                          : UNIQUE WELL ID
~Curve Information Block
DEPT.FT            0 000 00 00: Depth
DCAL.in                       : CDL Caliper
RHOB.g/cc                     : CDL Bulk Density
RHOC.g/cc                     : CDL Density Correction
DPOR.pu                       : CDL Density Porosity
GR.GAPI                       : Gamma Ray
NPOR.pu                       : Neutron Porosity
~Parameter Information Block
~A  Depth       DCAL        RHOB        RHOC        DPOR         GR         NPOR    
# ...
   848.4000      7.9347      2.6695      0.1052     -1.1801     87.5462     23.2968
   848.5000      7.9276      2.6676      0.1235     -1.0663     84.2729     23.2404
   848.6000      7.9276      2.6721      0.1268     -1.3391     84.7151     22.9283
   848.7000      7.9276      2.6740      0.1239     -1.4536     87.6918     22.2567
   848.8000      7.9224      2.6723      0.0722     -1.3536     91.4966     21.6487
   848.9000      7.9224      2.6738      0.0908     -1.4416     95.2534     21.4710
   849.0000      7.9277      2.6740      0.0705     -1.4569     98.0971     21.7157
   849.1000      7.9277      2.6690      0.0696     -1.1496    100.5791     22.1809
   849.2000      7.9277      2.6589      0.1222     -0.5373    103.0825     22.5570
   849.3000      7.9183      2.6436      0.0751      0.3885    105.0126     22.6039
   849.4000      7.9183      2.6264      0.0995      1.4292    107.1091     22.3934
   849.5000      7.9129      2.6058      0.0723      2.6814    110.0603     22.2791
   849.6000      7.9129      2.5789      0.0475      4.3107    111.2541     22.3470
   849.7000      7.9129      2.5501      0.0062      6.0532    110.5963     22.3475
   849.8000      7.9440      2.5340     -0.0288      7.0283    112.2085     22.1987
   849.9000      7.9440      2.5393     -0.0250      6.7067    115.1623     21.9579
   850.0000      7.9570      2.5533      0.0126      5.8621    116.3456     21.9508
   850.1000      7.9570      2.5633      0.0282      5.2533    116.8885     22.3299
   850.2000      7.9570      2.5695      0.0478      4.8817    118.3676     22.7187
   850.3000      7.9638      2.5736      0.0521      4.6316    118.8004     22.7487
   850.4000      7.9638      2.5740      0.0496      4.6034    115.8920     22.3798
   850.5000      7.9756      2.5664      0.0675      5.0657    113.5030     22.0142
   850.6000      7.9756      2.5615      0.0110      5.3656    116.0710     22.1197
   850.7000      7.9756      2.5725      0.1093      4.6981    119.1015     22.7451
   850.8000      7.9768      2.5831      0.0950      4.0537    117.6784     23.6282
   850.9000      7.9768      2.5798      0.0741      4.2518    112.3224     24.4979
   851.0000      7.9828      2.5771      0.0572      4.4161    105.3995     25.0648
   851.1000      7.9828      2.5831      0.0984      4.0559    100.8634     25.1340
   851.2000      7.9828      2.5848      0.0748      3.9502    102.1625     24.8295
   851.3000      7.9933      2.5828      0.0020      4.0736    106.4702     24.3827
   851.4000      7.9933      2.5910      0.0324      3.5774    106.9890     23.8209
   851.5000      8.0069      2.6011      0.0601      2.9618    104.0888     23.4135
   851.6000      8.0069      2.5963      0.0176      3.2517    103.3198     23.5536
   851.7000      8.0069      2.5813      0.0164      4.1614    105.3368     24.0446
   851.8000      7.9680      2.5689      0.0139      4.9168    107.9584     24.5306
   851.9000      7.9680      2.5603      0.0345      5.4365    111.7561     24.7574
   852.0000      7.9824      2.5531      0.0051      5.8727    118.7844     24.7655
   852.1000      7.9824      2.5484      0.0019      6.1590    128.6219     24.9745
   852.2000      7.9824      2.5475     -0.0030      6.2144    136.8085     25.6095
   852.3000      7.9810      2.5505      0.0149      6.0280    140.1503     26.4889
   852.4000      7.9810      2.5539      0.0420      5.8226    140.8691     27.2430
   852.5000      8.0693      2.5540     -0.0111      5.8192    143.1891     27.7083
   852.6000      8.0693      2.5529      0.0206      5.8832    146.5922     28.0309
   852.7000      8.0693      2.5484      0.0386      6.1602    147.3764     28.2410
   852.8000      8.0289      2.5296      0.0463      7.2942    145.8001     28.3627
   852.9000      8.0289      2.4967      0.0066      9.2918    144.8898     28.7452
   853.0000      7.9797      2.4725     -0.0224     10.7597    145.6043     29.3916
   853.1000      7.9797      2.4809     -0.0166     10.2508    148.3627     29.8541
   853.2000      7.9797      2.5124      0.0494      8.3405    149.4642     29.9946
   853.3000      7.9264      2.5361      0.0691      6.9007    145.9970     30.0371
   853.4000      7.9264      2.5500      0.0427      6.0612    141.0523     30.0872
   853.5000      7.9133      2.5680      0.1303      4.9669    135.4704     29.9065
   853.6000      7.9133      2.5757      0.1482      4.5034    128.1832     29.3312
   853.7000      7.9133      2.5492      0.1551      6.1118    120.7302     28.5157
   853.8000      7.9093      2.4909      0.1101      9.6400    112.8473     27.7871
   853.9000      7.9093      2.4277      0.0709     13.4728    104.1988     27.4658
   854.0000      7.9158      2.3856      0.0470     16.0273     99.3544     27.4239
   854.1000      7.9158      2.3716      0.0472     16.8704    100.2264     27.2164
   854.2000      7.9158      2.3752      0.0136     16.6546    103.2018     27.0114
   854.3000      7.9848      2.3814      0.0211     16.2782    106.9106     27.3750
   854.4000      7.9848      2.3844      0.0541     16.0985    112.0215     27.9888
   854.5000      8.1239      2.3919      0.0363     15.6409    118.4033     28.0807
   854.6000      8.1239      2.4141      0.0844     14.2956    125.3286     27.8164
   854.7000      8.1239      2.4527      0.1361     11.9557    131.6506     27.8941
   854.8000      8.1198      2.5039      0.1619      8.8555    135.2674     28.5108
   854.9000      8.1198      2.5603      0.1091      5.4364    133.2093     29.2696
   855.0000      8.1346      2.6127      0.0916      2.2598    126.6076     29.6711
   855.1000      8.1346      2.6524      0.1123     -0.1448    121.0568     29.6809
   855.2000      8.1346      2.6748      0.0806     -1.5017    118.4364     29.7108
   855.3000      8.1419      2.6779      0.1389     -1.6893    118.7778     29.9327
   855.4000      8.1419      2.6648      0.0396     -0.8940    123.9371     30.1428
   855.5000      8.1483      2.6549      0.0530     -0.2977    132.8000     30.2250
   855.6000      8.1483      2.6685     -0.0148     -1.1196    139.2480     30.2665
   855.7000      8.1483      2.6989      0.0239     -2.9650    140.0169     30.3484
   855.8000      8.1481      2.7211     -0.0270     -4.3096    138.0151     30.3496
   855.9000      8.1481      2.7254     -0.0352     -4.5670    134.8764     30.2229
   856.0000      8.1654      2.7155     -0.0007     -3.9715    131.1968     29.9808
   856.1000      8.1654      2.6982     -0.0008     -2.9233    129.2561     29.6546
   856.2000      8.1654      2.6871      0.0194     -2.2492    128.7738     29.3173
   856.3000      8.1854      2.6778      0.0761     -1.6845    128.5564     29.1916
   856.4000      8.1854      2.6491      0.0318      0.0545    127.3809     29.4408
   856.5000      8.2066      2.6063     -0.0263      2.6491    124.1000     29.6982
   856.6000      8.2066      2.5745     -0.0382      4.5785    122.2977     29.6705
   856.7000      8.2066      2.5583     -0.0095      5.5601    123.9098     29.7111
   856.8000      8.2203      2.5469      0.0272      6.2492    126.1227     30.0505
   856.9000      8.2203      2.5379      0.0780      6.7943    128.1915     30.2282
   857.0000      8.2215      2.5383      0.0858      6.7695    131.4052     30.0224
   857.1000      8.2215      2.5576      0.0773      5.5990    134.8428     29.9403
   857.2000      8.2215      2.6008      0.1137      2.9823    135.4417     30.2756
   857.3000      8.2123      2.6563      0.1553     -0.3802    132.5996     30.6613
   857.4000      8.2123      2.7009      0.1536     -3.0844    127.7327     30.7616
   857.5000      8.1650      2.7213      0.1417     -4.3185    123.7469     30.5718
   857.6000      8.1650      2.7217      0.1156     -4.3447    122.0741     30.1287
   857.7000      8.1650      2.7104      0.1669     -3.6581    121.1575     29.6153
   857.8000      8.1320      2.6929      0.1156     -2.6029    121.3380     29.3187
   857.9000      8.1320      2.6808      0.0745     -1.8682    124.8858     29.2805
