~Version Information
VERS.                      2.0: CWLS Log ASCII Standard - VERSION 2.0
WRAP.                       NO: One line per depth step
~Well Information Block
STRT.FT               440.0000: 
STOP.FT              1702.7000: 
STEP.FT                 0.1000: 
NULL.                -999.2500: 
COMP.          Pioneer Natural Resources: COMPANY
WELL.          Culver 14-12 Tr: WELL
FLD.           Purgatoire River: FIELD
LOC.           915' FSL & 1048' FWL--: LOCATION
STAT.                 Colorado: State
CNTY.               Las Animas: COUNTY
CTRY. USA : Country
SECT. 12 : Section
TOWN. 32S : Township
RANG. 66W : Range
SRVC.                Patterson: SERVICE COMPANY
DATE.          Wed Sep 28 10:00:59 2005: LOG DATE
API.           05 071 08520 00: UNIQUE WELL ID
~Curve Information Block
DEPT.FT            0 000 00 00: Depth
DCAL.in                       : CDL Caliper
RHOB.g/cc                     : CDL Bulk Density
RHOC.g/cc                     : CDL Density Correction
DPOR.pu                       : CDL Density Porosity
NPOR.pu                       : Neutron Porosity
GR.GAPI                       : Gamma Ray
~Parameter Information Block
~A  Depth       DCAL        RHOB        RHOC        DPOR        NPOR         GR     
# ...
  1256.0000      8.0237      2.4405     -0.0119     12.6988     21.4813     45.1766
  1256.1000      8.0237      2.4366     -0.0019     12.9352     22.2073     41.8220
  1256.2000      8.0237      2.4440      0.0368     12.4823     23.1586     38.4567
  1256.3000      8.0231      2.4382      0.0503     12.8380     24.2465     33.0058
  1256.4000      8.0231      2.3988      0.0437     15.2264     25.5574     26.9249
  1256.5000      8.0234      2.3202      0.0078     19.9905     27.2339     24.1752
  1256.6000      8.0234      2.2173     -0.0551     26.2227     29.0739     25.9457
  1256.7000      8.0234      2.1005     -0.0609     33.3029     30.6944     30.2065
  1256.8000      8.0238      1.9676     -0.1264     41.3599     32.3344     35.9398
  1256.9000      8.0238      1.8336     -0.1522     49.4804     34.2771     43.1557
  1257.0000      8.0293      1.7193     -0.1895     56.4054     35.6262     47.9919
  1257.1000      8.0293      1.6312     -0.2021     61.7458     35.8061     47.5392
  1257.2000      8.0293      1.5725     -0.1645     65.3054     35.5303     45.5803
  1257.3000      8.0501      1.5438     -0.1300     67.0424     35.5435     44.7286
  1257.4000      8.0501      1.5394     -0.0895     67.3087     36.0594     44.6213
  1257.5000      8.0815      1.5582      0.0248     66.1692     36.5711     46.1557
  1257.6000      8.0815      1.6117      0.0633     62.9284     36.2452     48.6899
  1257.7000      8.0815      1.7088      0.1343     57.0424     34.9949     50.1942
  1257.8000      8.0965      1.8345      0.1684     49.4227     33.3636     53.0260
  1257.9000      8.0965      1.9636      0.1721     41.6024     32.1205     59.6485
  1258.0000      8.0712      2.0847      0.2163     34.2603     31.8628     68.3552
  1258.1000      8.0712      2.1936      0.2361     27.6578     32.2636     74.0446
  1258.2000      8.0712      2.2835      0.2253     22.2150     32.4794     74.3724
  1258.3000      8.0272      2.3551      0.2232     17.8722     31.9948     74.1532
  1258.4000      8.0272      2.4191      0.2158     13.9948     30.8209     75.4562
  1258.5000      8.0008      2.4773      0.2267     10.4689     29.7357     78.4262
  1258.6000      8.0008      2.5181      0.2367      7.9925     29.8274     84.9136
  1258.7000      8.0008      2.5385      0.1353      6.7571     30.6121     91.6665
  1258.8000      7.9958      2.5439      0.0922      6.4313     30.6492     95.7918
  1258.9000      7.9958      2.5362      0.0241      6.8988     29.8755    101.5521
  1259.0000      8.0050      2.5250      0.0392      7.5733     29.2950    109.7980
  1259.1000      8.0050      2.5238      0.0499      7.6459     29.2544    117.1194
  1259.2000      8.0050      2.5330      0.0450      7.0910     29.3028    122.7683
  1259.3000      8.0250      2.5408      0.0834      6.6186     29.1283    127.3859
  1259.4000      8.0250      2.5456      0.0554      6.3297     29.0856    129.7325
  1259.5000      8.0384      2.5623      0.0469      5.3144     29.4228    126.6444
  1259.6000      8.0384      2.5903      0.1103      3.6181     29.4975    121.1579
  1259.7000      8.0384      2.6075      0.1185      2.5778     28.8202    118.0462
  1259.8000      8.0276      2.6052      0.0779      2.7134     27.8122    116.4911
  1259.9000      8.0276      2.5953      0.0749      3.3127     26.7129    113.8563
  1260.0000      8.0084      2.5879      0.0547      3.7653     25.6934    110.6176
  1260.1000      8.0084      2.5865      0.0487      3.8489     25.2229    108.9914
  1260.2000      8.0084      2.5937      0.0790      3.4115     25.4242    106.6282
  1260.3000      7.9907      2.6063      0.0749      2.6485     26.0435    104.4719
  1260.4000      7.9907      2.6169      0.0430      2.0080     26.7578    105.0952
  1260.5000      7.9756      2.6230      0.0576      1.6393     27.1580    105.8061
  1260.6000      7.9756      2.6269      0.0621      1.3994     27.2227    107.2206
  1260.7000      7.9756      2.6267      0.0721      1.4144     27.2947    108.6617
  1260.8000      7.9690      2.6161      0.0504      2.0562     27.3350    106.7413
  1260.9000      7.9690      2.5970      0.0813      3.2126     27.1996    104.9804
  1261.0000      7.9712      2.5835      0.0245      4.0276     26.9298    109.1703
  1261.1000      7.9712      2.5906      0.0373      3.6025     26.5682    115.9330
  1261.2000      7.9712      2.6077      0.0742      2.5666     26.3833    114.8573
  1261.3000      7.9847      2.6122      0.0257      2.2926     27.0092    103.4784
  1261.4000      7.9847      2.6030      0.0404      2.8505     28.2503     92.6311
  1261.5000      8.0148      2.5935      0.0093      3.4270     28.9382     92.5086
  1261.6000      8.0148      2.5891      0.0528      3.6938     28.7416    102.2414
  1261.7000      8.0148      2.5827      0.0269      4.0797     28.4071    113.9154
  1261.8000      8.0541      2.5723     -0.0029      4.7065     28.4098    121.0391
  1261.9000      8.0541      2.5583      0.0398      5.5590     28.5474    123.2850
  1262.0000      8.0868      2.5379      0.0156      6.7962     28.6908    124.2375
  1262.1000      8.0868      2.5222     -0.0363      7.7483     28.7399    125.3858
  1262.2000      8.0868      2.5182      0.0411      7.9909     28.6262    124.7436
  1262.3000      8.1005      2.5163     -0.0049      8.1017     28.8305    123.1716
  1262.4000      8.1005      2.5180      0.0139      8.0018     29.3564    124.7449
  1262.5000      8.0989      2.5304      0.0059      7.2478     29.5623    130.0528
  1262.6000      8.0989      2.5523      0.0265      5.9184     29.3559    133.4720
  1262.7000      8.0989      2.5794      0.0599      4.2772     28.9954    132.9579
  1262.8000      8.0935      2.6034      0.0730      2.8253     28.7685    134.5759
  1262.9000      8.0935      2.6086      0.0934      2.5112     28.7320    139.6848
  1263.0000      8.0907      2.5954      0.0463      3.3115     28.5526    143.5604
  1263.1000      8.0907      2.5856      0.0621      3.9026     27.8925    141.0824
  1263.2000      8.0907      2.5871      0.0937      3.8111     26.8525    129.2886
  1263.3000      8.0921      2.5974      0.0851      3.1882     25.9205    115.4754
  1263.4000      8.0921      2.6192      0.0976      1.8670     25.3139    108.5798
  1263.5000      8.0948      2.6382      0.1432      0.7159     24.9542    107.4265
  1263.6000      8.0948      2.6292      0.0916      1.2628     24.7670    106.9267
  1263.7000      8.0948      2.5970      0.0391      3.2100     24.6939    105.5285
  1263.8000      8.0888      2.5713     -0.0001      4.7719     24.6280    104.3780
  1263.9000      8.0888      2.5630      0.0396      5.2746     24.4331    104.6784
  1264.0000      8.0763      2.5633      0.0226      5.2518     24.3177    105.3899
  1264.1000      8.0763      2.5696      0.0308      4.8745     24.7800    103.0935
  1264.2000      8.0763      2.5787      0.0453      4.3196     25.9772     98.0275
  1264.3000      8.0703      2.5795      0.0315      4.2708     27.1639     98.0841
  1264.4000      8.0703      2.5676      0.0314      4.9936     27.6798    102.6070
  1264.5000      8.0719      2.5508      0.0197      6.0129     27.7342    104.6653
  1264.6000      8.0719      2.5353      0.0354      6.9487     27.7051    106.0076
  1264.7000      8.0719      2.5218      0.0375      7.7682     27.9328    109.5985
  1264.8000      8.0747      2.5136      0.0140      8.2648     28.3672    111.5028
  1264.9000      8.0747      2.5150      0.0415      8.1847     28.6820    111.3823
  1265.0000      8.0832      2.5203      0.0487      7.8608     29.1704    116.0559
  1265.1000      8.0832      2.5240      0.0457      7.6358     29.9944    128.1002
  1265.2000      8.0832      2.5270      0.0771      7.4570     30.5386    141.0351
  1265.3000      8.1084      2.5301      0.0888      7.2690     30.2564    146.4934
  1265.4000      8.1084      2.5374      0.0859      6.8251     29.4259    143.0430
  1265.5000      8.1396      2.5494      0.1224      6.0959     28.8925    134.6383
