~Version Information
VERS.                      2.0: CWLS Log ASCII Standard - VERSION 2.0
WRAP.                       NO: One line per depth step
~Well Information Block
STRT.FT                -6.7500: 
STOP.FT              1661.0000: 
STEP.FT                 0.2500: 
NULL.                -999.2500: 
COMP.          Pioneer Natural Resources: COMPANY
WELL.           Pedri 42-33 Tr: WELL
FLD.           Purgatorie River: FIELD
LOC.           1933'' FNL & 662' FEL--: LOCATION
PROV.                       CO: PROVINCE
CNTY.               Las Animas: COUNTRY
SRVC.          Patterson Wireline: SERVICE COMPANY
DATE.          Tue Dec 27 08:53:52 2005: LOG DATE
UWI.           05 071 08640 00: UNIQUE WELL ID
~Curve Information Block
DEPT.FT            0 000 00 00: Depth
CCL.                          : Casing Collar Locator
TT3.usec                      : CBL 3' Travel Time
AMP3.mV                       : CBL 3' Amplitude
GR.GAPI                       : Gamma Ray
~Parameter Information Block
~A  Depth       CCL         TT3         AMP3         GR     
# ...
   964.7500      0.0000    782.6483      7.7380     74.2486
   965.0000      0.0000    778.0457      7.7300     72.8182
   965.2500      0.0000    774.0979      7.7044     73.5267
   965.5000      0.0000    770.9083      7.6554     73.7773
   965.7500      0.0000    764.2742      7.5751     72.2984
   966.0000      0.0000    749.8489      7.4547     70.0874
   966.2500      0.0000    729.1095      7.2925     69.5103
   966.5000      0.0000    709.8524      7.1068     72.3298
   966.7500      0.0000    699.9534      6.9430     78.2084
   967.0000      0.0000    700.9078      6.8578     85.0659
   967.2500      0.0000    707.8844      6.8848     90.9447
   967.5000      0.0000    715.7194      7.0124     95.4034
   967.7500      2.0000    724.1738      7.1984     99.0631
   968.0000     -2.0000    736.6082      7.4036    102.1433
   968.2500      0.0000    753.5757      7.6114    103.9740
   968.5000      0.0000    768.9661      7.8356    104.0991
   968.7500      0.0000    773.9946      8.1191    103.2559
   969.0000      0.0000    764.8587      8.4996    102.6812
   969.2500      0.0000    746.0070      8.9409    102.6367
   969.5000      0.0000    727.2240      9.3171    102.1661
   969.7500      0.0000    718.7338      9.5061    100.4056
   970.0000      0.0000    726.4767      9.4954     97.7919
   970.2500      0.0000    748.1857      9.3668     95.6665
   970.5000      0.0000    774.0416      9.2001     94.8701
   970.7500      0.0000    793.6182      9.0203     95.2015
   971.0000      0.0000    802.8112      8.8220     96.1369
   971.2500      0.0000    804.1542      8.6083     97.4477
   971.5000      0.0000    802.2235      8.4014     98.8297
   971.7500      0.0000    799.9753      8.2284     99.3663
   972.0000      0.0000    798.1578      8.1027     97.9641
   972.2500      0.0000    796.2797      8.0199     94.4971
   972.5000      0.0000    793.4637      7.9666     90.2507
   972.7500      0.0000    789.2914      7.9321     86.9307
   973.0000      0.0000    784.7095      7.9116     85.1500
   973.2500      0.0000    782.1789      7.9023     83.9979
   973.5000      0.0000    784.0505      7.9001     82.1466
   973.7500      0.0000    790.2923      7.9014     79.0890
   974.0000      0.0000    798.0786      7.9072     75.1599
   974.2500      0.0000    803.9807      7.9221     70.9057
   974.5000      0.0000    806.6304      7.9496     67.1132
   974.7500      0.0000    807.2662      7.9866     64.9959
   975.0000      0.0000    807.8596      8.0214     65.3883
   975.2500      0.0000    808.9929      8.0386     67.7243
   975.5000      0.0000    809.6858      8.0278     70.3905
   975.7500      0.0000    809.0729      7.9876     72.2294
   976.0000      0.0000    807.8215      7.9233     73.3531
   976.2500      0.0000    807.8907      7.8448     74.3172
   976.5000      0.0000    811.1145      7.7652     74.8059
   976.7500      0.0000    817.6682      7.6997     73.7491
   977.0000      0.0000    825.3451      7.6618     70.8688
   977.2500      0.0000    830.8088      7.6561     67.5407
   977.5000      0.0000    832.3052      7.6721     65.8637
   977.7500      0.0000    830.7889      7.6903     67.2622
   978.0000      0.0000    828.0178      7.6976     71.9538
   978.2500      0.0000    824.3902      7.6980     79.0953
   978.5000      0.0000    818.9982      7.7043     87.1439
   978.7500      0.0000    810.8407      7.7188     94.5917
   979.0000      0.0000    799.6983      7.7299    100.8504
   979.2500      0.0000    786.6122      7.7271    106.3036
   979.5000      0.0000    773.7845      7.7134    111.4366
   979.7500      0.0000    763.5228      7.6977    116.2727
   980.0000      0.0000    756.9777      7.6816    120.6876
   980.2500      0.0000    753.9575      7.6588    124.6643
   980.5000      0.0000    753.8701      7.6264    127.9053
   980.7500      0.0000    756.6811      7.5900    129.8304
   981.0000      0.0000    762.8536      7.5576    130.4568
   981.2500      0.0000    772.2996      7.5308    130.7402
   981.5000      0.0000    783.4009      7.5041    131.5508
   981.7500      0.0000    793.1185      7.4690    132.8544
   982.0000      0.0000    798.2872      7.4183    134.2752
   982.2500      0.0000    797.5671      7.3529    135.6212
   982.5000      0.0000    792.8986      7.2853    136.3205
   982.7500      0.0000    788.5875      7.2347    135.3522
   983.0000      0.0000    787.8203      7.2130    132.4526
   983.2500      0.0000    790.0156      7.2174    128.7646
   983.5000      0.0000    791.8185      7.2379    125.8472
   983.7500      0.0000    790.1907      7.2646    124.3508
   984.0000      0.0000    784.4387      7.2877    123.7997
   984.2500      0.0000    775.8775      7.2977    123.3992
   984.5000      0.0000    764.9206      7.2923    122.6607
   984.7500      0.0000    747.7993      7.2831    121.0498
   985.0000      0.0000    718.4562      7.2893    117.5149
   985.2500      0.0000    677.4855      7.3219    111.3166
   985.5000      0.0000    638.9179      7.3743    103.5704
   985.7500      0.0000    623.4591      7.4264     97.2671
   986.0000      0.0000    641.7216      7.4581     95.1317
   986.2500      0.0000    684.7956      7.4619     97.5179
   986.5000      0.0000    732.1321      7.4439    102.4389
   986.7500      0.0000    767.1910      7.4144    107.3876
   987.0000      0.0000    785.1290      7.3787    110.9755
   987.2500      0.0000    789.4442      7.3371    113.1218
   987.5000      0.0000    786.0480      7.2912    114.3674
   987.7500      0.0000    780.7991      7.2466    115.4257
   988.0000      0.0000    778.6238      7.2081    116.9324
   988.2500      0.0000    781.6408      7.1748    119.0528
   988.5000      0.0000    788.1336      7.1428    121.5616
   988.7500      0.0000    794.6368      7.1111    124.6381
   989.0000      0.0000    798.9698      7.0811    129.1400
   989.2500      0.0000    801.0853      7.0543    135.5258
   989.5000      0.0000    801.8754      7.0350    142.5973
   989.7500      0.0000    802.0234      7.0329    147.8416
   990.0000      0.0000    801.7456      7.0576    149.4166
   990.2500      0.0000    800.9426      7.1042    147.6200
   990.5000      0.0000    799.2647      7.1504    143.8920
   990.7500      0.0000    796.1832      7.1709    138.7358
   991.0000      0.0000    791.4321      7.1556    131.5372
   991.2500      0.0000    785.7484      7.1145    122.2520
   991.5000      0.0000    780.8306      7.0696    112.3677
   991.7500      0.0000    777.8467      7.0450    104.1734
   992.0000      0.0000    775.9963      7.0595     99.4713
   992.2500      0.0000    773.2074      7.1207     98.8567
   992.5000      0.0000    768.2592      7.2220    101.7053
   992.7500      0.0000    761.3459      7.3459    106.4734
   993.0000      0.0000    752.5617      7.4715    110.9771
   993.2500      0.0000    740.8004      7.5766    113.0175
   993.5000      0.0000    725.0822      7.6380    111.5521
   993.7500      0.0000    707.4207      7.6400    107.4975
   994.0000      0.0000    694.1295      7.5882    103.1578
   994.2500      0.0000    692.6931      7.5119    100.7083
   994.5000      0.0000    705.5781      7.4473    100.9569
   994.7500      0.0000    727.4901      7.4144    103.1588
   995.0000      0.0000    749.7968      7.4098    105.9415
   995.2500      0.0000    767.0056      7.4186    108.5708
   995.5000      0.0000    778.5169      7.4298    111.3002
   995.7500      0.0000    785.8424      7.4418    114.4796
   996.0000      0.0000    789.9616      7.4562    117.7799
   996.2500      0.0000    791.2887      7.4724    120.6441
   996.5000      0.0000    790.7918      7.4892    123.0278
   996.7500      0.0000    789.7631      7.5059    125.1613
   997.0000      0.0000    788.0583      7.5210    126.8311
   997.2500      0.0000    783.0502      7.5316    127.5221
   997.5000      0.0000    771.3714      7.5374    127.2097
   997.7500      0.0000    752.3027      7.5438    126.6436
   998.0000      0.0000    729.3637      7.5547    126.6952
