~Version Information
VERS.                      2.0: CWLS Log ASCII Standard - VERSION 2.0
WRAP.                       NO: One line per depth step
~Well Information Block
STRT.FT                -6.7500: 
STOP.FT              2027.0000: 
STEP.FT                 0.2500: 
NULL.                -999.2500: 
COMP.          Pioneer Natural Resources: COMPANY
WELL.             Fleming 11-2: WELL
FLD.           Purgatorie River: FIELD
LOC.           534' FNL & 160' FWL--: LOCATION
CNTY.               Las Animas: COUNTY
SRVC.          Patterson Wireline: SERVICE COMPANY
DATE.          Thu Jul 13 10:28:00 2006: LOG DATE
UWI.           05 071 08491 00: UNIQUE WELL ID
STAT.                       CO: STATE
~Curve Information Block
DEPT.FT            0 000 00 00: Depth
CCL.                          : Casing Collar Locator
TT3.usec                      : CBL 3' Travel Time
AMP3.mV                       : CBL 3' Amplitude
GR.GAPI                       : Gamma Ray
~Parameter Information Block
~A  Depth       CCL         TT3         AMP3         GR     
# ...
  1601.2500      0.0000    659.1897      4.2853    140.3533
  1601.5000      0.0000    660.3936      4.3187    143.6982
  1601.7500      0.0000    660.9158      4.3462    145.5573
  1602.0000      0.0000    660.6837      4.3598    145.2618
  1602.2500      0.0000    659.8358      4.3560    143.5803
  1602.5000      0.0000    658.0819      4.3367    141.9357
  1602.7500      0.0000    654.6455      4.3072    141.5178
  1603.0000      0.0000    648.6592      4.2756    142.8036
  1603.2500      0.0000    639.7984      4.2521    145.3578
  1603.5000      0.0000    629.0759      4.2429    147.7270
  1603.7500      0.0000    618.7828      4.2459    147.9665
  1604.0000      0.0000    610.8605      4.2554    145.1700
  1604.2500      0.0000    604.9976      4.2690    140.5736
  1604.5000      0.0000    598.8943      4.2890    136.7574
  1604.7500      0.0000    590.5226      4.3152    135.7023
  1605.0000      0.0000    579.6538      4.3404    137.4772
  1605.2500      0.0000    567.4847      4.3526    140.3661
  1605.5000      0.0000    555.9221      4.3442    142.1296
  1605.7500      0.0000    547.6326      4.3189    141.5431
  1606.0000      0.0000    546.1926      4.2910    139.1432
  1606.2500      0.0000    555.1980      4.2758    136.6644
  1606.5000      0.0000    575.6791      4.2802    135.8120
  1606.7500      0.0000    603.5176      4.2997    137.3643
  1607.0000      0.0000    630.7103      4.3252    140.9283
  1607.2500      0.0000    650.5157      4.3523    145.1643
  1607.5000      0.0000    661.1126      4.3842    148.2424
  1607.7500      0.0000    664.4455      4.4242    148.5016
  1608.0000      0.0000    663.0367      4.4666    145.2424
  1608.2500      0.0000    658.3231      4.4962    139.0575
  1608.5000      0.0000    651.1726      4.4995    131.2446
  1608.7500      0.0000    643.2723      4.4748    122.7275
  1609.0000      0.0000    637.7659      4.4302    113.5718
  1609.2500      0.0000    637.6898      4.3746    103.7221
  1609.5000      0.0000    643.1934      4.3122     94.1302
  1609.7500      0.0000    650.9956      4.2495     86.6965
  1610.0000      0.0000    657.2532      4.2030     82.9313
  1610.2500      0.0000    660.5789      4.1934     83.0179
  1610.5000      0.0000    662.0793      4.2257     86.3703
  1610.7500      0.0000    663.2874      4.2763     92.6175
  1611.0000      0.0000    664.7205      4.3059    101.5632
  1611.2500      0.0000    666.0747      4.2896    112.4116
  1611.5000      0.0000    667.0221      4.2326    123.4865
  1611.7500      0.0000    667.5385      4.1594    132.8458
  1612.0000      0.0000    667.7433      4.0919    139.2120
  1612.2500      0.0000    667.6373      4.0412    142.3560
  1612.5000      0.0000    666.9151      4.0128    142.6431
  1612.7500      0.0000    664.6711      4.0100    140.6994
  1613.0000      0.0000    659.2426      4.0270    137.8335
  1613.2500      0.0000    648.6421      4.0404    136.0290
  1613.5000      0.0000    632.0060      4.0163    136.5260
  1613.7500      0.0000    611.2616      3.9318    138.4553
  1614.0000      0.0000    591.4092      3.7954    139.4943
  1614.2500      0.0000    578.3191      3.6480    138.2874
  1614.5000      0.0000    575.2213      3.5424    136.1763
  1614.7500      0.0000    580.4749      3.5102    135.9736
  1615.0000      0.0000    588.7937      3.5397    138.7060
  1615.2500      0.0000    595.8556      3.5876    142.1037
  1615.5000      0.0000    602.7869      3.6199    142.6259
  1615.7500      0.0000    614.9749      3.6396    138.5810
  1616.0000      0.0000    635.6042      3.6704    131.2953
  1616.2500      0.0000    661.9342      3.7221    123.9047
  1616.5000     -2.0000    688.2997      3.7779    119.2265
  1616.7500      2.0000    709.7449      3.8127    118.2499
  1617.0000      0.0000    722.1318      3.8190    119.8961
  1617.2500      0.0000    722.6146      3.8173    121.9131
  1617.5000      0.0000    712.0314      3.8357    122.3067
  1617.7500      0.0000    694.6240      3.8796    120.5432
  1618.0000      0.0000    674.4430      3.9296    117.7013
  1618.2500      0.0000    652.3253      3.9802    115.3840
  1618.5000      0.0000    625.8046      4.0593    114.4545
  1618.7500      0.0000    591.9554      4.1928    114.7693
  1619.0000      0.0000    551.9794      4.3627    115.7450
  1619.2500      0.0000    513.1465      4.5176    116.7683
  1619.5000      0.0000    484.7755      4.6175    117.1782
  1619.7500      0.0000    471.4370      4.6577    116.3098
  1620.0000      0.0000    469.8524      4.6552    113.8706
  1620.2500      0.0000    471.4919      4.6272    110.3130
  1620.5000      0.0000    468.6190      4.5849    106.5853
  1620.7500      0.0000    459.5117      4.5384    103.3892
  1621.0000      0.0000    448.2305      4.5001    100.8631
  1621.2500      0.0000    439.0942      4.4781     98.9335
  1621.5000      0.0000    432.6256      4.4673     97.6635
  1621.7500      0.0000    427.5031      4.4537     97.3704
  1622.0000      0.0000    424.5171      4.4310     98.5604
  1622.2500      0.0000    426.6605      4.4101    101.3544
  1622.5000      0.0000    435.7486      4.4062    104.7026
  1622.7500      0.0000    449.8876      4.4225    106.6162
  1623.0000      0.0000    464.3932      4.4498    105.6903
  1623.2500      0.0000    475.1203      4.4817    102.2858
  1623.5000      0.0000    481.1226      4.5206     98.0204
  1623.7500      0.0000    484.3412      4.5678     94.1979
  1624.0000      0.0000    487.2331      4.6138     90.8450
  1624.2500      0.0000    491.2477      4.6414     87.1065
  1624.5000      0.0000    497.1458      4.6391     82.3023
  1624.7500      0.0000    505.3175      4.6087     76.4722
  1625.0000      0.0000    514.8862      4.5633     70.0796
  1625.2500      0.0000    523.1301      4.5171     63.7199
  1625.5000      0.0000    526.8376      4.4781     58.3064
  1625.7500      0.0000    524.6694      4.4475     54.8942
  1626.0000      0.0000    518.4508      4.4247     53.7547
  1626.2500      0.0000    512.5397      4.4083     54.0218
  1626.5000      0.0000    511.8448      4.3961     54.6449
  1626.7500      0.0000    519.5952      4.3854     55.2712
  1627.0000      0.0000    535.8637      4.3745     55.9725
  1627.2500      0.0000    557.6199      4.3629     56.6665
  1627.5000      0.0000    580.4860      4.3496     57.0423
  1627.7500      0.0000    600.8741      4.3347     56.6169
  1628.0000      0.0000    616.6204      4.3211     54.8743
  1628.2500      0.0000    626.1292      4.3127     51.9297
  1628.5000      0.0000    627.2433      4.3111     48.9758
  1628.7500      0.0000    616.9147      4.3140     47.3277
  1629.0000      0.0000    592.8658      4.3161     46.8871
  1629.2500      0.0000    557.5510      4.3102     46.1579
  1629.5000      0.0000    520.9427      4.2908     44.0528
  1629.7500      0.0000    497.2364      4.2577     41.3215
  1630.0000      0.0000    496.1035      4.2180     39.9696
  1630.2500      0.0000    515.3423      4.1823     41.4716
  1630.5000      0.0000    541.2254      4.1579     45.4751
  1630.7500      0.0000    557.2948      4.1459     49.9547
  1631.0000      0.0000    555.9486      4.1428     52.7812
  1631.2500      0.0000    543.2115      4.1445     53.4433
  1631.5000      0.0000    531.5469      4.1470     53.0618
  1631.7500      0.0000    527.5338      4.1469     52.7389
  1632.0000      0.0000    527.1187      4.1429     52.3668
  1632.2500      0.0000    522.5890      4.1358     51.0435
  1632.5000      0.0000    512.4206      4.1258     48.1124
  1632.7500      0.0000    503.3864      4.1100     43.7262
  1633.0000      0.0000    503.5877      4.0830     38.8072
  1633.2500      0.0000    513.8333      4.0415     34.6158
  1633.5000      0.0000    525.2975      3.9864     32.1052
  1633.7500      0.0000    525.6896      3.9267     31.5126
  1634.0000      0.0000    508.8520      3.8787     32.5303
  1634.2500      0.0000    479.1242      3.8585     34.8771
  1634.5000      0.0000    446.9938      3.8689     38.6770
