~Version Information
VERS.                      2.0: CWLS Log ASCII Standard - VERSION 2.0
WRAP.                       NO: One line per depth step
~Well Information Block
STRT.FT               845.0000: 
STOP.FT              2102.0000: 
STEP.FT                 0.1000: 
NULL.                -999.2500: 
COMP.          Petrogulf Corporation: COMPANY
WELL.               YWAM 7-32R: WELL
FLD.           Purgatorie River: FIELD
LOC.           2355' FNL & 2376' FEL: LOCATION
PROV.                 Colorado: PROVINCE
CNTY.               Las Animas: COUNTRY
SRVC.                Patterson: SERVICE COMPANY
DATE.          Fri Sep 30 11:07:31 2005: LOG DATE
UWI.                          : UNIQUE WELL ID
~Curve Information Block
DEPT.FT            0 000 00 00: Depth
DCAL.in                       : CDL Caliper
RHOB.g/cc                     : CDL Bulk Density
RHOC.g/cc                     : CDL Density Correction
DPOR.pu                       : CDL Density Porosity
GR.GAPI                       : Gamma Ray
NPOR.pu                       : Neutron Porosity
~Parameter Information Block
~A  Depth       DCAL        RHOB        RHOC        DPOR         GR         NPOR    
# ...
  1171.4000      8.8249      1.2327      0.0081     85.8944     12.9578     33.7978
  1171.5000      8.8068      1.2373      0.0278     85.6176     11.4864     33.3640
  1171.6000      8.8068      1.2412      0.0334     85.3798     10.5182     33.3634
  1171.7000      8.8068      1.2384      0.0464     85.5500     11.0870     33.5968
  1171.8000      8.8105      1.2318      0.0349     85.9536     13.2780     33.6510
  1171.9000      8.8105      1.2344      0.0154     85.7910     15.7553     33.4421
  1172.0000      8.8983      1.2564      0.0317     84.4625     16.9231     33.3642
  1172.1000      8.8983      1.2916      0.0697     82.3254     17.4511     33.6809
  1172.2000      8.8983      1.3229      0.0935     80.4314     18.2827     34.0075
  1172.3000      8.7468      1.3367      0.0834     79.5929     18.4472     34.0274
  1172.4000      8.7468      1.3347      0.0473     79.7137     18.3468     33.9097
  1172.5000      8.6991      1.3264      0.0381     80.2197     19.6529     33.7443
  1172.6000      8.6991      1.3151      0.0504     80.9010     21.9470     33.5855
  1172.7000      8.6991      1.3016      0.0209     81.7200     25.1839     33.5565
  1172.8000      8.7120      1.2918      0.0025     82.3171     29.7069     33.5834
  1172.9000      8.7120      1.2885      0.0075     82.5133     33.0776     33.5790
  1173.0000      8.6503      1.2858      0.0202     82.6805     33.6374     33.5714
  1173.1000      8.6503      1.2832     -0.0131     82.8346     33.3022     33.4403
  1173.2000      8.6503      1.2961     -0.0019     82.0544     34.8519     33.0977
  1173.3000      8.6090      1.3428      0.0085     79.2268     38.8545     32.8848
  1173.4000      8.6090      1.4332      0.0107     73.7483     43.6189     33.1349
  1173.5000      8.5955      1.5623      0.0743     65.9194     47.9959     33.6556
  1173.6000      8.5955      1.7104      0.1489     56.9478     52.9057     33.9174
  1173.7000      8.5955      1.8540      0.1858     48.2453     62.1462     33.7825
  1173.8000      8.6050      1.9773      0.2304     40.7704     77.1879     33.5155
  1173.9000      8.6050      2.0820      0.1848     34.4219     94.0311     33.3511
  1174.0000      8.6831      2.1842      0.1935     28.2328    106.7351     33.4135
  1174.1000      8.6831      2.2865      0.1770     22.0293    113.0082     33.5831
  1174.2000      8.6831      2.3745      0.1314     16.6969    116.5631     33.6138
  1174.3000      8.6877      2.4415      0.0680     12.6384    120.8416     33.4598
  1174.4000      8.6877      2.4940      0.0530      9.4526    126.8522     33.1101
  1174.5000      8.6926      2.5312      0.0677      7.2025    135.2537     32.5672
  1174.6000      8.6926      2.5430      0.0674      6.4862    142.7462     31.9055
  1174.7000      8.6926      2.5328      0.0317      7.1031    146.5559     31.3005
  1174.8000      8.5599      2.5176      0.0049      8.0271    148.8074     30.9187
  1174.9000      8.5599      2.5053      0.0009      8.7677    147.5447     30.5058
  1175.0000      8.5042      2.4944     -0.0073      9.4279    141.2091     29.8693
  1175.1000      8.5042      2.4908     -0.0309      9.6462    136.7086     29.2396
  1175.2000      8.5042      2.4971      0.0316      9.2640    139.5840     28.7541
  1175.3000      8.4922      2.5015     -0.0105      8.9975    146.3526     28.3982
  1175.4000      8.4922      2.5025     -0.0579      8.9399    151.3155     28.2333
  1175.5000      8.4863      2.5064      0.0268      8.7034    155.6452     28.2912
  1175.6000      8.4863      2.5048      0.0321      8.8013    161.9337     28.3082
  1175.7000      8.4863      2.4906      0.0261      9.6614    168.2808     28.0301
  1175.8000      8.4673      2.4765     -0.0447     10.5173    170.6303     27.6069
  1175.9000      8.4673      2.4781     -0.0148     10.4166    166.8421     27.4364
  1176.0000      8.4551      2.4932      0.0077      9.5057    160.8189     27.6623
  1176.1000      8.4551      2.5062      0.0206      8.7140    158.3823     27.9055
  1176.2000      8.4551      2.5056      0.0497      8.7489    158.8671     27.7624
  1176.3000      8.4565      2.5006     -0.0475      9.0543    158.1076     27.2542
  1176.4000      8.4565      2.5104      0.0063      8.4592    154.9007     26.6454
  1176.5000      8.4378      2.5285      0.0278      7.3622    148.0391     26.2706
  1176.6000      8.4378      2.5337      0.0436      7.0512    140.9979     26.3524
  1176.7000      8.4378      2.5234      0.0331      7.6712    139.4600     26.7096
  1176.8000      8.4272      2.5152      0.0039      8.1704    141.1671     26.9005
  1176.9000      8.4272      2.5254     -0.0007      7.5487    141.6427     26.7422
  1177.0000      8.4159      2.5484      0.0592      6.1562    141.2054     26.6930
  1177.1000      8.4159      2.5598      0.0756      5.4641    140.6903     27.1491
  1177.2000      8.4159      2.5509      0.0475      6.0039    138.5399     27.6697
  1177.3000      8.4151      2.5356      0.0433      6.9341    135.8669     27.8274
  1177.4000      8.4151      2.5248     -0.0057      7.5865    135.6190     27.7714
  1177.5000      8.4073      2.5184      0.0195      7.9739    138.1380     27.6192
  1177.6000      8.4073      2.5153     -0.0183      8.1636    141.9359     27.3145
  1177.7000      8.4073      2.5229     -0.0156      7.7041    144.7466     26.9058
  1177.8000      8.3875      2.5456      0.0210      6.3246    144.8843     26.5281
  1177.9000      8.3875      2.5728      0.0674      4.6807    143.1766     26.4113
  1178.0000      8.3890      2.5876      0.0544      3.7848    141.9176     26.6717
  1178.1000      8.3890      2.5845      0.0804      3.9669    142.0242     27.1364
  1178.2000      8.3890      2.5751      0.0208      4.5424    143.9895     27.5800
  1178.3000      8.3814      2.5728      0.0374      4.6759    148.8463     27.9107
  1178.4000      8.3814      2.5855     -0.0129      3.9079    153.4281     28.0570
  1178.5000      8.3745      2.6184      0.0035      1.9160    152.7780     27.8782
  1178.6000      8.3745      2.6647      0.0160     -0.8901    146.6939     27.4316
  1178.7000      8.3745      2.7112      0.0383     -3.7075    137.8415     27.0224
  1178.8000      8.3483      2.7511      0.0602     -6.1256    129.3898     26.8718
  1178.9000      8.3483      2.7806      0.0833     -7.9153    122.7861     26.8296
  1179.0000      8.3333      2.7979      0.0456     -8.9655    116.5670     26.6676
  1179.1000      8.3333      2.8061      0.0462     -9.4582    111.4001     26.4716
  1179.2000      8.3333      2.8071      0.0161     -9.5192    110.4224     26.3032
  1179.3000      8.3474      2.7925      0.0354     -8.6392    113.0363     26.1337
  1179.4000      8.3474      2.7455     -0.0164     -5.7852    114.5051     26.0860
  1179.5000      8.3235      2.6729     -0.0863     -1.3888    112.0337     26.1736
  1179.6000      8.3235      2.6132     -0.1506      2.2308    109.3336     26.1597
  1179.7000      8.3235      2.5838     -0.1183      4.0143    110.9498     25.7610
  1179.8000      8.3251      2.5664     -0.0453      5.0681    115.8692     24.9792
  1179.9000      8.3251      2.5516     -0.0456      5.9657    121.7859     24.0508
  1180.0000      8.3003      2.5442      0.0040      6.4116    127.5102     23.3783
  1180.1000      8.3003      2.5423     -0.0037      6.5292    130.2539     23.2621
  1180.2000      8.3003      2.5440      0.0292      6.4256    128.4770     23.4471
  1180.3000      8.3181      2.5500      0.0227      6.0614    123.6658     23.6366
  1180.4000      8.3181      2.5593      0.0073      5.4984    120.1364     23.9777
  1180.5000      8.3167      2.5645      0.0468      5.1815    121.2120     24.4435
  1180.6000      8.3167      2.5591      0.0124      5.5104    125.1187     24.7298
  1180.7000      8.3167      2.5481      0.0111      6.1764    128.0832     24.7333
  1180.8000      8.3226      2.5435      0.0090      6.4551    128.2188     24.6020
  1180.9000      8.3226      2.5558     -0.0246      5.7072    127.5291     24.4273
