~Version Information
VERS.                      2.0: CWLS Log ASCII Standard - VERSION 2.0
WRAP.                       NO: One line per depth step
~Well Information Block
STRT.FT               585.0000: 
STOP.FT              2277.5000: 
STEP.FT                 0.1000: 
NULL.                -999.2500: 
COMP.          Pioneer Natural Resources: COMPANY
WELL.          Interceptor 43-13 Tr: WELL
FLD.           Purgatoire River: FIELD
LOC.           2006' FSL & 438' FEL: LOCATION
PROV.                 Colorado: PROVINCE
CNTY.               Las Animas: COUNTRY
SRVC.                Patterson: SERVICE COMPANY
DATE.          Mon Oct 17 07:15:06 2005: LOG DATE
UWI.           05 071 08549 00: UNIQUE WELL ID
~Curve Information Block
DEPT.FT            0 000 00 00: Depth
DCAL.in                       : CDL Caliper
RHOB.g/cc                     : CDL Bulk Density
RHOC.g/cc                     : CDL Density Correction
DPOR.pu                       : CDL Density Porosity
GR.GAPI                       : Gamma Ray
NPOR.pu                       : Neutron Porosity
~Parameter Information Block
~A  Depth       DCAL        RHOB        RHOC        DPOR         GR         NPOR    
# ...
   700.2000      8.2006      2.5502      0.0343      6.0463    110.9136     26.0359
   700.3000      8.1830      2.5404      0.0421      6.6401    113.2985     26.4205
   700.4000      8.1830      2.5338      0.0129      7.0431    111.2002     26.6834
   700.5000      8.1452      2.5398      0.0523      6.6775    106.4109     26.6645
   700.6000      8.1452      2.5540      0.0205      5.8167    100.2006     26.4076
   700.7000      8.1452      2.5725      0.0204      4.6967     95.1030     26.2180
   700.8000      8.1246      2.5859      0.0565      3.8828     93.4941     26.1930
   700.9000      8.1246      2.5774      0.0377      4.3973     93.4110     26.1977
   701.0000      8.0924      2.5556     -0.0031      5.7203     92.7282     26.1806
   701.1000      8.0924      2.5507      0.0118      6.0163     92.3527     26.1931
   701.2000      8.0924      2.5683      0.0483      4.9542     93.8153     26.0684
   701.3000      8.0612      2.5903      0.0932      3.6165     95.8840     25.7542
   701.4000      8.0612      2.6013      0.0978      2.9501     98.6619     25.6005
   701.5000      8.0908      2.5962      0.0586      3.2599    104.3723     25.5730
   701.6000      8.0908      2.5797      0.0715      4.2610    109.2119     25.4391
   701.7000      8.0908      2.5630     -0.0010      5.2724    109.0113     25.3408
   701.8000      8.0977      2.5592      0.0426      5.5000    104.9734     25.3995
   701.9000      8.0977      2.5601      0.0823      5.4469    100.9805     25.4486
   702.0000      8.0852      2.5515      0.0601      5.9712     98.3860     25.3384
   702.1000      8.0852      2.5456      0.0343      6.3272     95.8489     25.1323
   702.2000      8.0852      2.5525      0.0729      5.9093     97.4734     25.0418
   702.3000      8.0338      2.5608      0.0350      5.4083    104.6181     25.1398
   702.4000      8.0338      2.5654      0.0344      5.1252    107.8629     25.2164
   702.5000      8.0119      2.5658      0.0513      5.1015    103.7917     25.3770
   702.6000      8.0119      2.5541      0.0343      5.8133    100.5598     25.6721
   702.7000      8.0119      2.5377      0.0179      6.8083    102.7476     25.7808
   702.8000      8.0184      2.5334      0.0408      7.0663    106.5842     25.8811
   702.9000      8.0184      2.5406      0.0200      6.6333    107.4172     26.3331
   703.0000      8.0167      2.5464      0.0499      6.2812    105.4012     26.8639
   703.1000      8.0167      2.5432      0.0183      6.4751    103.6989     27.1246
   703.2000      8.0167      2.5353      0.0113      6.9538    104.4837     26.9940
   703.3000      8.0225      2.5323     -0.0159      7.1321    106.8174     26.6160
   703.4000      8.0225      2.5368      0.0150      6.8629    108.5890     26.2369
   703.5000      8.0276      2.5385      0.0413      6.7588    109.0480     25.9029
   703.6000      8.0276      2.5347     -0.0119      6.9893    109.3818     25.7203
   703.7000      8.0276      2.5380      0.0101      6.7906    111.4421     25.7934
   703.8000      8.0472      2.5606      0.0153      5.4152    111.9334     25.8187
   703.9000      8.0472      2.5965      0.0573      3.2443    107.1230     25.3934
   704.0000      8.0834      2.6127      0.0751      2.2629     99.8333     24.8226
   704.1000      8.0834      2.5947      0.0605      3.3512     94.8345     24.9122
   704.2000      8.0834      2.5798     -0.0177      4.2544     94.2655     25.5297
   704.3000      8.0899      2.5980      0.0583      3.1504     96.8667     25.8080
   704.4000      8.0899      2.6215      0.1020      1.7282    101.9799     25.4862
   704.5000      8.0721      2.6212      0.0184      1.7426    108.5136     24.9283
   704.6000      8.0721      2.6085      0.0439      2.5134    110.7267     24.4077
   704.7000      8.0721      2.5929      0.0717      3.4603    104.3641     23.9790
   704.8000      8.0762      2.5710      0.0291      4.7872     95.7845     23.7154
   704.9000      8.0762      2.5511      0.0114      5.9965     91.8340     23.5215
   705.0000      8.0785      2.5493      0.0115      6.1024     90.9829     23.2217
   705.1000      8.0785      2.5688      0.0375      4.9222     92.6390     22.9598
   705.2000      8.0785      2.5904      0.0719      3.6146     97.8870     23.1702
   705.3000      8.0444      2.5916      0.0828      3.5369    103.8502     23.8398
   705.4000      8.0444      2.5717      0.0643      4.7448    107.0248     24.1571
   705.5000      8.0346      2.5513      0.0281      5.9789    109.0438     23.6496
   705.6000      8.0346      2.5471      0.0458      6.2349    114.8256     22.9500
   705.7000      8.0346      2.5526      0.0773      5.9031    123.0126     22.6775
   705.8000      8.0714      2.5528      0.0733      5.8927    124.8946     22.5927
   705.9000      8.0714      2.5445      0.0335      6.3929    120.0947     22.3879
   706.0000      8.1176      2.5316      0.0460      7.1785    115.8126     21.9565
   706.1000      8.1176      2.5147      0.0458      8.1999    115.7307     21.1574
   706.2000      8.1176      2.4974      0.0350      9.2503    119.5256     20.2415
   706.3000      8.1092      2.4873      0.0269      9.8603    125.1726     19.6250
   706.4000      8.1092      2.4863      0.0261      9.9209    129.4491     19.4163
   706.5000      8.0996      2.4822      0.0613     10.1674    128.3669     19.5223
   706.6000      8.0996      2.4675      0.0084     11.0579    123.2876     19.5567
   706.7000      8.0996      2.4561     -0.0114     11.7518    119.0112     19.2520
   706.8000      8.0937      2.4578      0.0354     11.6503    117.2360     19.0741
   706.9000      8.0937      2.4631      0.0397     11.3254    117.3711     19.2843
   707.0000      8.0815      2.4632      0.0676     11.3198    118.4828     19.5209
   707.1000      8.0815      2.4651      0.0459     11.2052    121.1625     19.6438
   707.2000      8.0815      2.4850      0.0438      9.9999    125.0779     19.9822
   707.3000      8.0818      2.5222      0.1165      7.7465    127.4661     20.7432
   707.4000      8.0818      2.5519      0.1572      5.9467    126.4362     21.6355
   707.5000      8.0841      2.5594      0.1137      5.4919    121.7556     22.0809
   707.6000      8.0841      2.5572      0.1085      5.6224    115.6777     21.9048
   707.7000      8.0841      2.5546      0.1258      5.7836    114.0185     21.4779
   707.8000      8.0466      2.5534      0.0770      5.8520    118.8343     21.1463
   707.9000      8.0466      2.5578      0.1010      5.5858    125.3594     21.1381
   708.0000      8.0349      2.5625      0.0689      5.3040    131.1071     21.8409
   708.1000      8.0349      2.5628      0.0892      5.2845    135.6668     23.1883
   708.2000      8.0349      2.5564      0.1190      5.6737    136.6501     24.3760
   708.3000      8.0276      2.5428      0.0764      6.4980    136.2682     24.8788
   708.4000      8.0276      2.5365      0.0851      6.8806    138.2097     24.8691
   708.5000      8.0152      2.5497      0.0957      6.0805    140.3419     24.6594
   708.6000      8.0152      2.5726      0.1129      4.6882    139.4488     24.3856
   708.7000      8.0152      2.5889      0.1275      3.7042    139.5627     24.3755
   708.8000      8.0300      2.5979      0.0463      3.1590    145.4939     24.9914
   708.9000      8.0300      2.6013      0.1156      2.9542    151.9384     25.7639
   709.0000      8.0444      2.5892      0.0929      3.6832    151.6244     26.0156
   709.1000      8.0444      2.5709      0.0324      4.7945    146.5135     25.8571
   709.2000      8.0444      2.5679      0.0754      4.9769    147.3519     25.7364
   709.3000      8.0312      2.5776      0.0626      4.3908    154.9668     25.6930
   709.4000      8.0312      2.5833      0.0603      4.0403    157.7677     25.7016
   709.5000      8.0490      2.5787      0.0725      4.3188    153.9839     25.8658
   709.6000      8.0490      2.5681      0.0578      4.9628    148.6109     26.0174
   709.7000      8.0490      2.5580      0.0422      5.5736    141.3315     26.1148
