~Version Information
VERS.                      2.0: CWLS Log ASCII Standard - VERSION 2.0
WRAP.                       NO: One line per depth step
~Well Information Block
STRT.FT                 0.0000: 
STOP.FT               683.5000: 
STEP.FT                 0.2500: 
NULL.                -999.2500: 
COMP.          Pioneer Natural Resources: COMPANY
WELL.           Belvedere 14-7: WELL
FLD.           Purgatorie River: FIELD
LOC.           786' FSL & 1283' FWL: LOCATION
PROV.                 Colorado: PROVINCE
CNTY.               Las Animas: COUNTRY
SRVC.                Patterson: SERVICE COMPANY
DATE.          Fri Dec 02 12:52:31 2005: LOG DATE
UWI.           05-071-08557               : UNIQUE WELL ID
~Curve Information Block
DEPT.FT            0 000 00 00: Depth
CCL.                          : Casing Collar Locator
TT3.usec                      : CBL 3' Travel Time
AMP3.mV                       : CBL 3' Amplitude
GR.GAPI                       : Gamma Ray
~Parameter Information Block
~A  Depth       CCL         TT3         AMP3         GR     
# ...
   536.0000      0.0000    706.0601     11.2984     73.4375
   536.2500      0.0000    703.7098     11.1853     76.3545
   536.5000      0.0000    705.3947     11.0950     77.7039
   536.7500      0.0000    709.2688     11.0251     77.3407
   537.0000      0.0000    710.5320     10.9553     75.4402
   537.2500      0.0000    706.1480     10.8486     72.3195
   537.5000      0.0000    700.1261     10.6835     68.5823
   537.7500      0.0000    698.7713     10.4622     65.0959
   538.0000      0.0000    700.8245     10.1919     62.7301
   538.2500      0.0000    699.0807      9.8919     62.0200
   538.5000      0.0000    691.5540      9.6111     62.8185
   538.7500      0.0000    683.3499      9.4132     64.1946
   539.0000      0.0000    678.5673      9.3304     64.8526
   539.2500      0.0000    676.8754      9.3183     63.9198
   539.5000      0.0000    676.4797      9.2894     61.5847
   539.7500      0.0000    676.3573      9.1947     59.0505
   540.0000      0.0000    676.2596      9.0498     57.7149
   540.2500      0.0000    676.2461      8.9009     58.2625
   540.5000      0.0000    676.3636      8.7874     60.4564
   540.7500      0.0000    676.5223      8.7248     63.5793
   541.0000      0.0000    676.6063      8.7006     66.9020
   541.2500      0.0000    676.5978      8.6833     69.8066
   541.5000      0.0000    676.5217      8.6401     71.7099
   541.7500      0.0000    676.3639      8.5553     72.1738
   542.0000      0.0000    676.1122      8.4497     71.3117
   542.2500      0.0000    675.8639      8.3735     69.9372
   542.5000      0.0000    676.0094      8.3645     68.9584
   542.7500      0.0000    677.6324      8.4094     68.5709
   543.0000      0.0000    682.7517      8.4522     68.2817
   543.2500      0.0000    692.7303      8.4539     67.6819
   543.5000      0.0000    705.3073      8.4387     66.8593
   543.7500      0.0000    715.5492      8.4578     65.9819
   544.0000      0.0000    720.8326      8.5221     64.8899
   544.2500      0.0000    722.3378      8.6003     63.3095
   544.5000      0.0000    722.1054      8.6725     61.1758
   544.7500      0.0000    720.6241      8.7501     58.5773
   545.0000      0.0000    716.8362      8.8346     55.8078
   545.2500      0.0000    710.3190      8.9088     53.6816
   545.5000      0.0000    702.7354      8.9811     53.1845
   545.7500      0.0000    695.3725      9.0732     54.3742
   546.0000      0.0000    688.0438      9.1597     56.0788
   546.2500      0.0000    681.7482      9.1717     57.0818
   546.5000      0.0000    677.9631      9.0539     57.3488
   546.7500      0.0000    676.3409      8.8003     57.8466
   547.0000      0.0000    675.6796      8.4682     59.3316
   547.2500      0.0000    675.3126      8.1645     61.4011
   547.5000      0.0000    675.0790      7.9728     62.6864
   547.7500      0.0000    674.9269      7.8603     62.0916
   548.0000      0.0000    674.6517      7.6713     59.9269
   548.2500      0.0000    674.0168      7.2419     57.7171
   548.5000      0.0000    673.0455      6.5362     56.9952
   548.7500      0.0000    671.9481      5.6743     58.2761
   549.0000      0.0000    670.9316      4.8328     60.7953
   549.2500      0.0000    670.4460      4.1192     62.9593
   549.5000      0.0000    672.0556      3.5526     63.2535
   549.7500      0.0000    678.9258      3.1232     61.0343
   550.0000      0.0000    692.9431      2.8061     56.7718
   550.2500      0.0000    709.7955      2.5590     51.8480
   550.5000      0.0000    720.8543      2.3399     47.9183
   550.7500      0.0000    720.2576      2.1131     45.8715
   551.0000      0.0000    706.2026      1.8631     45.2858
   551.2500      0.0000    681.5923      1.6233     45.1032
   551.5000      0.0000    656.1674      1.4532     44.7302
   551.7500      0.0000    639.3527      1.3662     44.2334
   552.0000      0.0000    632.2313      1.3313     43.6195
   552.2500      0.0000    630.5074      1.3352     42.3772
   552.5000      0.0000    630.5863      1.3748     39.9502
   552.7500      0.0000    631.0289      1.4135     36.4063
   553.0000      0.0000    631.4614      1.3931     32.4885
   553.2500      0.0000    631.9086      1.2970     29.1660
   553.5000      0.0000    633.0128      1.1762     27.1204
   553.7500      0.0000    636.3864      1.0973     26.4224
   554.0000      0.0000    644.0620      1.1093     26.6752
   554.2500      0.0000    657.4105      1.2427     27.5497
   554.5000      0.0000    676.9758      1.5034     29.1943
   554.7500      0.0000    701.3552      1.8833     32.1895
   555.0000      0.0000    724.4636      2.3549     37.1797
   555.2500      0.0000    736.8832      2.8783     44.3938
   555.5000      0.0000    732.5854      3.4594     53.2476
   555.7500      0.0000    714.6427      4.1467     62.2664
   556.0000      0.0000    693.7227      4.9820     69.6155
   556.2500      0.0000    679.4299      5.9874     74.1805
   556.5000      0.0000    673.8240      7.1315     76.4347
   556.7500      0.0000    673.5490      8.2984     78.1417
   557.0000      0.0000    674.8646      9.3035     80.9331
   557.2500      0.0000    675.7383      9.9560     84.9825
   557.5000      0.0000    675.7490     10.2028     89.0649
   557.7500      0.0000    675.3370     10.1959     91.8593
   558.0000      0.0000    674.9440     10.1314     92.9857
   558.2500      0.0000    674.6759     10.0912     92.7285
   558.5000      0.0000    674.5075     10.0718     91.3062
   558.7500      0.0000    674.4449     10.0558     88.9356
   559.0000      0.0000    674.4616     10.0258     86.3551
   559.2500      0.0000    674.4753      9.9632     84.6682
   559.5000      0.0000    674.4229      9.8536     84.5287
   559.7500      0.0000    674.2739      9.6665     85.6146
   560.0000      0.0000    673.9959      9.3300     86.9802
   560.2500      0.0000    673.5656      8.7720     87.9613
   560.5000      0.0000    673.1316      8.0005     88.6679
   560.7500      0.0000    673.6069      7.1038     89.3269
   561.0000      0.0000    677.2391      6.1675     89.0340
   561.2500      0.0000    686.5409      5.2253     85.6569
   561.5000      0.0000    702.7743      4.3145     77.6358
   561.7500      0.0000    727.2485      3.5272     65.9491
   562.0000      0.0000    758.5121      2.9421     53.9177
   562.2500      0.0000    782.2460      2.5429     44.8838
   562.5000      0.0000    778.1980      2.2696     40.0888
   562.7500      0.0000    747.5811      2.1221     38.5392
   563.0000      0.0000    717.1314      2.1441     38.4901
   563.2500      0.0000    710.5388      2.3259     38.9704
   563.5000      0.0000    727.6729      2.6144     40.1926
   563.7500      0.0000    748.8251      3.0001     42.8668
   564.0000      0.0000    753.5588      3.4872     47.2953
   564.2500      0.0000    738.5853      3.9856     53.0187
   564.5000      0.0000    716.2361      4.4225     59.1404
   564.7500      0.0000    700.5360      4.9889     65.0353
   565.0000      0.0000    703.5363      5.8591     70.7231
   565.2500      0.0000    732.3048      6.6579     76.3467
   565.5000      0.0000    775.1570      6.9382     81.3131
   565.7500      0.0000    804.3830      6.9035     84.3084
   566.0000      0.0000    803.9868      6.9078     84.3524
   566.2500      0.0000    785.6321      6.9101     81.8288
   566.5000      2.0000    773.6811      6.7678     78.4316
   566.7500      0.0000    779.3271      6.5009     76.0687
   567.0000      0.0000    795.7681      6.2129     75.7347
   567.2500      0.0000    814.3580      6.0205     77.3008
   567.5000      0.0000    829.5992      6.1370     80.0996
   567.7500      0.0000    832.0899      6.7030     83.6013
   568.0000      0.0000    813.4068      7.3152     87.7524
   568.2500      0.0000    779.7235      7.4606     92.7968
   568.5000      0.0000    749.1379      7.3938     98.6008
   568.7500      0.0000    732.4075      7.5816    104.1670
   569.0000      0.0000    726.4543      7.9094    108.1014
   569.2500      0.0000    724.7027      8.0608    109.7548
