~Version Information
VERS.                      2.0: CWLS Log ASCII Standard - VERSION 2.0
WRAP.                       NO: One line per depth step
~Well Information Block
STRT.FT               260.8000: 
STOP.FT              1942.0000: 
STEP.FT                 0.1000: 
NULL.                -999.2500: 
COMP.          XTO Energy Inc.: COMPANY
WELL.          Golden Eagle 19-11: WELL
FLD.           Purgatoire River: FIELD
LOC.           2351' FSL & 1926' FWL--: LOCATION
CNTY.               Las Animas: COUNTY
SRVC.                Patterson: SERVICE COMPANY
DATE.          Thu Mar 09 08:41:38 2006: LOG DATE
UWI.           05 071 08696 00: UNIQUE WELL ID
STAT.                 Colorado: STATE
~Curve Information Block
DEPT.FT            0 000 00 00: Depth
DCAL.in                       : CDL Caliper
RHOB.g/cc                     : CDL Bulk Density
RHOC.g/cc                     : CDL Density Correction
DPOR.pu                       : CDL Density Porosity
NPOR.pu                       : Neutron Porosity
GR.GAPI                       : Gamma Ray
~Parameter Information Block
~A  Depth       DCAL        RHOB        RHOC        DPOR        NPOR         GR     
# ...
   702.4000      8.0560      2.5130      0.0685      8.3029     21.7977    137.8514
   702.5000      8.0572      2.5228      0.1010      7.7069     21.9070    133.1459
   702.6000      8.0572      2.5270      0.0745      7.4521     21.9286    130.3716
   702.7000      8.0572      2.5301      0.1132      7.2686     21.9015    130.6547
   702.8000      8.0598      2.5312      0.0890      7.2009     21.7467    133.4043
   702.9000      8.0598      2.5262      0.1289      7.5039     21.4405    138.5414
   703.0000      8.0604      2.5118      0.1058      8.3770     21.1754    142.5464
   703.1000      8.0604      2.5006      0.0177      9.0547     21.1787    140.6230
   703.2000      8.0604      2.5068      0.0644      8.6794     21.4733    139.1723
   703.3000      8.0598      2.5134      0.1007      8.2789     21.7237    142.7734
   703.4000      8.0598      2.4999      0.0605      9.0985     21.7273    143.2164
   703.5000      8.0589      2.4795      0.0419     10.3311     21.4499    137.6095
   703.6000      8.0589      2.4774      0.0649     10.4633     20.8407    132.6152
   703.7000      8.0589      2.4908      0.1020      9.6475     20.2447    132.5758
   703.8000      8.0521      2.4938      0.1156      9.4637     20.0894    134.8358
   703.9000      8.0521      2.4735      0.0680     10.6973     20.3929    133.3484
   704.0000      8.0375      2.4395      0.0423     12.7550     20.7670    127.5021
   704.1000      8.0375      2.4130     -0.0008     14.3626     20.8892    124.0364
   704.2000      8.0375      2.4106      0.0434     14.5070     20.9874    125.6733
   704.3000      8.0222      2.4288      0.0392     13.4039     21.4012    130.2329
   704.4000      8.0222      2.4579      0.0428     11.6405     21.8612    137.2927
   704.5000      8.0128      2.4927      0.0970      9.5318     21.9721    141.7431
   704.6000      8.0128      2.5218      0.0925      7.7713     22.0439    139.8752
   704.7000      8.0128      2.5335      0.0785      7.0605     22.3779    136.2499
   704.8000      8.0109      2.5296      0.0146      7.2979     22.8485    134.5669
   704.9000      8.0109      2.5171      0.0524      8.0524     23.3110    136.8012
   705.0000      8.0103      2.5017      0.0312      8.9894     23.6278    141.3014
   705.1000      8.0103      2.4910      0.0281      9.6378     23.4891    142.6902
   705.2000      8.0103      2.4800      0.0403     10.3004     22.9145    139.5697
   705.3000      8.0091      2.4579     -0.0171     11.6402     22.7207    133.9798
   705.4000      8.0091      2.4346     -0.0474     13.0526     23.1817    129.2169
   705.5000      8.0143      2.4288     -0.0092     13.4088     23.4984    131.0206
   705.6000      8.0143      2.4423      0.0262     12.5887     23.3299    140.1756
   705.7000      8.0143      2.4633      0.0228     11.3163     23.2112    149.5650
   705.8000      8.0280      2.4849      0.0064     10.0039     23.2920    152.3624
   705.9000      8.0280      2.5048      0.0607      8.7980     23.1813    148.2254
   706.0000      8.0398      2.5195      0.0862      7.9112     22.9043    141.1365
   706.1000      8.0398      2.5326      0.0476      7.1166     22.6295    135.6258
   706.2000      8.0398      2.5432      0.1070      6.4728     22.2725    136.0210
   706.3000      8.0477      2.5371      0.0785      6.8426     22.1080    143.2150
   706.4000      8.0477      2.5174      0.0518      8.0367     22.2716    150.5687
   706.5000      8.0554      2.5062      0.0643      8.7133     22.3397    151.0780
   706.6000      8.0554      2.5098      0.0920      8.4970     22.2640    147.9949
   706.7000      8.0554      2.5166      0.0927      8.0825     22.3025    143.4889
   706.8000      8.0609      2.5182      0.1034      7.9863     22.3976    135.1947
   706.9000      8.0609      2.5209      0.0394      7.8257     22.4052    127.4629
   707.0000      8.0633      2.5328      0.0685      7.1020     22.2008    124.3712
   707.1000      8.0633      2.5372      0.1288      6.8338     21.7263    125.7320
   707.2000      8.0633      2.5184     -0.0205      7.9746     21.3713    129.9454
   707.3000      8.0612      2.4939      0.0311      9.4611     21.4354    132.7865
   707.4000      8.0612      2.4860      0.0347      9.9396     21.7073    133.9178
   707.5000      8.0577      2.4974      0.0657      9.2487     22.1535    134.7584
   707.6000      8.0577      2.5184      0.0613      7.9773     22.6749    133.3957
   707.7000      8.0577      2.5416      0.0524      6.5690     22.6603    131.4165
   707.8000      8.0588      2.5525      0.0893      5.9096     21.9087    132.2946
   707.9000      8.0588      2.5355      0.0813      6.9385     21.0400    134.6651
   708.0000      8.0607      2.5030      0.0505      8.9120     20.6627    133.3158
   708.1000      8.0607      2.4776      0.0337     10.4512     20.6691    127.3308
   708.2000      8.0607      2.4634      0.0195     11.3118     20.5902    123.1960
   708.3000      8.0604      2.4527      0.0661     11.9596     20.3398    125.4612
   708.4000      8.0604      2.4387      0.0592     12.8064     20.0754    129.9495
   708.5000      8.0606      2.4259      0.0185     13.5837     19.7151    130.8501
   708.6000      8.0606      2.4214      0.0795     13.8546     19.2959    129.6115
   708.7000      8.0606      2.4247      0.0471     13.6564     18.8968    127.1310
   708.8000      8.0589      2.4341      0.1059     13.0869     18.2354    119.3829
   708.9000      8.0589      2.4409      0.1001     12.6734     17.2702    109.5206
   709.0000      8.0551      2.4444      0.0647     12.4632     16.4524    104.9834
   709.1000      8.0551      2.4556      0.0926     11.7833     16.0945    106.0354
   709.2000      8.0551      2.4704      0.1167     10.8858     16.0349    107.0896
   709.3000      8.0565      2.4785      0.0938     10.3960     15.8481    105.3968
   709.4000      8.0565      2.4789      0.0886     10.3706     15.2014    103.6030
   709.5000      8.0624      2.4726      0.0205     10.7536     14.5385    103.5480
   709.6000      8.0624      2.4665      0.0262     11.1182     14.5921    103.4659
   709.7000      8.0624      2.4676      0.0434     11.0522     15.2053    102.9798
   709.8000      8.0706      2.4743      0.0653     10.6496     15.8472    104.9500
   709.9000      8.0706      2.4854      0.0397      9.9754     16.2769    109.8693
   710.0000      8.0773      2.4963      0.0546      9.3126     16.4310    113.7740
   710.1000      8.0773      2.4985      0.0793      9.1847     16.3538    116.2340
   710.2000      8.0773      2.4973      0.0576      9.2575     16.1388    119.9249
   710.3000      8.0798      2.5000      0.0881      9.0883     15.9007    123.9805
   710.4000      8.0798      2.5004      0.0668      9.0681     15.6395    128.8618
   710.5000      8.0785      2.4964      0.0432      9.3077     15.4420    132.4263
   710.6000      8.0785      2.4916      0.0656      9.5997     15.5226    130.6773
   710.7000      8.0785      2.4823      0.0483     10.1613     15.7832    125.7464
   710.8000      8.0743      2.4731      0.0360     10.7228     15.9171    118.4287
   710.9000      8.0743      2.4838     -0.0133     10.0726     15.7826    107.3474
   711.0000      8.0592      2.5164      0.0777      8.0960     15.4640     97.3982
   711.1000      8.0592      2.5430      0.1076      6.4820     15.1543     94.6518
   711.2000      8.0592      2.5499      0.0678      6.0686     15.0961    101.2318
   711.3000      8.0310      2.5546      0.0341      5.7804     15.3975    112.3601
   711.4000      8.0310      2.5778      0.0622      4.3770     15.7840    117.6872
   711.5000      8.0089      2.6160      0.1102      2.0581     16.0567    116.3864
   711.6000      8.0089      2.6426      0.1357      0.4478     16.5025    114.7308
   711.7000      8.0089      2.6409      0.0722      0.5536     17.4506    111.4286
   711.8000      8.0028      2.6293      0.0546      1.2536     18.8879    102.6969
   711.9000      8.0028      2.6356     -0.0366      0.8721     20.4818     90.4910
