~Version Information
VERS.                      2.0: CWLS Log ASCII Standard - VERSION 2.0
WRAP.                       NO: One line per depth step
~Well Information Block
STRT.FT               585.0000: 
STOP.FT              2277.5000: 
STEP.FT                 0.1000: 
NULL.                -999.2500: 
COMP.          Pioneer Natural Resources: COMPANY
WELL.          Interceptor 43-13 Tr: WELL
FLD.           Purgatoire River: FIELD
LOC.           2006' FSL & 438' FEL: LOCATION
PROV.                 Colorado: PROVINCE
CNTY.               Las Animas: COUNTRY
SRVC.                Patterson: SERVICE COMPANY
DATE.          Mon Oct 17 07:15:06 2005: LOG DATE
UWI.           05 071 08549 00: UNIQUE WELL ID
~Curve Information Block
DEPT.FT            0 000 00 00: Depth
DCAL.in                       : CDL Caliper
RHOB.g/cc                     : CDL Bulk Density
RHOC.g/cc                     : CDL Density Correction
DPOR.pu                       : CDL Density Porosity
GR.GAPI                       : Gamma Ray
NPOR.pu                       : Neutron Porosity
~Parameter Information Block
~A  Depth       DCAL        RHOB        RHOC        DPOR         GR         NPOR    
# ...
  2265.0000      7.7870      2.6388      0.0610      0.6818   -999.2500   -999.2500
  2265.1000      7.7870      2.6499      0.0536      0.0058   -999.2500   -999.2500
  2265.2000      7.7870      2.6702      0.0661     -1.2239   -999.2500   -999.2500
  2265.3000      7.7830      2.6927      0.0904     -2.5888   -999.2500   -999.2500
  2265.4000      7.7830      2.7057      0.1035     -3.3751   -999.2500   -999.2500
  2265.5000      7.8018      2.7047      0.0576     -3.3140   -999.2500   -999.2500
  2265.6000      7.8018      2.7008      0.0654     -3.0816   -999.2500   -999.2500
  2265.7000      7.8018      2.6976      0.0847     -2.8833   -999.2500   -999.2500
  2265.8000      7.7964      2.6832      0.0651     -2.0110   -999.2500   -999.2500
  2265.9000      7.7964      2.6612     -0.0085     -0.6796   -999.2500   -999.2500
  2266.0000      7.7833      2.6421      0.0175      0.4773   -999.2500   -999.2500
  2266.1000      7.7833      2.6230      0.0215      1.6383   -999.2500   -999.2500
  2266.2000      7.7833      2.6054     -0.0269      2.7018   -999.2500   -999.2500
  2266.3000      7.7700      2.5981     -0.0081      3.1472   -999.2500   -999.2500
  2266.4000      7.7700      2.5957      0.0399      3.2907   -999.2500   -999.2500
  2266.5000      7.7919      2.5961     -0.0040      3.2687   -999.2500   -999.2500
  2266.6000      7.7919      2.6115      0.0278      2.3330   -999.2500   -999.2500
  2266.7000      7.7919      2.6410      0.0163      0.5436   -999.2500   -999.2500
  2266.8000      7.7942      2.6537      0.0886     -0.2266   -999.2500   -999.2500
  2266.9000      7.7942      2.6229      0.0051      1.6435   -999.2500   -999.2500
  2267.0000      7.8091      2.5720     -0.0006      4.7296   -999.2500   -999.2500
  2267.1000      7.8091      2.5455     -0.0012      6.3305   -999.2500   -999.2500
  2267.2000      7.8091      2.5527      0.0664      5.8963   -999.2500   -999.2500
  2267.3000      7.8023      2.5699      0.0534      4.8519   -999.2500   -999.2500
  2267.4000      7.8023      2.5807      0.0533      4.1980   -999.2500   -999.2500
  2267.5000      7.7811      2.5866     -0.0026      3.8399   -999.2500   -999.2500
  2267.6000      7.7811      2.5986      0.0464      3.1124   -999.2500   -999.2500
  2267.7000      7.7811      2.6206      0.1294      1.7834   -999.2500   -999.2500
  2267.8000      7.8127      2.6426      0.1521      0.4464   -999.2500   -999.2500
  2267.9000      7.8127      2.6589      0.1556     -0.5378   -999.2500   -999.2500
  2268.0000      7.7958      2.6690      0.1656     -1.1540   -999.2500   -999.2500
  2268.1000      7.7958      2.6672      0.1263     -1.0452   -999.2500   -999.2500
  2268.2000      7.7958      2.6502      0.0990     -0.0122   -999.2500   -999.2500
  2268.3000      7.6897      2.6307      0.0238      1.1670   -999.2500   -999.2500
  2268.4000      7.6897      2.6245      0.0549      1.5437   -999.2500   -999.2500
  2268.5000      7.7666      2.6261      0.0990      1.4478   -999.2500   -999.2500
  2268.6000      7.7666      2.6199      0.1025      1.8244   -999.2500   -999.2500
  2268.7000      7.7666      2.6048      0.0589      2.7368   -999.2500   -999.2500
  2268.8000      7.8076      2.5920      0.0338      3.5174   -999.2500   -999.2500
  2268.9000      7.8076      2.5840      0.0475      3.9993   -999.2500   -999.2500
  2269.0000      7.7819      2.5790     -0.0034      4.3004   -999.2500   -999.2500
  2269.1000      7.7819      2.5799      0.0350      4.2458   -999.2500   -999.2500
  2269.2000      7.7819      2.5816      0.0651      4.1474   -999.2500   -999.2500
  2269.3000      7.7707      2.5754      0.0359      4.5217   -999.2500   -999.2500
  2269.4000      7.7707      2.5621      0.0865      5.3293   -999.2500   -999.2500
  2269.5000      7.7619      2.5443      0.0766      6.4044   -999.2500   -999.2500
  2269.6000      7.7619      2.5290      0.0632      7.3343   -999.2500   -999.2500
  2269.7000      7.7619      2.5293      0.0505      7.3163   -999.2500   -999.2500
  2269.8000      7.7679      2.5482      0.0483      6.1705   -999.2500   -999.2500
  2269.9000      7.7679      2.5683      0.0792      4.9508   -999.2500   -999.2500
  2270.0000      7.7577      2.5701      0.1130      4.8439   -999.2500   -999.2500
  2270.1000      7.7577      2.5574      0.1056      5.6127   -999.2500   -999.2500
  2270.2000      7.7577      2.5499      0.0563      6.0687   -999.2500   -999.2500
  2270.3000      7.7771      2.5508      0.1291      6.0110   -999.2500   -999.2500
  2270.4000      7.7771      2.5495      0.1046      6.0895   -999.2500   -999.2500
  2270.5000      7.7635      2.5509      0.0845      6.0063   -999.2500   -999.2500
  2270.6000      7.7635      2.5557      0.1016      5.7150   -999.2500   -999.2500
  2270.7000      7.7635      2.5423      0.1025      6.5287   -999.2500   -999.2500
  2270.8000      7.7993      2.5133      0.0315      8.2862   -999.2500   -999.2500
  2270.9000      7.7993      2.5011      0.0152      9.0226   -999.2500   -999.2500
  2271.0000      7.8068      2.5149      0.0351      8.1850   -999.2500   -999.2500
  2271.1000      7.8068      2.5298      0.0885      7.2835   -999.2500   -999.2500
  2271.2000      7.8068      2.5249      0.0830      7.5816   -999.2500   -999.2500
  2271.3000      7.8162      2.5128      0.0147      8.3176   -999.2500   -999.2500
  2271.4000      7.8162      2.5173      0.0227      8.0412   -999.2500   -999.2500
  2271.5000      7.8161      2.5310      0.0426      7.2144   -999.2500   -999.2500
  2271.6000      7.8161      2.5285      0.0455      7.3653   -999.2500   -999.2500
  2271.7000      7.8161      2.5134      0.0036      8.2813   -999.2500   -999.2500
  2271.8000      7.8221      2.5081      0.0139      8.6026   -999.2500   -999.2500
  2271.9000      7.8221      2.5168      0.0585      8.0720   -999.2500   -999.2500
  2272.0000      7.8217      2.5331      0.0314      7.0867   -999.2500   -999.2500
  2272.1000      7.8217      2.5509      0.0586      6.0077   -999.2500   -999.2500
  2272.2000      7.8217      2.5556      0.0958      5.7221   -999.2500   -999.2500
  2272.3000      7.8188      2.5421      0.0594      6.5366   -999.2500   -999.2500
  2272.4000      7.8188      2.5224      0.1018      7.7303   -999.2500   -999.2500
  2272.5000      7.8160      2.5023      0.0597      8.9504   -999.2500   -999.2500
  2272.6000      7.8160      2.4868      0.0515      9.8882   -999.2500   -999.2500
  2272.7000      7.8160      2.4800      0.0434     10.3045   -999.2500   -999.2500
  2272.8000      7.7994      2.4754      0.0143     10.5791   -999.2500   -999.2500
  2272.9000      7.7994      2.4709     -0.0023     10.8552   -999.2500   -999.2500
  2273.0000      7.7809      2.4753      0.0233     10.5878   -999.2500   -999.2500
  2273.1000      7.7809      2.4858      0.0787      9.9498   -999.2500   -999.2500
  2273.2000      7.7809      2.4890      0.0529      9.7597   -999.2500   -999.2500
  2273.3000      7.7737      2.4849      0.0544     10.0058   -999.2500   -999.2500
  2273.4000      7.7737      2.4789      0.1038     10.3674   -999.2500   -999.2500
  2273.5000      7.7084      2.4777      0.0573     10.4455   -999.2500   -999.2500
  2273.6000      7.7084      2.4859      0.1283      9.9425   -999.2500   -999.2500
  2273.7000      7.7084      2.4888      0.1445      9.7681   -999.2500   -999.2500
  2273.8000      7.6738      2.4905      0.1259      9.6678   -999.2500   -999.2500
  2273.9000      7.6738      2.5458      0.1047      6.3141   -999.2500   -999.2500
  2274.0000      7.6230      2.5682      0.1061      4.9595   -999.2500   -999.2500
  2274.1000      7.6230      2.1542      0.5330     30.0465   -999.2500   -999.2500
  2274.2000      7.6230      1.2269      0.0100     86.2463   -999.2500   -999.2500
  2274.3000      7.4910      0.4169      0.0100    135.3409   -999.2500   -999.2500
  2274.4000      7.4910      0.0793   -999.2500    155.8030   -999.2500   -999.2500
  2274.5000      6.9640      0.0082   -999.2500    160.1107   -999.2500   -999.2500
