~Version Information
VERS.                      2.0: CWLS Log ASCII Standard - VERSION 2.0
WRAP.                       NO: One line per depth step
~Well Information Block
STRT.FT                10.0000: 
STOP.FT              1360.0000: 
STEP.FT                 0.1000: 
NULL.                -999.2500: 
COMP.          Pioneer Natural Resources: COMPANY
WELL.              Geyser 41-2: WELL
FLD.           Purgatorie River: FIELD
LOC.           506' FNL & 1127' FEL: LOCATION
PROV.                 Colorado: PROVINCE
CNTY.               Las Animas: COUNTRY
SRVC.                Patterson: SERVICE COMPANY
DATE.          Thu Dec 01 07:38:14 2005: LOG DATE
UWI.                          : UNIQUE WELL ID
~Curve Information Block
DEPT.FT            0 000 00 00: Depth
DCAL.in                       : CDL Caliper
RHOB.g/cc                     : CDL Bulk Density
RHOC.g/cc                     : CDL Density Correction
DPOR.pu                       : CDL Density Porosity
GR.GAPI                       : Gamma Ray
NPOR.pu                       : Neutron Porosity
~Parameter Information Block
~A  Depth       DCAL        RHOB        RHOC        DPOR         GR         NPOR    
# ...
   720.4000      7.9589      2.5672      0.0255      5.0172    136.2648     25.8008
   720.5000      7.9588      2.5798      0.0232      4.2572    135.9113     26.8378
   720.6000      7.9588      2.6036      0.0020      2.8151    132.0531     27.7196
   720.7000      7.9588      2.6410      0.0055      0.5479    127.1646     28.5434
   720.8000      7.9499      2.6867      0.0288     -2.2248    124.2218     29.4296
   720.9000      7.9499      2.7370      0.0771     -5.2719    121.1460     30.2172
   721.0000      7.9490      2.7829      0.0912     -8.0576    115.7393     30.6577
   721.1000      7.9490      2.8096      0.1107     -9.6718    109.9618     30.5341
   721.2000      7.9490      2.8119      0.0627     -9.8099    105.3435     29.9636
   721.3000      7.9380      2.7950      0.0135     -8.7861    101.6942     29.2561
   721.4000      7.9380      2.7576      0.0425     -6.5206    100.3815     28.4847
   721.5000      7.9442      2.7006     -0.0306     -3.0650    102.0368     27.7034
   721.6000      7.9442      2.6412     -0.0471      0.5361    104.2243     26.9606
   721.7000      7.9442      2.5967     -0.0618      3.2310    105.1701     26.2307
   721.8000      7.9418      2.5723     -0.0858      4.7117    106.4367     25.6024
   721.9000      7.9418      2.5642     -0.0625      5.1992    108.6564     24.9720
   722.0000      7.9392      2.5600     -0.0143      5.4553    111.2887     24.3248
   722.1000      7.9392      2.5452     -0.0077      6.3518    115.3581     23.9790
   722.2000      7.9392      2.5248     -0.0477      7.5880    120.1614     23.8113
   722.3000      7.9472      2.5175     -0.0294      8.0298    123.5348     23.4520
   722.4000      7.9472      2.5261     -0.0060      7.5098    124.5428     23.1307
   722.5000      7.9564      2.5358      0.0314      6.9215    124.1590     23.1379
   722.6000      7.9564      2.5355      0.0326      6.9408    123.5519     23.2298
   722.7000      7.9564      2.5315      0.0309      7.1812    122.2082     23.0773
   722.8000      7.9569      2.5354      0.1000      6.9453    120.6809     22.8059
   722.9000      7.9569      2.5435      0.0750      6.4571    120.8290     22.6177
   723.0000      7.9521      2.5421      0.1018      6.5417    121.0754     22.2636
   723.1000      7.9521      2.5274      0.0850      7.4313    118.4336     21.7420
   723.2000      7.9521      2.5135      0.0525      8.2735    114.6607     21.5469
   723.3000      7.9530      2.5091      0.0900      8.5408    112.6820     21.6336
   723.4000      7.9530      2.5063      0.0430      8.7084    113.6377     21.5820
   723.5000      7.9435      2.5023      0.0936      8.9496    116.6097     21.4754
   723.6000      7.9435      2.4981      0.0770      9.2058    118.5142     21.6239
   723.7000      7.9435      2.4943      0.0778      9.4387    118.6052     22.0196
   723.8000      7.9538      2.4937      0.0546      9.4726    118.0871     22.5128
   723.9000      7.9538      2.4982      0.0699      9.1977    117.7641     23.0693
   724.0000      7.9577      2.5075      0.0567      8.6382    116.4642     23.4978
   724.1000      7.9577      2.5215      0.0553      7.7880    112.4065     23.3805
   724.2000      7.9577      2.5381      0.0638      6.7809    107.1975     22.7048
   724.3000      7.9536      2.5473      0.0753      6.2225    104.3808     21.9571
   724.4000      7.9536      2.5390      0.0416      6.7244    104.9282     21.4709
   724.5000      7.9563      2.5151      0.0306      8.1754    105.4064     21.1235
   724.6000      7.9563      2.4948     -0.0261      9.4039    103.7762     20.8207
   724.7000      7.9563      2.4968      0.0278      9.2864    104.1620     20.7136
   724.8000      7.9514      2.5102      0.0362      8.4740    108.3401     20.9144
   724.9000      7.9514      2.5120      0.0390      8.3659    111.4004     21.3522
   725.0000      7.9498      2.4935      0.0297      9.4832    110.6255     21.8427
   725.1000      7.9498      2.4706     -0.0243     10.8745    107.6377     22.0268
   725.2000      7.9498      2.4670     -0.0362     11.0911    104.8809     21.8326
   725.3000      7.9575      2.4819      0.0168     10.1881    105.0288     21.6721
   725.4000      7.9575      2.4984     -0.0275      9.1869    108.8589     21.7293
   725.5000      7.9568      2.5090      0.0183      8.5458    112.7300     21.8279
   725.6000      7.9568      2.5074      0.0272      8.6440    112.8801     21.7974
   725.7000      7.9568      2.4853      0.0301      9.9824    111.4977     21.6778
   725.8000      7.9594      2.4562     -0.0414     11.7471    111.4941     21.8662
   725.9000      7.9594      2.4487     -0.0092     12.1987    111.8966     22.5363
   726.0000      7.9661      2.4657     -0.0055     11.1691    112.3888     23.3899
   726.1000      7.9661      2.4895      0.0095      9.7293    115.4635     24.0821
   726.2000      7.9661      2.5109     -0.0038      8.4289    120.7212     24.2693
   726.3000      7.9679      2.5286      0.0079      7.3604    122.0999     23.9363
   726.4000      7.9679      2.5401      0.0045      6.6601    118.1947     23.4147
   726.5000      7.9684      2.5427      0.0465      6.5050    115.6985     22.9660
   726.6000      7.9684      2.5344     -0.0207      7.0034    117.5553     22.7009
   726.7000      7.9684      2.5171      0.0414      8.0524    119.0847     22.7033
   726.8000      7.9704      2.4922      0.0012      9.5616    117.9701     22.9424
   726.9000      7.9704      2.4680     -0.0110     11.0319    117.7758     23.0499
   727.0000      7.9711      2.4561     -0.0288     11.7539    120.1703     22.7576
   727.1000      7.9711      2.4489     -0.0050     12.1864    122.0198     22.1934
   727.2000      7.9711      2.4233     -0.0123     13.7413    121.1329     21.6142
   727.3000      7.9751      2.3850     -0.0266     16.0604    119.8489     21.2337
   727.4000      7.9751      2.3626     -0.0242     17.4182    121.3264     21.1559
   727.5000      7.9834      2.3578      0.0209     17.7095    127.1424     21.1917
   727.6000      7.9834      2.3565      0.0056     17.7855    136.5190     21.3044
   727.7000      7.9834      2.3657     -0.0660     17.2314    145.9457     21.6467
   727.8000      7.9961      2.3957      0.0002     15.4129    154.2591     22.0179
   727.9000      7.9961      2.4295      0.0351     13.3662    163.0139     22.1541
   728.0000      7.9992      2.4448      0.0811     12.4341    171.4115     22.3749
   728.1000      7.9992      2.4471      0.0688     12.2967    175.6058     23.1198
   728.2000      7.9992      2.4576      0.0681     11.6607    174.7889     24.0983
   728.3000      8.0318      2.4784      0.0570     10.4023    173.4453     24.9106
   728.4000      8.0318      2.5003      0.0151      9.0719    173.1895     25.7126
   728.5000      7.9783      2.5282     -0.0112      7.3839    174.1520     26.6070
   728.6000      7.9783      2.5580      0.0701      5.5763    177.3689     27.3224
   728.7000      7.9783      2.5760      0.0758      4.4875    178.8777     27.7623
   728.8000      7.9836      2.5904      0.0811      3.6130    175.5425     28.1976
   728.9000      7.9836      2.6146      0.1232      2.1460    170.5237     28.7344
   729.0000      7.9778      2.6382      0.1490      0.7178    167.1059     29.2250
   729.1000      7.9778      2.6385      0.1277      0.6943    164.1205     29.5138
   729.2000      7.9778      2.6094      0.0872      2.4579    161.3650     29.6848
   729.3000      7.9745      2.5756     -0.0336      4.5077    161.8918     29.8653
   729.4000      7.9745      2.5643     -0.0124      5.1951    166.6222     30.0094
   729.5000      7.9791      2.5691     -0.0046      4.9019    171.7623     29.9223
   729.6000      7.9791      2.5750     -0.0208      4.5441    171.6311     29.5908
   729.7000      7.9791      2.5864      0.0210      3.8538    164.1450     29.4360
   729.8000      7.9782      2.6078      0.0461      2.5563    154.7169     29.6518
   729.9000      7.9782      2.6224      0.1023      1.6702    151.0638     29.8704
