~Version Information
VERS.                      2.0: CWLS Log ASCII Standard - VERSION 2.0
WRAP.                       NO: One line per depth step
~Well Information Block
STRT.FT               490.0000: 
STOP.FT              2303.5000: 
STEP.FT                 0.1000: 
NULL.                -999.2500: 
COMP.          Pioneer Natural Resources: COMPANY
WELL.             Baa Baa 34-1: WELL
FLD.           Purgatoire River: FIELD
LOC.           617' FSL & 2289' FEL: LOCATION
STAT.                 Colorado: State
CNTY.               Las Animas: COUNTY
CTRY. USA : Country
SECT. 1 : Section
TOWN. 33S : Township
RANG. 67W : Range
SRVC.                Patterson: SERVICE COMPANY
DATE.          Thu Sep 08 09:44:32 2005: LOG DATE
API.           05 071 08502 00: UNIQUE WELL ID
~Curve Information Block
DEPT.FT            0 000 00 00: Depth
DCAL.in                       : CDL Caliper
RHOB.g/cc                     : CDL Bulk Density
RHOC.g/cc                     : CDL Density Correction
DPOR.pu                       : CDL Density Porosity
GR.GAPI                       : Gamma Ray
NPOR.pu                       : Neutron Porosity
~Parameter Information Block
~A  Depth       DCAL        RHOB        RHOC        DPOR         GR         NPOR    
# ...
  1085.2000      8.1849      2.5273      0.0243      7.4365    113.1812     28.9942
  1085.3000      8.0313      2.5466      0.0298      6.2663    115.5632     28.6647
  1085.4000      8.0313      2.5600      0.0761      5.4539    114.8703     28.2707
  1085.5000      7.9912      2.5492      0.0893      6.1087    112.3067     27.4524
  1085.6000      7.9912      2.5201      0.0291      7.8756    110.0645     25.9051
  1085.7000      7.9912      2.5022     -0.0370      8.9577    108.8715     24.2147
  1085.8000      7.9441      2.5065     -0.0038      8.6969    106.9890     23.5318
  1085.9000      7.9441      2.5159     -0.0051      8.1273    102.3020     23.8709
  1086.0000      7.9052      2.5139      0.0594      8.2494     98.8155     24.3146
  1086.1000      7.9052      2.4992      0.0007      9.1389    102.0435     24.3640
  1086.2000      7.9052      2.4959     -0.0572      9.3405    109.1370     24.1226
  1086.3000      7.9243      2.5190      0.0290      7.9421    113.1254     23.9051
  1086.4000      7.9243      2.5465      0.0539      6.2725    112.6302     23.9017
  1086.5000      7.9402      2.5514      0.0522      5.9778    111.7501     23.8296
  1086.6000      7.9402      2.5318      0.0313      7.1645    112.4601     23.4620
  1086.7000      7.9402      2.5101     -0.0320      8.4775    113.8334     23.1429
  1086.8000      7.9447      2.5046      0.0252      8.8111    118.6649     22.9821
  1086.9000      7.9447      2.5131      0.0295      8.2971    128.4000     22.7409
  1087.0000      7.9110      2.5284      0.0232      7.3726    137.2278     22.6268
  1087.1000      7.9110      2.5447      0.0275      6.3824    141.6384     22.9101
  1087.2000      7.9110      2.5619      0.0485      5.3422    141.7739     23.4258
  1087.3000      7.9233      2.5817      0.0869      4.1368    138.4834     23.8422
  1087.4000      7.9233      2.5931      0.0630      3.4461    136.2969     23.9031
  1087.5000      7.9291      2.5898      0.0546      3.6471    137.0364     23.7924
  1087.6000      7.9291      2.5811      0.0179      4.1786    137.3378     24.0574
  1087.7000      7.9291      2.5692      0.0665      4.8970    136.0214     24.8185
  1087.8000      7.9393      2.5503      0.0262      6.0437    136.8764     25.3052
  1087.9000      7.9393      2.5291      0.0030      7.3285    140.9668     25.4123
  1088.0000      7.9793      2.5120     -0.0154      8.3649    144.3919     25.6211
  1088.1000      7.9793      2.5035     -0.0281      8.8806    147.9441     25.6925
  1088.2000      7.9793      2.4958     -0.0050      9.3449    152.9005     25.6573
  1088.3000      8.0221      2.4742     -0.0367     10.6558    152.5542     26.0187
  1088.4000      8.0221      2.4476     -0.0072     12.2666    142.3393     26.5636
  1088.5000      8.0319      2.4367     -0.0512     12.9270    131.6309     26.7231
  1088.6000      8.0319      2.4403      0.0028     12.7081    132.5747     26.4091
  1088.7000      8.0319      2.4367      0.0084     12.9245    143.6489     26.0678
  1088.8000      8.0324      2.4239     -0.1066     13.7058    153.7937     26.0363
  1088.9000      8.0324      2.4198     -0.0433     13.9512    158.7734     26.2052
  1089.0000      8.0309      2.4245     -0.0168     13.6648    160.2691     26.4253
  1089.1000      8.0309      2.4331     -0.0302     13.1483    157.7842     26.5948
  1089.2000      8.0309      2.4478     -0.0300     12.2572    152.1626     26.6984
  1089.3000      8.0270      2.4633     -0.0048     11.3181    146.0001     26.7035
  1089.4000      8.0270      2.4747     -0.0147     10.6271    137.9156     26.7567
  1089.5000      8.0293      2.4858      0.0114      9.9525    123.9144     27.0565
  1089.6000      8.0293      2.4929      0.0227      9.5219    106.3707     27.4490
  1089.7000      8.0293      2.4919     -0.0278      9.5817     92.8907     27.7997
  1089.8000      8.0278      2.4953     -0.0372      9.3765     88.4511     28.1293
  1089.9000      8.0278      2.5056      0.0188      8.7531     88.0154     28.2748
  1090.0000      8.0338      2.5089     -0.0153      8.5524     84.8443     27.9282
  1090.1000      8.0338      2.5063     -0.0036      8.7121     79.3043     27.1539
  1090.2000      8.0338      2.5075     -0.0461      8.6389     74.2100     26.5562
  1090.3000      8.0344      2.5119     -0.0344      8.3674     70.9953     26.1906
  1090.4000      8.0344      2.5151     -0.0605      8.1786     67.7125     25.5038
  1090.5000      8.0083      2.5191     -0.0340      7.9340     63.2768     24.7791
  1090.6000      8.0083      2.5216     -0.0169      7.7841     58.8289     24.5069
  1090.7000      8.0083      2.5162     -0.0783      8.1083     56.1882     24.1690
  1090.8000      7.9525      2.5064      0.0271      8.7032     57.4079     23.3502
  1090.9000      7.9525      2.5028     -0.0296      8.9205     60.8454     22.3706
  1091.0000      7.9454      2.5121      0.0022      8.3571     61.9120     21.5709
  1091.1000      7.9454      2.5155      0.0610      8.1531     58.2579     20.9763
  1091.2000      7.9454      2.5050      0.0036      8.7887     53.1996     20.5991
  1091.3000      7.9528      2.5059      0.0357      8.7339     51.0085     20.3618
  1091.4000      7.9528      2.5196      0.0183      7.9037     50.3267     20.0275
  1091.5000      7.9578      2.5164      0.0347      8.0980     49.2477     19.6410
  1091.6000      7.9578      2.4901     -0.0113      9.6936     47.8726     19.3800
  1091.7000      7.9578      2.4681      0.0220     11.0256     45.7509     19.3487
  1091.8000      7.9601      2.4672     -0.0043     11.0807     44.1498     19.6534
  1091.9000      7.9601      2.4742      0.0315     10.6536     45.4368     20.0563
  1092.0000      7.9573      2.4732     -0.0217     10.7142     48.7315     20.1399
  1092.1000      7.9573      2.4721      0.0047     10.7796     51.2033     19.9580
  1092.2000      7.9573      2.4823     -0.0086     10.1657     50.6492     19.6689
  1092.3000      7.9608      2.4918      0.0133      9.5877     46.6033     19.4442
  1092.4000      7.9608      2.4896     -0.0456      9.7198     40.9485     19.6618
  1092.5000      7.9593      2.4833      0.0099     10.1003     37.6741     20.2843
  1092.6000      7.9593      2.4806     -0.0092     10.2691     39.4651     20.9037
  1092.7000      7.9593      2.4881     -0.0349      9.8103     44.4524     21.3882
  1092.8000      7.9538      2.5085      0.0173      8.5778     47.6255     21.7365
  1092.9000      7.9538      2.5301      0.0088      7.2656     48.5245     21.8446
  1093.0000      7.9507      2.5457     -0.0174      6.3232     50.1382     21.8310
  1093.1000      7.9507      2.5554     -0.0042      5.7323     51.7511     21.9459
  1093.2000      7.9507      2.5558     -0.0134      5.7087     51.1806     22.1559
  1093.3000      7.9407      2.5543     -0.0106      5.7976     48.3707     22.2416
  1093.4000      7.9407      2.5712     -0.0266      4.7766     45.4654     22.0681
  1093.5000      7.9460      2.6063      0.0007      2.6477     43.7183     21.7040
  1093.6000      7.9460      2.6382      0.0574      0.7147     43.5918     21.2217
  1093.7000      7.9460      2.6552      0.0300     -0.3126     46.2152     20.7151
  1093.8000      7.9452      2.6563      0.0168     -0.3837     50.5785     20.4186
  1093.9000      7.9452      2.6383      0.0618      0.7108     53.3839     20.5996
  1094.0000      7.9446      2.6062      0.0495      2.6573     53.6100     21.2480
  1094.1000      7.9446      2.5801     -0.0222      4.2390     53.9898     21.8671
  1094.2000      7.9446      2.5706      0.0237      4.8146     55.7266     21.9546
  1094.3000      7.9375      2.5738     -0.0198      4.6165     56.7442     21.5031
  1094.4000      7.9375      2.5898      0.0093      3.6455     57.2101     20.9611
  1094.5000      7.9294      2.6140      0.0063      2.1815     60.0674     20.7422
  1094.6000      7.9294      2.6343      0.0375      0.9498     66.2725     20.7341
  1094.7000      7.9294      2.6354      0.0388      0.8875     74.4777     20.6398
