~Version Information
VERS.                      2.0: CWLS Log ASCII Standard - VERSION 2.0
WRAP.                       NO: One line per depth step
~Well Information Block
STRT.FT               529.2000: 
STOP.FT              1325.2000: 
STEP.FT                 0.1000: 
NULL.                -999.2500: 
COMP.          Pioneer Natural Resources: COMPANY
WELL.            Erin 21-15 Tr: WELL
FLD.           Purgatoire River: FIELD
LOC.           1217' FNL & 2284' FWL--: LOCATION
CNTY.               Las Animas: COUNTY
SRVC.                Patterson: SERVICE COMPANY
DATE.          Mon Mar 06 14:26:48 2006: LOG DATE
UWI.           05 071 08712 00: UNIQUE WELL ID
STAT.                 Colorado: STATE
~Curve Information Block
DEPT.FT            0 000 00 00: Depth
DCAL.in                       : CDL Caliper
RHOB.g/cc                     : CDL Bulk Density
RHOC.g/cc                     : CDL Density Correction
DPOR.pu                       : CDL Density Porosity
GR.GAPI                       : Gamma Ray
~Parameter Information Block
~A  Depth       DCAL        RHOB        RHOC        DPOR         GR     
# ...
   786.8000      8.0028      2.6402      0.1063      0.5919    112.1030
   786.9000      8.0028      2.6605      0.1171     -0.6356    113.4788
   787.0000      8.0028      2.6677      0.1129     -1.0749    112.3005
   787.1000      8.0028      2.6733      0.0641     -1.4117    109.3130
   787.2000      8.0028      2.6911      0.0895     -2.4924    105.2349
   787.3000      8.0039      2.7135      0.0580     -3.8494    100.2263
   787.4000      8.0039      2.7132      0.0795     -3.8311     95.6770
   787.5000      8.0050      2.6890      0.0006     -2.3631     94.6436
   787.6000      8.0050      2.6759      0.0163     -1.5676     97.5226
   787.7000      8.0050      2.6931      0.0375     -2.6141    104.1310
   787.8000      8.0040      2.7193      0.0900     -4.1973    111.5306
   787.9000      8.0040      2.7241      0.0649     -4.4897    111.8761
   788.0000      8.0014      2.7072      0.0659     -3.4682    103.5844
   788.1000      8.0014      2.6807      0.0685     -1.8594     97.6953
   788.2000      8.0014      2.6458      0.0418      0.2544    102.2997
   788.3000      7.9985      2.6007      0.0543      2.9857    110.2985
   788.4000      7.9985      2.5594     -0.0123      5.4884    112.0676
   788.5000      7.9984      2.5495     -0.0413      6.0936    108.8020
   788.6000      7.9984      2.5686      0.0183      4.9347    106.7965
   788.7000      7.9984      2.5786      0.0090      4.3262    108.5868
   788.8000      8.0000      2.5613     -0.0050      5.3782    115.5141
   788.9000      8.0000      2.5403     -0.0497      6.6482    126.4984
   789.0000      8.0008      2.5380      0.0140      6.7909    133.2711
   789.1000      8.0008      2.5486      0.0120      6.1471    130.2299
   789.2000      8.0008      2.5624      0.0316      5.3092    121.5529
   789.3000      8.0005      2.5758      0.0555      4.4976    116.0537
   789.4000      8.0005      2.5872      0.0432      3.8065    116.3791
   789.5000      7.9986      2.5985      0.0552      3.1229    117.4986
   789.6000      7.9986      2.6084      0.0393      2.5233    115.6684
   789.7000      7.9986      2.6102      0.0882      2.4150    112.0569
   789.8000      7.9957      2.6022      0.0614      2.8982    112.2914
   789.9000      7.9957      2.5913      0.0642      3.5590    117.5700
   790.0000      7.9894      2.5857      0.0435      3.8957    121.1422
   790.1000      7.9894      2.5913      0.0437      3.5550    122.5422
   790.2000      7.9894      2.6041      0.0942      2.7830    126.5317
   790.3000      7.9815      2.6097      0.0972      2.4425    131.3068
   790.4000      7.9815      2.6075      0.0294      2.5738    132.9246
   790.5000      7.9764      2.6101      0.0618      2.4161    130.6913
   790.6000      7.9764      2.6171      0.0525      1.9962    124.8969
   790.7000      7.9764      2.6230      0.0566      1.6351    119.1983
   790.8000      7.9736      2.6312      0.1010      1.1369    120.3849
   790.9000      7.9736      2.6394      0.0782      0.6396    127.6667
   791.0000      7.9758      2.6353      0.1316      0.8927    134.1066
   791.1000      7.9758      2.6181      0.0596      1.9310    137.2272
   791.2000      7.9758      2.6072      0.0830      2.5930    137.8818
   791.3000      7.9879      2.6064      0.0752      2.6432    137.0760
   791.4000      7.9879      2.6008      0.0834      2.9809    134.7897
   791.5000      8.0061      2.5940      0.0204      3.3953    132.5296
   791.6000      8.0061      2.5986      0.0577      3.1125    131.6924
   791.7000      8.0061      2.6057      0.1146      2.6864    130.6660
   791.8000      8.0187      2.6043      0.0980      2.7685    130.2464
   791.9000      8.0187      2.6071      0.0793      2.5976    130.8981
   792.0000      8.0241      2.6291      0.1018      1.2671    129.7288
   792.1000      8.0241      2.6634      0.1028     -0.8140    123.0873
   792.2000      8.0241      2.6819      0.1470     -1.9357    113.3342
   792.3000      8.0279      2.6673      0.0974     -1.0480    108.2320
   792.4000      8.0279      2.6454      0.0501      0.2818    110.6703
   792.5000      8.0302      2.6447      0.0999      0.3209    116.4805
   792.6000      8.0302      2.6584      0.0557     -0.5087    119.3789
   792.7000      8.0302      2.6751      0.0559     -1.5224    117.1297
   792.8000      8.0301      2.6905      0.0952     -2.4523    114.5876
   792.9000      8.0301      2.6915      0.0948     -2.5180    120.1444
   793.0000      8.0305      2.6686      0.0797     -1.1256    132.8928
   793.1000      8.0305      2.6252      0.0674      1.5024    141.5070
   793.2000      8.0305      2.5727      0.0381      4.6872    140.7007
   793.3000      8.0311      2.5239      0.0388      7.6406    135.5532
   793.4000      8.0311      2.4855      0.0217      9.9727    130.0262
   793.5000      8.0304      2.4583     -0.0133     11.6156    123.0719
   793.6000      8.0304      2.4456      0.0142     12.3898    116.1176
   793.7000      8.0304      2.4482     -0.0013     12.2278    114.3191
   793.8000      8.0294      2.4544      0.0582     11.8569    119.1523
   793.9000      8.0294      2.4385      0.0480     12.8208    127.2735
   794.0000      8.0270      2.3932      0.0021     15.5646    130.1769
   794.1000      8.0270      2.3349     -0.0123     19.0949    126.0653
   794.2000      8.0270      2.2726     -0.0177     22.8701    123.3346
   794.3000      8.0248      2.2029     -0.0349     27.0946    125.4442
   794.4000      8.0248      2.1292     -0.0459     31.5608    130.8647
   794.5000      8.0257      2.0664     -0.0959     35.3712    137.3952
   794.6000      8.0257      2.0228     -0.0667     38.0130    138.8947
   794.7000      8.0257      1.9891     -0.0631     40.0537    131.5475
   794.8000      8.0296      1.9538     -0.0651     42.1952    120.9367
   794.9000      8.0296      1.9145     -0.0609     44.5735    114.8397
   795.0000      8.0358      1.8786     -0.0349     46.7490    112.7992
   795.1000      8.0358      1.8681     -0.0463     47.3864    108.8518
   795.2000      8.0358      1.9078      0.0636     44.9838    105.8900
   795.3000      8.0395      1.9914      0.1313     39.9145    110.5064
   795.4000      8.0395      2.0899      0.1476     33.9462    115.7062
   795.5000      8.0372      2.1819      0.1655     28.3692    113.2623
   795.6000      8.0372      2.2604      0.1973     23.6139    108.4832
   795.7000      8.0372      2.3320      0.1492     19.2719    107.3833
   795.8000      8.0407      2.4026      0.2123     14.9927    106.3649
   795.9000      8.0407      2.4635      0.2169     11.3055    101.6175
   796.0000      8.0450      2.5140      0.2283      8.2442     94.8845
   796.1000      8.0450      2.5607      0.2207      5.4118     90.6099
   796.2000      8.0450      2.5962      0.1766      3.2605     90.6008
   796.3000      8.0227      2.6078      0.1185      2.5603     92.0798
   796.4000      8.0227      2.5974      0.0787      3.1872     92.3051
   796.5000      7.9784      2.5844      0.0350      3.9740     91.2144
   796.6000      7.9784      2.5861      0.0279      3.8723     89.3902
   796.7000      7.9784      2.5970      0.0787      3.2128     87.3531
   796.8000      7.9525      2.6007      0.0746      2.9899     90.6315
   796.9000      7.9525      2.6006      0.0304      2.9913    102.6106
   797.0000      7.9502      2.6080      0.0621      2.5433    111.5547
   797.1000      7.9502      2.6120      0.1085      2.3058    105.0076
   797.2000      7.9502      2.5995      0.0694      3.0592     91.2783
   797.3000      7.9535      2.5839      0.0275      4.0067     84.4222
   797.4000      7.9535      2.5847      0.0717      3.9578     82.5618
   797.5000      7.9544      2.6024      0.0514      2.8871     80.2582
   797.6000      7.9544      2.6250      0.1072      1.5173     80.5532
   797.7000      7.9544      2.6426      0.0775      0.4491     84.8043
   797.8000      7.9532      2.6511      0.0684     -0.0658     89.1280
   797.9000      7.9532      2.6546     -0.0006     -0.2815     89.2897
