~Version Information
VERS.                      2.0: CWLS Log ASCII Standard - VERSION 2.0
WRAP.                       NO: One line per depth step
~Well Information Block
STRT.FT                10.0000: 
STOP.FT              1485.0000: 
STEP.FT                 0.1000: 
NULL.                -999.2500: 
COMP.          Pioneer Natural Resources: COMPANY
WELL.          Old Faithful 21-2: WELL
FLD.           Purgatorie River: FIELD
LOC.           806' FNL & 2509' FWL: LOCATION
PROV.                 Colorado: PROVINCE
CNTY.               Las Animas: COUNTRY
SRVC.                Patterson: SERVICE COMPANY
DATE.          Wed Dec 07 13:17:12 2005: LOG DATE
UWI.                          : UNIQUE WELL ID
~Curve Information Block
DEPT.FT            0 000 00 00: Depth
DCAL.in                       : CDL Caliper
RHOB.g/cc                     : CDL Bulk Density
RHOC.g/cc                     : CDL Density Correction
DPOR.pu                       : CDL Density Porosity
GR.GAPI                       : Gamma Ray
NPOR.pu                       : Neutron Porosity
~Parameter Information Block
~A  Depth       DCAL        RHOB        RHOC        DPOR         GR         NPOR    
# ...
  1181.2000      8.1130      2.5660      0.0593      5.0883     78.5282     21.9365
  1181.3000      8.1066      2.5733      0.0517      4.6505     77.0287     21.9083
  1181.4000      8.1066      2.5649      0.0509      5.1550     77.2452     21.5570
  1181.5000      8.0876      2.5468     -0.0138      6.2574     78.7168     21.3439
  1181.6000      8.0876      2.5282     -0.0032      7.3801     81.1344     21.4860
  1181.7000      8.0876      2.5110     -0.0300      8.4273     82.2462     21.6074
  1181.8000      8.0685      2.4961     -0.0142      9.3258     81.6569     21.4193
  1181.9000      8.0685      2.4897     -0.0018      9.7142     79.8578     21.1746
  1182.0000      8.0940      2.5018     -0.0542      8.9830     76.8676     21.0214
  1182.1000      8.0940      2.5377      0.0088      6.8074     74.8698     20.8330
  1182.2000      8.0940      2.5782      0.0495      4.3507     74.8243     20.6175
  1182.3000      8.0865      2.5975      0.0586      3.1790     74.8502     20.4638
  1182.4000      8.0865      2.5940      0.0477      3.3932     74.1403     20.3696
  1182.5000      8.1131      2.5848      0.0244      3.9486     73.8177     20.2285
  1182.6000      8.1131      2.5865      0.0354      3.8464     73.9584     19.9776
  1182.7000      8.1131      2.5986      0.0741      3.1124     72.5532     19.8648
  1182.8000      8.0940      2.6023      0.0779      2.8885     70.1463     20.0049
  1182.9000      8.0940      2.5892     -0.0071      3.6843     69.0977     20.0798
  1183.0000      8.0830      2.5726      0.0320      4.6890     68.8762     19.9980
  1183.1000      8.0830      2.5560      0.0472      5.6956     68.8791     19.9330
  1183.2000      8.0830      2.5382     -0.0118      6.7775     71.0064     19.8558
  1183.3000      8.0743      2.5306     -0.0063      7.2363     75.0599     19.7136
  1183.4000      8.0743      2.5403     -0.0082      6.6456     77.0794     19.6380
  1183.5000      8.0869      2.5582      0.0321      5.5610     74.6723     19.6521
  1183.6000      8.0869      2.5632      0.0617      5.2615     69.8701     19.5736
  1183.7000      8.0869      2.5519     -0.0140      5.9470     66.4304     19.3669
  1183.8000      8.1118      2.5467      0.0006      6.2591     66.0320     19.1382
  1183.9000      8.1118      2.5571     -0.0094      5.6275     67.2904     18.8801
  1184.0000      8.1074      2.5711      0.0220      4.7810     67.1590     18.7411
  1184.1000      8.1074      2.5821      0.0124      4.1168     64.2968     18.9786
  1184.2000      8.1074      2.5926      0.0153      3.4806     60.8268     19.2819
  1184.3000      8.0673      2.5970      0.0218      3.2143     58.1088     19.1570
  1184.4000      8.0673      2.5931     -0.0049      3.4501     55.3638     18.7166
  1184.5000      8.0459      2.5843      0.0587      3.9833     53.2180     18.3724
  1184.6000      8.0459      2.5666      0.0384      5.0528     52.0842     18.4214
  1184.7000      8.0459      2.5440     -0.0122      6.4247     51.5266     18.8797
  1184.8000      8.0560      2.5261      0.0273      7.5119     52.7242     19.4000
  1184.9000      8.0560      2.5151     -0.0136      8.1739     56.3558     19.5703
  1185.0000      8.0339      2.5137     -0.0146      8.2579     60.0020     19.2004
  1185.1000      8.0339      2.5176      0.0032      8.0256     61.5311     18.6168
  1185.2000      8.0339      2.5157      0.0102      8.1410     62.0123     18.3541
  1185.3000      8.0291      2.5089     -0.0056      8.5510     62.3753     18.4713
  1185.4000      8.0291      2.5070      0.0033      8.6667     63.6000     18.7592
  1185.5000      8.0371      2.5127      0.0573      8.3242     66.8546     19.1444
  1185.6000      8.0371      2.5300     -0.0104      7.2731     69.7929     19.7460
  1185.7000      8.0371      2.5665      0.0570      5.0606     69.8530     20.4913
  1185.8000      8.0388      2.6078      0.1099      2.5562     67.5323     21.0694
  1185.9000      8.0388      2.6243      0.1365      1.5576     64.2906     21.2204
  1186.0000      8.0259      2.6051      0.1295      2.7190     61.3388     21.0656
  1186.1000      8.0259      2.5713      0.0093      4.7711     60.3887     20.9176
  1186.2000      8.0259      2.5480      0.0601      6.1810     61.3717     20.8491
  1186.3000      8.0357      2.5379      0.0213      6.7964     61.8207     20.8471
  1186.4000      8.0357      2.5381      0.0079      6.7835     60.5284     20.7487
  1186.5000      8.0519      2.5486      0.0395      6.1485     58.8614     20.5409
  1186.6000      8.0519      2.5625      0.0500      5.3028     58.7369     20.5025
  1186.7000      8.0519      2.5689      0.0627      4.9180     60.8056     20.5836
  1186.8000      8.0295      2.5641      0.0441      5.2038     62.8401     20.5412
  1186.9000      8.0295      2.5602      0.0093      5.4395     62.9293     20.3822
  1187.0000      8.0393      2.5667      0.0175      5.0508     62.9793     20.1891
  1187.1000      8.0393      2.5706      0.0871      4.8128     64.0988     20.0204
  1187.2000      8.0393      2.5603      0.0365      5.4367     65.3046     19.9553
  1187.3000      8.0524      2.5515      0.0123      5.9714     66.5156     20.0334
  1187.4000      8.0524      2.5546      0.0475      5.7814     67.6670     20.2673
  1187.5000      8.0573      2.5538      0.0509      5.8290     67.9574     20.4606
  1187.6000      8.0573      2.5401      0.0314      6.6609     67.3082     20.3547
  1187.7000      8.0573      2.5274     -0.0149      7.4293     64.2023     20.1753
  1187.8000      8.0384      2.5284      0.0186      7.3680     57.2372     20.1372
  1187.9000      8.0384      2.5391      0.0378      6.7236     50.4430     19.9833
  1188.0000      8.0616      2.5525      0.0173      5.9079     48.0030     19.6951
  1188.1000      8.0616      2.5652      0.0198      5.1387     48.2967     19.6965
  1188.2000      8.0616      2.5678      0.0589      4.9803     48.0141     19.9853
  1188.3000      8.0374      2.5537      0.0517      5.8360     47.3325     20.3189
  1188.4000      8.0374      2.5366     -0.0253      6.8748     47.1571     20.7127
  1188.5000      8.0511      2.5361     -0.0048      6.9049     47.7160     21.1749
  1188.6000      8.0511      2.5467      0.0491      6.2608     48.7192     21.6280
  1188.7000      8.0511      2.5476      0.0764      6.2076     48.8835     21.9036
  1188.8000      8.0691      2.5317      0.0518      7.1674     48.8312     21.7145
  1188.9000      8.0691      2.5108      0.0348      8.4388     49.6595     21.0660
  1189.0000      8.0802      2.5006     -0.0226      9.0575     50.7190     20.3207
  1189.1000      8.0802      2.4996      0.0353      9.1151     50.9877     19.7823
  1189.2000      8.0802      2.4925     -0.0043      9.5445     50.8924     19.6406
  1189.3000      8.0804      2.4798      0.0181     10.3170     51.5864     20.0200
  1189.4000      8.0804      2.4764     -0.0350     10.5195     53.6764     20.6997
  1189.5000      8.0846      2.4848      0.0469     10.0098     56.6211     21.1674
  1189.6000      8.0846      2.4906     -0.0227      9.6602     57.7468     21.1276
  1189.7000      8.0846      2.4862      0.0144      9.9271     55.4601     20.7194
  1189.8000      8.1070      2.4697      0.0091     10.9282     52.5295     20.2095
  1189.9000      8.1070      2.4500     -0.0147     12.1227     52.5771     19.7726
  1190.0000      8.1095      2.4462     -0.0519     12.3513     54.6958     19.6482
  1190.1000      8.1095      2.4627     -0.0163     11.3522     56.1711     20.0190
  1190.2000      8.1095      2.4851      0.0301      9.9915     57.9493     20.6063
  1190.3000      8.1224      2.5015      0.0478      8.9984     61.1487     20.8816
  1190.4000      8.1224      2.5176      0.0190      8.0248     62.3767     20.6471
  1190.5000      8.1039      2.5400      0.0600      6.6665     60.1593     20.0074
  1190.6000      8.1039      2.5618      0.0481      5.3449     57.4415     19.2562
  1190.7000      8.1039      2.5724      0.0961      4.7019     56.1111     18.9476
