~Version Information
VERS.                      2.0: CWLS Log ASCII Standard - VERSION 2.0
WRAP.                       NO: One line per depth step
~Well Information Block
STRT.FT               -10.7500: 
STOP.FT              1466.2500: 
STEP.FT                 0.2500: 
NULL.                -999.2500: 
COMP.          Pioneer Natural Resources: COMPANY
WELL.             Andrew 23-15: WELL
FLD.           Purgatorie River: FIELD
LOC.           2137' FSL & 2292' FWL--: LOCATION
PROV.                       CO: PROVINCE
CNTY.               Las Animas: COUNTRY
SRVC.          Patterson Wireline: SERVICE COMPANY
DATE.          Thu Aug 18 11:51:45 2005: LOG DATE
UWI.           05 071 08460 00: UNIQUE WELL ID
~Curve Information Block
DEPT.FT            0 000 00 00: Depth
CCL.                          : Casing Collar Locator
TT3.usec                      : CBL 3' Travel Time
AMP3.mV                       : CBL 3' Amplitude
GR.GAPI                       : Gamma Ray
~Parameter Information Block
~A  Depth       CCL         TT3         AMP3         GR     
# ...
   357.7500      0.0000    337.0166     22.4030    103.5089
   358.0000      0.0000    333.7473     22.6454    108.6056
   358.2500      0.0000    329.8569     22.8791    115.8397
   358.5000      0.0000    327.0913     23.0425    123.1089
   358.7500      0.0000    327.0362     23.0838    128.4948
   359.0000      0.0000    329.7084     22.9814    130.7584
   359.2500      0.0000    333.5633     22.7591    129.4510
   359.5000      0.0000    336.9006     22.4776    125.0673
   359.7500      0.0000    339.0071     22.2020    118.9944
   360.0000      0.0000    340.0890     21.9731    113.1662
   360.2500      0.0000    340.6106     21.8050    109.5072
   360.5000      0.0000    340.8873     21.6971    109.2553
   360.7500      0.0000    341.0926     21.6408    112.6747
   361.0000      0.0000    341.3943     21.6201    119.2928
   361.2500      0.0000    342.3097     21.6101    127.8957
   361.5000      0.0000    345.3140     21.5812    136.1187
   361.7500      0.0000    353.4167     21.5094    140.9749
   362.0000      0.0000    370.0457     21.3902    140.9485
   362.2500      0.0000    394.8960     21.2358    137.6796
   362.5000      0.0000    420.3531     21.0553    134.8058
   362.7500      0.0000    436.5820     20.8334    134.6122
   363.0000      0.0000    445.1507     20.5090    136.0714
   363.2500      0.0000    465.7869     19.9561    136.4457
   363.5000      0.0000    523.0078     19.0326    134.3237
   363.7500      0.0000    623.0614     17.7333    130.5766
   364.0000      0.0000    745.6031     16.2862    126.7236
   364.2500      0.0000    859.2321     15.0090    123.2127
   364.5000      0.0000    943.1235     14.0636    119.6069
   364.7500     -2.0000    993.1982     13.4004    115.9464
   365.0000      2.0000   1014.4712     12.9083    113.2515
   365.2500      0.0000   1014.5090     12.5536    112.3826
   365.5000      0.0000   1000.4484     12.4037    112.4581
   365.7500      0.0000    975.2511     12.5775    110.7841
   366.0000      0.0000    938.1249     13.1475    104.8551
   366.2500      0.0000    891.9395     14.0261     94.6372
   366.5000      0.0000    846.7460     14.9575     82.8126
   366.7500      0.0000    812.9429     15.6828     72.8635
   367.0000      0.0000    793.6379     16.1193     66.9158
   367.2500      0.0000    785.1918     16.3628     65.0312
   367.5000      0.0000    782.4269     16.5611     66.1893
   367.7500      0.0000    781.9902     16.8217     69.9221
   368.0000      0.0000    782.5650     17.1910     76.8943
   368.2500      0.0000    783.9959     17.6562     87.5839
   368.5000      0.0000    786.0858     18.1639    100.6448
   368.7500      0.0000    786.7048     18.6696    113.2013
   369.0000      0.0000    779.8054     19.1765    122.8022
   369.2500      0.0000    756.5381     19.7116    128.8513
   369.5000      0.0000    712.8177     20.2697    132.3247
   369.7500      0.0000    659.4951     20.7961    134.4540
   370.0000      0.0000    622.3572     21.2223    135.8145
   370.2500      0.0000    624.7402     21.5041    136.3637
   370.5000      0.0000    667.3336     21.6297    135.7798
   370.7500      0.0000    728.2109     21.6078    133.8008
   371.0000      0.0000    782.5795     21.4605    130.7666
   371.2500      0.0000    818.7968     21.2211    127.8300
   371.5000      0.0000    837.5052     20.9287    126.1760
   371.7500      0.0000    842.9938     20.6172    126.0796
   372.0000      0.0000    838.5756     20.3077    126.9009
   372.2500      0.0000    827.2086     20.0092    127.5791
   372.5000      0.0000    812.8687     19.7159    126.9673
   372.7500      0.0000    799.8961     19.4055    124.3715
   373.0000      0.0000    791.0140     19.0601    120.4504
   373.2500      0.0000    786.4540     18.6949    117.3804
   373.5000      0.0000    785.0457     18.3536    117.4715
   373.7500      0.0000    785.8116     18.0709    121.3906
   374.0000      0.0000    788.5280     17.8502    127.7146
   374.2500      0.0000    793.1101     17.6828    133.8061
   374.5000      0.0000    798.8724     17.5762    136.9484
   374.7500      0.0000    804.9119     17.5515    135.4942
   375.0000      0.0000    810.8630     17.6217    129.8459
   375.2500      0.0000    815.5185     17.7807    122.2488
   375.5000      0.0000    813.0761     18.0175    115.3047
   375.7500      0.0000    791.7490     18.3334    110.7112
   376.0000      0.0000    739.6728     18.7452    109.0376
   376.2500      0.0000    655.9214     19.2683    109.9483
   376.5000      0.0000    556.2769     19.8896    112.3544
   376.7500      0.0000    465.3096     20.5525    114.6231
   377.0000      0.0000    400.5980     21.1771    115.1608
   377.2500      0.0000    364.2929     21.7005    113.3218
   377.5000      0.0000    347.7287     22.1046    109.8537
   377.7500      0.0000    340.7764     22.4150    106.0621
   378.0000      0.0000    337.1438     22.6812    102.3652
   378.2500      0.0000    334.6828     22.9463     98.0224
   378.5000      0.0000    333.5028     23.2212     92.4520
   378.7500      0.0000    333.9254     23.4790     86.3724
   379.0000      0.0000    335.4414     23.6780     81.2168
   379.2500      0.0000    337.0814     23.7887     77.5785
   379.5000      0.0000    338.2253     23.8045     74.6061
   379.7500      0.0000    338.8356     23.7403     70.9990
   380.0000      0.0000    339.1208     23.6308     66.4292
   380.2500      0.0000    339.2382     23.5211     61.9493
   380.5000      0.0000    339.3101     23.4416     59.2033
   380.7500      0.0000    339.6029     23.3871     59.2969
   381.0000      0.0000    340.6812     23.3206     62.2173
   381.2500      0.0000    343.3867     23.2012     67.0946
   381.5000      0.0000    348.4358     23.0147     72.9937
   381.7500      0.0000    355.7507     22.7832     79.5250
   382.0000      0.0000    364.1696     22.5458     86.6619
   382.2500      0.0000    372.7009     22.3246     94.0843
   382.5000      0.0000    382.9432     22.1051    100.9820
   382.7500      0.0000    401.3037     21.8442    106.5707
   383.0000      0.0000    438.1459     21.5001    110.5228
   383.2500      0.0000    501.9464     21.0655    112.7797
   383.5000      0.0000    591.7511     20.5810    113.3758
   383.7500      0.0000    695.7154     20.1126    112.8701
   384.0000      0.0000    796.9304     19.7119    112.6546
   384.2500      0.0000    879.0408     19.3929    114.2405
   384.5000      0.0000    929.4970     19.1428    118.1691
   384.7500      0.0000    944.4389     18.9489    123.8188
   385.0000      0.0000    930.9449     18.8169    130.0400
   385.2500      0.0000    901.5771     18.7679    135.5840
   385.5000      0.0000    868.1282     18.8170    139.0292
   385.7500      0.0000    839.1779     18.9548    139.0625
   386.0000      0.0000    814.7266     19.1493    135.4654
   386.2500      0.0000    780.3406     19.3710    129.6444
   386.5000      0.0000    717.1453     19.6138    123.7918
   386.7500      0.0000    624.7653     19.8895    119.7155
   387.0000      0.0000    527.1716     20.2015    118.4797
   387.2500      0.0000    451.6735     20.5268    120.2484
   387.5000      0.0000    408.0016     20.8226    123.7947
   387.7500      0.0000    388.8004     21.0514    126.8699
   388.0000      0.0000    382.2780     21.2061    127.9008
   388.2500      0.0000    380.4639     21.3154    127.0073
   388.5000      0.0000    379.7913     21.4190    125.0612
   388.7500      0.0000    378.9649     21.5329    122.4262
   389.0000      0.0000    377.4443     21.6377    118.8719
   389.2500      0.0000    375.2070     21.6984    114.0620
   389.5000      0.0000    373.0165     21.6901    107.9962
   389.7500      0.0000    372.0792     21.6100    101.4917
   390.0000      0.0000    373.0179     21.4790     96.2102
   390.2500      0.0000    375.2467     21.3322     93.8250
   390.5000      0.0000    377.5600     21.1957     95.0177
   390.7500      0.0000    379.1562     21.0723     99.1233
   391.0000      0.0000    379.9649     20.9548    104.3769
