~Version Information
VERS.                      2.0: CWLS Log ASCII Standard - VERSION 2.0
WRAP.                       NO: One line per depth step
~Well Information Block
STRT.FT               491.0000: 
STOP.FT              1909.5000: 
STEP.FT                 0.1000: 
NULL.                -999.2500: 
COMP.          Pioneer Natural Resources: COMPANY
WELL.            Corazon 13-10: WELL
FLD.           Purgatoire River: FIELD
LOC.           2510' FSL & 439' FWL: LOCATION
PROV.                 Colorado: PROVINCE
CNTY.               Las Animas: COUNTRY
SRVC.                Patterson: SERVICE COMPANY
DATE.          Thu Dec 01 07:28:46 2005: LOG DATE
UWI.           05 071 08613 00: UNIQUE WELL ID
~Curve Information Block
DEPT.FT            0 000 00 00: Depth
DCAL.in                       : CDL Caliper
RHOB.g/cc                     : CDL Bulk Density
RHOC.g/cc                     : CDL Density Correction
DPOR.pu                       : CDL Density Porosity
GR.GAPI                       : Gamma Ray
NPOR.pu                       : Neutron Porosity
~Parameter Information Block
~A  Depth       DCAL        RHOB        RHOC        DPOR         GR         NPOR    
# ...
   865.4000      8.1497      2.5601      0.0764      5.4479    158.2142     30.3469
   865.5000      8.1550      2.5697      0.1016      4.8692    152.2043     29.9556
   865.6000      8.1550      2.5705      0.0532      4.8207    148.3047     29.1743
   865.7000      8.1550      2.5604      0.0495      5.4291    146.5560     28.9433
   865.8000      8.1433      2.5481     -0.0248      6.1728    142.3820     29.7463
   865.9000      8.1433      2.5417      0.0077      6.5628    138.5963     30.6981
   866.0000      8.1397      2.5404      0.0370      6.6432    142.0285     30.6981
   866.1000      8.1397      2.5359      0.0566      6.9130    151.3399     30.0514
   866.2000      8.1397      2.5199      0.0300      7.8830    155.7857     29.7740
   866.3000      8.1531      2.4955      0.0298      9.3660    149.4345     30.0092
   866.4000      8.1531      2.4785     -0.0092     10.3955    140.5539     29.9818
   866.5000      8.1633      2.4773      0.0310     10.4652    137.8798     29.6315
   866.6000      8.1633      2.4805      0.0835     10.2714    142.5051     29.6707
   866.7000      8.1633      2.4829      0.0571     10.1278    150.9793     30.1833
   866.8000      8.1468      2.5001      0.0401      9.0876    153.1605     30.4600
   866.9000      8.1468      2.5479      0.0961      6.1890    142.6414     30.2240
   867.0000      8.1260      2.6237      0.1648      1.5926    127.0222     30.1784
   867.1000      8.1260      2.7041      0.2225     -3.2760    116.1756     30.4880
   867.2000      8.1260      2.7595      0.2771     -6.6354    112.4056     30.0439
   867.3000      8.1080      2.7757      0.2434     -7.6164    111.2876     28.3246
   867.4000      8.1080      2.7600      0.1818     -6.6651    107.2905     26.3962
   867.5000      8.1260      2.7362      0.1433     -5.2238     97.9016     25.2803
   867.6000      8.1260      2.7262      0.0659     -4.6155     84.6327     24.7906
   867.7000      8.1260      2.7360      0.0299     -5.2143     71.4096     24.1931
   867.8000      8.1283      2.7621      0.0470     -6.7933     62.6846     23.1340
   867.9000      8.1283      2.7951      0.0365     -8.7913     57.9561     22.3217
   868.0000      8.0941      2.8236      0.0168    -10.5201     52.6882     22.4880
   868.1000      8.0941      2.8359      0.0334    -11.2642     47.3966     22.9851
   868.2000      8.0941      2.8207      0.0051    -10.3443     44.0365     23.0392
   868.3000      8.1082      2.7826     -0.0293     -8.0334     41.7765     22.7950
   868.4000      8.1082      2.7383      0.0195     -5.3544     40.5442     22.4180
   868.5000      8.1387      2.6995     -0.0592     -3.0019     39.8995     22.1577
   868.6000      8.1387      2.6709     -0.0175     -1.2676     39.2782     21.8951
   868.7000      8.1387      2.6415     -0.0338      0.5149     38.6872     21.3728
   868.8000      8.1643      2.5957     -0.0244      3.2889     38.0119     21.6675
   868.9000      8.1643      2.5398     -0.1258      6.6781     37.7363     23.3714
   869.0000      8.1694      2.4962     -0.0610      9.3190     38.7038     24.9850
   869.1000      8.1694      2.4683     -0.0660     11.0097     41.5626     25.3479
   869.2000      8.1694      2.4408     -0.0411     12.6774     45.1285     25.4944
   869.3000      8.1635      2.4109     -0.0633     14.4908     47.5799     26.4555
   869.4000      8.1635      2.3898      0.0005     15.7703     49.9353     27.4933
   869.5000      8.1467      2.3765      0.0046     16.5747     55.1947     27.6638
   869.6000      8.1467      2.3579      0.0320     17.7040     63.9507     27.4051
   869.7000      8.1467      2.3255     -0.0183     19.6668     73.4718     27.6036
   869.8000      8.1437      2.2785     -0.0454     22.5155     81.8342     28.1999
   869.9000      8.1437      2.2136     -0.0142     26.4505     87.9488     28.6674
   870.0000      8.1421      2.1231     -0.0158     31.9337     89.9794     28.6205
   870.1000      8.1421      2.0113     -0.0703     38.7103     90.3719     28.2159
   870.2000      8.1421      1.8955     -0.0886     45.7290     95.0316     28.4904
   870.3000      8.1825      1.7915     -0.1843     52.0330    102.9975     29.6527
   870.4000      8.1825      1.7168     -0.1729     56.5602    105.0119     30.6759
   870.5000      8.2204      1.6898     -0.1025     58.1941     99.1360     30.9993
   870.6000      8.2204      1.7098      0.0033     56.9848     90.8470     30.9002
   870.7000      8.2204      1.7539      0.0517     54.3107     84.2737     30.7244
   870.8000      8.2040      1.8073      0.0708     51.0737     82.6470     30.3898
   870.9000      8.2040      1.8785      0.0786     46.7585     84.5006     29.5909
   871.0000      8.1687      1.9837      0.0926     40.3812     85.2654     28.4607
   871.1000      8.1687      2.1148      0.1624     32.4335     83.6353     27.5215
   871.2000      8.1687      2.2398      0.2016     24.8593     84.5890     27.5712
   871.3000      8.1620      2.3512      0.2045     18.1107     89.3995     28.5569
   871.4000      8.1620      2.4671      0.1926     11.0827     93.2658     29.2770
   871.5000      8.1609      2.5783      0.2172      4.3470     92.9732     28.9453
   871.6000      8.1609      2.6579      0.1755     -0.4783     87.7934     27.8100
   871.7000      8.1609      2.7113      0.1452     -3.7126     81.4251     26.7567
   871.8000      8.1499      2.7591      0.1206     -6.6125     77.8533     26.2773
   871.9000      8.1499      2.8010      0.1390     -9.1538     72.8841     25.7025
   872.0000      8.1575      2.8280      0.1074    -10.7896     64.5696     24.8060
   872.1000      8.1575      2.8372      0.0997    -11.3443     57.7458     24.6357
   872.2000      8.1575      2.8303      0.0494    -10.9262     52.4910     25.1802
   872.3000      8.1521      2.8146      0.0923     -9.9732     46.5582     24.7111
   872.4000      8.1521      2.7865      0.0379     -8.2720     41.5083     23.1324
   872.5000      8.1537      2.7398      0.0061     -5.4427     38.6844     22.5969
   872.6000      8.1537      2.6864     -0.0425     -2.2083     37.5428     23.9366
   872.7000      8.1537      2.6382     -0.0458      0.7155     38.7615     25.1976
   872.8000      8.1665      2.5925     -0.0720      3.4846     43.8096     24.8762
   872.9000      8.1665      2.5548     -0.1301      5.7721     52.5003     24.5147
   873.0000      8.1691      2.5321     -0.0383      7.1477     64.3390     24.9646
   873.1000      8.1691      2.5165     -0.0236      8.0930     78.8205     25.0831
   873.2000      8.1691      2.5043     -0.0036      8.8319     94.5591     24.6965
   873.3000      8.1706      2.4984     -0.0314      9.1867    110.5811     24.7854
   873.4000      8.1706      2.5015      0.0174      9.0010    125.2096     25.7968
   873.5000      8.1817      2.5129      0.0274      8.3104    135.6135     27.1889
   873.6000      8.1817      2.5271      0.0472      7.4495    141.0600     28.4064
   873.7000      8.1817      2.5376      0.0976      6.8101    144.1608     28.7697
   873.8000      8.2198      2.5403      0.0739      6.6513    148.4015     28.1053
   873.9000      8.2198      2.5364      0.0463      6.8845    153.1139     27.9062
   874.0000      8.2539      2.5317      0.0410      7.1722    155.9265     29.0225
   874.1000      8.2539      2.5265      0.0493      7.4819    157.6610     30.5782
   874.2000      8.2539      2.5145      0.0380      8.2115    160.0486     31.4891
   874.3000      8.2587      2.5021      0.0225      8.9642    162.3156     31.2541
   874.4000      8.2587      2.5105      0.0293      8.4517    162.7050     30.2791
   874.5000      8.2378      2.5430      0.0535      6.4829    163.5408     29.4261
   874.6000      8.2378      2.5748      0.0952      4.5553    169.0673     28.9398
   874.7000      8.2378      2.5866      0.1120      3.8414    174.7626     28.6178
   874.8000      8.2343      2.5879      0.0718      3.7644    171.2845     28.4062
   874.9000      8.2343      2.5979      0.0578      3.1592    161.0121     28.3182
