~Version Information
VERS.                      2.0: CWLS Log ASCII Standard - VERSION 2.0
WRAP.                       NO: One line per depth step
~Well Information Block
STRT.FT                 0.5000: 
STOP.FT              2166.0000: 
STEP.FT                 0.2500: 
NULL.                -999.2500: 
COMP.          Pioneer Natural Resources: COMPANY
WELL.          Bear Cub Federal 11-23: WELL
FLD.           Purgatoire River: FIELD
LOC.           1225' FNL & 1268 ' FWL--: LOCATION
CNTY.               Las Animas: COUNTY
SRVC.                Patterson: SERVICE COMPANY
DATE.          Mon Jul 17 10:21:31 2006: LOG DATE
UWI.           05 071 08509 00: UNIQUE WELL ID
STAT.                 Colorado: STATE
~Curve Information Block
DEPT.FT            0 000 00 00: Depth
CCL.                          : Casing Collar Locator
TT3.usec                      : CBL 3' Travel Time
AMP3.mV                       : CBL 3' Amplitude
GR.GAPI                       : Gamma Ray
~Parameter Information Block
~A  Depth       CCL         TT3         AMP3         GR     
# ...
  1273.5000      0.0000    436.8772      2.7087    124.9596
  1273.7500      0.0000    431.8647      2.7260    128.1844
  1274.0000      0.0000    430.2979      2.7360    132.6881
  1274.2500      0.0000    430.7834      2.7300    134.7622
  1274.5000      0.0000    431.5121      2.7163    136.2386
  1274.7500      0.0000    431.5611      2.7134    137.3425
  1275.0000      0.0000    430.9933      2.7190    141.3829
  1275.2500      0.0000    430.3228      2.7213    145.0365
  1275.5000      0.0000    429.1203      2.7125    147.7160
  1275.7500      0.0000    428.3306      2.7034    145.7943
  1276.0000      0.0000    427.4890      2.7059    138.6695
  1276.2500      0.0000    427.6182      2.7273    133.3876
  1276.5000      0.0000    431.0095      2.7855    126.7980
  1276.7500      0.0000    437.6953      2.8304    122.7562
  1277.0000      0.0000    458.0800      2.8890    115.7331
  1277.2500      0.0000    478.3174      2.9187    110.5870
  1277.5000      0.0000    511.6359      2.9544    103.8693
  1277.7500      0.0000    529.6907      2.9772    100.8160
  1278.0000      0.0000    542.8015      3.0114     98.6280
  1278.2500      0.0000    541.1160      3.0288     98.8784
  1278.5000      0.0000    526.2817      3.0287    102.8099
  1278.7500      0.0000    512.2381      3.0011    108.4460
  1279.0000      0.0000    492.4474      2.9193    121.0766
  1279.2500      0.0000    482.4354      2.8520    130.9972
  1279.5000      0.0000    471.9012      2.7647    145.2424
  1279.7500      0.0000    467.9397      2.7281    153.1028
  1280.0000      0.0000    471.9531      2.7100    162.0508
  1280.2500      0.0000    486.3411      2.7198    166.8327
  1280.5000      0.0000    529.6714      2.7582    173.7711
  1280.7500      0.0000    569.1282      2.7891    178.3208
  1281.0000      0.0000    627.3927      2.8210    183.3340
  1281.2500      0.0000    654.8239      2.8250    184.4644
  1281.5000      0.0000    667.9869      2.8050    183.3149
  1281.7500      0.0000    658.2905      2.7757    181.9929
  1282.0000      0.0000    627.4075      2.7097    180.5985
  1282.2500      0.0000    607.5454      2.6578    179.5055
  1282.5000      0.0000    598.3755      2.5926    175.7359
  1282.7500      0.0000    610.2720      2.5688    171.4581
  1283.0000      0.0000    645.6425      2.5595    163.6201
  1283.2500      0.0000    670.6257      2.5601    158.5821
  1283.5000      0.0000    697.7017      2.5593    153.0127
  1283.7500      0.0000    707.2406      2.5611    151.3094
  1284.0000      0.0000    711.6178      2.5771    152.3007
  1284.2500      0.0000    709.4759      2.5940    155.2824
  1284.5000      0.0000    699.1041      2.6070    162.7856
  1284.7500      0.0000    687.9533      2.5963    169.4705
  1285.0000      0.0000    671.0168      2.5550    180.9802
  1285.2500      0.0000    666.2589      2.5229    188.1801
  1285.5000      0.0000    677.6666      2.4865    194.0321
  1285.7500      0.0000    696.3167      2.4738    192.6127
  1286.0000      0.0000    728.6085      2.4721    183.5697
  1286.2500      0.0000    745.5132      2.4814    176.1029
  1286.5000      0.0000    758.1906      2.5048    167.7236
  1286.7500      0.0000    758.7501      2.5217    164.6888
  1287.0000      0.0000    751.4311      2.5446    162.7988
  1287.2500      0.0000    743.3489      2.5596    162.9205
  1287.5000      0.0000    728.9113      2.5855    164.9876
  1287.7500      0.0000    717.5929      2.6021    167.0102
  1288.0000      0.0000    695.0617      2.6124    169.4187
  1288.2500      0.0000    674.3084      2.6042    169.9501
  1288.5000      0.0000    633.3717      2.5790    168.3149
  1288.7500      0.0000    600.6188      2.5678    165.1183
  1289.0000      0.0000    548.1418      2.5756    157.2401
  1289.2500      0.0000    515.2708      2.5914    150.8732
  1289.5000      0.0000    476.3068      2.6013    141.7743
  1289.7500      0.0000    458.9232      2.5862    136.6342
  1290.0000      0.0000    443.6051      2.5419    130.0046
  1290.2500      0.0000    438.4476      2.5184    125.9611
  1290.5000      0.0000    437.4163      2.5213    120.7579
  1290.7500      0.0000    442.9291      2.5496    118.4762
  1291.0000      0.0000    464.5582      2.6111    117.6802
  1291.2500      0.0000    488.2659      2.6495    118.9319
  1291.5000      0.0000    531.4085      2.6854    122.8129
  1291.7500      0.0000    557.8723      2.6903    126.1814
  1292.0000      0.0000    579.9795      2.6704    131.7409
  1292.2500      0.0000    577.4939      2.6440    135.8823
  1292.5000      0.0000    549.1588      2.5980    143.7902
  1292.7500      0.0000    521.0599      2.5698    150.7593
  1293.0000      0.0000    481.2897      2.5394    162.8793
  1293.2500      0.0000    463.1141      2.5308    170.0318
  1293.5000      0.0000    452.8004      2.5388    175.2612
  1293.7500      0.0000    458.0556      2.5559    174.1179
  1294.0000      0.0000    486.3698      2.5871    167.0817
  1294.2500      0.0000    519.1580      2.6049    160.3399
  1294.5000      0.0000    581.5526      2.6253    148.4936
  1294.7500      0.0000    622.4225      2.6389    140.0321
  1295.0000      0.0000    667.2863      2.6627    129.1697
  1295.2500      0.0000    683.7410      2.6742    125.5520
  1295.5000      0.0000    695.1079      2.6650    128.3818
  1295.7500      0.0000    699.1239      2.6386    135.2483
  1296.0000      0.0000    703.5972      2.5914    148.5457
  1296.2500      0.0000    704.8172      2.5718    156.3133
  1296.5000      0.0000    702.2270      2.5697    163.8221
  1296.7500      2.0000    698.0640      2.5790    166.9694
  1297.0000      2.0000    691.4105      2.5873    172.0507
  1297.2500      0.0000    688.0828      2.5821    176.1974
  1297.5000      0.0000    683.5040      2.5745    180.6132
  1297.7500      0.0000    678.6037      2.5923    180.1233
  1298.0000      0.0000    664.9385      2.6697    174.0255
  1298.2500      0.0000    649.5905      2.7299    168.6538
  1298.5000      0.0000    613.7841      2.7639    162.8996
  1298.7500      0.0000    581.4062      2.7349    161.4993
  1299.0000      0.0000    527.1401      2.6614    161.8665
  1299.2500      0.0000    494.0032      2.6328    162.3709
  1299.5000      0.0000    457.8451      2.6488    161.2607
  1299.7500      0.0000    443.8925      2.6841    158.5278
  1300.0000      0.0000    435.0766      2.7304    151.8051
  1300.2500      0.0000    435.4628      2.7431    146.8303
  1300.5000      0.0000    445.9642      2.7490    141.6772
  1300.7500      0.0000    461.6482      2.7626    140.9573
  1301.0000      0.0000    500.6396      2.8093    143.0874
  1301.2500      0.0000    535.4506      2.8461    144.7988
  1301.5000      0.0000    592.8928      2.8782    145.4991
  1301.7500      0.0000    628.6382      2.8760    145.2197
  1302.0000      0.0000    669.6952      2.8458    146.5591
  1302.2500      0.0000    686.0707      2.8171    149.5103
  1302.5000      0.0000    695.1699      2.7732    155.2465
  1302.7500      0.0000    694.0571      2.7493    157.9827
  1303.0000      0.0000    687.9477      2.7360    158.9259
  1303.2500      0.0000    683.6656      2.7507    158.2280
  1303.5000      0.0000    679.0316      2.8074    157.3770
  1303.7500      0.0000    676.6896      2.8563    157.3010
  1304.0000      0.0000    670.4409      2.9199    156.7218
  1304.2500      0.0000    661.2072      2.9479    155.4592
  1304.5000      0.0000    638.0991      2.9723    153.3389
  1304.7500      0.0000    621.3000      2.9820    153.0285
  1305.0000      0.0000    609.6993      2.9892    154.5264
  1305.2500      0.0000    617.4540      2.9875    155.5024
  1305.5000      0.0000    648.1764      2.9793    155.0875
  1305.7500      0.0000    672.3499      2.9779    154.4891
  1306.0000      0.0000    699.4073      2.9937    156.8018
  1306.2500      0.0000    706.7694      3.0179    161.3365
  1306.5000      0.0000    699.1710      3.0683    169.9193
  1306.7500      0.0000    681.1528      3.1038    174.3777
