~Version Information
VERS.                      2.0: CWLS Log ASCII Standard - VERSION 2.0
WRAP.                       NO: One line per depth step
~Well Information Block
STRT.FT                 0.0000: 
STOP.FT               816.5000: 
STEP.FT                 0.1000: 
NULL.                -999.2500: 
COMP.          Pioneer Natural Resources: COMPANY
WELL.           Weissach 32-32: WELL
FLD.           Purgatorie River: FIELD
LOC.           2193' FNL & 2256' FEL: LOCATION
STAT.                 Colorado: State
CNTY.               Las Animas: COUNTY
CTRY. USA : Country
SECT. 32 : Section
TOWN. 33S : Township
RANG. 66W : Range
SRVC.                Patterson: SERVICE COMPANY
DATE.          Mon Sep 26 09:15:29 2005: LOG DATE
API. 05-071-08523                         : UNIQUE WELL ID
~Curve Information Block
DEPT.FT            0 000 00 00: Depth
DCAL.in                       : CDL Caliper
RHOB.g/cc                     : CDL Bulk Density
RHOC.g/cc                     : CDL Density Correction
DPOR.pu                       : CDL Density Porosity
GR.GAPI                       : Gamma Ray
NPOR.pu                       : Neutron Porosity
~Parameter Information Block
~A  Depth       DCAL        RHOB        RHOC        DPOR         GR         NPOR    
# ...
   105.6000     17.4836      2.1651      2.0000     -0.0097     92.4540     23.8783
   105.7000     17.4836      2.1545      2.0000     -0.0099    101.0868     24.1562
   105.8000     17.4790      2.1627      2.0000     -0.0098    103.9629     24.3073
   105.9000     17.4790      2.1744      2.0000     -0.0095    102.8899     24.1883
   106.0000     17.4820      2.1749      2.0000     -0.0095    100.5592     24.2381
   106.1000     17.4820      2.1697      2.0000     -0.0096     98.9082     24.7204
   106.2000     17.4820      2.1619      2.0000     -0.0098     99.9041     25.4565
   106.3000     17.4806      2.1456      2.0000     -0.0101    103.3298     26.0808
   106.4000     17.4806      2.1245      2.0000     -0.0105    108.4504     26.2204
   106.5000     17.4879      2.1123      2.0000     -0.0108    114.7551     26.1434
   106.6000     17.4879      2.1096      2.0000     -0.0108    120.0453     26.5052
   106.7000     17.4879      2.1068      2.0000     -0.0109    123.9611     27.3386
   106.8000     17.4849      2.0905      2.0000     -0.0112    125.9725     28.0729
   106.9000     17.4849      2.0591      2.0000     -0.0118    122.8958     28.2754
   107.0000     17.4842      2.0370      2.0000     -0.0123    117.4150     28.2063
   107.1000     17.4842      2.0446      2.0000     -0.0121    116.3964     28.3461
   107.2000     17.4842      2.0808      2.0000     -0.0114    119.5530     28.5855
   107.3000     17.4836      2.1276      2.0000     -0.0105    123.1614     28.6153
   107.4000     17.4836      2.1461      2.0000     -0.0101    124.1090     28.3945
   107.5000     17.4861      2.1188      2.0000     -0.0106    121.7184     28.1915
   107.6000     17.4861      2.0824      2.0000     -0.0114    119.9218     28.2082
   107.7000     17.4861      2.0639      2.0000     -0.0117    120.4586     28.2526
   107.8000     17.4833      2.0401      2.0000     -0.0122    119.5671     28.1856
   107.9000     17.4833      2.0027      2.0000     -0.0130    114.8406     28.1287
   108.0000     17.4823      1.9812      2.0000     -0.0134    109.7250     28.1088
   108.1000     17.4823      1.9812      2.0000     -0.0134    111.5178     28.0692
   108.2000     17.4823      1.9812      2.0000     -0.0134    119.9731     28.1852
   108.3000     17.4848      1.9794      2.0000     -0.0134    123.5061     28.5025
   108.4000     17.4848      1.9859      2.0000     -0.0133    118.3115     28.6030
   108.5000     17.4821      1.9856      2.0000     -0.0133    111.6525     28.0305
   108.6000     17.4821      1.9559      2.0000     -0.0139    106.8093     27.2399
   108.7000     17.4821      1.9258      2.0000     -0.0145    103.5326     27.2433
   108.8000     17.4827      1.9406      2.0000     -0.0142    101.2308     27.9484
   108.9000     17.4827      1.9885      2.0000     -0.0132    100.4230     28.4908
   109.0000     17.4901      2.0396      2.0000     -0.0122    101.8422     28.7832
   109.1000     17.4901      2.0826      2.0000     -0.0114    103.3632     29.2983
   109.2000     17.4901      2.1043      2.0000     -0.0109    106.0230     29.8199
   109.3000     17.4915      2.1044      2.0000     -0.0109    111.6346     29.7256
   109.4000     17.4915      2.1073      2.0000     -0.0109    116.6770     29.1070
   109.5000     17.4884      2.1345      2.0000     -0.0103    117.7036     28.3854
   109.6000     17.4884      2.1703      2.0000     -0.0096    116.5360     27.7009
   109.7000     17.4884      2.1876      2.0000     -0.0093    115.2580     27.3750
   109.8000     17.4937      2.1909      2.0000     -0.0092    113.5671     27.6051
   109.9000     17.4937      2.1987      2.0000     -0.0090    112.5087     27.9482
   110.0000     17.4919      2.2106      2.0000     -0.0088    113.8096     28.0770
   110.1000     17.4919      2.2146      2.0000     -0.0087    116.4122     28.0674
   110.2000     17.4919      2.2110      2.0000     -0.0088    116.8134     27.9124
   110.3000     17.4881      2.2080      2.0000     -0.0088    114.0874     27.6205
   110.4000     17.4881      2.2053      2.0000     -0.0089    110.3201     27.4293
   110.5000     17.4921      2.2071      2.0000     -0.0089    107.0058     27.5148
   110.6000     17.4921      2.2125      2.0000     -0.0088    105.7716     27.5907
   110.7000     17.4921      2.1999      2.0000     -0.0090    107.3414     27.3819
   110.8000     17.4938      2.1663      2.0000     -0.0097    107.7708     27.0902
   110.9000     17.4938      2.1353      2.0000     -0.0103    105.7553     27.0360
   111.0000     17.4804      2.1158      2.0000     -0.0107    107.8694     27.3700
   111.1000     17.4804      2.1099      2.0000     -0.0108    114.6879     27.9047
   111.2000     17.4804      2.1174      2.0000     -0.0107    120.6568     28.1833
   111.3000     17.4843      2.1291      2.0000     -0.0104    124.8164     27.9835
   111.4000     17.4843      2.1466      2.0000     -0.0101    126.3159     27.5933
   111.5000     17.4896      2.1721      2.0000     -0.0096    122.5198     27.2434
   111.6000     17.4896      2.1830      2.0000     -0.0093    116.4174     26.8950
   111.7000     17.4896      2.1642      2.0000     -0.0097    113.8869     26.6763
   111.8000     17.4865      2.1265      2.0000     -0.0105    113.6678     26.8527
   111.9000     17.4865      2.0872      2.0000     -0.0113    110.8901     27.2481
   112.0000     17.4880      2.0669      2.0000     -0.0117    107.1742     27.3186
   112.1000     17.4880      2.0689      2.0000     -0.0116    107.7017     27.1053
   112.2000     17.4880      2.0741      2.0000     -0.0115    112.1391     27.0085
   112.3000     17.4887      2.0785      2.0000     -0.0114    116.2812     26.9667
   112.4000     17.4887      2.1002      2.0000     -0.0110    118.9164     26.5999
   112.5000     17.4918      2.1428      2.0000     -0.0101    119.6385     26.0215
   112.6000     17.4918      2.1881      2.0000     -0.0092    115.1645     25.8358
   112.7000     17.4918      2.2283      2.0000     -0.0084    107.1639     26.2373
   112.8000     17.4921      2.2675      2.0000     -0.0077    102.2336     26.7796
   112.9000     17.4921      2.2944      2.0000     -0.0071    100.6276     26.8923
   113.0000     17.4902      2.2909      2.0000     -0.0072     97.8833     26.5344
   113.1000     17.4902      2.2524      2.0000     -0.0080     93.2628     26.1315
   113.2000     17.4902      2.1994      2.0000     -0.0090     90.0484     25.8736
   113.3000     17.4847      2.1702      2.0000     -0.0096     89.9956     25.7306
   113.4000     17.4847      2.1762      2.0000     -0.0095     91.5422     25.6955
   113.5000     17.4898      2.1880      2.0000     -0.0092     93.3938     25.5774
   113.6000     17.4898      2.1876      2.0000     -0.0093     94.3209     25.1740
   113.7000     17.4898      2.1900      2.0000     -0.0092     93.8985     24.7261
   113.8000     17.4890      2.2055      2.0000     -0.0089     94.6623     24.4234
   113.9000     17.4890      2.2239      2.0000     -0.0085     97.6333     24.2788
   114.0000     17.4911      2.2306      2.0000     -0.0084    100.4191     24.2926
   114.1000     17.4911      2.2267      2.0000     -0.0085    101.4974     24.2510
   114.2000     17.4911      2.2291      2.0000     -0.0084    102.0936     24.1627
   114.3000     17.4882      2.2344      2.0000     -0.0083    102.6053     24.1953
   114.4000     17.4882      2.2272      2.0000     -0.0085    102.4572     24.0814
   114.5000     17.4995      2.2196      2.0000     -0.0086    101.3567     23.7426
   114.6000     17.4995      2.2270      2.0000     -0.0085     99.7583     23.6060
   114.7000     17.4995      2.2415      2.0000     -0.0082     97.8471     24.0140
   114.8000     17.4908      2.2526      2.0000     -0.0080     93.0366     24.7087
   114.9000     17.4908      2.2578      2.0000     -0.0078     85.0825     25.1532
   115.0000     17.4888      2.2633      2.0000     -0.0077     78.6128     25.0613
   115.1000     17.4888      2.2748      2.0000     -0.0075     75.2477     24.6268
