~Version Information
VERS.                      2.0: CWLS Log ASCII Standard - VERSION 2.0
WRAP.                       NO: One line per depth step
~Well Information Block
STRT.FT               360.0000: 
STOP.FT              1349.5000: 
STEP.FT                 0.1000: 
NULL.                -999.2500: 
COMP.          Pioneer Natural Resources: COMPANY
WELL.          Challenger 31-29: WELL
FLD.           Purgatoire River: FIELD
LOC.           51' FNL & 1923' FEL: LOCATION
STAT.                 Colorado: State
CNTY.               Las Animas: COUNTY
CTRY. USA : Country
SECT. 29 : Section
TOWN. 33S : Township
RANG. 65W : Range
SRVC.                Patterson: SERVICE COMPANY
DATE.          Thu Sep 15 13:35:50 2005: LOG DATE
API.           05 071 08514 00: UNIQUE WELL ID
~Curve Information Block
DEPT.FT            0 000 00 00: Depth
DCAL.in                       : CDL Caliper
RHOB.g/cc                     : CDL Bulk Density
RHOC.g/cc                     : CDL Density Correction
DPOR.pu                       : CDL Density Porosity
GR.GAPI                       : Gamma Ray
NPOR.pu                       : Neutron Porosity
~Parameter Information Block
~A  Depth       DCAL        RHOB        RHOC        DPOR         GR         NPOR    
# ...
   878.4000      8.0418      2.3994      0.0315     15.1875     37.1123     12.7760
   878.5000      8.0370      2.4251      0.0644     13.6308     36.7489     12.4238
   878.6000      8.0370      2.4493      0.1240     12.1627     35.1595     12.3801
   878.7000      8.0370      2.4637      0.0972     11.2883     37.5721     12.8433
   878.8000      8.0257      2.4801      0.1128     10.2975     42.9401     13.4982
   878.9000      8.0257      2.4878      0.1532      9.8290     46.0233     13.8930
   879.0000      8.0377      2.4673      0.0853     11.0723     44.8023     13.9173
   879.1000      8.0377      2.4235      0.0681     13.7264     40.1812     13.8803
   879.2000      8.0377      2.3720      0.0305     16.8469     35.2458     13.9754
   879.3000      8.0541      2.3339     -0.0261     19.1597     33.8504     14.0745
   879.4000      8.0541      2.3288     -0.0004     19.4688     33.8077     13.9707
   879.5000      8.0598      2.3543      0.0299     17.9191     31.5425     13.5087
   879.6000      8.0598      2.3919      0.0366     15.6433     30.5129     12.8321
   879.7000      8.0598      2.4277      0.0279     13.4703     33.5799     12.4837
   879.8000      8.0748      2.4557      0.0620     11.7758     36.7358     12.7897
   879.9000      8.0748      2.4686      0.0805     10.9921     37.2738     13.5472
   880.0000      8.0852      2.4678      0.0824     11.0432     37.9301     14.4234
   880.1000      8.0852      2.4616      0.0551     11.4169     39.1889     15.4319
   880.2000      8.0852      2.4521      0.0484     11.9966     38.6915     16.2840
   880.3000      8.0864      2.4360      0.0956     12.9682     37.0044     16.1855
   880.4000      8.0864      2.4197      0.0188     13.9585     36.3776     15.5146
   880.5000      8.0811      2.4196      0.0421     13.9619     37.2703     15.3221
   880.6000      8.0811      2.4364      0.0786     12.9445     37.6191     15.6354
   880.7000      8.0811      2.4535      0.0558     11.9087     36.7663     15.9303
   880.8000      8.0598      2.4641      0.0240     11.2694     37.9488     16.0275
   880.9000      8.0598      2.4814      0.0442     10.2166     43.3767     16.1018
   881.0000      8.0669      2.5146      0.1051      8.2082     50.9247     16.3221
   881.1000      8.0669      2.5417      0.1357      6.5628     58.1081     16.6875
   881.2000      8.0669      2.5381      0.1532      6.7800     63.1913     17.0930
   881.3000      8.0353      2.5159      0.0627      8.1278     64.3602     17.5310
   881.4000      8.0353      2.5002      0.1030      9.0808     65.7402     18.1234
   881.5000      8.0412      2.4886      0.1016      9.7797     73.6139     18.8428
   881.6000      8.0412      2.4790      0.0213     10.3638     85.6425     19.6216
   881.7000      8.0412      2.4801      0.0517     10.2972     95.8530     20.4725
   881.8000      8.0432      2.4886      0.1165      9.7824    104.8312     21.1605
   881.9000      8.0432      2.5009      0.0943      9.0356    113.5303     21.6205
   882.0000      8.0879      2.5151      0.1106      8.1763    117.5575     22.3082
   882.1000      8.0879      2.5198      0.1115      7.8886    120.0134     23.0606
   882.2000      8.0879      2.5116      0.0700      8.3904    129.2739     23.3003
   882.3000      8.1428      2.5013      0.1005      9.0117    143.6792     23.3724
   882.4000      8.1428      2.4941      0.0602      9.4483    154.7731     23.5594
   882.5000      8.1418      2.4815      0.0773     10.2126    160.6458     23.3477
   882.6000      8.1418      2.4536      0.0322     11.9027    165.2006     22.8129
   882.7000      8.1418      2.4213      0.0197     13.8614    166.9046     22.8975
   882.8000      8.1357      2.4091     -0.0147     14.5979    162.9208     23.5514
   882.9000      8.1357      2.4178      0.0577     14.0699    159.9183     23.5836
   883.0000      8.1410      2.4289      0.0852     13.4014    162.0771     22.6211
   883.1000      8.1410      2.4409      0.0579     12.6729    163.3513     21.8137
   883.2000      8.1410      2.4570      0.1274     11.6967    159.6939     22.4042
   883.3000      8.1058      2.4676      0.1433     11.0547    154.7640     23.9927
   883.4000      8.1058      2.4785      0.1725     10.3927    153.3466     24.9938
   883.5000      8.0796      2.5072      0.1694      8.6545    152.4214     24.8345
   883.6000      8.0796      2.5479      0.2250      6.1897    146.6733     24.2098
   883.7000      8.0796      2.5780      0.2191      4.3614    140.7824     23.6224
   883.8000      8.0712      2.5829      0.2443      4.0660    141.8217     23.2157
   883.9000      8.0712      2.5552      0.1866      5.7475    144.2127     23.0707
   884.0000      8.0609      2.5012      0.2054      9.0201    142.5420     23.0907
   884.1000      8.0609      2.4475      0.1294     12.2713    140.3844     23.3497
   884.2000      8.0609      2.4258      0.0428     13.5860    137.3031     23.8836
   884.3000      8.0577      2.4412      0.0632     12.6538    135.9656     24.1103
   884.4000      8.0577      2.4736      0.0683     10.6897    142.9348     24.0268
   884.5000      8.0678      2.5103      0.1011      8.4645    152.5937     24.4174
   884.6000      8.0678      2.5454      0.1561      6.3415    155.9181     24.8116
   884.7000      8.0678      2.5710      0.1830      4.7861    153.4586     24.0989
   884.8000      8.0968      2.5868      0.1862      3.8313    150.9554     22.8260
   884.9000      8.0968      2.5922      0.2872      3.5001    148.1652     22.4732
   885.0000      8.0957      2.5795      0.3099      4.2712    139.3732     23.2233
   885.1000      8.0957      2.5527      0.1729      5.8973    127.4378     24.1877
   885.2000      8.0957      2.5320      0.1242      7.1535    122.2190     25.0330
   885.3000      8.0829      2.5292      0.1149      7.3194    125.8694     25.5144
   885.4000      8.0829      2.5492      0.1031      6.1073    132.0686     25.1663
   885.5000      8.0571      2.5867      0.1041      3.8375    135.7116     24.4828
   885.6000      8.0571      2.6110      0.1711      2.3609    133.4225     24.2819
   885.7000      8.0571      2.5930      0.1715      3.4527    126.6324     24.1638
   885.8000      8.0531      2.5487      0.1107      6.1370    124.6435     23.5995
   885.9000      8.0531      2.5131      0.1361      8.2977    129.9438     22.9093
   886.0000      8.0546      2.4838      0.1314     10.0707    133.8422     22.5175
   886.1000      8.0546      2.4512      0.0188     12.0469    129.0669     22.7662
   886.2000      8.0546      2.4360      0.0175     12.9725    118.7156     23.6933
   886.3000      8.0312      2.4513      0.0645     12.0447    112.0289     24.8918
   886.4000      8.0312      2.4808      0.1030     10.2567    113.0116     25.5039
   886.5000      8.0137      2.5090      0.0528      8.5457    119.6859     25.2880
   886.6000      8.0137      2.5357      0.0984      6.9265    124.4178     25.0748
   886.7000      8.0137      2.5563      0.1447      5.6789    121.1303     25.4466
   886.8000      8.0163      2.5606      0.1921      5.4188    116.4104     26.1711
   886.9000      8.0163      2.5543      0.1052      5.7971    118.0594     26.6869
   887.0000      8.0450      2.5598      0.1852      5.4691    124.8519     26.8556
   887.1000      8.0450      2.5826      0.1817      4.0838    133.1027     26.9412
   887.2000      8.0450      2.6064      0.1951      2.6434    139.7038     26.9796
   887.3000      8.0369      2.6190      0.2193      1.8813    142.4625     26.8123
   887.4000      8.0369      2.6320      0.1655      1.0882    142.2612     26.8772
   887.5000      8.0228      2.6576      0.2095     -0.4624    141.1864     27.7218
   887.6000      8.0228      2.6773      0.2145     -1.6523    141.4293     28.9988
   887.7000      8.0228      2.6709      0.1747     -1.2669    143.2833     29.6197
   887.8000      8.0231      2.6487      0.1584      0.0806    143.1804     28.8351
   887.9000      8.0231      2.6296      0.1303      1.2359    138.5882     27.4743
