~Version Information
VERS.                      2.0: CWLS Log ASCII Standard - VERSION 2.0
WRAP.                       NO: One line per depth step
~Well Information Block
STRT.FT               550.0000: 
STOP.FT              1498.5000: 
STEP.FT                 0.1000: 
NULL.                -999.2500: 
COMP.          Pioneer Natural Resources: COMPANY
WELL.          Surtees 23-34 Tr: WELL
FLD.           Purgatoire River: FIELD
LOC.           1559' FSL & 1997' FWL: LOCATION
PROV.                 Colorado: PROVINCE
CNTY.               Las Animas: COUNTRY
SRVC.                Patterson: SERVICE COMPANY
DATE.          Wed Jul 27 09:35:51 2005: LOG DATE
UWI.           05 071 08449 00: UNIQUE WELL ID
~Curve Information Block
DEPT.FT            0 000 00 00: Depth
DCAL.in                       : CDL Caliper
RHOB.g/cc                     : CDL Bulk Density
RHOC.g/cc                     : CDL Density Correction
DPOR.pu                       : CDL Density Porosity
GR.GAPI                       : Gamma Ray
NPOR.pu                       : Neutron Porosity
~Parameter Information Block
~A  Depth       DCAL        RHOB        RHOC        DPOR         GR         NPOR    
# ...
   924.4000      8.0486      2.5000      0.0730      9.0914     38.3423     15.9226
   924.5000      8.0792      2.4843      0.0308     10.0435     40.2541     16.5584
   924.6000      8.0792      2.4588      0.0227     11.5883     40.6859     16.8806
   924.7000      8.0792      2.4389     -0.0372     12.7945     40.1931     16.6945
   924.8000      8.0788      2.4453      0.0334     12.4048     41.8263     16.5501
   924.9000      8.0788      2.4643      0.0699     11.2525     47.1871     16.7347
   925.0000      8.0861      2.4832      0.0141     10.1083     54.4626     17.1066
   925.1000      8.0861      2.5175      0.0486      8.0315     61.7483     17.8826
   925.2000      8.0861      2.5728      0.0889      4.6814     69.9061     19.1855
   925.3000      8.0665      2.6284      0.1122      1.3067     79.1257     20.3367
   925.4000      8.0665      2.6663      0.1436     -0.9865     87.3294     20.4623
   925.5000      8.0626      2.6893      0.0925     -2.3847     93.8310     20.1265
   925.6000      8.0626      2.6981      0.1339     -2.9129    100.7560     20.6234
   925.7000      8.0626      2.6736      0.1639     -1.4317    107.7282     21.9086
   925.8000      8.0440      2.6195      0.0537      1.8514    113.0802     23.1426
   925.9000      8.0440      2.5786      0.0270      4.3256    119.2551     24.1791
   926.0000      7.9878      2.5793      0.0571      4.2822    127.4354     25.3178
   926.1000      7.9878      2.6067      0.0765      2.6251    134.8479     26.4436
   926.2000      7.9878      2.6290      0.1114      1.2724    138.6038     26.8932
   926.3000      7.9941      2.6328      0.0270      1.0415    139.4266     26.5709
   926.4000      7.9941      2.6253      0.0620      1.4989    140.3390     26.0144
   926.5000      8.1097      2.6071      0.0545      2.6015    140.4467     25.7940
   926.6000      8.1097      2.5733      0.0567      4.6505    139.5695     26.2052
   926.7000      8.1097      2.5300      0.0415      7.2743    144.2069     26.6733
   926.8000      8.1327      2.4915      0.0445      9.6046    153.1385     26.6044
   926.9000      8.1327      2.4676      0.0199     11.0560    156.1614     25.8513
   927.0000      8.1434      2.4649      0.0059     11.2167    150.2704     24.9813
   927.1000      8.1434      2.4839      0.0115     10.0674    137.0296     25.0373
   927.2000      8.1434      2.5131      0.0367      8.2991    120.7551     25.6439
   927.3000      8.1399      2.5357      0.0824      6.9295    111.2904     25.5661
   927.4000      8.1399      2.5432      0.0638      6.4743    113.9265     25.1123
   927.5000      8.1266      2.5446      0.0662      6.3884    121.9986     25.1388
   927.6000      8.1266      2.5465      0.0901      6.2729    124.6347     25.4168
   927.7000      8.1266      2.5385      0.0939      6.7570    124.0415     25.6525
   927.8000      8.1160      2.5234      0.0246      7.6740    126.7302     25.8892
   927.9000      8.1160      2.5257      0.0038      7.5306    127.6728     26.2807
   928.0000      8.0824      2.5487      0.0665      6.1424    123.9739     26.8641
   928.1000      8.0824      2.5690      0.0603      4.9093    119.2543     27.3263
   928.2000      8.0824      2.5737      0.0592      4.6221    114.4182     27.4538
   928.3000      8.0715      2.5556      0.1311      5.7190    110.6255     27.0035
   928.4000      8.0715      2.5168      0.0632      8.0757    112.2357     26.1352
   928.5000      8.0746      2.4894     -0.0216      9.7338    119.0190     25.4486
   928.6000      8.0746      2.4990      0.0100      9.1497    124.3485     25.1679
   928.7000      8.0746      2.5210      0.1225      7.8166    125.9802     25.1088
   928.8000      8.0568      2.5209      0.0689      7.8233    124.4581     25.1641
   928.9000      8.0568      2.5098      0.0199      8.4998    119.1862     25.1594
   929.0000      8.0450      2.5114      0.0829      8.3975    114.3102     25.1374
   929.1000      8.0450      2.5236      0.0561      7.6594    112.3893     25.4947
   929.2000      8.0450      2.5385      0.0905      6.7547    109.7555     26.0657
   929.3000      8.0504      2.5447      0.1056      6.3841    107.6958     25.9870
   929.4000      8.0504      2.5300      0.1243      7.2755    111.4102     25.0600
   929.5000      8.0539      2.5073      0.0706      8.6476    118.3457     23.9494
   929.6000      8.0539      2.4937      0.0964      9.4743    121.2134     23.4484
   929.7000      8.0539      2.4830      0.0657     10.1234    118.9548     24.1592
   929.8000      8.0595      2.4676      0.0691     11.0531    115.3401     25.8209
   929.9000      8.0595      2.4616      0.0373     11.4170    112.0311     26.8950
   930.0000      8.0315      2.4838      0.0625     10.0710    111.5659     26.1787
   930.1000      8.0315      2.5194      0.1591      7.9179    113.0068     24.5130
   930.2000      8.0315      2.5356      0.1099      6.9325    112.5797     23.6007
   930.3000      8.0238      2.5302      0.0759      7.2636    111.7036     18.9835
   930.4000      8.0238      2.5285      0.0827      7.3644    111.6386     19.9934
   930.5000      8.0104      2.5475      0.0609      6.2122    110.2142     20.6680
   930.6000      8.0104      2.5653      0.1641      5.1326    108.4738     20.2700
   930.7000      8.0104      2.5481      0.1023      6.1760    108.1420     18.9168
   930.8000      8.0150      2.5069      0.0503      8.6751    105.6450     17.4818
   930.9000      8.0150      2.4750      0.0643     10.6067    101.8548     16.9146
   931.0000      8.0086      2.4644      0.0532     11.2499    102.0991     17.4744
   931.1000      8.0086      2.4753      0.0238     10.5870    104.0942     18.3663
   931.2000      8.0086      2.5049      0.0608      8.7951    103.2257     18.6223
   931.3000      8.0120      2.5396      0.0425      6.6935    101.9442     18.2333
   931.4000      8.0120      2.5612      0.0884      5.3806    102.3906     17.6892
   931.5000      8.0383      2.5655      0.1361      5.1188    101.2313     17.3436
   931.6000      8.0383      2.5686      0.1171      4.9304     96.8063     16.6580
   931.7000      8.0383      2.5825      0.1503      4.0935     92.4562     15.5475
   931.8000      8.0180      2.5969      0.1727      3.2174     90.8633     15.1740
   931.9000      8.0180      2.6058      0.1203      2.6760     90.0104     15.7380
   932.0000      7.9963      2.6110      0.1625      2.3638     87.6029     16.5312
   932.1000      7.9963      2.5975      0.1962      3.1803     85.3339     16.7937
   932.2000      7.9963      2.5564      0.1245      5.6752     86.4356     16.5093
   932.3000      8.0262      2.5076      0.0876      8.6325     91.0195     16.3171
   932.4000      8.0262      2.4703      0.0992     10.8914     97.4236     16.5482
   932.5000      8.0766      2.4462      0.0553     12.3525    105.9865     17.0866
   932.6000      8.0766      2.4239      0.0510     13.7028    115.1159     17.7335
   932.7000      8.0766      2.3801      0.0494     16.3577    119.2255     18.5063
   932.8000      8.0927      2.3074      0.0141     20.7622    115.5639     19.5533
   932.9000      8.0927      2.2221     -0.0114     25.9326    107.7831     20.9835
   933.0000      8.1001      2.1312      0.0229     31.4441     99.3148     22.8456
   933.1000      8.1001      2.0315      0.0354     37.4870     92.7103     24.8356
   933.2000      8.1001      1.9365      0.0052     43.2444     92.3663     26.1482
   933.3000      8.1157      1.8560      0.0316     48.1193     96.5986     26.5166
   933.4000      8.1157      1.7751      0.0092     53.0224     98.2155     26.5246
   933.5000      8.1327      1.6876     -0.0298     58.3295     95.3420     26.7291
   933.6000      8.1327      1.6095     -0.0703     63.0586     91.9128     27.3358
   933.7000      8.1327      1.5505     -0.0264     66.6347     91.2792     28.1967
   933.8000      8.1952      1.5094     -0.0424     69.1267     94.2008     28.6564
   933.9000      8.1952      1.4937     -0.0056     70.0761     98.7318     28.7866
