~Version Information
VERS.                      2.0: CWLS Log ASCII Standard - VERSION 2.0
WRAP.                       NO: One line per depth step
~Well Information Block
STRT.FT               845.0000: 
STOP.FT              2103.2000: 
STEP.FT                 0.1000: 
NULL.                -999.2500: 
COMP.          Petrogulf Corporation: COMPANY
WELL.               YWAM 7-32R: WELL
FLD.           Purgatorie River: FIELD
LOC.           2355' FNL & 2376' FEL: LOCATION
PROV.                 Colorado: PROVINCE
CNTY.               Las Animas: COUNTRY
SRVC.                Patterson: SERVICE COMPANY
DATE.          Thu Sep 29 23:12:08 2005: LOG DATE
UWI.                          : UNIQUE WELL ID
~Curve Information Block
DEPT.FT            0 000 00 00: Depth
SP.mV                         : DIL Spontaneous Potential
RILD.Ohm-m                    : DIL Deep Resistivity
RILM.Ohm-m                    : DIL Medium Resistivity
RLL3.Ohm-m                    : DIL Shallow Resistivity
GR.GAPI                       : Gamma Ray
~Parameter Information Block
~A  Depth        SP         RILD        RILM        RLL3         GR     
# ...
  1505.8000    168.2703     31.1813     35.1744     41.7953     59.2690
  1505.9000    168.2703     31.1813     35.1744     41.7953     60.4788
  1506.0000    167.5426     31.2884     35.3562     42.5766     61.9101
  1506.1000    167.5426     31.2884     35.3562     42.5766     63.5330
  1506.2000    167.5426     31.2884     35.3562     42.5766     65.2959
  1506.3000    167.2367     31.3561     35.5887     43.8518     67.1222
  1506.4000    167.2367     31.3561     35.5887     43.8518     68.9190
  1506.5000    167.4094     31.3445     35.8493     45.5572     70.5848
  1506.6000    167.4094     31.3445     35.8493     45.5572     72.0237
  1506.7000    167.4094     31.3445     35.8493     45.5572     73.1589
  1506.8000    168.1035     31.2159     36.0955     47.5514     73.9428
  1506.9000    168.1035     31.2159     36.0955     47.5514     74.3635
  1507.0000    169.3399     30.9406     36.2626     49.9705     74.4457
  1507.1000    169.3399     30.9406     36.2626     49.9705     74.2481
  1507.2000    169.3399     30.9406     36.2626     49.9705     73.8521
  1507.3000    171.1077     30.5020     36.2665     53.4229     73.3517
  1507.4000    171.1077     30.5020     36.2665     53.4229     72.8414
  1507.5000    173.3523     29.8992     36.0120     58.4165     72.4035
  1507.6000    173.3523     29.8992     36.0120     58.4165     72.0992
  1507.7000    173.3523     29.8992     36.0120     58.4165     71.9655
  1507.8000    175.9706     29.1446     35.4108     64.1851     72.0110
  1507.9000    175.9706     29.1446     35.4108     64.1851     72.2252
  1508.0000    178.8204     28.2614     34.4080     68.2323     72.5869
  1508.1000    178.8204     28.2614     34.4080     68.2323     73.0741
  1508.2000    178.8204     28.2614     34.4080     68.2323     73.6773
  1508.3000    181.7405     27.2805     33.0052     67.6931     74.4078
  1508.4000    181.7405     27.2805     33.0052     67.6931     75.3046
  1508.5000    184.5709     26.2367     31.2684     61.6071     76.4259
  1508.6000    184.5709     26.2367     31.2684     61.6071     77.8398
  1508.7000    184.5709     26.2367     31.2684     61.6071     79.6130
  1508.8000    187.1673     25.1641     29.3133     51.8390     81.7890
  1508.9000    187.1673     25.1641     29.3133     51.8390     84.3792
  1509.0000    189.4147     24.0951     27.2742     41.7174     87.3539
  1509.1000    189.4147     24.0951     27.2742     41.7174     90.6432
  1509.2000    189.4147     24.0951     27.2742     41.7174     94.1490
  1509.3000    191.2452     23.0623     25.2747     33.8347     97.7504
  1509.4000    191.2452     23.0623     25.2747     33.8347    101.3225
  1509.5000    192.6503     22.1005     23.4091     28.9080    104.7475
  1509.6000    192.6503     22.1005     23.4091     28.9080    107.9228
  1509.7000    192.6503     22.1005     23.4091     28.9080    110.7647
  1509.8000    193.6772     21.2435     21.7392     26.1491    113.2185
  1509.9000    193.6772     21.2435     21.7392     26.1491    115.2502
  1510.0000    194.4041     20.5183     20.2997     24.3176    116.8569
  1510.1000    194.4041     20.5183     20.2997     24.3176    118.0642
  1510.2000    194.4041     20.5183     20.2997     24.3176    118.9328
  1510.3000    194.9100     19.9387     19.1066     22.5510    119.5552
  1510.4000    194.9100     19.9387     19.1066     22.5510    120.0588
  1510.5000    195.2541     19.5050     18.1642     20.6230    120.5977
  1510.6000    195.2541     19.5050     18.1642     20.6230    121.3380
  1510.7000    195.2541     19.5050     18.1642     20.6230    122.4345
  1510.8000    195.4764     19.2052     17.4705     18.7655    124.0124
  1510.9000    195.4764     19.2052     17.4705     18.7655    126.1438
  1511.0000    195.6067     19.0201     17.0194     17.3845    128.8233
  1511.1000    195.6067     19.0201     17.0194     17.3845    131.9606
  1511.2000    195.6067     19.0201     17.0194     17.3845    135.3862
  1511.3000    195.6713     18.9261     16.8022     16.9145    138.8653
  1511.4000    195.6713     18.9261     16.8022     16.9145    142.1287
  1511.5000    195.6899     18.9007     16.8070     17.7818    144.9092
  1511.6000    195.6899     18.9007     16.8070     17.7818    146.9790
  1511.7000    195.6899     18.9007     16.8070     17.7818    148.1751
  1511.8000    195.6717     18.9269     17.0176     20.2711    148.4146
  1511.9000    195.6717     18.9269     17.0176     20.2711    147.6915
  1512.0000    195.6132     18.9979     17.4130     24.2283    146.0603
  1512.1000    195.6132     18.9979     17.4130     24.2283    143.6117
  1512.2000    195.6132     18.9979     17.4130     24.2283    140.4486
  1512.3000    195.4957     19.1193     17.9664     28.8687    136.6650
  1512.4000    195.4957     19.1193     17.9664     28.8687    132.3446
  1512.5000    195.2824     19.3073     18.6468     33.0333    127.5544
  1512.6000    195.2824     19.3073     18.6468     33.0333    122.3654
  1512.7000    195.2824     19.3073     18.6468     33.0333    116.8604
  1512.8000    194.9239     19.5866     19.4217     35.8149    111.1421
  1512.9000    194.9239     19.5866     19.4217     35.8149    105.3384
  1513.0000    194.3727     19.9870     20.2613     37.0216     99.5942
  1513.1000    194.3727     19.9870     20.2613     37.0216     94.0578
  1513.2000    194.3727     19.9870     20.2613     37.0216     88.8689
  1513.3000    193.5980     20.5400     21.1425     37.0882     84.1436
  1513.4000    193.5980     20.5400     21.1425     37.0882     79.9669
  1513.5000    192.5868     21.2723     22.0502     36.6251     76.3916
  1513.6000    192.5868     21.2723     22.0502     36.6251     73.4382
  1513.7000    192.5868     21.2723     22.0502     36.6251     71.1076
  1513.8000    191.3342     22.1960     22.9768     36.0559     69.3849
  1513.9000    191.3342     22.1960     22.9768     36.0559     68.2429
  1514.0000    189.8362     23.2974     23.9184     35.5256     67.6585
  1514.1000    189.8362     23.2974     23.9184     35.5256     67.6022
  1514.2000    189.8362     23.2974     23.9184     35.5256     68.0466
  1514.3000    188.0955     24.5306     24.8712     34.9853     68.9574
  1514.4000    188.0955     24.5306     24.8712     34.9853     70.2920
  1514.5000    186.1361     25.8208     25.8288     34.3592     71.9880
  1514.6000    186.1361     25.8208     25.8288     34.3592     73.9616
  1514.7000    186.1361     25.8208     25.8288     34.3592     76.1022
  1514.8000    184.0120     27.0791     26.7817     33.7508     78.2781
  1514.9000    184.0120     27.0791     26.7817     33.7508     80.3376
  1515.0000    181.7997     28.2216     27.7173     33.5442     82.1227
  1515.1000    181.7997     28.2216     27.7173     33.5442     83.4916
  1515.2000    181.7997     28.2216     27.7173     33.5442     84.3260
  1515.3000    179.5775     29.1881     28.6213     34.2136     84.5488
  1515.4000    179.5775     29.1881     28.6213     34.2136     84.1326
  1515.5000    177.4063     29.9530     29.4801     35.9086     83.1019
  1515.6000    177.4063     29.9530     29.4801     35.9086     81.5250
  1515.7000    177.4063     29.9530     29.4801     35.9086     79.5059
  1515.8000    175.3218     30.5293     30.2814     38.1981     77.1710
  1515.9000    175.3218     30.5293     30.2814     38.1981     74.6562
  1516.0000    173.3386     30.9619     31.0166     40.2807     72.0946
  1516.1000    173.3386     30.9619     31.0166     40.2807     69.6069
  1516.2000    173.3386     30.9619     31.0166     40.2807     67.2965
  1516.3000    171.4591     31.3130     31.6830     41.4936     65.2445
  1516.4000    171.4591     31.3130     31.6830     41.4936     63.5067
  1516.5000    169.6805     31.6455     32.2856     41.6771     62.1140
  1516.6000    169.6805     31.6455     32.2856     41.6771     61.0769
  1516.7000    169.6805     31.6455     32.2856     41.6771     60.3836
  1516.8000    167.9981     32.0088     32.8374     41.1779     60.0090
  1516.9000    167.9981     32.0088     32.8374     41.1779     59.9166
