~Version Information
VERS.                      2.0: CWLS Log ASCII Standard - VERSION 2.0
WRAP.                       NO: One line per depth step
~Well Information Block
STRT.FT               550.0000: 
STOP.FT              1500.5000: 
STEP.FT                 0.2500: 
NULL.                -999.2500: 
COMP.          Pioneer Natural Resources: COMPANY
WELL.          Surtees 23-34 Tr: WELL
FLD.           Purgatoire River: FIELD
LOC.           1559' FSL & 1997' FWL: LOCATION
PROV.                 Colorado: PROVINCE
CNTY.               Las Animas: COUNTRY
SRVC.                Patterson: SERVICE COMPANY
DATE.          Tue Jul 26 23:47:42 2005: LOG DATE
UWI.           05 071 08449 00: UNIQUE WELL ID
~Curve Information Block
DEPT.FT            0 000 00 00: Depth
SN.Ohm-m                      : IEL Short Normal
SP.mV                         : IEL Spontaneous Potential
DIR.Ohm-m                     : IEL Induction Resistivity
GR.GAPI                       : Gamma Ray
~Parameter Information Block
~A  Depth        SN          SP         DIR          GR     
# ...
   784.5000   2000.0000   2000.0000     10.9594    131.2580
   784.7500   2000.0000   2000.0000     11.2868    124.1055
   785.0000   2000.0000   2000.0000     11.5725    111.7552
   785.2500   2000.0000   2000.0000     11.8093    103.6665
   785.5000   2000.0000   2000.0000     12.0004     93.8578
   785.7500   2000.0000   2000.0000     12.1573     89.8180
   786.0000   2000.0000   2000.0000     12.2948     88.5501
   786.2500   2000.0000   2000.0000     12.4242     91.0660
   786.5000   2000.0000   2000.0000     12.5472     99.0878
   786.7500   2000.0000   2000.0000     12.6550    106.2257
   787.0000   2000.0000   2000.0000     12.7335    117.4465
   787.2500   2000.0000   2000.0000     12.7695    124.1487
   787.5000   2000.0000   2000.0000     12.7525    131.8049
   787.7500   2000.0000   2000.0000     12.6742    135.0974
   788.0000   2000.0000   2000.0000     12.5329    137.6893
   788.2500   2000.0000   2000.0000     12.3395    138.2493
   788.5000   2000.0000   2000.0000     12.1188    137.7126
   788.7500   2000.0000   2000.0000     11.9033    136.3945
   789.0000   2000.0000   2000.0000     11.7252    133.1380
   789.2500   2000.0000   2000.0000     11.6105    130.7469
   789.5000   2000.0000   2000.0000     11.5762    128.3498
   789.7500   2000.0000   2000.0000     11.6305    127.9248
   790.0000   2000.0000   2000.0000     11.7730    128.1834
   790.2500   2000.0000   2000.0000     11.9975    127.9438
   790.5000   2000.0000   2000.0000     12.2941    125.4354
   790.7500   2000.0000   2000.0000     12.6484    121.9386
   791.0000   2000.0000   2000.0000     13.0407    114.3688
   791.2500   2000.0000   2000.0000     13.4482    108.5424
   791.5000   2000.0000   2000.0000     13.8528    100.3819
   791.7500   2000.0000   2000.0000     14.2475     96.2763
   792.0000   2000.0000   2000.0000     14.6369     92.9344
   792.2500   2000.0000   2000.0000     15.0298     92.4022
   792.5000   2000.0000   2000.0000     15.4294     93.2887
   792.7500   2000.0000   2000.0000     15.8273     94.7156
   793.0000   2000.0000   2000.0000     16.2028     98.2417
   793.2500   2000.0000   2000.0000     16.5275    101.6555
   793.5000   2000.0000   2000.0000     16.7730    108.0725
   793.7500   2000.0000   2000.0000     16.9206    112.6135
   794.0000   2000.0000   2000.0000     16.9643    118.4389
   794.2500   2000.0000   2000.0000     16.9066    121.0803
   794.5000   2000.0000   2000.0000     16.7504    123.0813
   794.7500   2000.0000   2000.0000     16.4981    123.4240
   795.0000   2000.0000   2000.0000     16.1617    123.0276
   795.2500   2000.0000   2000.0000     15.7707    122.4240
   795.5000   2000.0000   2000.0000     15.3670    121.5618
   795.7500   2000.0000   2000.0000     14.9919    121.3243
   796.0000   2000.0000   2000.0000     14.6753    121.5030
   796.2500   2000.0000   2000.0000     14.4348    121.6962
   796.5000   2000.0000   2000.0000     14.2786    121.6714
   796.7500   2000.0000   2000.0000     14.2056    121.4453
   797.0000   2000.0000   2000.0000     14.2030    121.0535
   797.2500   2000.0000   2000.0000     14.2467    120.8820
   797.5000   2000.0000   2000.0000     14.3087    120.7744
   797.7500   2000.0000   2000.0000     14.3675    120.6630
   798.0000   2000.0000   2000.0000     14.4150    119.8966
   798.2500   2000.0000   2000.0000     14.4555    118.6508
   798.5000   2000.0000   2000.0000     14.4970    115.6658
   798.7500   2000.0000   2000.0000     14.5434    113.4173
   799.0000   2000.0000   2000.0000     14.5941    110.9123
   799.2500   2000.0000   2000.0000     14.6496    110.3611
   799.5000   2000.0000   2000.0000     14.7138    111.1663
   799.7500   2000.0000   2000.0000     14.7888    112.1632
   800.0000   2000.0000   2000.0000     14.8650    112.9581
   800.2500   2000.0000   2000.0000     14.9215    112.6470
   800.5000   2000.0000   2000.0000     14.9393    111.7137
   800.7500   2000.0000   2000.0000     14.9168    111.8654
   801.0000   2000.0000   2000.0000     14.8732    114.8018
   801.2500   2000.0000   2000.0000     14.8365    118.5572
   801.5000   2000.0000   2000.0000     14.8301    125.2456
   801.7500   2000.0000   2000.0000     14.8661    129.1353
   802.0000   2000.0000   2000.0000     14.9445    132.5676
   802.2500   2000.0000   2000.0000     15.0540    132.9648
   802.5000   2000.0000   2000.0000     15.1709    131.3183
   802.7500   2000.0000   2000.0000     15.2598    129.6082
   803.0000   2000.0000   2000.0000     15.2807    127.8199
   803.2500   2000.0000   2000.0000     15.2075    127.6570
   803.5000   2000.0000   2000.0000     15.0487    128.4836
   803.7500   2000.0000   2000.0000     14.8520    128.9746
   804.0000   2000.0000   2000.0000     14.6851    128.4621
   804.2500   2000.0000   2000.0000     14.6053    127.0877
   804.5000   2000.0000   2000.0000     14.6395    123.9966
   804.7500   2000.0000   2000.0000     14.7805    121.7590
   805.0000   2000.0000   2000.0000     14.9951    118.6572
   805.2500   2000.0000   2000.0000     15.2352    116.7415
   805.5000   2000.0000   2000.0000     15.4508    113.9879
   805.7500   2000.0000   2000.0000     15.6018    112.4398
   806.0000   2000.0000   2000.0000     15.6649    111.3578
   806.2500   2000.0000   2000.0000     15.6318    111.8182
   806.5000   2000.0000   2000.0000     15.5051    113.8869
   806.7500   2000.0000   2000.0000     15.2995    115.3395
   807.0000   2000.0000   2000.0000     15.0457    116.1665
   807.2500   2000.0000   2000.0000     14.7873    115.6565
   807.5000   2000.0000   2000.0000     14.5624    114.5252
   807.7500   2000.0000   2000.0000     14.3850    114.6428
   808.0000   2000.0000   2000.0000     14.2388    117.5169
   808.2500   2000.0000   2000.0000     14.0912    121.3023
   808.5000   2000.0000   2000.0000     13.9181    128.3389
   808.7500   2000.0000   2000.0000     13.7197    132.3619
   809.0000   2000.0000   2000.0000     13.5149    134.8163
   809.2500   2000.0000   2000.0000     13.3237    133.6349
   809.5000   2000.0000   2000.0000     13.1558    129.3098
   809.7500   2000.0000   2000.0000     13.0142    126.3200
   810.0000   2000.0000   2000.0000     12.9057    123.4139
   810.2500   2000.0000   2000.0000     12.8463    122.5245
   810.5000   2000.0000   2000.0000     12.8557    121.8179
   810.7500   2000.0000   2000.0000     12.9452    121.3716
   811.0000   2000.0000   2000.0000     13.1096    120.7884
   811.2500   2000.0000   2000.0000     13.3276    120.5283
   811.5000   2000.0000   2000.0000     13.5730    119.6920
   811.7500   2000.0000   2000.0000     13.8287    118.0644
   812.0000   2000.0000   2000.0000     14.0918    112.9548
   812.2500   2000.0000   2000.0000     14.3652    107.8018
   812.5000   2000.0000   2000.0000     14.6428     98.7826
   812.7500   2000.0000   2000.0000     14.9041     93.1011
   813.0000   2000.0000   2000.0000     15.1224     86.9298
   813.2500   2000.0000   2000.0000     15.2780     85.0037
   813.5000   2000.0000   2000.0000     15.3602     85.4985
   813.7500   2000.0000   2000.0000     15.3609     87.7077
   814.0000   2000.0000   2000.0000     15.2728     92.9062
   814.2500   2000.0000   2000.0000     15.1014     97.0912
   814.5000   2000.0000   2000.0000     14.8793    103.5493
   814.7500   2000.0000   2000.0000     14.6618    107.4559
   815.0000   2000.0000   2000.0000     14.5018    112.2628
   815.2500   2000.0000   2000.0000     14.4230    115.0074
   815.5000   2000.0000   2000.0000     14.4136    119.4861
   815.7500   2000.0000   2000.0000     14.4427    123.2112
   816.0000   2000.0000   2000.0000     14.4832    129.6495
   816.2500   2000.0000   2000.0000     14.5238    133.5264
   816.5000   2000.0000   2000.0000     14.5664    136.3464
   816.7500   2000.0000   2000.0000     14.6144    135.2577
   817.0000   2000.0000   2000.0000     14.6680    129.1873
   817.2500   2000.0000   2000.0000     14.7271    123.0245
   817.5000   2000.0000   2000.0000     14.8006    112.7418
   817.7500   2000.0000   2000.0000     14.9103    106.6238
