~Version Information
VERS.                      2.0: CWLS Log ASCII Standard - VERSION 2.0
WRAP.                       NO: One line per depth step
~Well Information Block
STRT.FT                -6.7500: 
STOP.FT              1544.5000: 
STEP.FT                 0.2500: 
NULL.                -999.2500: 
COMP.          Pioneer Natural Resources: COMPANY
WELL.          Lorencito 10-36-33-67: WELL
FLD.           Purgatorie River: FIELD
LOC.           2130' FSL & 2362' FEL--: LOCATION
STAT.                       CO: State
CNTY.               Las Animas: COUNTY
CTRY. USA : Country
SECT. 36 : Section
TOWN. 33S : Township
RANG. 67W : Range
SRVC.          Patterson Wireline: SERVICE COMPANY
DATE.          Fri Sep 02 09:21:42 2005: LOG DATE
API.           05 071 08501 00: UNIQUE WELL ID
~Curve Information Block
DEPT.FT            0 000 00 00: Depth
CCL.                          : Casing Collar Locator
TT3.usec                      : CBL 3' Travel Time
AMP3.mV                       : CBL 3' Amplitude
GR.GAPI                       : Gamma Ray
~Parameter Information Block
~A  Depth       CCL         TT3         AMP3         GR     
# ...
   998.2500      0.0000    712.2389      7.8190    129.3003
   998.5000      0.0000    712.6669      7.8854    133.4319
   998.7500      0.0000    714.2196      7.9438    136.7102
   999.0000      0.0000    717.5533      7.9790    138.6895
   999.2500      0.0000    722.8037      7.9857    138.7914
   999.5000      0.0000    729.0267      7.9666    136.7861
   999.7500      0.0000    734.6867      7.9279    133.6821
  1000.0000      0.0000    738.9991      7.8770    131.3087
  1000.2500      0.0000    742.1942      7.8221    130.7822
  1000.5000      0.0000    744.2325      7.7755    132.0846
  1000.7500      0.0000    744.1802      7.7542    135.0707
  1001.0000      0.0000    741.5371      7.7729    139.9128
  1001.2500      0.0000    737.5975      7.8313    146.3837
  1001.5000      0.0000    734.5419      7.9090    153.4424
  1001.7500      0.0000    732.9976      7.9739    159.7911
  1002.0000      0.0000    731.2977      8.0001    164.4359
  1002.2500      0.0000    727.6688      7.9806    166.7242
  1002.5000      0.0000    722.4044      7.9278    166.4897
  1002.7500      0.0000    717.3090      7.8652    164.5777
  1003.0000      0.0000    713.7239      7.8143    162.7243
  1003.2500      0.0000    711.7374      7.7852    162.1049
  1003.5000      0.0000    710.7953      7.7752    162.0111
  1003.7500      0.0000    710.3787      7.7767    160.6517
  1004.0000      0.0000    710.2283      7.7843    157.4400
  1004.2500      0.0000    710.3594      7.7959    153.9897
  1004.5000      0.0000    711.1266      7.8117    152.6331
  1004.7500      0.0000    713.2006      7.8364    154.1219
  1005.0000      0.0000    717.2266      7.8762    156.7085
  1005.2500      0.0000    723.1699      7.9327    157.3927
  1005.5000      0.0000    729.9415      7.9969    154.3308
  1005.7500      0.0000    735.8990      8.0547    148.1879
  1006.0000      0.0000    739.8898      8.0979    141.2042
  1006.2500      0.0000    741.8186      8.1305    135.0327
  1006.5000      0.0000    742.3359      8.1627    129.5445
  1006.7500      0.0000    742.2375      8.2017    123.7693
  1007.0000      0.0000    742.2338      8.2475    117.6700
  1007.2500      0.0000    743.1427      8.2963    112.2418
  1007.5000      0.0000    746.0551      8.3453    107.8003
  1007.7500      0.0000    751.9124      8.3961    103.2526
  1008.0000      0.0000    760.5496      8.4524     97.8105
  1008.2500      0.0000    770.1920      8.5128     92.5642
  1008.5000      0.0000    778.5101      8.5662     89.2729
  1008.7500      0.0000    784.6195      8.5979     87.8609
  1009.0000      0.0000    789.7091      8.6006     86.0624
  1009.2500      0.0000    794.9510      8.5718     81.7059
  1009.5000      0.0000    798.7723      8.5019     74.8268
  1009.7500      0.0000    797.4383      8.3767     67.3800
  1010.0000      0.0000    789.4221      8.1932     61.4080
  1010.2500      0.0000    778.5106      7.9566     57.8628
  1010.5000      0.0000    771.1443      7.6648     56.7069
  1010.7500      0.0000    770.6816      7.3246     57.2425
  1011.0000      0.0000    775.2396      6.9888     58.3203
  1011.2500      0.0000    780.7944      6.7380     59.0046
  1011.5000      0.0000    785.1292      6.6175     59.1941
  1011.7500      0.0000    788.9899      6.6112     59.0969
  1012.0000      0.0000    794.8925      6.6736     58.3026
  1012.2500     -2.0000    804.8157      6.7640     56.0481
  1012.5000      0.0000    817.3436      6.8545     52.3331
  1012.7500      0.0000    826.5282      6.9310     48.1570
  1013.0000      0.0000    825.7167      7.0071     44.5776
  1013.2500      0.0000    814.2582      7.1293     41.9829
  1013.5000      0.0000    799.0923      7.3480     40.3963
  1013.7500      0.0000    788.3275      7.6647     39.9807
  1014.0000      0.0000    784.5519      8.0111     40.7458
  1014.2500      0.0000    785.0948      8.2927     41.9306
  1014.5000      0.0000    786.5487      8.4545     42.3015
  1014.7500      0.0000    787.4232      8.5015     41.2754
  1015.0000      0.0000    787.7280      8.4688     39.4320
  1015.2500      0.0000    787.8117      8.3885     37.8091
  1015.5000      0.0000    787.9191      8.2844     36.9845
  1015.7500      0.0000    788.3057      8.1807     36.8127
  1016.0000      0.0000    789.4604      8.1023     36.6495
  1016.2500      0.0000    792.0746      8.0627     35.8077
  1016.5000      0.0000    796.5263      8.0596     34.1582
  1016.7500      0.0000    802.0950      8.0832     32.3969
  1017.0000      0.0000    806.9490      8.1278     31.5429
  1017.2500      0.0000    809.6832      8.1967     32.0710
  1017.5000      0.0000    811.1150      8.2973     33.5928
  1017.7500      0.0000    814.2247      8.4347     35.4457
  1018.0000      0.0000    821.9668      8.6030     37.4944
  1018.2500      0.0000    834.4970      8.7842     40.3307
  1018.5000      0.0000    847.7179      8.9561     44.9789
  1018.7500      0.0000    855.0790      9.1059     52.5918
  1019.0000      0.0000    852.3120      9.2347     64.0086
  1019.2500      0.0000    840.6112      9.3489     78.9980
  1019.5000      0.0000    824.8190      9.4472     95.7598
  1019.7500      0.0000    809.1708      9.5190    111.3731
  1020.0000      0.0000    794.9980      9.5561    122.9337
  1020.2500      0.0000    781.4171      9.5648    128.6614
  1020.5000      0.0000    767.6643      9.5649    128.6441
  1020.7500      0.0000    755.0668      9.5738    124.9529
  1021.0000      0.0000    746.5998      9.5912    120.6290
  1021.2500      0.0000    744.2115      9.5997    117.9432
  1021.5000      0.0000    747.0233      9.5856    117.4147
  1021.7500      0.0000    752.3745      9.5559    118.1209
  1022.0000      0.0000    757.6906      9.5314    118.3409
  1022.2500      0.0000    761.0926      9.5244    116.0981
  1022.5000      0.0000    761.5740      9.5274    110.1502
  1022.7500      0.0000    759.3950      9.5218    101.2709
  1023.0000      0.0000    755.4161      9.4945     92.5923
  1023.2500      0.0000    749.6447      9.4476     88.1863
  1023.5000      0.0000    741.2110      9.3921     90.4794
  1023.7500      0.0000    729.9606      9.3324     98.4356
  1024.0000      0.0000    717.6022      9.2633    108.3401
  1024.2500      0.0000    707.5076      9.1817    116.7145
  1024.5000      0.0000    703.4561      9.0926    122.4426
  1024.7500      0.0000    707.5078      8.9990    126.2076
  1025.0000      0.0000    718.1746      8.8948    128.8480
  1025.2500      0.0000    731.1176      8.7770    130.8505
  1025.5000      0.0000    742.3271      8.6592    132.5575
  1025.7500      0.0000    750.4603      8.5683    133.9378
  1026.0000      0.0000    756.1243      8.5237    134.5075
  1026.2500      0.0000    759.8786      8.5182    134.0392
  1026.5000      0.0000    761.4973      8.5211    132.9504
  1026.7500      0.0000    760.3334      8.5028    131.5066
  1027.0000      0.0000    755.5348      8.4594    129.1597
  1027.2500      0.0000    746.8806      8.4138    125.4936
  1027.5000      0.0000    736.7305      8.3952    121.5882
  1027.7500      0.0000    730.4074      8.4175    119.4877
  1028.0000      0.0000    732.9476      8.4711    120.1220
  1028.2500      0.0000    745.1019      8.5324    122.3573
  1028.5000      0.0000    762.9329      8.5842    124.1938
  1028.7500      0.0000    781.0579      8.6277    124.3968
  1029.0000      0.0000    795.6667      8.6752    122.8442
  1029.2500      0.0000    805.1799      8.7344    119.8195
  1029.5000      0.0000    809.8806      8.8010    115.3785
  1029.7500      0.0000    811.4747      8.8633    109.3932
  1030.0000      0.0000    811.7653      8.9117    102.1796
  1030.2500      0.0000    811.0306      8.9418     95.0038
  1030.5000      0.0000    808.2421      8.9531     89.6241
  1030.7500      0.0000    802.9165      8.9462     87.3433
  1031.0000      0.0000    795.8217      8.9227     88.8837
  1031.2500      0.0000    787.8555      8.8874     94.8343
  1031.5000      0.0000    779.2894      8.8471    105.1965
