~Version Information
VERS.                      2.0: CWLS Log ASCII Standard - VERSION 2.0
WRAP.                       NO: One line per depth step
~Well Information Block
STRT.FT               305.0000: 
STOP.FT              1376.5000: 
STEP.FT                 0.1000: 
NULL.                -999.2500: 
COMP.          Pioneer Natural Resources: COMPANY
WELL.               LPGC 32-32: WELL
FLD.           Purgatoire River: FIELD
LOC.           1937' FNL & 1661' FEL: LOCATION
PROV.                 Colorado: PROVINCE
CNTY.               Las Animas: COUNTRY
SRVC.                Patterson: SERVICE COMPANY
DATE.          Mon Jan 30 07:33:36 2006: LOG DATE
UWI.           05 071 08641 00: UNIQUE WELL ID
~Curve Information Block
DEPT.FT            0 000 00 00: Depth
DCAL.in                       : CDL Caliper
RHOB.g/cc                     : CDL Bulk Density
RHOC.g/cc                     : CDL Density Correction
DPOR.pu                       : CDL Density Porosity
GR.GAPI                       : Gamma Ray
NPOR.pu                       : Neutron Porosity
~Parameter Information Block
~A  Depth       DCAL        RHOB        RHOC        DPOR         GR         NPOR    
# ...
  1361.0000      7.7836      2.6642      0.1610     -0.8605   -999.2500     23.2516
  1361.1000      7.7836      2.6421      0.1101      0.4761   -999.2500     23.6952
  1361.2000      7.7836      2.6266      0.0575      1.4169   -999.2500     23.8702
  1361.3000      7.8110      2.6174      0.0726      1.9770   -999.2500     23.4477
  1361.4000      7.8110      2.6131      0.0437      2.2344   -999.2500     23.1369
  1361.5000      7.8081      2.6161      0.0702      2.0552   -999.2500     23.3562
  1361.6000      7.8081      2.6240      0.0876      1.5746   -999.2500     25.1469
  1361.7000      7.8081      2.6292      0.0812      1.2627   -999.2500     31.2652
  1361.8000      7.8372      2.6286      0.0515      1.2946   -999.2500     40.9246
  1361.9000      7.8372      2.6183      0.0925      1.9242   -999.2500     47.9357
  1362.0000      7.8485      2.6031      0.0334      2.8434   -999.2500     50.4826
  1362.1000      7.8485      2.6052      0.0386      2.7152   -999.2500     50.9840
  1362.2000      7.8485      2.6223      0.1078      1.6797   -999.2500     51.0372
  1362.3000      7.8495      2.6292      0.1209      1.2609   -999.2500     51.0402
  1362.4000      7.8495      2.6183      0.0948      1.9232   -999.2500   -999.2500
  1362.5000      7.8138      2.6030      0.1145      2.8482   -999.2500   -999.2500
  1362.6000      7.8138      2.6016      0.0646      2.9341   -999.2500   -999.2500
  1362.7000      7.8138      2.6154      0.1706      2.0953   -999.2500   -999.2500
  1362.8000      7.7988      2.6323      0.0919      1.0714   -999.2500   -999.2500
  1362.9000      7.7988      2.6562      0.1038     -0.3770   -999.2500   -999.2500
  1363.0000      7.7752      2.6842      0.1344     -2.0744   -999.2500   -999.2500
  1363.1000      7.7752      2.6946      0.1640     -2.7003   -999.2500   -999.2500
  1363.2000      7.7752      2.6803      0.1089     -1.8358   -999.2500   -999.2500
  1363.3000      7.7796      2.6534      0.1360     -0.2039   -999.2500   -999.2500
  1363.4000      7.7796      2.6192      0.1400      1.8649   -999.2500   -999.2500
  1363.5000      7.8108      2.5754      0.0691      4.5209   -999.2500   -999.2500
  1363.6000      7.8108      2.5360      0.0376      6.9078   -999.2500   -999.2500
  1363.7000      7.8108      2.5270      0.0186      7.4538   -999.2500   -999.2500
  1363.8000      7.8017      2.5453      0.1059      6.3438   -999.2500   -999.2500
  1363.9000      7.8017      2.5634      0.0750      5.2476   -999.2500   -999.2500
  1364.0000      7.7881      2.5761      0.0324      4.4794   -999.2500   -999.2500
  1364.1000      7.7881      2.5954      0.1167      3.3083   -999.2500   -999.2500
  1364.2000      7.7881      2.6177      0.1176      1.9549   -999.2500   -999.2500
  1364.3000      7.8313      2.6359      0.1356      0.8564   -999.2500   -999.2500
  1364.4000      7.8313      2.6504      0.1188     -0.0220   -999.2500   -999.2500
  1364.5000      7.8351      2.6556      0.1402     -0.3370   -999.2500   -999.2500
  1364.6000      7.8351      2.6478      0.1049      0.1349   -999.2500   -999.2500
  1364.7000      7.8351      2.6365      0.0594      0.8195   -999.2500   -999.2500
  1364.8000      7.7627      2.6245      0.0842      1.5451   -999.2500   -999.2500
  1364.9000      7.7627      2.6111     -0.0022      2.3600   -999.2500   -999.2500
  1365.0000      7.7530      2.6047      0.0693      2.7442   -999.2500   -999.2500
  1365.1000      7.7530      2.6070      0.0573      2.6041   -999.2500   -999.2500
  1365.2000      7.7530      2.6112      0.1033      2.3542   -999.2500   -999.2500
  1365.3000      7.7966      2.6165      0.0761      2.0287   -999.2500   -999.2500
  1365.4000      7.7966      2.6245      0.0812      1.5483   -999.2500   -999.2500
  1365.5000      7.8093      2.6222      0.1068      1.6835   -999.2500   -999.2500
  1365.6000      7.8093      2.6003      0.0900      3.0141   -999.2500   -999.2500
  1365.7000      7.8093      2.5701      0.0657      4.8422   -999.2500   -999.2500
  1365.8000      7.8089      2.5507      0.0134      6.0153   -999.2500   -999.2500
  1365.9000      7.8089      2.5534      0.0212      5.8538   -999.2500   -999.2500
  1366.0000      7.8059      2.5694      0.0936      4.8831   -999.2500   -999.2500
  1366.1000      7.8059      2.5814      0.0593      4.1572   -999.2500   -999.2500
  1366.2000      7.8059      2.5845      0.1060      3.9694   -999.2500   -999.2500
  1366.3000      7.7897      2.5832      0.1022      4.0493   -999.2500   -999.2500
  1366.4000      7.7897      2.5870      0.0655      3.8187   -999.2500   -999.2500
  1366.5000      7.7980      2.5946      0.0993      3.3559   -999.2500   -999.2500
  1366.6000      7.7980      2.5876      0.1247      3.7794   -999.2500   -999.2500
  1366.7000      7.7980      2.5615      0.0574      5.3631   -999.2500   -999.2500
  1366.8000      7.7908      2.5320      0.1078      7.1542   -999.2500   -999.2500
  1366.9000      7.7908      2.5121      0.0560      8.3569   -999.2500   -999.2500
  1367.0000      7.7957      2.5111     -0.0156      8.4203   -999.2500   -999.2500
  1367.1000      7.7957      2.5282      0.0498      7.3812   -999.2500   -999.2500
  1367.2000      7.7957      2.5577     -0.0096      5.5952   -999.2500   -999.2500
  1367.3000      7.7947      2.5928      0.1164      3.4639   -999.2500   -999.2500
  1367.4000      7.7947      2.6151      0.0871      2.1126   -999.2500   -999.2500
  1367.5000      7.8023      2.6203      0.0569      1.8014   -999.2500   -999.2500
  1367.6000      7.8023      2.6144      0.1085      2.1553   -999.2500   -999.2500
  1367.7000      7.8023      2.5927      0.0941      3.4739   -999.2500   -999.2500
  1367.8000      7.7930      2.5614      0.0312      5.3724   -999.2500   -999.2500
  1367.9000      7.7930      2.5382      0.0649      6.7751   -999.2500   -999.2500
  1368.0000      7.7883      2.5255      0.0615      7.5484   -999.2500   -999.2500
  1368.1000      7.7883      2.5215      0.0610      7.7897   -999.2500   -999.2500
  1368.2000      7.7883      2.5283      0.0451      7.3735   -999.2500   -999.2500
  1368.3000      7.8041      2.5405      0.1021      6.6388   -999.2500   -999.2500
  1368.4000      7.8041      2.5532      0.0750      5.8665   -999.2500   -999.2500
  1368.5000      7.7960      2.5719      0.1106      4.7307   -999.2500   -999.2500
  1368.6000      7.7960      2.5949      0.1200      3.3368   -999.2500   -999.2500
  1368.7000      7.7960      2.6143      0.1197      2.1612   -999.2500   -999.2500
  1368.8000      7.7799      2.6280      0.1572      1.3346   -999.2500   -999.2500
  1368.9000      7.7799      2.6389      0.0798      0.6757   -999.2500   -999.2500
  1369.0000      7.7832      2.6527      0.1096     -0.1666   -999.2500   -999.2500
  1369.1000      7.7832      2.6608      0.1508     -0.6526   -999.2500   -999.2500
  1369.2000      7.7832      2.6506      0.1027     -0.0368   -999.2500   -999.2500
  1369.3000      7.7931      2.6302      0.0870      1.1972   -999.2500   -999.2500
  1369.4000      7.7931      2.6134      0.1126      2.2181   -999.2500   -999.2500
  1369.5000      7.7914      2.6011      0.0883      2.9639   -999.2500   -999.2500
  1369.6000      7.7914      2.5855      0.0743      3.9096   -999.2500   -999.2500
  1369.7000      7.7914      2.5666      0.0661      5.0546   -999.2500   -999.2500
  1369.8000      7.8079      2.5566      0.0462      5.6625   -999.2500   -999.2500
  1369.9000      7.8079      2.5612      0.0397      5.3792   -999.2500   -999.2500
  1370.0000      7.7714      2.5739      0.0513      4.6097   -999.2500   -999.2500
  1370.1000      7.7714      2.5866      0.0351      3.8413   -999.2500   -999.2500
  1370.2000      7.7714      2.5930      0.1006      3.4555   -999.2500   -999.2500
  1370.3000      7.8091      2.5910      0.0815      3.5729   -999.2500   -999.2500
  1370.4000      7.8091      2.5884      0.0803      3.7336   -999.2500   -999.2500
  1370.5000      7.8147      2.5886      0.0823      3.7202   -999.2500   -999.2500
