~Version Information
VERS.                      2.0: CWLS Log ASCII Standard - VERSION 2.0
WRAP.                       NO: One line per depth step
~Well Information Block
STRT.FT                 0.0000: 
STOP.FT              1538.0000: 
STEP.FT                 0.2500: 
NULL.                -999.2500: 
COMP.          Pioneer Natural Resources: COMPANY
WELL.           Butch 33-10 TR: WELL
FLD.           Purgatorie River: FIELD
LOC.           2309' FSL & 1337' FEL: LOCATION
PROV.                 Colorado: PROVINCE
CNTY.               Las Animas: COUNTRY
SRVC.                Patterson: SERVICE COMPANY
DATE.          Thu Jan 19 12:40:27 2006: LOG DATE
UWI.                          : UNIQUE WELL ID
~Curve Information Block
DEPT.FT            0 000 00 00: Depth
CCL.                          : Casing Collar Locator
TT3.usec                      : CBL 3' Travel Time
AMP3.mV                       : CBL 3' Amplitude
GR.GAPI                       : Gamma Ray
~Parameter Information Block
~A  Depth       CCL         TT3         AMP3         GR     
# ...
   402.0000      0.0000    300.4054     30.2863     82.4926
   402.2500      0.0000    300.4257     30.5022     83.4327
   402.5000      0.0000    300.3488     31.0901     83.9820
   402.7500      0.0000    300.2304     31.7216     85.0919
   403.0000      0.0000    300.1501     32.1392     87.7865
   403.2500      0.0000    300.1308     32.3300     91.9232
   403.5000      0.0000    300.1324     32.4630     96.2810
   403.7500      0.0000    300.1006     32.6912     99.6095
   404.0000      0.0000    300.0196     33.0142    101.3753
   404.2500      0.0000    299.9108     33.3354    101.7428
   404.5000      0.0000    299.8039     33.5742    101.3619
   404.7500      0.0000    299.7258     33.7098    101.0869
   405.0000      0.0000    299.6877     33.7173    101.2781
   405.2500      0.0000    299.6917     33.4573    101.2529
   405.5000      0.0000    299.7515     32.7901     99.9295
   405.7500      0.0000    299.8730     31.8144     97.1324
   406.0000      0.0000    300.0204     30.8330     93.8501
   406.2500      0.0000    300.1176     30.1289     91.1246
   406.5000      0.0000    300.1208     29.7821     89.0636
   406.7500      0.0000    300.0941     29.6139     87.0190
   407.0000      0.0000    300.1332     29.3762     84.3619
   407.2500      0.0000    300.2411     28.9959     81.0458
   407.5000      0.0000    300.3708     28.5439     77.8027
   407.7500      0.0000    300.5232     28.0494     75.8574
   408.0000      0.0000    300.7189     27.4850     76.1114
   408.2500      0.0000    300.9380     26.8942     78.4913
   408.5000      0.0000    301.1398     26.4099     82.0700
   408.7500      0.0000    301.2836     26.1518     85.7093
   409.0000      0.0000    301.3311     26.1438     88.6705
   409.2500      0.0000    301.2993     26.2796     90.6875
   409.5000      0.0000    301.2984     26.3615     91.4416
   409.7500      0.0000    301.4442     26.2191     90.2448
   410.0000      0.0000    301.7439     25.8153     86.6141
   410.2500      0.0000    302.0881     25.2690     81.0611
   410.5000      0.0000    302.3295     24.7873     75.0012
   410.7500      0.0000    302.3945     24.5309     69.8338
   411.0000      0.0000    302.3400     24.5029     66.2182
   411.2500      0.0000    302.2667     24.5967     64.1557
   411.5000      0.0000    302.1993     24.7419     63.5349
   411.7500      0.0000    302.1120     24.9149     64.5718
   412.0000      0.0000    302.0343     25.0540     67.7037
   412.2500      0.0000    302.0628     25.0569     72.7713
   412.5000      0.0000    302.2661     24.8393     78.2833
   412.7500      0.0000    302.5824     24.4220     82.1269
   413.0000      0.0000    302.8291     23.9827     83.3582
   413.2500      0.0000    302.8750     23.7406     82.9421
   413.5000      0.0000    302.7856     23.7357     82.5593
   413.7500      0.0000    302.7263     23.7592     83.0668
   414.0000      0.0000    302.7614     23.5879     84.1947
   414.2500      0.0000    302.8264     23.2297     85.2481
   414.5000      0.0000    302.8745     22.8174     85.6701
   414.7500      0.0000    302.9486     22.4255     85.0204
   415.0000      0.0000    303.0893     22.0951     82.9429
   415.2500      0.0000    303.2867     21.8479     79.5462
   415.5000      0.0000    303.5175     21.6388     75.6801
   415.7500      0.0000    303.7465     21.4175     72.4863
   416.0000      0.0000    303.9308     21.1970     70.4863
   416.2500      0.0000    304.0649     20.9959     69.2264
   416.5000      0.0000    304.2041     20.7804     68.0750
   416.7500      0.0000    304.4152     20.5179     67.1793
   417.0000      0.0000    304.6750     20.2634     67.1328
   417.2500      0.0000    304.8878     20.1185     67.8435
   417.5000      0.0000    305.0073     20.0986     68.3595
   417.7500      0.0000    305.0159     20.1311     67.8807
   418.0000      0.0000    304.8880     20.1728     66.5303
   418.2500      0.0000    304.6883     20.2159     65.0607
   418.5000      0.0000    304.5518     20.2124     64.0909
   418.7500      0.0000    304.5375     20.1191     63.8850
   419.0000      0.0000    304.6018     19.9993     64.8453
   419.2500      0.0000    304.6779     19.9565     67.6914
   419.5000      0.0000    304.7544     19.9706     72.4678
   419.7500      0.0000    304.9172     19.9167     77.5863
   420.0000      0.0000    305.5078     19.7518     80.8681
   420.2500      0.0000    308.5260     19.5553     81.8550
   420.5000      0.0000    321.1096     19.3671     82.2992
   420.7500      0.0000    355.3910     19.1239     84.0234
   421.0000      0.0000    414.3763     18.7773     87.0038
   421.2500      0.0000    482.7995     18.3665     89.9031
   421.5000      0.0000    550.0004     17.9663     91.8415
   421.7500      0.0000    618.0704     17.6364     93.0012
   422.0000      0.0000    676.6326     17.3963     93.7278
   422.2500      0.0000    710.6146     17.2239     93.7683
   422.5000      0.0000    722.9738     17.1027     92.7024
   422.7500      0.0000    725.4846     17.0692     90.6205
   423.0000      0.0000    723.2171     17.2030     87.9388
   423.2500      0.0000    710.1840     17.5185     85.0846
   423.5000      0.0000    669.9482     17.8771     82.8692
   423.7500      0.0000    591.2000     18.1095     82.4369
   424.0000      0.0000    498.0135     18.2040     84.0105
   424.2500      0.0000    447.2090     18.2598     86.0593
   424.5000      0.0000    467.6997     18.3197     86.3065
   424.7500      0.0000    512.7432     18.3834     83.4400
   425.0000      0.0000    507.3712     18.5084     77.8564
   425.2500      0.0000    440.5919     18.7586     71.2265
   425.5000      0.0000    365.9359     19.1244     65.5214
   425.7500      0.0000    322.8411     19.5590     62.0265
   426.0000      0.0000    307.8002     19.9998     60.8477
   426.2500      0.0000    304.4351     20.3460     61.1437
   426.5000      0.0000    303.9676     20.5336     61.8741
   426.7500      0.0000    303.9933     20.6092     62.5272
   427.0000      0.0000    304.0905     20.6307     63.3137
   427.2500      0.0000    304.2097     20.5862     64.6378
   427.5000      0.0000    304.3317     20.4747     66.2618
   427.7500      0.0000    304.4008     20.3907     67.0217
   428.0000      0.0000    304.3580     20.4798     65.6038
   428.2500      0.0000    304.2014     20.8125     61.7673
   428.5000      0.0000    303.9936     21.3371     56.6942
   428.7500      0.0000    303.8115     21.9433     51.9927
   429.0000      0.0000    303.7001     22.5324     48.4481
   429.2500      0.0000    303.6304     23.0631     45.8162
   429.5000      0.0000    303.5276     23.5480     43.6319
   429.7500      0.0000    303.3824     23.9681     41.9068
   430.0000      0.0000    303.2377     24.2540     40.9636
   430.2500      0.0000    303.0944     24.3767     40.7646
   430.5000      0.0000    303.0280     24.3475     40.6646
   430.7500      0.0000    303.5659     24.1749     39.9228
   431.0000      0.0000    307.2506     23.9436     38.3993
   431.2500      0.0000    323.2422     23.8162     36.7127
   431.5000      0.0000    370.3009     23.5903     35.8138
   431.7500      0.0000    461.1281     22.4999     36.3173
   432.0000      0.0000    573.2872     20.3322     37.9577
   432.2500      0.0000    654.8148     18.1709     39.6067
   432.5000      0.0000    668.5427     17.0423     40.0005
   432.7500      0.0000    623.0270     16.7951     38.5932
   433.0000      2.0000    572.3129     16.7827     35.8426
   433.2500      0.0000    571.2451     16.6842     32.8726
   433.5000      0.0000    611.2409     16.5331     30.9112
   433.7500      0.0000    636.3715     16.5056     30.7797
   434.0000      0.0000    620.0015     16.9249     32.5489
   434.2500      0.0000    577.2021     18.2075     35.4576
   434.5000      0.0000    525.3795     20.2061     38.2103
   434.7500      0.0000    467.5482     21.9596     39.6702
   435.0000      0.0000    404.1328     22.8195     39.5871
   435.2500      0.0000    349.5072     23.0748     38.6762
