~Version Information
VERS.                      2.0: CWLS Log ASCII Standard - VERSION 2.0
WRAP.                       NO: One line per depth step
~Well Information Block
STRT.FT                -8.2500: 
STOP.FT              1653.2500: 
STEP.FT                 0.2500: 
NULL.                -999.2500: 
COMP.          Pioneer Natural Resources: COMPANY
WELL.            Relay 12-7 Tr: WELL
FLD.           Purgatorie River: FIELD
LOC.           2025' FNL & 790' FWL--: LOCATION
PROV.                       CO: PROVINCE
CNTY.               Las Animas: COUNTRY
SRVC.          Patterson Wireline: SERVICE COMPANY
DATE.          Tue Jan 24 10:25:08 2006: LOG DATE
UWI.           05 071 08603 00: UNIQUE WELL ID
~Curve Information Block
DEPT.FT            0 000 00 00: Depth
CCL.                          : Casing Collar Locator
TT3.usec                      : CBL 3' Travel Time
AMP3.mV                       : CBL 3' Amplitude
GR.GAPI                       : Gamma Ray
~Parameter Information Block
~A  Depth       CCL         TT3         AMP3         GR     
# ...
  1097.2500      0.0000    549.9966      5.8740    121.2708
  1097.5000      0.0000    497.2442      5.9888    128.3237
  1097.7500      0.0000    452.3582      6.0862    135.5633
  1098.0000      0.0000    427.2806      6.1586    139.7377
  1098.2500      0.0000    427.6111      6.2001    139.6561
  1098.5000      0.0000    452.9168      6.2046    136.3436
  1098.7500      0.0000    496.7914      6.1674    131.5747
  1099.0000      0.0000    547.0760      6.0923    126.9527
  1099.2500      0.0000    590.5400      5.9949    123.8073
  1099.5000      0.0000    619.9703      5.8968    122.9190
  1099.7500      0.0000    636.2724      5.8143    124.0297
  1100.0000      0.0000    644.1763      5.7535    125.9230
  1100.2500      0.0000    647.7016      5.7151    127.2482
  1100.5000      0.0000    649.3295      5.7012    127.4277
  1100.7500      0.0000    650.7432      5.7142    126.7715
  1101.0000      0.0000    652.3310      5.7508    125.7190
  1101.2500      0.0000    652.4457      5.7996    124.1041
  1101.5000      0.0000    648.6628      5.8445    121.4487
  1101.7500      0.0000    640.3990      5.8719    117.9477
  1102.0000      0.0000    630.2169      5.8736    114.7805
  1102.2500      0.0000    622.4240      5.8473    113.0597
  1102.5000      0.0000    620.2850      5.7970    112.4890
  1102.7500      0.0000    624.2011      5.7349    111.4283
  1103.0000      0.0000    632.1287      5.6793    108.5684
  1103.2500      0.0000    641.4078      5.6445    104.6021
  1103.5000      0.0000    650.0775      5.6335    102.1144
  1103.7500      0.0000    656.7448      5.6407    103.5086
  1104.0000      0.0000    659.4443      5.6600    108.7137
  1104.2500      0.0000    655.0866      5.6873    114.9931
  1104.5000      0.0000    641.1567      5.7191    119.2627
  1104.7500      0.0000    619.2686      5.7513    120.5455
  1105.0000      0.0000    596.7727      5.7796    120.1642
  1105.2500      0.0000    583.0869      5.7991    120.0088
  1105.5000      0.0000    583.3564      5.8064    121.1206
  1105.7500      0.0000    595.9383      5.8019    123.5666
  1106.0000      0.0000    615.3967      5.7893    126.8440
  1106.2500      0.0000    636.3093      5.7731    130.1891
  1106.5000      0.0000    654.7444      5.7570    132.9091
  1106.7500      0.0000    668.7020      5.7445    134.6361
  1107.0000      0.0000    678.2236      5.7378    135.2373
  1107.2500      0.0000    684.2460      5.7336    134.6570
  1107.5000      0.0000    686.9973      5.7229    133.1012
  1107.7500      0.0000    685.8669      5.6962    131.3828
  1108.0000      0.0000    680.4346      5.6510    130.8047
  1108.2500      0.0000    671.1967      5.5957    132.2561
  1108.5000      0.0000    659.9537      5.5450    135.0968
  1108.7500      0.0000    650.2504      5.5078    137.1077
  1109.0000      0.0000    646.2816      5.4793    136.0221
  1109.2500      0.0000    649.7439      5.4454    131.5349
  1109.5000      0.0000    658.0394      5.3970    126.0210
  1109.7500      0.0000    666.5900      5.3384    122.9873
  1110.0000      0.0000    672.5074      5.2817    124.3385
  1110.2500      0.0000    675.6069      5.2331    129.0975
  1110.5000      0.0000    676.9621      5.1903    134.6550
  1110.7500      0.0000    677.5076      5.1479    138.5974
  1111.0000      0.0000    677.7039      5.1052    139.2549
  1111.2500      0.0000    677.7384      5.0665    135.6128
  1111.5000      0.0000    677.7111      5.0357    127.7125
  1111.7500      0.0000    677.7214      5.0099    116.9689
  1112.0000      0.0000    677.9053      4.9792    105.5650
  1112.2500      0.0000    678.5377      4.9338     95.3589
  1112.5000      0.0000    680.2128      4.8704     87.2644
  1112.7500      0.0000    683.8600      4.7935     81.3856
  1113.0000      0.0000    690.1827      4.7113     77.4546
  1113.2500      0.0000    698.7675      4.6322     75.0548
  1113.5000      0.0000    707.9758      4.5688     73.4459
  1113.7500      0.0000    715.9839      4.5403     71.4680
  1114.0000      0.0000    721.5956      4.5664     68.1827
  1114.2500      0.0000    724.1326      4.6572     63.8170
  1114.5000      0.0000    723.6211      4.8022     59.8405
  1114.7500      0.0000    721.4857      4.9677     58.0359
  1115.0000      0.0000    719.8634      5.1069     59.5551
  1115.2500      0.0000    719.3820      5.1861     64.6265
  1115.5000      0.0000    718.1861      5.2055     72.7420
  1115.7500      0.0000    713.6321      5.1939     82.7954
  1116.0000      0.0000    704.6453      5.1848     93.1938
  1116.2500      0.0000    691.9816      5.1994    102.4515
  1116.5000      0.0000    676.2836      5.2438    110.0967
  1116.7500      0.0000    656.3788      5.3169    116.7128
  1117.0000      0.0000    630.1794      5.4202    122.7823
  1117.2500      0.0000    597.9430      5.5566    127.6091
  1117.5000      0.0000    565.4070      5.7150    129.4966
  1117.7500      0.0000    543.4451      5.8596    127.1709
  1118.0000      0.0000    542.1024      5.9473    121.3518
  1118.2500      0.0000    562.4556      5.9655    114.7994
  1118.5000      0.0000    594.5559      5.9443    110.2364
  1118.7500      0.0000    624.4303      5.9300    107.9557
  1119.0000      0.0000    642.5208      5.9520    105.6654
  1119.2500      0.0000    645.8679      6.0158    100.9596
  1119.5000      0.0000    636.3395      6.1133     94.0321
  1119.7500      0.0000    620.2086      6.2272     87.8728
  1120.0000      0.0000    606.7292      6.3293     85.8073
  1120.2500      0.0000    601.1296      6.3855     88.8066
  1120.5000      0.0000    597.7836      6.3717     94.8273
  1120.7500      0.0000    584.3486      6.2897    100.3390
  1121.0000      0.0000    554.7880      6.1699    102.7212
  1121.2500      0.0000    516.1818      6.0576    101.8985
  1121.5000      0.0000    481.7818      5.9916    100.0084
  1121.7500      0.0000    459.5576      5.9922     99.3848
  1122.0000      0.0000    448.1566      6.0577    100.7312
  1122.2500      0.0000    441.3414      6.1641    103.1945
  1122.5000      0.0000    434.4288      6.2651    105.9197
  1122.7500      0.0000    428.2635      6.3002    109.1059
  1123.0000      0.0000    429.5268      6.2253    113.5702
  1123.2500      0.0000    446.6412      6.0592    119.7629
  1123.5000      0.0000    482.6556      5.8864    127.3555
  1123.7500      0.0000    530.7604      5.7807    135.3728
  1124.0000      0.0000    577.7073      5.7340    142.3995
  1124.2500      0.0000    612.8015      5.6920    146.8687
  1124.5000      0.0000    634.1426      5.6377    147.5439
  1124.7500      0.0000    647.0426      5.5961    144.1304
  1125.0000      0.0000    657.5239      5.5820    137.8057
  1125.2500     -2.0000    667.4268      5.5850    131.1438
  1125.5000      0.0000    674.4937      5.5964    126.8022
  1125.7500      0.0000    675.5900      5.6295    125.6313
  1126.0000      0.0000    669.3975      5.7177    126.0328
  1126.2500      0.0000    657.0062      5.8873    125.3838
  1126.5000      0.0000    641.3832      6.1107    122.2349
  1126.7500      0.0000    626.5663      6.3022    117.4123
  1127.0000      0.0000    615.9462      6.3920    113.2233
  1127.2500      0.0000    610.1739      6.3879    111.6581
  1127.5000      0.0000    607.3640      6.3400    113.2173
  1127.7500      0.0000    605.9551      6.2742    116.8484
  1128.0000      0.0000    605.9507      6.1891    120.4352
  1128.2500      0.0000    606.1572      6.0922    121.8290
  1128.5000      0.0000    602.0193      6.0091    120.4135
  1128.7500      0.0000    588.9980      5.9620    117.7737
  1129.0000      0.0000    568.4375      5.9507    116.3568
  1129.2500      0.0000    548.9778      5.9547    117.6290
  1129.5000      0.0000    541.8015      5.9436    121.5130
  1129.7500      0.0000    553.4919      5.8933    126.6510
  1130.0000      0.0000    581.3830      5.7995    130.7162
  1130.2500      0.0000    615.1456      5.6824    131.4055
  1130.5000      0.0000    643.8925      5.5697    127.9756
