~Version Information
VERS.                      2.0: CWLS Log ASCII Standard - VERSION 2.0
WRAP.                       NO: One line per depth step
~Well Information Block
STRT.FT               345.0000: 
STOP.FT              2167.7000: 
STEP.FT                 0.1000: 
NULL.                -999.2500: 
COMP.          Pioneer Natural Resources: COMPANY
WELL.          Hemisphere 32-24: WELL
FLD.           Purgatoire River: FIELD
LOC.           1850' FNL & 2284' FEL--: LOCATION
PROV.                 Colorado: PROVINCE
CNTY.               Las Animas: COUNTRY
SRVC.                Patterson: SERVICE COMPANY
DATE.          Mon Aug 15 07:19:13 2005: LOG DATE
UWI.           05 071 08440 00: UNIQUE WELL ID
~Curve Information Block
DEPT.FT            0 000 00 00: Depth
DCAL.in                       : CDL Caliper
RHOB.g/cc                     : CDL Bulk Density
RHOC.g/cc                     : CDL Density Correction
DPOR.pu                       : CDL Density Porosity
NPOR.pu                       : Neutron Porosity
GR.GAPI                       : Gamma Ray
~Parameter Information Block
~A  Depth       DCAL        RHOB        RHOC        DPOR        NPOR         GR     
# ...
  1785.0000      7.9029      2.4885      0.0645      9.7876     16.3843     51.8813
  1785.1000      7.9029      2.4920      0.0903      9.5784     16.0140     51.4665
  1785.2000      7.9029      2.4867      0.0268      9.8965     15.8240     45.4527
  1785.3000      7.8944      2.4850      0.0346      9.9976     15.9924     39.7294
  1785.4000      7.8944      2.4887      0.0547      9.7775     16.0961     34.7148
  1785.5000      7.8891      2.4957      0.0640      9.3526     15.9702     31.5635
  1785.6000      7.8891      2.5123      0.0215      8.3474     15.8471     31.0567
  1785.7000      7.8891      2.5343      0.0871      7.0144     15.9520     31.8037
  1785.8000      7.8874      2.5365      0.1265      6.8779     16.4066     34.1960
  1785.9000      7.8874      2.5093      0.0655      8.5269     16.8712     35.2119
  1786.0000      7.8885      2.4806      0.0033     10.2687     16.9081     32.3122
  1786.1000      7.8885      2.4803      0.0518     10.2848     16.5514     29.5780
  1786.2000      7.8885      2.5026      0.0840      8.9353     16.1388     28.9455
  1786.3000      7.8906      2.5170      0.1088      8.0633     15.9651     28.7258
  1786.4000      7.8906      2.5034      0.0563      8.8827     15.8898     28.6857
  1786.5000      7.8916      2.4759      0.0240     10.5510     15.8570     30.1027
  1786.6000      7.8916      2.4618      0.0039     11.4058     16.0564     33.6591
  1786.7000      7.8916      2.4667      0.0653     11.1097     16.0495     36.9768
  1786.8000      7.8906      2.4772      0.0771     10.4746     15.3415     37.4356
  1786.9000      7.8906      2.4878      0.0723      9.8310     14.3551     36.8387
  1787.0000      7.8867      2.5031      0.0646      8.9060     13.5788     39.3682
  1787.1000      7.8867      2.5218      0.0861      7.7727     12.8830     42.7025
  1787.2000      7.8867      2.5395      0.0876      6.6967     12.2243     40.5955
  1787.3000      7.8818      2.5559      0.1195      5.7017     11.8747     36.2090
  1787.4000      7.8818      2.5657      0.1530      5.1068     11.8521     35.7047
  1787.5000      7.8806      2.5646      0.1038      5.1743     11.8889     37.6237
  1787.6000      7.8806      2.5595      0.1067      5.4873     11.8043     38.7193
  1787.7000      7.8806      2.5567      0.0763      5.6552     11.5924     39.4443
  1787.8000      7.8834      2.5520      0.0933      5.9387     11.2263     39.6354
  1787.9000      7.8834      2.5428      0.0674      6.4984     10.6281     37.7909
  1788.0000      7.8869      2.5484      0.0427      6.1550     10.0059     36.3061
  1788.1000      7.8869      2.5825      0.1123      4.0887      9.7598     37.4018
  1788.2000      7.8869      2.6168      0.1604      2.0114     10.0138     38.3757
  1788.3000      7.8895      2.6240      0.0831      1.5771     10.6465     36.4055
  1788.4000      7.8895      2.6102      0.0793      2.4151     11.4080     33.1021
  1788.5000      7.8956      2.5827      0.0511      4.0790     12.0710     32.4707
  1788.6000      7.8956      2.5488      0.0364      6.1306     12.7269     35.5634
  1788.7000      7.8956      2.5308      0.0231      7.2238     13.3782     38.3831
  1788.8000      7.9036      2.5407      0.0449      6.6238     13.8930     38.6433
  1788.9000      7.9036      2.5625      0.0562      5.3005     14.4762     40.0877
  1789.0000      7.9083      2.5762      0.0139      4.4732     15.3741     43.0166
  1789.1000      7.9083      2.5790      0.0267      4.3036     16.5274     45.9570
  1789.2000      7.9083      2.5774      0.0603      4.4017     17.7478     49.5479
  1789.3000      7.9094      2.5766      0.0371      4.4485     18.8820     50.9910
  1789.4000      7.9094      2.5729      0.0902      4.6735     19.4249     50.1500
  1789.5000      7.9106      2.5582      0.0383      5.5629     18.9032     51.8107
  1789.6000      7.9106      2.5444      0.0066      6.3986     18.1264     56.6914
  1789.7000      7.9106      2.5454      0.0664      6.3385     18.3224     59.8375
  1789.8000      7.9098      2.5558      0.0822      5.7090     19.2828     57.2029
  1789.9000      7.9098      2.5689      0.1120      4.9145     19.9304     52.1460
  1790.0000      7.9067      2.5778      0.1099      4.3741     19.9614     50.4583
  1790.1000      7.9067      2.5725      0.0917      4.6986     19.8156     50.6759
  1790.2000      7.9067      2.5560      0.0493      5.6963     19.8955     50.6074
  1790.3000      7.9069      2.5437      0.0436      6.4426     19.9818     52.9112
  1790.4000      7.9069      2.5457      0.0394      6.3216     19.5951     59.0074
  1790.5000      7.9103      2.5546      0.1201      5.7826     19.1386     66.7041
  1790.6000      7.9103      2.5566      0.0609      5.6632     19.3584     70.7058
  1790.7000      7.9103      2.5532      0.0521      5.8677     20.0067     68.4512
  1790.8000      7.9093      2.5443      0.0829      6.4077     20.3424     64.4722
  1790.9000      7.9093      2.5254      0.0539      7.5517     20.1989     63.4635
  1791.0000      7.9016      2.5053      0.0587      8.7669     19.9395     65.1061
  1791.1000      7.9016      2.4948      0.0457      9.4077     19.9280     66.4986
  1791.2000      7.9016      2.4913      0.0579      9.6170     20.2390     66.9468
  1791.3000      7.8935      2.4913      0.0396      9.6196     20.4435     67.9632
  1791.4000      7.8935      2.5061      0.0246      8.7186     20.0610     68.3971
  1791.5000      7.8889      2.5399      0.1097      6.6741     19.3826     65.8947
  1791.6000      7.8889      2.5705      0.1258      4.8166     18.9939     60.4538
  1791.7000      7.8889      2.5837      0.1069      4.0168     18.9499     55.4967
  1791.8000      7.8861      2.5885      0.0750      3.7270     19.0199     51.6439
  1791.9000      7.8861      2.5908      0.1422      3.5880     18.8176     47.4120
  1792.0000      7.8853      2.5841      0.0939      3.9969     17.8843     45.8612
  1792.1000      7.8853      2.5712      0.0907      4.7728     16.4185     47.4183
  1792.2000      7.8853      2.5681      0.0454      4.9628     15.1348     48.3457
  1792.3000      7.8858      2.5787      0.0991      4.3198     14.5294     48.7788
  1792.4000      7.8858      2.5869      0.1080      3.8241     14.4360     49.0385
  1792.5000      7.8862      2.5809      0.0551      4.1859     14.0958     48.6437
  1792.6000      7.8862      2.5620      0.0495      5.3359     13.3765     48.7016
  1792.7000      7.8862      2.5376      0.0218      6.8117     13.2647     49.7153
  1792.8000      7.8879      2.5248     -0.0100      7.5852     14.1952     52.7542
  1792.9000      7.8879      2.5312      0.0328      7.1997     15.3073     56.3340
  1793.0000      7.8888      2.5420      0.1012      6.5457     15.7552     54.9122
  1793.1000      7.8888      2.5468      0.0737      6.2521     15.8275     49.0960
  1793.2000      7.8888      2.5514      0.0594      5.9764     16.0493     47.0631
  1793.3000      7.8887      2.5526      0.0618      5.9009     16.3428     50.0874
  1793.4000      7.8887      2.5390      0.0523      6.7299     16.2995     50.5919
  1793.5000      7.8890      2.5121      0.0525      8.3585     15.8744     45.7312
  1793.6000      7.8890      2.4862      0.0418      9.9261     15.6535     42.5129
  1793.7000      7.8890      2.4720      0.0278     10.7864     15.9285     46.0747
  1793.8000      7.8880      2.4706      0.0127     10.8755     16.3821     52.5933
  1793.9000      7.8880      2.4776      0.0763     10.4501     16.7547     57.6845
  1794.0000      7.8859      2.4849      0.0948     10.0086     16.8896     62.2003
  1794.1000      7.8859      2.4864      0.0930      9.9167     16.6423     65.7153
  1794.2000      7.8859      2.4866      0.0277      9.9018     16.3368     63.2986
  1794.3000      7.8846      2.4953      0.0588      9.3770     16.2851     54.1820
  1794.4000      7.8846      2.5105      0.0803      8.4553     16.5007     45.3413
  1794.5000      7.8855      2.5189      0.1188      7.9471     17.0922     40.8419
