~Version Information
VERS.                      2.0: CWLS Log ASCII Standard - VERSION 2.0
WRAP.                       NO: One line per depth step
~Well Information Block
STRT.FT               645.0000: 
STOP.FT              2131.0000: 
STEP.FT                 0.1000: 
NULL.                -999.2500: 
COMP.          Pioneer Natural Resources: COMPANY
WELL.          Gunslinger 13-24: WELL
FLD.           Purgatoire River: FIELD
LOC.           1968' FSL & 633' FWL: LOCATION
PROV.                 Colorado: PROVINCE
CNTY.               Las Animas: COUNTRY
SRVC.                Patterson: SERVICE COMPANY
DATE.          Sat Jul 30 08:07:53 2005: LOG DATE
UWI.           05 071 08442 00: UNIQUE WELL ID
~Curve Information Block
DEPT.FT            0 000 00 00: Depth
DCAL.in                       : CDL Caliper
RHOB.g/cc                     : CDL Bulk Density
RHOC.g/cc                     : CDL Density Correction
DPOR.pu                       : CDL Density Porosity
GR.GAPI                       : Gamma Ray
NPOR.pu                       : Neutron Porosity
~Parameter Information Block
~A  Depth       DCAL        RHOB        RHOC        DPOR         GR         NPOR    
# ...
   837.0000      8.1067      2.4929      0.0478      9.5236     61.6135     17.5452
   837.1000      8.1067      2.4780      0.0290     10.4253     61.4382     17.0443
   837.2000      8.1067      2.4684      0.0088     11.0032     60.2874     17.1287
   837.3000      8.1056      2.4767      0.0202     10.5044     60.1217     17.4171
   837.4000      8.1056      2.4926      0.0686      9.5415     60.7523     17.4006
   837.5000      8.1071      2.4900      0.0395      9.6972     61.4769     17.3648
   837.6000      8.1071      2.4708      0.0129     10.8633     63.7795     17.5727
   837.7000      8.1071      2.4560      0.0349     11.7570     66.9022     17.8334
   837.8000      8.1081      2.4470      0.0355     12.3040     68.8852     17.7457
   837.9000      8.1081      2.4435     -0.0057     12.5137     69.8953     17.1499
   838.0000      8.1035      2.4541      0.0514     11.8725     70.2431     16.4926
   838.1000      8.1035      2.4752      0.0392     10.5949     69.8009     16.2144
   838.2000      8.1035      2.4982      0.0656      9.1991     66.4109     16.1427
   838.3000      8.0974      2.5147      0.0979      8.2013     59.0670     16.0623
   838.4000      8.0974      2.5218      0.0431      7.7712     53.7304     16.2432
   838.5000      8.0865      2.5215      0.0904      7.7889     55.9711     16.7172
   838.6000      8.0865      2.5095      0.0792      8.5148     62.8703     17.1010
   838.7000      8.0865      2.4944      0.0438      9.4331     69.7672     17.2778
   838.8000      8.0810      2.4943      0.0334      9.4342     76.9144     17.3808
   838.9000      8.0810      2.5073      0.0492      8.6477     80.5435     17.5828
   839.0000      8.0779      2.5192      0.0368      7.9266     74.3288     18.0787
   839.1000      8.0779      2.5291      0.0434      7.3263     64.8909     18.7465
   839.2000      8.0779      2.5432      0.0217      6.4709     60.2913     18.8698
   839.3000      8.0785      2.5588      0.0366      5.5244     59.0934     18.1144
   839.4000      8.0785      2.5695      0.0536      4.8783     59.3423     17.3517
   839.5000      8.0764      2.5728      0.0767      4.6801     58.8342     17.3771
   839.6000      8.0764      2.5660      0.0823      5.0928     55.6539     17.8286
   839.7000      8.0764      2.5461      0.0606      6.2986     53.6531     18.0429
   839.8000      8.0851      2.5129      0.0347      8.3084     57.1318     17.9792
   839.9000      8.0851      2.4734      0.0175     10.7016     64.2300     17.8448
   840.0000      8.1264      2.4469     -0.0218     12.3091     69.1477     17.7510
   840.1000      8.1264      2.4456     -0.0145     12.3902     67.9311     17.5768
   840.2000      8.1264      2.4493      0.0562     12.1642     63.7942     17.0449
   840.3000      8.1456      2.4381     -0.0159     12.8409     62.3396     16.3332
   840.4000      8.1456      2.4276     -0.0271     13.4758     64.7585     16.0832
   840.5000      8.1464      2.4388     -0.0249     12.7975     67.7679     16.5756
   840.6000      8.1464      2.4656      0.0472     11.1764     67.6056     17.4230
   840.7000      8.1464      2.4835      0.0608     10.0901     65.6316     18.0088
   840.8000      8.1485      2.4874      0.0522      9.8556     64.9678     18.0035
   840.9000      8.1485      2.4978      0.0028      9.2273     63.5690     17.5609
   841.0000      8.1479      2.5165      0.0964      8.0894     61.0814     17.2712
   841.1000      8.1479      2.5239      0.0354      7.6439     62.5630     17.4233
   841.2000      8.1479      2.5158      0.0805      8.1351     68.1872     17.6457
   841.3000      8.1418      2.4969      0.0785      9.2758     73.1828     17.4923
   841.4000      8.1418      2.4839     -0.0305     10.0645     75.4030     17.1051
   841.5000      8.1168      2.4953      0.0203      9.3773     77.0432     17.0958
   841.6000      8.1168      2.5108      0.0712      8.4361     78.5893     17.4502
   841.7000      8.1168      2.5018      0.0345      8.9822     77.7913     17.5589
   841.8000      8.1079      2.4784      0.0618     10.4008     74.5033     17.1389
   841.9000      8.1079      2.4684     -0.0117     11.0086     69.9864     16.3533
   842.0000      8.1068      2.4809      0.0308     10.2462     66.4644     15.7534
   842.1000      8.1068      2.4991      0.0730      9.1445     65.3630     15.7209
   842.2000      8.1068      2.5040      0.0740      8.8492     65.2036     16.0248
   842.3000      8.1009      2.4991      0.0419      9.1425     64.4810     16.5458
   842.4000      8.1009      2.4937      0.0991      9.4750     61.0083     17.0561
   842.5000      8.1039      2.4762      0.0929     10.5342     54.5368     17.1181
   842.6000      8.1039      2.4427      0.0208     12.5608     49.8363     16.9644
   842.7000      8.1039      2.4141     -0.0031     14.2974     50.0245     17.0220
   842.8000      8.0987      2.3991      0.0412     15.2063     53.0075     17.0947
   842.9000      8.0987      2.3911     -0.0158     15.6896     56.8462     16.8860
   843.0000      8.0971      2.3938      0.0237     15.5252     61.0368     16.8049
   843.1000      8.0971      2.4166     -0.0018     14.1452     62.7994     17.2309
   843.2000      8.0971      2.4676      0.0252     11.0541     63.0023     17.6415
   843.3000      8.1017      2.5317      0.1253      7.1673     65.8675     17.3770
   843.4000      8.1017      2.5654      0.1528      5.1303     68.7709     16.5773
   843.5000      8.1085      2.5549      0.0615      5.7655     68.2322     15.8536
   843.6000      8.1085      2.5328      0.1092      7.1033     65.4331     15.7010
   843.7000      8.1085      2.5160      0.0671      8.1241     61.8014     16.1566
   843.8000      8.1011      2.4982      0.0742      9.2016     59.6544     16.6394
   843.9000      8.1011      2.4835      0.0122     10.0880     60.7639     16.6955
   844.0000      8.1041      2.4753      0.0472     10.5869     63.6342     16.6747
   844.1000      8.1041      2.4612      0.0143     11.4395     64.6540     17.0658
   844.2000      8.1041      2.4446      0.0166     12.4461     61.0557     17.6311
   844.3000      8.1078      2.4425      0.0191     12.5744     55.1651     17.7627
   844.4000      8.1078      2.4590      0.0264     11.5748     52.4269     17.5102
   844.5000      8.1049      2.4931      0.0519      9.5078     55.3561     17.4171
   844.6000      8.1049      2.5379      0.1010      6.7923     59.2584     17.6935
   844.7000      8.1049      2.5717      0.1245      4.7457     58.3693     18.0410
   844.8000      8.1106      2.5764      0.1428      4.4613     55.4906     18.0260
   844.9000      8.1106      2.5567      0.1269      5.6539     54.6816     17.7318
   845.0000      8.1123      2.5311      0.0859      7.2037     54.2651     17.5726
   845.1000      8.1123      2.4999      0.1155      9.0962     53.2587     17.5615
   845.2000      8.1123      2.4532      0.0474     11.9293     51.8943     17.4570
   845.3000      8.1132      2.4072     -0.0038     14.7131     49.5644     17.0981
   845.4000      8.1132      2.3834     -0.0176     16.1555     48.3116     16.4589
   845.5000      8.1229      2.3804     -0.0795     16.3388     50.8166     15.9639
   845.6000      8.1229      2.3919     -0.0085     15.6428     55.0024     16.0321
   845.7000      8.1229      2.4161      0.0382     14.1763     57.7473     16.3625
   845.8000      8.1264      2.4538      0.0503     11.8890     58.4133     16.7267
   845.9000      8.1264      2.4997      0.1213      9.1087     58.4499     17.1352
   846.0000      8.1246      2.5351      0.0960      6.9609     59.8499     17.3706
   846.1000      8.1246      2.5505      0.1471      6.0315     60.9748     17.5017
   846.2000      8.1246      2.5615      0.0854      5.3642     61.7424     17.7679
   846.3000      8.1129      2.5852      0.1527      3.9260     65.5435     18.0783
   846.4000      8.1129      2.6114      0.1987      2.3394     70.1952     18.1376
   846.5000      8.1190      2.6278      0.0988      1.3425     70.2381     17.9795
