~Version Information
VERS.                      2.0: CWLS Log ASCII Standard - VERSION 2.0
WRAP.                       NO: One line per depth step
~Well Information Block
STRT.FT               880.0000: 
STOP.FT              1995.0000: 
STEP.FT                 0.2500: 
NULL.                -999.2500: 
COMP.          Petrogulf Corporation: COMPANY
WELL.          Collister 17-31R: WELL
FLD.           Purgatorie River: FIELD
LOC.           962' FNL & 1520' FEL: LOCATION
PROV.                 Colorado: PROVINCE
CNTY.               Las Animas: COUNTRY
SRVC.                Patterson: SERVICE COMPANY
DATE.          Mon Sep 26 09:32:26 2005: LOG DATE
UWI.                          : UNIQUE WELL ID
~Curve Information Block
DEPT.FT            0 000 00 00: Depth
SP.mV                         : DIL Spontaneous Potential
RILD.Ohm-m                    : DIL Deep Resistivity
RILM.Ohm-m                    : DIL Medium Resistivity
RLL3.Ohm-m                    : DIL Shallow Resistivity
GR.GAPI                       : Gamma Ray
~Parameter Information Block
~A  Depth        SP         RILD        RILM        RLL3         GR     
# ...
  1244.0000    158.9794     20.3715     32.3846    474.1524     73.4547
  1244.2500    161.2612     20.7297     34.4081    315.7563     54.2087
  1244.5000    164.4420     21.1584     35.3502    210.7682     45.2744
  1244.7500    167.9109     21.1014     34.6306    190.1578     58.8519
  1245.0000    171.0052     21.2209     33.6157    154.0036     72.5301
  1245.2500    173.8667     20.5604     30.6465     73.7142     85.8386
  1245.5000    176.6036     20.4375     27.1074     37.3607     59.0235
  1245.7500    178.5558     19.8846     24.7648     24.6028     73.0199
  1246.0000    179.6039     19.1228     21.7482     20.4453     93.2962
  1246.2500    179.9726     18.2329     19.7107     18.3173     81.1962
  1246.5000    180.1566     17.6316     18.7776     14.6256     93.8495
  1246.7500    180.1013     16.8390     17.8069     14.7597    107.4528
  1247.0000    179.8600     16.0106     17.0812     16.5338    108.8645
  1247.2500    179.4837     15.5764     16.7876     16.8021    104.4710
  1247.5000    178.9966     14.7915     16.1358     17.2942    120.4677
  1247.7500    178.6188     14.2359     15.7269     17.2942    136.3616
  1248.0000    178.5693     13.9588     15.6918     19.2261    132.1721
  1248.2500    178.4621     13.5110     15.5671     21.5716    124.5605
  1248.5000    178.3991     13.3124     15.4748     24.0193    107.9105
  1248.7500    178.8865     12.8837     15.0491     23.5434    131.3524
  1249.0000    179.5890     12.6252     14.4420     21.0795    121.5075
  1249.2500    180.2943     12.5126     14.0114     20.4995    126.6878
  1249.5000    180.9188     12.2089     13.4438     19.7096    107.9067
  1249.7500    181.4868     12.0127     12.8082     19.5423    113.6441
  1250.0000    182.1553     12.0986     12.0856     18.7014    103.4271
  1250.2500    183.0144     12.1977     11.7602     15.7052    110.0436
  1250.5000    183.5756     12.2442     11.3279     14.3080    121.6028
  1250.7500    183.5783     12.4943     11.0825     13.6350    117.0639
  1251.0000    182.9344     12.7740     11.0223     12.6838    126.8392
  1251.2500    182.0373     13.0698     11.0569     12.4977    144.0494
  1251.5000    181.1256     13.5233     11.4789     12.5640    153.5052
  1251.7500    180.1860     14.0350     11.9674     12.6270    157.6703
  1252.0000    179.6736     14.5216     12.8167     13.2892    144.2578
  1252.2500    179.4802     14.7475     14.3600     16.4622    154.1919
  1252.5000    179.7733     15.1484     16.3953     28.5310    157.2097
  1252.7500    180.5868     15.9721     18.9245     69.0682    150.4187
  1253.0000    181.9677     16.2891     21.8755    173.1182    118.0724
  1253.2500    183.8621     16.7706     24.5638    326.8472    109.8144
  1253.5000    186.3779     16.8539     26.8812    439.1767     95.6211
  1253.7500    189.3534     16.9622     28.6272    312.9230     78.8925
  1254.0000    192.1062     16.8730     30.3618    180.3612     56.3081
  1254.2500    195.0699     16.9040     28.9352    157.4798     47.5644
  1254.5000    198.3866     16.5466     26.2461    134.4027     56.9903
  1254.7500    201.6450     16.3320     23.1955     58.5587     59.8227
  1255.0000    204.0139     16.1017     20.1582     26.5152     54.8564
  1255.2500    205.5421     15.2600     17.3566     15.4668     55.7174
  1255.5000    206.1299     14.4171     15.3714     13.0983     72.5321
  1255.7500    206.3798     13.5645     13.8929     11.6637     86.0999
  1256.0000    206.4417     12.7382     12.9516     11.0453     86.5922
  1256.2500    206.1900     11.9257     12.1476     10.4678     99.6423
  1256.5000    205.7480     11.3853     11.4840     10.2966     93.9219
  1256.7500    205.4780     10.6818     10.8866     10.9754     91.3993
  1257.0000    205.5506      9.9982     10.4099     11.4790    108.0156
  1257.2500    205.2449      9.6124      9.8704     11.7718    123.6516
  1257.5000    204.8962      9.2578      9.4550     11.7813    131.4961
  1257.7500    204.5693      9.0756      9.1289     11.1140    125.6952
  1258.0000    204.3847      8.8276      9.0205     11.3946    127.0262
  1258.2500    204.5569      8.6751      8.8523     11.5950    131.3558
  1258.5000    204.7385      8.5682      8.6999     12.9775     93.8841
  1258.7500    205.0999      8.4418      8.5898     13.0726     91.1537
  1259.0000    205.4278      8.4663      8.3821     11.9153    121.7433
  1259.2500    205.6137      8.3822      8.2472     10.2614    118.0570
  1259.5000    205.6334      8.3397      8.0908      9.8407    127.7487
  1259.7500    205.2453      8.3712      7.9775      9.7468    139.8505
  1260.0000    204.5766      8.3647      8.0172     10.5906    141.2118
  1260.2500    203.9177      8.3561      8.1155     10.3833    140.4638
  1260.5000    202.4615      8.2656      8.1653     10.7624    138.1871
  1260.7500    200.6818      8.2603      8.2395     11.1343    134.4370
  1261.0000    198.6760      8.1721      8.3545     11.1294    134.5719
  1261.2500    196.7630      8.1793      8.3499     12.0882    106.6310
  1261.5000    194.9221      8.1857      8.3376     11.7144    139.7065
  1261.7500    193.2324      8.1210      8.2926     10.6557    133.7860
  1262.0000    192.2498      8.0767      8.2097     10.1645    104.5783
  1262.2500    191.0431      8.0598      8.2035     10.0383    118.8156
  1262.5000    190.0052      7.9539      8.1828     10.2032    123.9201
  1262.7500    189.1317      7.9881      8.1507      9.6389    120.6809
  1263.0000    188.4930      8.0187      8.1515     10.0229    124.5260
  1263.2500    187.9367      8.0773      8.0922     10.6804    125.7603
  1263.5000    187.6141      8.0373      8.0257     10.2778    118.4227
  1263.7500    187.6452      8.0256      8.0432      9.1821    105.4026
  1264.0000    187.4393      7.9297      8.0692      9.3169    123.7611
  1264.2500    187.1639      7.9370      8.1074     10.0475    141.0388
  1264.5000    186.9553      8.0343      8.2986     10.5456    135.6073
  1264.7500    186.5932      8.0961      8.3468     10.6078    135.3665
  1265.0000    185.7421      8.1216      8.3344      9.2744    146.0717
  1265.2500    184.8082      8.0695      8.3303      9.1024    130.6010
  1265.5000    183.7325      8.0517      8.4973     10.1281    153.1708
  1265.7500    182.6421      8.1292      8.6191     11.3237    147.0482
  1266.0000    181.8139      8.2204      8.7517     12.9768    117.9618
  1266.2500    180.8500      8.2219      8.8188     14.2253    116.1315
  1266.5000    180.0832      8.3100      8.8661     13.7222    140.3096
  1266.7500    179.2221      8.3377      8.8527     11.6735    135.1385
  1267.0000    178.4649      8.3699      8.8193     11.4236    115.2080
  1267.2500    177.7472      8.4618      8.8155     11.4572    102.6910
  1267.5000    177.1779      8.5388      8.8225     10.6673    123.5244
  1267.7500    176.8716      8.6442      8.8847     11.0645    127.7581
  1268.0000    176.6655      8.7030      8.9400     10.9057    128.8172
  1268.2500    176.4425      8.7564      9.0897     10.4442    129.2082
  1268.5000    176.2348      8.7603      9.2110     11.3910    121.2072
  1268.7500    176.0447      8.8205      9.4098     11.8007    120.1015
  1269.0000    175.7228      8.9026      9.3792     12.2803    120.6439
  1269.2500    175.4962      8.9270      9.4063     11.1367    110.0443
  1269.5000    175.3253      8.9410      9.4222     10.7587    107.7975
  1269.7500    175.0270      9.0213      9.4768     11.0384    127.8213
  1270.0000    174.6158      9.1159      9.5106     10.5704    125.8473
  1270.2500    174.1994      9.3073      9.6055     10.4061    122.9168
  1270.5000    173.9746      9.3303      9.7123     10.6727    107.2075
  1270.7500    173.6246      9.3173      9.9143      9.8254    107.6258
  1271.0000    173.2899      9.2090     10.1780     10.6169    125.5089
  1271.2500    173.0646      9.1188     10.4435     12.9288    106.5951
  1271.5000    173.2320      9.0942     10.5669     17.4946    103.6800
  1271.7500    173.6810      9.1167     10.2827     22.8888     87.6703
