~Version Information
VERS.                                  2.0 : CWLS LAS VERSION
WRAP.                                   NO : WRAPING MODE
SWARE .                  MController 2.5.1 : SOFTWARE VERSION
~Well Information
WELL.                  Horesfeathers 24-34 : WELL
COMP.  Pioneer Natural Resources USA, Inc. : COMPANY
FLD.                      Purgatoire River : FIELD
LOC.                      SE/SW 34-32S-67W : LOCATION
DATE.                02/03/2006-02/05/2006 : DATE(S) LOGGED
SRVC.                  Entrada GeoSciences : SERVICE COMPANY
STAT.                             Colorado : STATE
CNTY.                           Las Animas : COUNTY
CTRY.                        United States : COUNTRY
API.                          05-071-xxxxx : API NUMBER
STRT.FT                             514.00 : START DEPTH
STOP.FT                            2575.00 : STOP DEPTH
STEP.FT                               1.00 : DEPTH INCREMENT
NULL.                                -9999 : NULL VALUE
~Curve information
DEPTH.FT                                   :
ROP.MIN/FT                                 :
GAS.UNITS                                  :
~ASCII Log data
# ...
      926.00         0.13         15.6
      927.00         0.17         15.7
      928.00         0.22         15.7
      929.00         0.23         16.2
      930.00         0.17         15.7
      931.00         0.10         15.7
      932.00         0.13         16.0
      933.00         0.20         16.0
      934.00         0.20         16.2
      935.00         0.23         16.0
      936.00         0.20         16.0
      937.00         0.20         16.0
      938.00         0.23         15.3
      939.00         0.23         14.6
      940.00         0.27         14.7
      941.00         0.20         13.9
      942.00         0.20         14.6
      943.00         0.20         14.0
      944.00         0.25         14.2
      945.00         0.20         14.7
      946.00         0.23         14.5
      947.00         0.17         14.4
      948.00         0.17         15.0
      949.00         0.17         15.0
      950.00         0.23         14.8
      951.00         0.37         14.8
      952.00         0.30         14.5
      953.00         0.20         13.7
      954.00         0.20         14.6
      955.00         0.20         15.1
      956.00         0.20         13.4
      957.00         0.17         14.0
      958.00         0.20         13.7
      959.00         0.30         14.1
      960.00         0.40         13.8
      961.00         0.23         13.3
      962.00         0.23         14.0
      963.00         0.28         13.7
      964.00         0.30         14.1
      965.00         0.23         14.2
      966.00         0.27         14.0
      967.00         0.27         13.8
      968.00         0.27         13.9
      969.00         0.27         12.9
      970.00         0.20         13.6
      971.00         0.17         13.7
      972.00         0.23         13.7
      973.00         0.27         14.0
      974.00         0.30         13.3
      975.00         0.23         13.2
      976.00         0.28         13.1
      977.00         0.27         12.6
      978.00         0.27         13.4
      979.00         0.33         13.7
      980.00         0.27         13.5
      981.00         0.42         13.7
      982.00         0.20         14.2
      983.00         0.20         14.3
      984.00         0.20         13.7
      985.00         0.17         14.0
      986.00         0.20         14.0
      987.00         0.23         14.1
      988.00         0.27         13.6
      989.00         0.20         13.5
      990.00         0.20         14.0
      991.00         0.23         13.3
      992.00         0.20         13.5
      993.00         0.20         12.6
      994.00         0.17         12.6
      995.00         0.20         13.7
      996.00         0.17         13.6
      997.00         0.18         12.7
      998.00         0.17         13.6
      999.00         0.20         12.7
     1000.00         0.23         13.7
     1001.00         0.23         14.1
     1002.00         0.33         14.6
     1003.00         0.37         15.9
     1004.00         0.27         18.1
     1005.00         0.23         18.1
     1006.00         0.30         18.4
     1007.00         0.40         17.8
     1008.00         0.30         15.7
     1009.00         0.35         15.6
     1010.00         0.33         14.4
     1011.00         0.57         13.8
     1012.00         0.27         13.4
     1013.00         0.20         13.1
     1014.00         0.23         12.8
     1015.00         0.23         14.2
     1016.00         0.20         13.5
     1017.00         0.20         14.0
     1018.00         0.20         13.9
     1019.00         0.23         13.8
     1020.00         0.27         13.4
     1021.00         0.38         14.0
     1022.00         0.33         14.2
     1023.00         0.23         13.8
     1024.00         0.20         13.6
     1025.00         0.27         13.5
     1026.00         0.30         13.7
     1027.00         0.23         13.9
     1028.00         0.30         13.6
     1029.00         0.33         13.5
     1030.00         0.23         13.7
     1031.00         0.20         13.1
     1032.00         0.27         13.9
     1033.00         0.35         13.9
     1034.00         0.40         13.5
     1035.00         0.20         13.5
     1036.00         0.17         13.9
     1037.00         0.20         13.7
     1038.00         0.23         13.5
     1039.00         0.23         13.2
     1040.00         0.27         13.4
     1041.00         0.37         13.5
     1042.00         0.43         14.0
     1043.00         0.30         14.6
     1044.00         0.27         14.5
     1045.00         0.20         15.0
     1046.00         0.20         14.2
     1047.00         0.13         14.2
     1048.00         0.25         12.9
     1049.00         0.23         13.9
     1050.00         0.23         13.9
     1051.00         0.37         13.8
     1052.00         0.37         15.6
     1053.00         0.33         15.3
     1054.00         0.30         15.3
     1055.00         0.30         14.2
     1056.00         0.33         14.0
     1057.00         0.33         14.4
     1058.00         0.13         14.5
     1059.00         0.22         13.5
     1060.00         0.20         14.5
     1061.00         0.23         14.5
     1062.00         0.27         14.6
     1063.00         0.30         13.8
     1064.00         0.43         14.2
     1065.00         0.30         14.1
     1066.00         0.17         14.1
     1067.00         0.17         14.2
     1068.00         0.17         14.2
     1069.00         0.20         14.1
     1070.00         0.27         13.6
     1071.00         0.27         13.3
     1072.00         0.47         13.7
     1073.00         0.40         13.3
     1074.00         0.37         13.5
     1075.00         0.42         13.6
     1076.00         0.33         14.1
     1077.00         0.33         13.7
     1078.00         0.33         13.8
     1079.00         0.30         13.9
     1080.00         0.30         14.2
     1081.00         0.37         14.0
     1082.00         0.40         15.5
     1083.00         0.37         14.7
     1084.00         0.27         13.6
     1085.00         0.25         13.5
     1086.00         0.20         13.7
     1087.00         0.20         13.7
     1088.00         0.23         13.5
     1089.00         0.23         12.7
     1090.00         0.20         13.2
     1091.00         0.23         13.5
     1092.00         0.23         13.3
     1093.00         0.20         13.3
     1094.00         0.53         13.6
     1095.00         0.30         13.6
     1096.00         0.23         13.8
     1097.00         0.20         13.4
     1098.00         0.23         13.8
     1099.00         0.22         13.9
     1100.00         0.17         13.7
     1101.00         0.30         14.2
     1102.00         0.17         13.8
     1103.00         0.33         14.2
     1104.00         0.30         13.1
     1105.00         0.30         13.2
     1106.00         0.23         13.5
     1107.00         0.20         13.4
     1108.00         0.17         13.4
     1109.00         0.20         12.9
     1110.00         0.13         13.2
     1111.00         0.23         13.4
     1112.00         0.33         14.2
     1113.00         0.12         14.0
     1114.00         0.17         13.5
     1115.00         0.17         13.3
     1116.00         0.30         12.8
     1117.00         0.43         13.7
     1118.00         0.33         13.2
     1119.00         0.23         13.8
     1120.00         0.27         13.2
     1121.00         0.17         13.6
     1122.00         0.20         13.3
     1123.00         0.13         13.4
     1124.00         0.20         13.4
     1125.00         0.17         13.3
     1126.00         0.20         12.8
     1127.00         0.17         12.8
     1128.00         0.17         12.6
     1129.00         0.22         12.6
     1130.00         0.23         12.8
     1131.00         0.47         12.7
