~Version Information
 VERS.                                  2.0 : CWLS LAS VERSION
 WRAP.                                   NO : WRAPING MODE
 SWARE .                 MController 2.5.0J : SOFTWARE VERSION
~Well Information
 WELL.                         Croc 42-09Tr : WELL
 COMP.    Pioneer Natural Resources USA Inc : COMPANY
 FLD.                      Purgatoire River : FIELD
 LOC.                 SE/NE Sec09 T32S R66W : LOCATION
 DATE.                             10/13/05 : DATE(S) LOGGED
 SRVC.       Blanco Geological Services LLC : SERVICE COMPANY
 STAT.                             Colorado : STATE
 CNTY.                           Las Animas : COUNTY
 CTRY.                                  USA : COUNTRY
 API.                       05-071-08550-00 : API NUMBER
 STRT.FT                             326.00 : START DEPTH
 STOP.FT                            1150.00 : STOP DEPTH
 STEP.FT                               1.00 : DEPTH INCREMENT
 NULL.                                -9999 : NULL VALUE
~Curve information
 DEPTH.FT                                   :
 ROP.MIN/FT                                 :
 GAS.UNITS                                  :
~ASCII Log data
# ...
       526.0         0.62          9.1 
       527.0         0.57          9.8 
       528.0         0.50          9.0 
       529.0         0.43         11.8 
       530.0         0.50         13.2 
       531.0         0.50         12.7 
       532.0         0.68         12.6 
       533.0         0.77         11.9 
       534.0         0.83         23.1 
       535.0         0.73        213.6 
       536.0         4.47       2032.7 
       537.0         0.63       1219.9 
       538.0         0.47       1227.0 
       539.0         0.43       1146.1 
       540.0         0.37       1013.7 
       541.0         0.40        919.6 
       542.0         0.30        851.9 
       543.0         0.30        850.3 
       544.0         0.35        831.6 
       545.0         0.33        813.6 
       546.0         0.30        803.2 
       547.0         0.30        808.7 
       548.0         0.30        800.0 
       549.0         0.37        793.3 
       550.0         0.40        803.9 
       551.0         0.37        808.7 
       552.0         0.30        801.0 
       553.0         0.30        787.1 
       554.0         0.38        781.0 
       555.0         0.33        775.5 
       556.0         0.33        763.6 
       557.0         0.37        756.8 
       558.0         0.33        769.7 
       559.0         0.33        772.9 
       560.0         0.33        773.3 
       561.0         0.30        768.1 
       562.0         0.33        741.7 
       563.0         0.33        716.9 
       564.0         0.35        712.0 
       565.0         1.30        719.5 
       566.0         2.25       1696.9 
       567.0         0.50       1200.6 
       568.0         0.47       1011.7 
       569.0         0.53        951.5 
       570.0         0.60        785.8 
       571.0         0.63        692.1 
       572.0         0.72        669.2 
       573.0         0.67        644.7 
       574.0         0.57        634.4 
       575.0         0.57        629.9 
       576.0         0.43        627.9 
       577.0         0.33        623.4 
       578.0         0.33        620.5 
       579.0         0.32        621.5 
       580.0         0.27        649.8 
       581.0         0.30        685.6 
       582.0         0.33        756.5 
       583.0         0.30        800.3 
       584.0         0.37        812.6 
       585.0         0.40        855.1 
       586.0         0.43        872.2 
       587.0         0.37        868.3 
       588.0         0.35        857.1 
       589.0         0.40        855.1 
       590.0         0.43        867.4 
       591.0         0.40        860.6 
       592.0         0.47        858.0 
       593.0         0.50        869.6 
       594.0         0.57        852.9 
       595.0         0.58        847.4 
       596.0         3.38       1898.6 
       597.0         0.70       1375.6 
       598.0         0.57       1090.7 
       599.0         0.50       1046.6 
       600.0         0.67       1444.2 
       601.0         0.53       1537.7 
       602.0         0.38       1493.2 
       603.0         0.37       1369.5 
       604.0         0.37       1316.3 
       605.0         0.37       1103.9 
       606.0         0.40       1058.8 
       607.0         0.37        999.2 
       608.0         0.40        961.8 
       609.0         0.40        952.4 
       610.0         0.40        894.1 
       611.0         0.32        857.1 
       612.0         0.30        822.9 
       613.0         0.37        820.6 
       614.0         0.40        819.0 
       615.0         0.40        812.3 
       616.0         0.30        793.9 
       617.0         0.30        773.9 
       618.0         0.37        771.3 
       619.0         0.37        763.6 
       620.0         0.33        761.7 
       621.0         0.38        752.3 
       622.0         0.33        734.0 
       623.0         0.30        735.2 
       624.0         0.27        711.1 
       625.0         0.30        705.3 
       626.0         4.05        745.2 
       627.0         0.43        567.3 
       628.0         0.50       1631.5 
       629.0         0.10       1631.5 
       630.0         0.92       1583.8 
       631.0         0.47        972.1 
       632.0         0.47        889.9 
       633.0         0.50        851.3 
       634.0         0.80        826.1 
       635.0         0.65        672.1 
       636.0         0.80        724.0 
       637.0         0.40        727.5 
       638.0         0.43        727.2 
       639.0         0.53        705.6 
       640.0         0.53        682.1 
       641.0         0.65        675.0 
       642.0         0.47        672.4 
       643.0         0.47        674.7 
       644.0         0.60        672.7 
       645.0         0.67        676.3 
       646.0         0.63        680.8 
       647.0         0.52        677.9 
       648.0         0.60        672.1 
       649.0         0.67        673.0 
       650.0         0.60        675.3 
       651.0         0.73        673.4 
       652.0         0.62        666.3 
       653.0         0.63        663.7 
       654.0         0.63        657.9 
       655.0         0.80        738.5 
       656.0         4.90       4529.0 
       657.0         0.43       4079.1 
       658.0         0.57       3574.7 
       659.0         0.47       3783.2 
       660.0         0.37       3710.1 
       661.0         0.37       3493.2 
       662.0         0.33       3055.9 
       663.0         0.30       2634.0 
       664.0         0.32       2382.0 
       665.0         0.30       2362.7 
       666.0         0.40       2243.4 
       667.0         0.37       2359.8 
       668.0         0.33       2388.8 
       669.0         0.37       2456.1 
       670.0         0.40       2531.9 
       671.0         0.40       2509.0 
       672.0         0.43       2489.0 
       673.0         0.42       2496.4 
       674.0         0.40       2488.4 
       675.0         0.43       2482.6 
       676.0         0.37       2470.0 
       677.0         0.33       2454.2 
       678.0         0.33       2431.6 
       679.0         0.33       2425.2 
       680.0         0.40       2433.9 
       681.0         0.27       2462.9 
       682.0         0.32       2483.2 
       683.0         0.57       2472.6 
       684.0         0.37       2277.9 
       685.0         0.43       2453.2 
       686.0         3.95       4817.1 
       687.0         0.43       3662.1 
       688.0         0.67       3703.0 
       689.0         0.42       3272.8 
       690.0         0.37       3006.9 
       691.0         0.33       2939.9 
       692.0         0.40       2831.9 
       693.0         0.40       2749.1 
       694.0         0.30       2627.9 
       695.0         0.30       2539.9 
       696.0         0.30       2472.3 
       697.0         0.30       2422.3 
       698.0         0.30       2406.8 
       699.0         0.18       2447.4 
       700.0         0.17       2447.4 
       701.0         0.13       2481.6 
       702.0         0.13       2579.9 
       703.0         0.23       2600.5 
       704.0         0.40       3145.8 
       705.0         0.30       3182.2 
       706.0         0.37       3238.3 
       707.0         0.33       3241.5 
       708.0         0.33       3221.8 
       709.0         0.37       3171.9 
       710.0         0.37       3120.0 
       711.0         0.35       3084.6 
       712.0         0.33       3050.4 
       713.0         0.33       3027.2 
       714.0         0.37       3029.1 
       715.0         0.50       3052.0 
       716.0         4.97       5497.7 
       717.0         0.43       4179.0 
       718.0         0.53       3753.9 
       719.0         0.47       3327.5 
       720.0         0.43       3102.0 
       721.0         0.43       2956.6 
       722.0         0.37       2815.5 
       723.0         0.23       2772.0 
       724.0         0.33       2692.0 
       725.0         0.32       2819.3 
