~Version Information
VERS.                      2.0: CWLS Log ASCII Standard - VERSION 2.0
WRAP.                       NO: One line per depth step
~Well Information Block
STRT.FT                -9.0000: 
STOP.FT              1841.0000: 
STEP.FT                 0.2500: 
NULL.                -999.2500: 
COMP.          Pioneer Natural Resources: COMPANY
WELL.          Cooper 11-13 Tr: WELL
FLD.           Purgatorie River: FIELD
LOC.           476' FNL & 738' FWL: LOCATION
STAT.                       CO: State
CNTY.               Las Animas: COUNTY
CTRY. USA : Country
SECT. 13 : Section
TOWN. 32S : Township
RANG. 67W : Range
SRVC.          Patterson Wireline: SERVICE COMPANY
DATE.          Thu Sep 29 08:59:13 2005: LOG DATE
API.           05 071 08525 00: UNIQUE WELL ID
~Curve Information Block
DEPT.FT            0 000 00 00: Depth
CCL.                          : Casing Collar Locator
TT3.usec                      : CBL 3' Travel Time
AMP3.mV                       : CBL 3' Amplitude
GR.GAPI                       : Gamma Ray
~Parameter Information Block
~A  Depth       CCL         TT3         AMP3         GR     
# ...
  1331.0000      0.0000    507.9845      9.6067    101.4332
  1331.2500      0.0000    471.2267      9.5830    100.9505
  1331.5000      0.0000    453.3705      9.5467    101.7930
  1331.7500      0.0000    463.0504      9.4721    103.1828
  1332.0000      0.0000    499.3172      9.3501    104.9045
  1332.2500      0.0000    554.3837      9.1959    107.5166
  1332.5000      0.0000    615.1770      9.0407    111.7518
  1332.7500      0.0000    667.0102      8.9095    117.8839
  1333.0000      0.0000    700.2124      8.8036    125.1496
  1333.2500      0.0000    714.1904      8.7016    131.4830
  1333.5000      0.0000    715.2270      8.5776    134.4282
  1333.7500      0.0000    710.9459      8.4173    132.9317
  1334.0000      0.0000    706.3458      8.2241    128.1823
  1334.2500      0.0000    703.2755      8.0259    122.5696
  1334.5000      0.0000    702.0243      7.8811    117.9284
  1334.7500      0.0000    702.9680      7.8570    114.7440
  1335.0000      0.0000    707.0467      7.9806    112.6685
  1335.2500      0.0000    714.8437      8.2078    111.3718
  1335.5000      0.0000    725.1494      8.4442    110.9031
  1335.7500      0.0000    734.7455      8.5998    111.5131
  1336.0000      0.0000    740.2146      8.6346    113.0389
  1336.2500      0.0000    740.0550      8.5643    114.1768
  1336.5000      0.0000    735.0080      8.4328    112.9342
  1336.7500      0.0000    727.0139      8.2868    108.7141
  1337.0000      0.0000    718.3115      8.1814    103.7179
  1337.2500      0.0000    710.8392      8.1939    101.3265
  1337.5000      0.0000    705.6246      8.4036    103.1180
  1337.7500      0.0000    702.6069      8.8313    108.0735
  1338.0000      0.0000    701.1236      9.3952    114.4564
  1338.2500      0.0000    700.5031      9.9433    121.5192
  1338.5000      0.0000    700.2877     10.3439    128.9104
  1338.7500      0.0000    700.2468     10.5545    135.2183
  1339.0000      0.0000    700.4391     10.6179    138.4973
  1339.2500      0.0000    701.3322     10.6083    138.3992
  1339.5000      0.0000    703.7618     10.5729    136.5414
  1339.7500      0.0000    708.4550     10.5066    134.4942
  1340.0000      0.0000    715.3038     10.3703    132.6691
  1340.2500      0.0000    723.1613     10.1373    131.3488
  1340.5000      0.0000    730.4528      9.8217    131.4100
  1340.7500      0.0000    735.8414      9.4634    133.3893
  1341.0000      0.0000    738.5193      9.1019    136.5293
  1341.2500      0.0000    738.6459      8.7700    139.1318
  1341.5000      0.0000    737.5250      8.5006    139.6720
  1341.7500      0.0000    736.4215      8.3276    137.7271
  1342.0000      0.0000    735.0403      8.2727    134.3092
  1342.2500      0.0000    731.8521      8.3231    131.3140
  1342.5000      0.0000    726.0034      8.4219    130.1153
  1342.7500      0.0000    718.4590      8.4976    130.3521
  1343.0000      0.0000    711.2206      8.5147    130.2688
  1343.2500      0.0000    705.5695      8.4925    128.4155
  1343.5000      0.0000    700.9592      8.4695    124.8704
  1343.7500      0.0000    695.1044      8.4590    120.8275
  1344.0000      0.0000    685.3887      8.4411    117.3732
  1344.2500      0.0000    671.6157      8.3894    114.9108
  1344.5000      0.0000    658.2914      8.2992    113.4408
  1344.7500      0.0000    652.6261      8.1918    112.7445
  1345.0000      0.0000    658.2356      8.0988    112.1380
  1345.2500      0.0000    671.4064      8.0396    110.6102
  1345.5000      0.0000    684.7579      8.0117    107.7773
  1345.7500      0.0000    693.5154      7.9981    104.6087
  1346.0000      0.0000    697.3731      7.9752    102.6860
  1346.2500      0.0000    698.0486      7.9114    102.5558
  1346.5000      0.0000    696.6276      7.7733    103.0505
  1346.7500      0.0000    692.9688      7.5606    102.3829
  1347.0000      0.0000    686.7617      7.3382     99.7799
  1347.2500      0.0000    678.9129      7.1952     95.9305
  1347.5000      0.0000    672.0666      7.1450     92.1128
  1347.7500      0.0000    669.4116      7.1060     89.2152
  1348.0000      0.0000    672.0788      7.0162     87.3424
  1348.2500      0.0000    677.7564      6.9186     86.0014
  1348.5000      0.0000    684.1207      6.8996     84.8577
  1348.7500      0.0000    694.4775      6.9889     84.5446
  1349.0000     -2.0000    716.5106      7.1491     86.4119
  1349.2500      0.0000    752.2352      7.3262     91.0708
  1349.5000      0.0000    789.4573      7.4928     97.3175
  1349.7500      0.0000    805.8041      7.6717    102.9323
  1350.0000      0.0000    785.9984      7.9207    106.6197
  1350.2500      0.0000    738.3015      8.2578    108.8346
  1350.5000      0.0000    690.4142      8.6058    110.6236
  1350.7500      0.0000    665.7411      8.8526    112.2258
  1351.0000      0.0000    666.1326      8.9581    112.9906
  1351.2500      0.0000    678.0565      8.9671    111.9658
  1351.5000      0.0000    688.9953      8.9408    108.2403
  1351.7500      0.0000    694.8256      8.9122    101.2679
  1352.0000      0.0000    696.8177      8.8871     91.3985
  1352.2500      0.0000    697.0762      8.8569     80.1181
  1352.5000      0.0000    696.8096      8.8070     69.6782
  1352.7500      0.0000    696.4815      8.7296     62.2861
  1353.0000      0.0000    696.2361      8.6353     59.2161
  1353.2500      0.0000    696.1357      8.5520     60.3525
  1353.5000      0.0000    696.2209      8.5064     64.4316
  1353.7500      0.0000    696.6318      8.5033     69.5099
  1354.0000      0.0000    697.8732      8.5256     73.4390
  1354.2500      0.0000    701.2322      8.5556     74.7321
  1354.5000      0.0000    708.7442      8.5883     73.4381
  1354.7500      0.0000    721.5436      8.6254     70.8844
  1355.0000      0.0000    736.5737      8.6680     68.4179
  1355.2500      0.0000    744.7776      8.7208     66.5990
  1355.5000      0.0000    734.9923      8.7953     65.4564
  1355.7500      0.0000    703.1609      8.9011     64.9178
  1356.0000      0.0000    659.1456      9.0329     64.6492
  1356.2500      0.0000    622.5347      9.1609     63.8216
  1356.5000      0.0000    608.2083      9.2392     61.6995
  1356.7500      0.0000    615.0404      9.2346     58.5925
  1357.0000      0.0000    629.8698      9.1551     55.8957
  1357.2500      0.0000    641.6960      9.0453     54.9268
  1357.5000      0.0000    649.6454      8.9555     55.6682
  1357.7500      0.0000    658.3965      8.9160     56.7131
  1358.0000      0.0000    670.0800      8.9274     56.7081
  1358.2500      0.0000    681.8439      8.9632     55.8083
  1358.5000      0.0000    688.8840      8.9845     55.3199
  1358.7500      0.0000    687.6240      8.9664     55.9549
  1359.0000      0.0000    675.9119      8.9135     57.0916
  1359.2500      0.0000    652.7247      8.8469     57.8418
  1359.5000      0.0000    621.4717      8.7763     58.1387
  1359.7500      0.0000    593.7671      8.6855     58.5094
  1360.0000      0.0000    585.0023      8.5452     59.2843
  1360.2500      0.0000    602.1129      8.3386     60.3099
  1360.5000      0.0000    636.3898      8.0771     61.2065
  1360.7500      0.0000    670.4674      7.7980     61.7865
  1361.0000      0.0000    691.9520      7.5459     62.2400
  1361.2500      0.0000    699.8035      7.3520     62.7223
  1361.5000      0.0000    699.9385      7.2220     62.8418
  1361.7500      0.0000    698.0386      7.1419     62.0005
  1362.0000      0.0000    696.5980      7.0936     60.1588
  1362.2500      0.0000    695.8976      7.0664     57.8127
  1362.5000      0.0000    695.6154      7.0569     55.4324
  1362.7500      0.0000    695.5001      7.0608     53.3880
  1363.0000      0.0000    695.4383      7.0680     52.1729
  1363.2500      0.0000    695.3940      7.0672     52.1111
  1363.5000      0.0000    695.3692      7.0568     52.8421
  1363.7500      0.0000    695.3752      7.0465     53.5937
  1364.0000      0.0000    695.4054      7.0443     54.1833
  1364.2500      0.0000    695.4383      7.0430     55.3879
