~Version Information
VERS.                      2.0: CWLS Log ASCII Standard - VERSION 2.0
WRAP.                       NO: One line per depth step
~Well Information Block
STRT.FT                -8.5000: 
STOP.FT              1263.2500: 
STEP.FT                 0.2500: 
NULL.                -999.2500: 
COMP.          Pioneer Natural Resources: COMPANY
WELL.          Rockfish 11-30 Tr: WELL
FLD.           Purgatoire River: FIELD
LOC.           1063' FNL & 1068' FWL--: LOCATION
STAT.                       CO: State
CNTY.               Las Animas: COUNTY
CTRY. USA : country
SECT. 30 : Section
TOWN. 32S : Township
RANG. 65W : Range
SRVC.          Patterson Wireline: SERVICE COMPANY
DATE.          Tue Nov 22 16:08:49 2005: LOG DATE
API.           05 071 08585 00: UNIQUE WELL ID
~Curve Information Block
DEPT.FT            0 000 00 00: Depth
HVOLTA.V                      : Head Voltage Apparent
CCL.                          : Casing Collar Locator
TT3.usec                      : CBL 3' Travel Time
AMP3.mV                       : CBL 3' Amplitude
GR.GAPI                       : Gamma Ray
~Parameter Information Block
PPT.usec                0.0000: Predicted Pipe Time
~A  Depth      HVOLTA       CCL         TT3         AMP3         GR     
# ...
  1055.5000     96.3081      0.0000    664.4967     17.0812    129.3945
  1055.7500     96.2815      0.0000    644.9703     17.1866    124.6341
  1056.0000     96.2142      0.0000    606.7721     17.2739    120.2788
  1056.2500     97.3555      0.0000    560.1046     17.4548    116.7033
  1056.5000     95.7402      0.0000    518.3057     17.8526    114.4906
  1056.7500     96.1903      0.0000    487.0776     18.5287    113.4833
  1057.0000     96.4063      0.0000    459.9693     19.4852    112.5335
  1057.2500     96.2183      0.0000    428.0070     20.6739    110.4117
  1057.5000     96.3768      0.0000    391.7240     21.9269    107.1293
  1057.7500     96.2450      0.0000    359.8570     22.9600    104.0512
  1058.0000     96.2590      0.0000    339.0350     23.5573    102.3631
  1058.2500     96.2534      0.0000    328.8628     23.7292    101.7315
  1058.5000     96.2632      0.0000    325.1427     23.6509    100.8067
  1058.7500     96.2029      0.0000    324.1594     23.4883     98.6859
  1059.0000     96.3011      0.0000    324.0287     23.3159     95.4021
  1059.2500     96.3782      0.0000    324.1093     23.1504     91.3206
  1059.5000     96.2506      0.0000    324.3333     22.9884     86.8007
  1059.7500     96.2548      0.0000    325.1761     22.8065     82.6357
  1060.0000     96.3362      0.0000    328.2313     22.5628     80.2903
  1060.2500     96.2169      0.0000    337.0244     22.2285     81.1674
  1060.5000     96.3081      0.0000    356.5219     21.8127     85.4461
  1060.7500     96.3670      0.0000    389.5111     21.3571     91.7540
  1061.0000     96.3614      0.0000    431.4379     20.9205     98.1503
  1061.2500     96.3782      0.0000    469.7749     20.5675    103.4862
  1061.5000     96.1819      0.0000    491.6655     20.3478    107.8275
  1061.7500     96.4343      0.0000    493.5203     20.2669    111.8898
  1062.0000     96.2520      0.0000    482.0906     20.2800    116.4549
  1062.2500     96.3712      0.0000    465.8740     20.3253    122.1839
  1062.5000     96.3390      0.0000    448.4957     20.3623    129.5125
  1062.7500     96.3095      0.0000    433.0515     20.3771    138.4054
  1063.0000     96.4260      0.0000    428.6230     20.3641    147.9955
  1063.2500     96.4007      0.0000    445.3283     20.3221    156.5014
  1063.5000     96.3165      0.0000    481.6853     20.2746    161.8527
  1063.7500     96.3095      0.0000    519.8309     20.2881    162.8478
  1064.0000     96.3810      0.0000    535.2980     20.4594    159.9653
  1064.2500     96.2492      0.0000    514.4080     20.8652    155.1035
  1064.5000     96.3614      0.0000    464.6986     21.5082    150.5428
  1064.7500     96.4596      0.0000    408.2997     22.3113    148.1653
  1065.0000     96.2464      0.0000    364.6083     23.1707    149.0959
  1065.2500     96.4568      0.0000    339.5480     24.0095    153.3268
  1065.5000     96.2408      0.0000    328.5179     24.7787    159.6548
  1065.7500     96.3109      0.0000    324.6543     25.4292    166.4930
  1066.0000     96.3376      0.0000    323.5008     25.9111    172.8003
  1066.2500     96.2773      0.0000    323.1712     26.2031    177.9810
  1066.5000     96.2029      0.0000    323.0890     26.3239    181.2664
  1066.7500     96.2661      0.0000    323.1050     26.3052    181.9030
  1067.0000     96.3179      0.0000    323.1696     26.1638    180.1372
  1067.2500     96.1706      0.0000    323.2687     25.9106    177.5988
  1067.5000     96.2029      0.0000    323.3865     25.5801    176.1781
  1067.7500     96.2590      0.0000    323.4987     25.2331    176.3694
  1068.0000     96.2197      0.0000    323.5847     24.9206    176.8466
  1068.2500     96.2968      0.0000    323.6486     24.6465    175.6902
  1068.5000     96.1650      0.0000    323.7216     24.3770    172.0225
  1068.7500     96.2856      0.0000    323.8298     24.0939    166.6618
  1069.0000     96.2070      0.0000    323.9555     23.8372    161.2423
  1069.2500     96.2787      0.0000    324.0398     23.6865    156.6913
  1069.5000     96.2940      0.0000    324.0370     23.6930    152.8221
  1069.7500     96.2534      0.0000    323.9596     23.8323    149.4652
  1070.0000     96.2829      0.0000    323.8604     24.0226    147.2482
  1070.2500     96.3501      0.0000    323.7798     24.1849    146.8649
  1070.5000     96.1706      0.0000    323.7208     24.2794    148.1385
  1070.7500     96.2912      0.0000    323.6744     24.2893    150.0381
  1071.0000     96.3418      0.0000    323.6620     24.1860    150.9805
  1071.2500     96.3487      0.0000    323.7489     23.9258    148.9974
  1071.5000     96.2562      0.0000    324.0624     23.4913    142.5734
  1071.7500     96.3446      0.0000    324.8348     22.9302    132.1214
  1072.0000     96.2660      0.0000    326.7661     22.3469    120.4559
  1072.2500     96.2912      0.0000    331.6270     21.8445    111.1358
  1072.5000     96.2323      0.0000    342.8235     21.4649    106.1554
  1072.7500     96.2309      0.0000    364.5259     21.1790    105.5273
  1073.0000     96.2309      0.0000    398.2528     20.9316    108.6327
  1073.2500     96.2548      0.0000    438.4121     20.6928    114.7757
  1073.5000     96.3179      0.0000    471.7649     20.4666    122.3169
  1073.7500     96.2562      0.0000    484.0227     20.2645    128.4436
  1074.0000     96.3123      0.0000    469.6155     20.0794    130.7118
  1074.2500     96.2815      0.0000    436.5032     19.8870    128.8496
  1074.5000     96.2884      0.0000    401.3498     19.6737    124.9811
  1074.7500     96.2239      0.0000    378.6375     19.4621    122.1917
  1075.0000     96.2632      0.0000    372.8543     19.3029    122.6188
  1075.2500     96.3193      0.0000    378.9039     19.2368    126.3264
  1075.5000     96.3376      0.0000    387.3667     19.2649    131.5977
  1075.7500     96.3151      0.0000    389.7982     19.3527    136.3652
  1076.0000     96.3095      0.0000    382.6978     19.4548    139.7852
  1076.2500     96.2870      0.0000    369.0776     19.5346    142.5604
  1076.5000     96.3095      0.0000    356.7470     19.5720    145.5053
  1076.7500     96.1959      0.0000    355.3011     19.5576    147.8437
  1077.0000     96.2604      0.0000    374.0293     19.4798    147.4504
  1077.2500     96.3165      0.0000    418.2972     19.3229    142.9891
  1077.5000     96.3137      0.0000    482.5541     19.0878    135.5213
  1077.7500     96.2856      0.0000    546.4510     18.8153    127.8058
  1078.0000     96.1945      0.0000    583.8091     18.5772    122.3183
  1078.2500     96.3151      0.0000    581.6825     18.4376    120.1210
  1078.5000     96.2520      0.0000    552.4870     18.4220    121.2565
  1078.7500     96.3123      0.0000    526.3580     18.5101    125.3675
  1079.0000     96.3418      0.0000    529.3148     18.6464    131.3580
  1079.2500     96.3123      0.0000    565.5295     18.7646    136.8009
  1079.5000     96.3698      0.0000    617.3119     18.8216    138.7217
  1079.7500     96.2211      0.0000    660.7998     18.8138    135.7153
  1080.0000     96.2156      0.0000    683.1891     18.7640    129.3315
  1080.2500     96.4063      0.0000    688.3675     18.7012    123.1780
  1080.5000     96.3095      0.0000    688.7516     18.6557    120.4345
  1080.7500     96.4301      0.0000    692.1797     18.6587    121.7146
  1081.0000     96.3362      0.0000    696.0790     18.7338    124.8442
  1081.2500     96.4246      0.0000    693.1363     18.8824    126.6573
  1081.5000     96.3053      0.0000    679.7698     19.0799    125.2929
  1081.7500     96.3698      0.0000    657.0084     19.2848    121.1871
  1082.0000     96.3698      0.0000    626.4246     19.4538    116.4796
  1082.2500     96.3979      0.0000    590.6911     19.5538    113.7045
  1082.5000     96.3684      0.0000    557.4066     19.5723    114.3323
  1082.7500     96.3067      0.0000    535.2665     19.5204    117.7404
  1083.0000     96.4526      0.0000    524.0724     19.4248    121.7583
  1083.2500     96.2211      0.0000    513.0602     19.3148    124.5795
