~Version Information
VERS.                      2.0: CWLS Log ASCII Standard - VERSION 2.0
WRAP.                       NO: One line per depth step
~Well Information Block
STRT.FT                10.0000: 
STOP.FT               743.5000: 
STEP.FT                 0.1000: 
NULL.                -999.2500: 
COMP.          Pioneer Natural Resources: COMPANY
WELL.                Mia 21-18: WELL
FLD.           Purgatorie River: FIELD
LOC.           1067' FNL & 1824' FWL: LOCATION
PROV.                 Colorado: PROVINCE
CNTY.               Las Animas: COUNTRY
SRVC.                Patterson: SERVICE COMPANY
DATE.          Tue Nov 22 15:40:03 2005: LOG DATE
UWI.           05-071-08559               : UNIQUE WELL ID
~Curve Information Block
DEPT.FT            0 000 00 00: Depth
DCAL.in                       : CDL Caliper
RHOB.g/cc                     : CDL Bulk Density
RHOC.g/cc                     : CDL Density Correction
DPOR.pu                       : CDL Density Porosity
GR.GAPI                       : Gamma Ray
NPOR.pu                       : Neutron Porosity
~Parameter Information Block
~A  Depth       DCAL        RHOB        RHOC        DPOR         GR         NPOR    
# ...
   490.0000      7.9681      2.5836      0.0482      4.0216     68.5653     24.1058
   490.1000      7.9681      2.5946      0.0940      3.3588     66.7183     24.2295
   490.2000      7.9681      2.5817      0.0405      4.1374     64.3981     24.3233
   490.3000      7.9289      2.5564      0.0015      5.6734     60.9849     24.1606
   490.4000      7.9289      2.5399      0.0303      6.6714     59.4412     23.9417
   490.5000      7.8979      2.5398     -0.0306      6.6785     60.5372     23.9112
   490.6000      7.8979      2.5497      0.0193      6.0764     60.8789     24.1779
   490.7000      7.8979      2.5592      0.0132      5.5055     59.5560     24.5247
   490.8000      7.9158      2.5612      0.0453      5.3810     58.2952     24.4707
   490.9000      7.9158      2.5545      0.0454      5.7904     57.0215     24.0212
   491.0000      7.9879      2.5425      0.0217      6.5126     55.2299     23.7021
   491.1000      7.9879      2.5324     -0.0318      7.1286     54.1916     23.7262
   491.2000      7.9879      2.5306     -0.0253      7.2351     55.9724     23.9731
   491.3000      8.0006      2.5346     -0.0073      6.9943     59.8501     24.2492
   491.4000      8.0006      2.5350     -0.0159      6.9685     61.3967     24.4149
   491.5000      8.0186      2.5333     -0.0097      7.0729     59.6611     24.4195
   491.6000      8.0186      2.5395      0.0054      6.6967     58.8527     24.1799
   491.7000      8.0186      2.5564      0.0054      5.6743     60.0585     23.7977
   491.8000      8.0519      2.5721      0.0618      4.7222     59.9232     23.4516
   491.9000      8.0519      2.5657      0.0747      5.1112     58.0240     23.1510
   492.0000      8.0432      2.5372      0.0034      6.8355     57.4964     23.1881
   492.1000      8.0432      2.5112      0.0115      8.4118     59.0202     23.7706
   492.2000      8.0432      2.5037      0.0131      8.8693     60.7430     24.2748
   492.3000      8.0336      2.5165     -0.0094      8.0928     61.2953     24.2749
   492.4000      8.0336      2.5390      0.0483      6.7262     59.7467     24.0374
   492.5000      8.0351      2.5468      0.0765      6.2522     56.7042     23.8529
   492.6000      8.0351      2.5326     -0.0044      7.1138     54.6585     23.8778
   492.7000      8.0351      2.5199     -0.0114      7.8864     55.4928     24.0903
   492.8000      7.9906      2.5250      0.0540      7.5728     59.1625     24.1167
   492.9000      7.9906      2.5398      0.0519      6.6773     63.0566     23.7523
   493.0000      8.0020      2.5469      0.0758      6.2464     64.0313     23.3707
   493.1000      8.0020      2.5410      0.0165      6.6050     62.2336     23.2216
   493.2000      8.0020      2.5362      0.0096      6.8980     59.1675     23.1440
   493.3000      8.0274      2.5352      0.0460      6.9579     56.3540     23.0745
   493.4000      8.0274      2.5256      0.0209      7.5386     54.0034     23.0402
   493.5000      8.0282      2.5124     -0.0262      8.3401     51.3608     23.1444
   493.6000      8.0282      2.5131     -0.0341      8.2970     49.4926     23.4872
   493.7000      8.0282      2.5262      0.0063      7.5050     47.8708     23.7155
   493.8000      8.0288      2.5362      0.0186      6.8944     45.6165     23.5156
   493.9000      8.0288      2.5395      0.0475      6.6983     44.2436     23.0290
   494.0000      8.0251      2.5446      0.0029      6.3853     43.5377     22.5334
   494.1000      8.0251      2.5615      0.0205      5.3606     43.3158     22.1130
   494.2000      8.0251      2.5850      0.0739      3.9389     44.2581     21.7153
   494.3000      8.0136      2.6003      0.0853      3.0140     45.5406     21.4350
   494.4000      8.0136      2.6066      0.0804      2.6308     46.5582     21.3662
   494.5000      8.0005      2.6142      0.0525      2.1674     47.1436     21.4236
   494.6000      8.0005      2.6169      0.1082      2.0034     47.0634     21.5671
   494.7000      8.0005      2.6017      0.0602      2.9248     46.0191     21.5683
   494.8000      8.0110      2.5806      0.0106      4.2040     44.4921     21.1627
   494.9000      8.0110      2.5745      0.0202      4.5728     45.2703     20.4549
   495.0000      8.0247      2.5874      0.0222      3.7944     48.4519     19.8200
   495.1000      8.0247      2.6015      0.0614      2.9401     49.7253     19.6020
   495.2000      8.0247      2.5924      0.0674      3.4884     47.7836     19.7486
   495.3000      8.0254      2.5604      0.0264      5.4323     45.7990     20.0174
   495.4000      8.0254      2.5331      0.0065      7.0873     46.1509     20.4216
   495.5000      7.9960      2.5308     -0.0136      7.2252     48.0968     20.9723
   495.6000      7.9960      2.5473      0.0059      6.2224     49.8412     21.6306
   495.7000      7.9960      2.5648      0.0407      5.1653     50.2711     22.1452
   495.8000      7.9694      2.5694      0.0239      4.8820     48.7742     22.0260
   495.9000      7.9694      2.5608      0.0138      5.4050     46.7361     21.2491
   496.0000      7.9751      2.5453      0.0150      6.3467     47.5964     20.4314
   496.1000      7.9751      2.5246      0.0297      7.6007     52.0803     20.2206
   496.2000      7.9751      2.5059     -0.0099      8.7307     56.6922     20.6510
   496.3000      7.9963      2.4985      0.0004      9.1791     58.8782     21.4667
   496.4000      7.9963      2.4964      0.0031      9.3080     59.3612     22.3454
   496.5000      8.0191      2.4869      0.0341      9.8877     58.5412     23.0292
   496.6000      8.0191      2.4713     -0.0404     10.8328     56.3116     23.5154
   496.7000      8.0191      2.4622      0.0071     11.3816     54.5720     23.7227
   496.8000      8.0107      2.4618     -0.0017     11.4058     53.9466     23.7094
   496.9000      8.0107      2.4685     -0.0228     11.0001     53.2816     23.6546
   497.0000      8.0439      2.4805      0.0171     10.2699     52.0572     23.6057
   497.1000      8.0439      2.4899      0.0238      9.7053     50.4687     23.5626
   497.2000      8.0439      2.4923      0.0294      9.5596     47.9517     23.5406
   497.3000      8.0625      2.4933      0.0165      9.4956     44.3787     23.5143
   497.4000      8.0625      2.5003     -0.0001      9.0742     40.8384     23.4303
   497.5000      8.0493      2.5085      0.0190      8.5738     37.8095     23.2864
   497.6000      8.0493      2.5083     -0.0031      8.5900     36.3866     22.9817
   497.7000      8.0493      2.5020     -0.0042      8.9717     37.2208     22.4723
   497.8000      8.0323      2.4999      0.0081      9.0951     38.0324     22.0203
   497.9000      8.0323      2.5060     -0.0211      8.7294     36.9450     21.8758
   498.0000      8.0367      2.5158      0.0092      8.1324     35.4569     22.1186
   498.1000      8.0367      2.5211      0.0070      7.8137     34.9661     22.4456
   498.2000      8.0367      2.5205      0.0253      7.8465     35.0349     22.2974
   498.3000      8.0459      2.5203      0.0121      7.8593     35.6603     21.7482
   498.4000      8.0459      2.5192      0.0484      7.9264     36.5840     21.3975
   498.5000      8.0372      2.5147     -0.0065      8.1986     37.7577     21.5039
   498.6000      8.0372      2.5154      0.0118      8.1593     39.5017     21.8458
   498.7000      8.0372      2.5261      0.0425      7.5071     40.3432     22.2194
   498.8000      8.0018      2.5420      0.0280      6.5477     39.2771     22.4481
   498.9000      8.0018      2.5537      0.0566      5.8336     37.2307     22.2114
   499.0000      7.9987      2.5550      0.0191      5.7599     35.5095     21.6247
   499.1000      7.9987      2.5535     -0.0035      5.8457     35.4778     21.3122
   499.2000      7.9987      2.5562      0.0129      5.6824     37.4273     21.5019
   499.3000      8.0161      2.5560      0.0316      5.6994     39.4864     21.6862
   499.4000      8.0161      2.5506      0.0014      6.0254     39.6820     21.4667
   499.5000      7.9978      2.5502      0.0186      6.0504     38.0544     21.0481
