~Version Information
VERS.                      2.0: CWLS Log ASCII Standard - VERSION 2.0
WRAP.                       NO: One line per depth step
~Well Information Block
STRT.FT                -7.2500: 
STOP.FT              1221.7500: 
STEP.FT                 0.2500: 
NULL.                -999.2500: 
COMP.          Pioneer Natural Resources: COMPANY
WELL.           Tennis 7-12 Tr: WELL
FLD.           Purgatorie River: FIELD
LOC.           1794' FNL & 1563' FEL--: LOCATION
PROV.                       CO: PROVINCE
CNTY.               Las Animas: COUNTRY
SRVC.          Patterson Wireline: SERVICE COMPANY
DATE.          Tue Dec 27 14:16:59 2005: LOG DATE
UWI.           05 071 008635 00: UNIQUE WELL ID
~Curve Information Block
DEPT.FT            0 000 00 00: Depth
CCL.                          : Casing Collar Locator
TT3.usec                      : CBL 3' Travel Time
AMP3.mV                       : CBL 3' Amplitude
GR.GAPI                       : Gamma Ray
~Parameter Information Block
~A  Depth       CCL         TT3         AMP3         GR     
# ...
   160.2500      0.0000    716.3043      6.3667     83.3389
   160.5000      0.0000    716.2487      6.3777     79.6609
   160.7500      0.0000    716.2440      6.3693     79.4637
   161.0000      0.0000    716.2957      6.3567     82.1824
   161.2500      0.0000    716.3852      6.3510     85.6944
   161.5000      0.0000    716.4868      6.3511     87.6281
   161.7500      0.0000    716.5779      6.3476     86.7851
   162.0000      0.0000    716.6443      6.3345     83.6723
   162.2500      0.0000    716.6895      6.3150     79.9259
   162.5000      0.0000    716.7293      6.2988     77.3209
   162.7500      0.0000    716.7714      6.2930     77.0141
   163.0000      0.0000    716.8096      6.2968     79.2194
   163.2500      0.0000    716.8454      6.3036     83.3878
   163.5000      0.0000    716.8895      6.3072     88.4655
   163.7500      0.0000    716.9317      6.3068     92.9060
   164.0000      0.0000    716.9324      6.3049     95.0451
   164.2500      0.0000    716.8614      6.3019     94.3518
   164.5000      0.0000    716.7307      6.2926     92.3110
   164.7500      0.0000    716.5814      6.2696     91.2871
   165.0000      0.0000    716.4501      6.2320     92.2366
   165.2500      0.0000    716.3522      6.1892     94.0025
   165.5000      0.0000    716.2838      6.1563     95.0563
   165.7500      0.0000    716.2348      6.1423     95.3139
   166.0000      0.0000    716.2029      6.1441     95.6921
   166.2500      0.0000    716.1927      6.1503     96.4395
   166.5000      0.0000    716.2003      6.1516     96.8677
   166.7500      0.0000    716.2061      6.1451     96.5679
   167.0000      0.0000    716.1926      6.1314     96.0691
   167.2500      0.0000    716.1588      6.1097     96.2159
   167.5000      0.0000    716.1121      6.0791     97.2033
   167.7500      0.0000    716.0505      6.0411     98.3264
   168.0000      0.0000    715.9645      6.0005     98.6784
   168.2500      0.0000    715.8539      5.9624     97.9387
   168.5000      0.0000    715.7336      5.9283     96.3481
   168.7500      0.0000    715.6161      5.8963     94.3589
   169.0000      0.0000    715.5007      5.8648     92.5621
   169.2500      0.0000    715.3846      5.8362     91.4296
   169.5000      0.0000    715.2809      5.8171     90.7799
   169.7500      0.0000    715.2166      5.8127     89.9189
   170.0000      0.0000    715.2127      5.8219     88.5194
   170.2500      0.0000    715.2705      5.8385     86.9834
   170.5000      0.0000    715.3823      5.8559     85.8397
   170.7500      0.0000    715.5492      5.8732     85.1879
   171.0000      0.0000    715.7774      5.8956     84.8516
   171.2500      0.0000    716.0666      5.9296     84.6609
   171.5000      0.0000    716.4330      5.9744     84.3257
   171.7500      0.0000    717.0463      6.0220     83.3980
   172.0000      0.0000    718.5698      6.0642     81.7430
   172.2500      0.0000    722.5983      6.0974     79.7378
   172.5000      0.0000    731.5096      6.1200     77.6733
   172.7500      0.0000    746.5599      6.1301     75.2583
   173.0000      0.0000    764.6998      6.1265     72.1617
   173.2500      0.0000    777.9553      6.1117     68.9847
   173.5000      0.0000    778.6008      6.0923     67.2310
   173.7500      0.0000    766.0968      6.0784     68.1032
   174.0000      0.0000    747.6661      6.0806     71.4583
   174.2500      0.0000    731.7430      6.1053     75.9158
   174.5000      0.0000    722.0947      6.1494     79.7795
   174.7500      0.0000    717.7591      6.1999     81.9564
   175.0000      0.0000    716.1948      6.2409     82.4075
   175.2500      0.0000    715.4200      6.2642     82.0944
   175.5000      0.0000    714.2085      6.2748     82.4943
   175.7500      0.0000    711.5843      6.2836     84.7600
   176.0000      0.0000    706.6263      6.2949     88.9115
   176.2500      0.0000    698.9001      6.3027     93.7110
   176.5000      0.0000    689.2587      6.2945     97.4190
   176.7500      0.0000    680.4408      6.2543     98.7642
   177.0000      0.0000    676.9572      6.1680     97.5148
   177.2500      0.0000    683.8053      6.0410     94.6297
   177.5000      0.0000    703.6960      5.9047     91.7700
   177.7500      0.0000    734.2042      5.7941     89.9514
   178.0000      0.0000    768.1376      5.7214     88.4674
   178.2500      2.0000    797.4872      5.6795     85.6217
   178.5000     -2.0000    816.0425      5.6652     80.5917
   178.7500      0.0000    818.6426      5.6961     74.1057
   179.0000      0.0000    802.4990      5.8109     67.4633
   179.2500      0.0000    772.3289      6.0383     61.6055
   179.5000      0.0000    740.8301      6.3465     57.0333
   179.7500      0.0000    719.9749      6.6368     53.8857
   180.0000      0.0000    711.6759      6.8219     51.9550
   180.2500      0.0000    708.4274      6.8984     50.9738
   180.5000      0.0000    703.3058      6.9193     50.7924
   180.7500      0.0000    698.0220      6.9251     51.0291
   181.0000      0.0000    699.5464      6.9259     51.0095
   181.2500      0.0000    710.3770      6.9239     50.5387
   181.5000      0.0000    726.6246      6.9231     50.3669
   181.7500      0.0000    746.0773      6.9248     51.3581
   182.0000      0.0000    772.5567      6.9287     53.3248
   182.2500      0.0000    809.1157      6.9369     54.9676
   182.5000      0.0000    849.9048      6.9529     55.0267
   182.7500      0.0000    881.7621      6.9779     53.4981
   183.0000      0.0000    892.5142      7.0096     51.7111
   183.2500      0.0000    876.7170      7.0437     51.2137
   183.5000      0.0000    836.2543      7.0754     52.6825
   183.7500      0.0000    779.3874      7.1009     55.7106
   184.0000      0.0000    719.5344      7.1191     59.2358
   184.2500      0.0000    672.5156      7.1309     62.1277
   184.5000      0.0000    652.1000      7.1363     63.6134
   184.7500      0.0000    664.2181      7.1338     63.4111
   185.0000      0.0000    701.8475      7.1217     61.8131
   185.2500      0.0000    746.6796      7.1002     59.6882
   185.5000      0.0000    779.8269      7.0718     57.9136
   185.7500      0.0000    793.4180      7.0425     56.5638
   186.0000      0.0000    792.8159      7.0223     55.0566
   186.2500      0.0000    787.8717      7.0199     53.1992
   186.5000      0.0000    782.3485      7.0379     51.6852
   186.7500      0.0000    773.1786      7.0723     51.4493
   187.0000      0.0000    759.0449      7.1167     52.7682
   187.2500      0.0000    745.3854      7.1663     55.0514
   187.5000      0.0000    738.9034      7.2193     57.3057
   187.7500      0.0000    740.0177      7.2741     58.6360
   188.0000      0.0000    742.7923      7.3289     58.5030
   188.2500      0.0000    740.8201      7.3813     56.9098
   188.5000      0.0000    732.0466      7.4264     54.3445
   188.7500      0.0000    719.1495      7.4549     51.2647
   189.0000      0.0000    706.6281      7.4593     47.8333
   189.2500      0.0000    697.5760      7.4444     44.4636
   189.5000      0.0000    692.4708      7.4274     42.2167
   189.7500      0.0000    690.1352      7.4269     42.1559
   190.0000      0.0000    689.1955      7.4524     44.3337
   190.2500      0.0000    688.7962      7.5025     47.5280
   190.5000      0.0000    688.5693      7.5687     50.0144
   190.7500      0.0000    688.3978      7.6409     50.7701
   191.0000      0.0000    688.2538      7.7087     50.0445
   191.2500      0.0000    688.1312      7.7599     48.9144
   191.5000      0.0000    688.0339      7.7822     48.4158
   191.7500      0.0000    687.9767      7.7707     48.7819
   192.0000      0.0000    687.9792      7.7354     49.2274
   192.2500      0.0000    688.0520      7.6955     48.8052
   192.5000      0.0000    688.1899      7.6653     47.6431
   192.7500      0.0000    688.3803      7.6454     46.9346
   193.0000      0.0000    688.6125      7.6270     47.6324
   193.2500      0.0000    688.8845      7.6027     49.5255
   193.5000      0.0000    689.2169      7.5727     51.6012
