~Version Information
VERS.                      2.0: CWLS Log ASCII Standard - VERSION 2.0
WRAP.                       NO: One line per depth step
~Well Information Block
STRT.FT                 0.0000: 
STOP.FT              1538.0000: 
STEP.FT                 0.2500: 
NULL.                -999.2500: 
COMP.          Pioneer Natural Resources: COMPANY
WELL.           Butch 33-10 TR: WELL
FLD.           Purgatorie River: FIELD
LOC.           2309' FSL & 1337' FEL: LOCATION
PROV.                 Colorado: PROVINCE
CNTY.               Las Animas: COUNTRY
SRVC.                Patterson: SERVICE COMPANY
DATE.          Thu Jan 19 12:40:27 2006: LOG DATE
UWI.                          : UNIQUE WELL ID
~Curve Information Block
DEPT.FT            0 000 00 00: Depth
CCL.                          : Casing Collar Locator
TT3.usec                      : CBL 3' Travel Time
AMP3.mV                       : CBL 3' Amplitude
GR.GAPI                       : Gamma Ray
~Parameter Information Block
~A  Depth       CCL         TT3         AMP3         GR     
# ...
   502.5000      0.0000    304.0336     21.8529     34.7329
   502.7500      0.0000    303.9972     21.8595     39.7506
   503.0000      0.0000    303.8839     21.9265     46.5809
   503.2500      0.0000    303.7576     22.0165     55.0528
   503.5000      0.0000    303.6803     22.1030     64.2115
   503.7500      0.0000    303.6715     22.1378     72.5774
   504.0000      0.0000    303.7028     22.1237     78.7232
   504.2500      0.0000    303.7301     22.1532     81.6505
   504.5000      0.0000    303.7274     22.2889     81.0995
   504.7500      0.0000    303.6889     22.4936     77.8612
   505.0000      0.0000    303.6101     22.7267     73.5808
   505.2500      0.0000    303.4885     22.9899     69.8929
   505.5000      0.0000    303.3639     23.2389     67.6324
   505.7500      0.0000    303.2981     23.3853     66.7000
   506.0000      0.0000    303.2837     23.4112     66.3483
   506.2500      0.0000    303.2725     23.3521     65.6914
   506.5000      0.0000    303.2770     23.2059     64.4901
   506.7500      0.0000    303.3327     23.0003     63.5323
   507.0000      0.0000    303.3994     22.8726     63.9100
   507.2500      0.0000    303.3916     22.9484     65.8476
   507.5000      0.0000    303.2761     23.2074     68.3573
   507.7500      0.0000    303.1018     23.5387     70.0449
   508.0000      0.0000    302.9443     23.8602     70.1161
   508.2500      0.0000    302.8539     24.1341     68.6570
   508.5000      0.0000    302.8403     24.3284     66.3133
   508.7500      0.0000    302.8726     24.4247     64.0231
   509.0000      0.0000    302.9041     24.4398     62.7397
   509.2500      0.0000    302.9113     24.4387     62.8189
   509.5000      0.0000    302.8972     24.5226     63.6229
   509.7500      0.0000    302.8559     24.7721     64.0698
   510.0000      0.0000    302.7582     25.2042     63.5748
   510.2500      0.0000    302.6023     25.7432     62.2764
   510.5000      0.0000    302.4399     26.2349     60.7102
   510.7500      0.0000    302.3166     26.5587     59.6827
   511.0000      0.0000    302.2386     26.7161     60.0008
   511.2500      0.0000    302.2068     26.7961     61.7083
   511.5000      0.0000    302.2507     26.8695     63.9253
   511.7500      0.0000    302.4970     26.8751     65.9756
   512.0000      0.0000    303.3367     26.6392     68.3138
   512.2500      0.0000    305.7124     26.0657     71.8372
   512.5000      0.0000    311.2390     25.0476     76.3977
   512.7500      0.0000    320.8696     23.2778     80.4394
   513.0000      0.0000    332.4996     20.9480     82.2580
   513.2500      0.0000    341.7212     19.0884     81.3715
   513.5000      0.0000    345.5028     18.3115     78.6075
   513.7500     -2.0000    343.1121     18.2579     75.3074
   514.0000      2.0000    335.3572     18.4180     72.6337
   514.2500      0.0000    325.5824     18.5396     71.3144
   514.5000      0.0000    318.8579     18.4520     71.8185
   514.7500      0.0000    318.1157     18.1243     74.4418
   515.0000      0.0000    321.7658     18.0680     78.8167
   515.2500      0.0000    325.0177     19.0198     83.5078
   515.5000      0.0000    324.2146     20.6636     86.7463
   515.7500      0.0000    319.3716     22.0593     87.7908
   516.0000      0.0000    312.6323     23.3238     87.3104
   516.2500      0.0000    306.7342     24.8425     86.4686
   516.5000      0.0000    303.4099     26.1027     86.0227
   516.7500      0.0000    302.2703     26.6237     86.3328
   517.0000      0.0000    302.0892     26.5917     87.6389
   517.2500      0.0000    302.1374     26.3575     89.8070
   517.5000      0.0000    302.1962     26.0910     91.9611
   517.7500      0.0000    302.2239     25.8525     92.7707
   518.0000      0.0000    302.1959     25.6913     91.2026
   518.2500      0.0000    302.0994     25.6082     87.0906
   518.5000      0.0000    301.9710     25.5080     81.2679
   518.7500      0.0000    301.8734     25.3247     75.2603
   519.0000      0.0000    301.8188     25.1568     70.7495
   519.2500      0.0000    301.7675     25.1529     69.0952
   519.5000      0.0000    301.6985     25.3177     70.9034
   519.7500      0.0000    301.6302     25.5353     75.5888
   520.0000      0.0000    301.5755     25.7407     81.3970
   520.2500      0.0000    301.5130     25.9705     86.2932
   520.5000      0.0000    301.4236     26.2355     89.0718
   520.7500      0.0000    301.3359     26.4614     89.5963
   521.0000      0.0000    301.2912     26.6069     88.1918
   521.2500      0.0000    301.2827     26.7180     85.2436
   521.5000      0.0000    301.2790     26.8515     81.3539
   521.7500      0.0000    301.2747     27.0502     77.3524
   522.0000      0.0000    301.2745     27.3513     73.8461
   522.2500      0.0000    301.2615     27.7622     70.8982
   522.5000      0.0000    301.2139     28.2641     68.3450
   522.7500      0.0000    301.1412     28.7790     66.3689
   523.0000      0.0000    301.0804     29.1649     65.5297
   523.2500      0.0000    301.0480     29.3657     66.1262
   523.5000      0.0000    301.0209     29.4989     67.7117
   523.7500      0.0000    300.9756     29.7472     69.6263
   524.0000      0.0000    300.9009     30.2121     71.9990
   524.2500      0.0000    300.7922     30.8321     75.6268
   524.5000      0.0000    300.6754     31.4000     80.5212
   524.7500      0.0000    300.5914     31.7269     85.0238
   525.0000      0.0000    300.5422     31.8279     86.9368
   525.2500      0.0000    300.4992     31.8935     85.4778
   525.5000      0.0000    300.4524     32.0430     81.8258
   525.7500      0.0000    300.4171     32.1750     77.9438
   526.0000      0.0000    300.4097     32.1325     75.2405
   526.2500      0.0000    300.4375     31.9310     74.1457
   526.5000      0.0000    300.4916     31.7518     74.4287
   526.7500      0.0000    300.5351     31.7676     75.6369
   527.0000      0.0000    300.5386     31.9636     77.2532
   527.2500      0.0000    300.5235     32.1282     78.6390
   527.5000      0.0000    300.5282     32.0865     79.2206
   527.7500      0.0000    300.5450     31.9083     78.9245
   528.0000      0.0000    300.5383     31.8210     78.3629
   528.2500      0.0000    300.5097     31.9350     78.4587
   528.5000      0.0000    300.4998     32.1043     79.7453
   528.7500      0.0000    300.5381     32.0725     81.8221
   529.0000      0.0000    300.6236     31.7531     83.5502
   529.2500      0.0000    300.7251     31.3423     84.0183
   529.5000      0.0000    300.7913     31.1052     83.3492
   529.7500      0.0000    300.7945     31.0897     82.3927
   530.0000      0.0000    300.7605     31.1233     81.7011
   530.2500      0.0000    300.7265     31.0543     81.1401
   530.5000      0.0000    300.6931     30.9361     80.6385
   530.7500      0.0000    300.6419     30.9530     80.8548
   531.0000      0.0000    300.5647     31.1984     82.6076
   531.2500      0.0000    300.4717     31.5723     85.7952
   531.5000      0.0000    300.3847     31.8859     89.3045
   531.7500      0.0000    300.3237     32.0177     91.8499
   532.0000      0.0000    300.3026     31.9706     92.6188
   532.2500      0.0000    300.3243     31.8067     91.4149
   532.5000      0.0000    300.3808     31.5525     88.7561
   532.7500      0.0000    300.4672     31.2214     85.8238
   533.0000      0.0000    300.5718     30.9070     83.8804
   533.2500      0.0000    300.6622     30.7163     83.5159
   533.5000      0.0000    300.7302     30.5699     84.4529
   533.7500      0.0000    300.8186     30.2165     86.0249
   534.0000      0.0000    300.9513     29.5314     87.7250
   534.2500      0.0000    301.0946     28.6654     89.2208
   534.5000      0.0000    301.2239     27.8558     89.9867
   534.7500      0.0000    301.3551     27.2429     89.2634
   535.0000      0.0000    301.4890     26.8686     86.6315
   535.2500      0.0000    301.5951     26.7146     82.5398
   535.5000      0.0000    301.6573     26.7217     78.0271
   535.7500      0.0000    301.6850     26.8292     73.9135
