~Version Information
VERS.                      2.0: CWLS Log ASCII Standard - VERSION 2.0
WRAP.                       NO: One line per depth step
~Well Information Block
STRT.FT               350.0000: 
STOP.FT              2808.2500: 
STEP.FT                 0.2500: 
NULL.                -999.2500: 
COMP.          Pioneer Natural Resources: COMPANY
WELL.          Grey Goose 33-30: WELL
FLD.           Purgatoire River: FIELD
LOC.           2136' FSL & 2065' FEL--: LOCATION
STAT.                 Colorado: State
CNTY.               Las Animas: COUNTY
CTRY. USA : Country
SECT. 30 : Section
TOWN. 32S : Township
RANG. 67W : Range
SRVC.                Patterson: SERVICE COMPANY
DATE.          Fri Nov 04 09:00:45 2005: LOG DATE
API.           05 071 08546 00: UNIQUE WELL ID
~Curve Information Block
DEPT.FT            0 000 00 00: Depth
DIR.Ohm-m                     : IEL Induction Resistivity
SN.Ohm-m                      : IEL Short Normal
SP.mV                         : IEL Spontaneous Potential
GR.GAPI                       : Gamma Ray
~Parameter Information Block
~A  Depth       DIR          SN          SP          GR     
# ...
  2594.5000     12.8995     15.4290     46.8550     80.8228
  2594.7500     12.0072     14.2758     47.7746     86.6519
  2595.0000     11.2976     13.3599     48.5476     94.5230
  2595.2500     10.7314     12.6499     49.1674     97.8267
  2595.5000     10.2782     12.0931     49.6332     98.6868
  2595.7500      9.9179     11.6339     49.9488     97.0385
  2596.0000      9.6416     11.2408     50.1225     93.6152
  2596.2500      9.4499     10.9248     50.1664     92.0221
  2596.5000      9.3489     10.7343     50.0957     91.6463
  2596.7500      9.3442     10.7232     49.9287     92.6165
  2597.0000      9.4357     10.9129     49.6854     94.9383
  2597.2500      9.6142     11.2718     49.3857     96.1625
  2597.5000      9.8614     11.7235     49.0479     96.1116
  2597.7500     10.1522     12.1788     48.6864     94.8885
  2598.0000     10.4608     12.5699     48.3109     93.2606
  2598.2500     10.7675     12.8671     47.9254     93.3440
  2598.5000     11.0653     13.0767     47.5295     94.3686
  2598.7500     11.3606     13.2331     47.1205     94.0968
  2599.0000     11.6707     13.3931     46.6964     90.8498
  2599.2500     12.0173     13.6249     46.2592     87.4546
  2599.5000     12.4234     13.9856     45.8184     82.7431
  2599.7500     12.9096     14.4978     45.3922     80.6788
  2600.0000     13.4901     15.1375     45.0089     79.0921
  2600.2500     14.1659     15.8357     44.7050     78.5396
  2600.5000     14.9165     16.4885     44.5222     77.9739
  2600.7500     15.6930     16.9792     44.5031     77.8141
  2601.0000     16.4204     17.2159     44.6850     77.8336
  2601.2500     17.0163     17.1788     45.0933     77.6133
  2601.5000     17.4217     16.9508     45.7354     76.0396
  2601.7500     17.6292     16.7019     46.5959     74.0616
  2602.0000     17.6859     16.6242     47.6351     70.7708
  2602.2500     17.6690     16.8503     48.7905     69.3356
  2602.5000     17.6522     17.4066     49.9836     69.1761
  2602.7500     17.6801     18.2200     51.1291     70.1052
  2603.0000     17.7603     19.1619     52.1454     72.2025
  2603.2500     17.8710     20.0988     52.9650     74.0020
  2603.5000     17.9793     20.9305     53.5417     77.5634
  2603.7500     18.0632     21.6090     53.8535     80.1196
  2604.0000     18.1274     22.1391     53.9031     82.0843
  2604.2500     18.2055     22.5675     53.7138     80.7612
  2604.5000     18.3491     22.9695     53.3245     74.6310
  2604.7500     18.6116     23.4304     52.7843     69.5088
  2605.0000     19.0326     24.0193     52.1467     64.3993
  2605.2500     19.6265     24.7571     51.4649     63.8886
  2605.5000     20.3727     25.5971     50.7871     65.8161
  2605.7500     21.2118     26.4383     50.1538     66.7820
  2606.0000     22.0517     27.1693     49.5938     65.4015
  2606.2500     22.7894     27.7185     49.1238     62.9107
  2606.5000     23.3413     28.0807     48.7474     59.3038
  2606.7500     23.6724     28.3114     48.4577     58.2716
  2607.0000     23.8053     28.4998     48.2402     59.1695
  2607.2500     23.8103     28.7309     48.0772     60.7602
  2607.5000     23.7775     29.0510     47.9524     63.4631
  2607.7500     23.7826     29.4445     47.8538     65.2768
  2608.0000     23.8622     29.8337     47.7755     68.3306
  2608.2500     24.0071     30.1061     47.7165     70.6555
  2608.5000     24.1787     30.1660     47.6782     73.7188
  2608.7500     24.3367     29.9885     47.6612     74.5128
  2609.0000     24.4612     29.6501     47.6610     72.4811
  2609.2500     24.5595     29.3128     47.6664     69.0174
  2609.5000     24.6612     29.1647     47.6582     62.5389
  2609.7500     24.8088     29.3433     47.6110     59.0834
  2610.0000     25.0462     29.8751     47.4970     57.4935
  2610.2500     25.4038     30.6586     47.2900     58.8949
  2610.5000     25.8834     31.5033     46.9712     62.4209
  2610.7500     26.4512     32.2165     46.5334     63.9294
  2611.0000     27.0453     32.6932     45.9834     63.4155
  2611.2500     27.6024     32.9562     45.3416     61.6678
  2611.5000     28.0910     33.1213     44.6397     58.5085
  2611.7500     28.5296     33.3198     43.9152     56.4881
  2612.0000     28.9717     33.6332     43.2050     53.6514
  2612.2500     29.4688     34.0759     42.5397     52.0871
  2612.5000     30.0377     34.6160     41.9389     50.9168
  2612.7500     30.6504     35.2033     41.4093     51.0783
  2613.0000     31.2422     35.7810     40.9450     52.1730
  2613.2500     31.7293     36.2876     40.5311     52.8419
  2613.5000     32.0341     36.6669     40.1481     52.9093
  2613.7500     32.1199     36.8879     39.7777     52.3836
  2614.0000     32.0155     36.9605     39.4078     51.5971
  2614.2500     31.8090     36.9347     39.0354     51.3717
  2614.5000     31.6109     36.8812     38.6673     50.9489
  2614.7500     31.5105     36.8653     38.3191     50.1850
  2615.0000     31.5456     36.9233     38.0110     48.7231
  2615.2500     31.6943     37.0449     37.7654     48.3283
  2615.5000     31.8856     37.1668     37.6033     49.1738
  2615.7500     32.0249     37.1835     37.5433     50.0017
  2616.0000     32.0233     36.9750     37.6010     49.9700
  2616.2500     31.8164     36.4446     37.7879     49.0399
  2616.5000     31.3726     35.5597     38.1096     48.0074
  2616.7500     30.6933     34.3849     38.5633     48.5939
  2617.0000     29.8129     33.0809     39.1341     51.7640
  2617.2500     28.7948     31.8437     39.7953     55.0897
  2617.5000     27.7173     30.8092     40.5095     61.5215
  2617.7500     26.6530     29.9869     41.2352     66.5472
  2618.0000     25.6464     29.2709     41.9345     73.7072
  2618.2500     24.7039     28.5138     42.5804     76.7055
  2618.5000     23.8053     27.6135     43.1622     76.7173
  2618.7500     22.9295     26.5691     43.6862     74.1612
  2619.0000     22.0777     25.4919     44.1716     69.1611
  2619.2500     21.2780     24.5636     44.6440     66.5015
  2619.5000     20.5729     23.9526     45.1260     64.6811
  2619.7500     20.0019     23.7234     45.6296     65.1137
  2620.0000     19.5898     23.7903     46.1522     68.2789
  2620.2500     19.3424     23.9528     46.6755     71.7774
  2620.5000     19.2461     23.9988     47.1699     77.5657
  2620.7500     19.2723     23.8104     47.6013     80.2943
  2621.0000     19.3840     23.4044     47.9393     80.2729
  2621.2500     19.5453     22.8932     48.1650     77.1676
  2621.5000     19.7298     22.4114     48.2752     69.7919
  2621.7500     19.9218     22.0572     48.2841     64.9294
  2622.0000     20.1120     21.8681     48.2208     59.9418
  2622.2500     20.2904     21.8270     48.1245     58.2012
  2622.5000     20.4439     21.8819     48.0378     56.7251
  2622.7500     20.5616     21.9728     48.0003     50.4873
  2623.0000     20.6395     22.0522     48.0423     50.7569
  2623.2500     20.6804     22.0968     48.1814     52.1895
  2623.5000     20.6888     22.1059     48.4200     56.2508
  2623.7500     20.6688     22.0907     48.7459     59.9655
  2624.0000     20.6246     22.0607     49.1346     66.5947
  2624.2500     20.5591     22.0178     49.5521     71.1638
  2624.5000     20.4707     21.9598     49.9588     76.5917
  2624.7500     20.3513     21.8897     50.3129     78.5608
  2625.0000     20.1932     21.8225     50.5729     79.2608
  2625.2500     20.0009     21.7832     50.7000     78.8301
  2625.5000     19.7978     21.8020     50.6592     77.6313
  2625.7500     19.6222     21.9121     50.4214     68.1844
  2626.0000     19.5168     22.1513     49.9656     66.9560
  2626.2500     19.5199     22.5608     49.2822     66.0307
  2626.5000     19.6619     23.1776     48.3769     63.9068
  2626.7500     19.9628     24.0183     47.2741     61.6711
  2627.0000     20.4259     25.0607     46.0196     57.0133
  2627.2500     21.0270     26.2280     44.6803     53.3351
  2627.5000     21.7062     27.3836     43.3401     47.7092
  2627.7500     22.3740     28.3477     42.0933     44.2584
