~Version Information
VERS.                      2.0: CWLS Log ASCII Standard - VERSION 2.0
WRAP.                       NO: One line per depth step
~Well Information Block
STRT.FT                -6.5000: 
STOP.FT              1758.0000: 
STEP.FT                 0.2500: 
NULL.                -999.2500: 
COMP.          Pioneer Natural Resources: COMPANY
WELL.           Rolls 14-14 Tr: WELL
FLD.           Purgatorie River: FIELD
LOC.           473' FSL & 817' FWL--: LOCATION
PROV.                       CO: PROVINCE
CNTY.               Las Animas: COUNTRY
SRVC.          Patterson Wireline: SERVICE COMPANY
DATE.          Mon Aug 08 11:51:25 2005: LOG DATE
UWI.           05 071 08454 00: UNIQUE WELL ID
~Curve Information Block
DEPT.FT            0 000 00 00: Depth
CCL.                          : Casing Collar Locator
TT3.usec                      : CBL 3' Travel Time
AMP3.mV                       : CBL 3' Amplitude
GR.GAPI                       : Gamma Ray
~Parameter Information Block
~A  Depth       CCL         TT3         AMP3         GR     
# ...
  1735.5000      0.0000    785.4744      3.8799    166.5501
  1735.7500      0.0000    769.5269      3.8078    170.0410
  1736.0000      0.0000    745.9832      3.7138    170.3128
  1736.2500      0.0000    718.5560      3.6235    167.6502
  1736.5000      0.0000    690.8029      3.5522    163.9141
  1736.7500      0.0000    665.7245      3.4969    160.8301
  1737.0000      0.0000    647.6149      3.4483    158.7328
  1737.2500      0.0000    642.4156      3.4067    157.1618
  1737.5000      0.0000    653.6572      3.3853    156.1539
  1737.7500      0.0000    678.1698      3.3979    156.1495
  1738.0000      0.0000    706.8638      3.4435    156.7825
  1738.2500      0.0000    729.6680      3.5068    156.6993
  1738.5000      0.0000    740.3543      3.5746    154.9366
  1738.7500      0.0000    738.7342      3.6461    151.8736
  1739.0000      0.0000    729.6835      3.7200    148.4905
  1739.2500      0.0000    719.8371      3.7778    145.2224
  1739.5000      0.0000    714.2150      3.7955    141.9016
  1739.7500      0.0000    714.6312      3.7720    138.4638
  1740.0000      0.0000    720.1274      3.7376    135.3012
  1740.2500      0.0000    728.6489      3.7291    132.9077
  1740.5000      0.0000    738.6461      3.7619    131.2828
  1740.7500      0.0000    748.6188      3.8256    129.8592
  1741.0000      0.0000    755.1763      3.8990    128.1646
  1741.2500      0.0000    753.5291      3.9642    126.3398
  1741.5000      0.0000    741.5626      4.0119    124.7248
  1741.7500      0.0000    722.9395      4.0389    123.2126
  1742.0000      0.0000    704.7646      4.0439    121.5216
  1742.2500      0.0000    691.6306      4.0246    119.8182
  1742.5000      0.0000    681.4253      3.9746    118.5820
  1742.7500      0.0000    666.5162      3.8856    118.0142
  1743.0000      0.0000    640.7346      3.7578    118.0142
  1743.2500      0.0000    608.1798      3.6154    118.6646
  1743.5000      0.0000    584.5938      3.5041    120.3830
  1743.7500      0.0000    586.0404      3.4602    123.6943
  1744.0000      0.0000    615.0049      3.4817    129.0695
  1744.2500      0.0000    659.3859      3.5340    136.5493
  1744.5000      0.0000    703.6542      3.5801    145.0009
  1744.7500      0.0000    738.2785      3.6001    152.1095
  1745.0000      0.0000    761.2924      3.5901    155.7382
  1745.2500      0.0000    775.8198      3.5585    155.3507
  1745.5000      0.0000    786.3635      3.5248    151.9579
  1745.7500      0.0000    795.0192      3.5157    147.0490
  1746.0000      0.0000    799.9720      3.5510    141.9819
  1746.2500      0.0000    796.6871      3.6271    137.8619
  1746.5000      0.0000    780.3157      3.7104    134.9074
  1746.7500      0.0000    748.8840      3.7510    131.3807
  1747.0000      0.0000    705.8793      3.7148    123.6381
  1747.2500      0.0000    658.4777      3.6090    108.1806
  1747.5000      0.0000    611.6599      3.4765     84.6368
  1747.7500      0.0000    566.1870      3.3652     57.1890
  1748.0000      0.0000    524.3320      3.3041     32.4408
  1748.2500      0.0000    495.0955      3.3018     15.1177
  1748.5000      0.0000    490.7045      3.3560      5.6971
  1748.7500      0.0000    517.4874      3.4596      1.7169
  1749.0000      0.0000    569.4378      3.5979      0.4096
  1749.2500      0.0000    630.1990      3.7432      0.0765
  1749.5000      0.0000    683.3738      3.8579      0.0104
  1749.7500      0.0000    722.1630      3.9087   -999.2500
  1750.0000      0.0000    748.4792      3.8838   -999.2500
  1750.2500      0.0000    764.8104      3.8035   -999.2500
  1750.5000      0.0000    770.8031      3.7139   -999.2500
  1750.7500      0.0000    766.9195      3.6567   -999.2500
  1751.0000      0.0000    757.4735      3.6426   -999.2500
  1751.2500      0.0000    749.0184      3.6562   -999.2500
  1751.5000      0.0000    746.5399      3.6836   -999.2500
  1751.7500      0.0000    749.6380      3.7193   -999.2500
  1752.0000      0.0000    750.0275      3.7452   -999.2500
  1752.2500      0.0000    732.2988      3.7170   -999.2500
  1752.5000      0.0000    679.0124      3.5817   -999.2500
  1752.7500      0.0000    579.7996      3.3122   -999.2500
  1753.0000      0.0000    441.5234      2.9356   -999.2500
  1753.2500      0.0000    290.8155      2.5323   -999.2500
  1753.5000      0.0000    161.3492      2.1941   -999.2500
  1753.7500      0.0000     73.8275      1.9713   -999.2500
  1754.0000      0.0000     27.4187      1.8561   -999.2500
  1754.2500      0.0000      8.1674      1.8094   -999.2500
  1754.5000      0.0000      1.9321      1.7946   -999.2500
  1754.7500      0.0000      0.3569      1.7909   -999.2500
  1755.0000      0.0000   -999.2500   -999.2500   -999.2500
  1755.2500      0.0000   -999.2500   -999.2500   -999.2500
  1755.5000      0.0000   -999.2500   -999.2500   -999.2500
  1755.7500      0.0000   -999.2500   -999.2500   -999.2500
  1756.0000      0.0000   -999.2500   -999.2500   -999.2500
  1756.2500      0.0000   -999.2500   -999.2500   -999.2500
  1756.5000      0.0000   -999.2500   -999.2500   -999.2500
  1756.7500      0.0000   -999.2500   -999.2500   -999.2500
  1757.0000      0.0000   -999.2500   -999.2500   -999.2500
  1757.2500      0.0000   -999.2500   -999.2500   -999.2500
  1757.5000      0.0000   -999.2500   -999.2500   -999.2500
  1757.7500   -999.2500   -999.2500   -999.2500   -999.2500
  1758.0000   -999.2500   -999.2500   -999.2500   -999.2500
