~Version Information
VERS.                      2.0: CWLS Log ASCII Standard - VERSION 2.0
WRAP.                       NO: One line per depth step
~Well Information Block
STRT.FT                -6.7500: 
STOP.FT              1250.5000: 
STEP.FT                 0.2500: 
NULL.                -999.2500: 
COMP.          Pioneer Natural Resources: COMPANY
WELL.          Irish Eyes 33-21: WELL
FLD.           Purgatorie River: FIELD
LOC.           1379' FSL & 2544' FEL--: LOCATION
PROV.                       CO: PROVINCE
CNTY.               Las Animas: COUNTRY
SRVC.          Patterson Wireline: SERVICE COMPANY
DATE.          Mon Jan 23 11:57:23 2006: LOG DATE
UWI.           05 071 08658 00: UNIQUE WELL ID
~Curve Information Block
DEPT.FT            0 000 00 00: Depth
CCL.                          : Casing Collar Locator
TT3.usec                      : CBL 3' Travel Time
AMP3.mV                       : CBL 3' Amplitude
GR.GAPI                       : Gamma Ray
~Parameter Information Block
~A  Depth       CCL         TT3         AMP3         GR     
# ...
   562.7500      0.0000    763.9044     19.1422    105.1952
   563.0000      0.0000    770.3945     18.8755    112.8804
   563.2500      0.0000    774.8564     18.6278    119.9784
   563.5000      0.0000    778.2394     18.4012    124.1088
   563.7500      0.0000    779.7177     18.2078    124.8921
   564.0000      0.0000    777.1384     18.0619    124.2346
   564.2500      0.0000    767.4803     17.9676    124.5727
   564.5000      0.0000    749.8403     17.9221    126.9934
   564.7500      0.0000    728.8777     17.9227    131.2245
   565.0000      0.0000    711.9815     17.9658    136.5952
   565.2500      0.0000    701.2858     18.0410    142.2631
   565.5000      0.0000    692.5631     18.1260    146.9709
   565.7500      0.0000    684.7465     18.1828    149.4962
   566.0000      0.0000    685.0698     18.1651    149.4738
   566.2500      0.0000    699.7766     18.0452    147.3083
   566.5000      0.0000    724.1676     17.8458    143.2959
   566.7500      0.0000    746.9990     17.6395    137.4435
   567.0000      0.0000    761.7759     17.5114    130.3467
   567.2500      0.0000    770.1465     17.5085    123.6839
   567.5000      0.0000    776.8566     17.6138    119.5252
   567.7500      0.0000    784.6896     17.7603    119.3699
   568.0000      0.0000    793.3380     17.8789    123.4178
   568.2500      0.0000    800.9829     17.9387    130.0430
   568.5000      0.0000    806.2324     17.9447    136.2955
   568.7500      0.0000    809.0015     17.9064    139.8272
   569.0000      0.0000    810.0710     17.8219    140.5122
   569.2500      0.0000    810.3151     17.6978    140.2580
   569.5000      0.0000    810.2932     17.5663    141.6552
   569.7500      0.0000    810.2172     17.4692    146.6210
   570.0000      0.0000    810.0464     17.4235    155.2673
   570.2500      0.0000    809.2745     17.4080    165.5417
   570.5000      0.0000    806.3620     17.3856    174.3834
   570.7500      0.0000    797.8735     17.3414    179.6519
   571.0000      0.0000    778.9566     17.3036    181.0885
   571.2500      0.0000    746.9144     17.3227    179.8522
   571.5000      0.0000    706.4852     17.4275    177.4901
   571.7500      0.0000    671.0818     17.5972    174.8217
   572.0000      0.0000    656.0202     17.7775    171.0589
   572.2500      0.0000    667.4556     17.9191    164.3524
   572.5000      0.0000    695.2045     18.0047    153.8398
   572.7500      0.0000    716.5332     18.0466    140.9893
   573.0000      0.0000    712.3517     18.0680    128.7254
   573.2500      0.0000    685.3153     18.0837    119.7786
   573.5000      0.0000    660.7733     18.0882    115.7270
   573.7500      0.0000    664.2671     18.0571    116.2504
   574.0000      0.0000    696.4409     17.9650    118.7496
   574.2500      0.0000    733.4875     17.8074    119.9316
   574.5000      0.0000    752.6949     17.6032    118.6413
   574.7500      0.0000    753.7822     17.3786    116.4916
   575.0000      0.0000    754.4727     17.1547    115.4367
   575.2500      0.0000    768.9516     16.9501    115.5839
   575.5000      0.0000    794.7798     16.7858    115.7438
   575.7500      0.0000    819.6121     16.6792    115.2125
   576.0000      0.0000    834.9868     16.6350    114.1912
   576.2500      0.0000    841.3246     16.6426    112.8313
   576.5000      0.0000    843.4642     16.6799    110.6508
   576.7500      0.0000    845.0649     16.7222    107.1387
   577.0000      0.0000    846.7382     16.7554    102.7639
   577.2500      0.0000    847.2947     16.7824     99.0301
   577.5000      0.0000    845.6757     16.8154     97.1703
   577.7500      0.0000    841.9559     16.8595     96.9038
   578.0000      0.0000    837.1194     16.9023     96.8697
   578.2500      0.0000    832.3845     16.9185     96.1932
   578.5000      0.0000    828.5736     16.8872     95.3520
   578.7500      0.0000    825.7144     16.8055     95.8685
   579.0000      0.0000    823.1080     16.6884     99.5121
   579.2500      0.0000    820.0952     16.5556    107.2142
   579.5000      0.0000    816.8259     16.4204    118.0630
   579.7500      0.0000    814.0602     16.2839    129.3786
   580.0000      0.0000    812.3256     16.1319    137.9647
   580.2500      0.0000    811.5323     15.9390    141.2914
   580.5000      0.0000    811.2633     15.6824    137.9356
   580.7500      0.0000    811.1700     15.3589    127.9150
   581.0000      0.0000    811.0928     14.9920    113.2072
   581.2500      0.0000    810.9976     14.6185     97.4814
   581.5000      0.0000    810.8868     14.2678     84.4487
   581.7500      0.0000    810.7519     13.9498     76.0153
   582.0000      0.0000    810.5391     13.6638     71.8470
   582.2500      0.0000    810.0882     13.4161     70.2998
   582.5000      0.0000    809.0815     13.2242     69.6050
   582.7500      0.0000    807.1414     13.1021     68.6128
   583.0000      0.0000    804.1554     13.0466     66.9418
   583.2500      0.0000    800.4991     13.0433     64.6866
   583.5000      0.0000    796.6417     13.0819     62.0658
   583.7500      0.0000    792.4457     13.1589     59.4140
   584.0000      0.0000    787.3195     13.2658     57.4550
   584.2500      0.0000    781.2980     13.3858     57.2318
   584.5000      0.0000    775.4814     13.5039     59.4558
   584.7500      0.0000    771.1013     13.6142     64.0171
   585.0000      0.0000    768.5001     13.7171     70.4631
   585.2500      0.0000    767.1693     13.8142     79.0285
   585.5000      0.0000    766.4348     13.9109     90.7391
   585.7500      0.0000    765.9156     14.0226    105.9751
   586.0000      0.0000    765.5252     14.1736    122.9562
   586.2500      0.0000    765.2823     14.3796    138.1456
   586.5000      0.0000    765.1693     14.6235    148.4405
   586.7500      0.0000    765.1211     14.8521    152.8239
   587.0000      0.0000    765.0875     15.0025    152.2009
   587.2500      0.0000    765.0768     15.0343    148.4039
   587.5000      0.0000    765.1398     14.9427    143.5529
   587.7500      0.0000    765.3053     14.7526    139.6455
   588.0000      0.0000    765.5240     14.5050    137.9141
   588.2500      0.0000    765.6882     14.2426    138.2308
   588.5000      0.0000    765.7239     14.0011    139.2932
   588.7500      0.0000    765.6581     13.8087    139.6011
   589.0000      0.0000    765.5764     13.6891    138.3072
   589.2500      0.0000    765.5151     13.6574    135.3103
   589.5000      0.0000    765.4115     13.7136    130.9400
   589.7500      0.0000    765.1709     13.8410    125.7464
   590.0000      0.0000    764.7879     14.0130    120.3584
   590.2500      0.0000    764.3870     14.1967    115.3986
   590.5000      0.0000    764.1236     14.3500    111.6747
   590.7500      0.0000    764.0442     14.4289    110.2535
   591.0000      0.0000    764.0616     14.4136    111.6956
   591.2500      0.0000    764.0590     14.3300    115.0966
   591.5000      0.0000    763.9700     14.2384    118.7180
   591.7500      0.0000    763.7061     14.2011    121.9644
   592.0000      0.0000    762.9846     14.2567    126.0335
   592.2500      0.0000    761.3067     14.4102    132.1668
   592.5000      0.0000    758.4044     14.6321    139.9398
   592.7500      0.0000    755.0459     14.8705    147.5048
   593.0000      0.0000    753.3004     15.0741    152.5195
   593.2500      0.0000    755.3866     15.2072    152.6811
   593.5000      0.0000    761.7437     15.2497    146.9102
   593.7500      0.0000    770.2291     15.2029    137.0294
   594.0000      0.0000    777.5492     15.0979    127.3769
   594.2500      0.0000    781.8589     14.9842    121.6856
   594.5000      0.0000    784.0075     14.8977    120.2825
   594.7500      0.0000    785.9631     14.8423    120.4299
   595.0000      0.0000    787.7636     14.7990    119.0014
   595.2500      0.0000    786.1207     14.7431    114.6401
   595.5000      0.0000    775.8492     14.6400    107.9029
   595.7500      0.0000    753.0069     14.4240    100.1122
   596.0000      0.0000    718.4453     13.9920     92.3839
