~Version Information
VERS.                      2.0: CWLS Log ASCII Standard - VERSION 2.0
WRAP.                       NO: One line per depth step
~Well Information Block
STRT.FT                -3.2500: 
STOP.FT               989.2500: 
STEP.FT                 0.2500: 
NULL.                -999.2500: 
COMP.          Pioneer Natural Resources: COMPANY
WELL.                Doc 34-30: WELL
FLD.           Purgatoire River: FIELD
LOC.           454' FSL & 1386' FEL: LOCATION
CNTY.               Las Animas: COUNTY
SRVC.                         : SERVICE COMPANY
DATE.          Wed Mar 08 14:28:55 2006: LOG DATE
UWI.           05 071 08694 00: UNIQUE WELL ID
STAT.                       CO: STATE
~Curve Information Block
DEPT.FT            0 000 00 00: Depth
GR.GAPI                       : Gamma Ray
CCL.                          : Casing Collar Locator
TT3.usec                      : CBL 3' Travel Time
AMP3.mV                       : CBL 3' Amplitude
~Parameter Information Block
~A  Depth        GR         CCL         TT3         AMP3    
# ...
   465.7500    133.6522      0.0000    616.5542      4.0963
   466.0000    124.8983     -2.0000    655.0205      4.1150
   466.2500    117.7626      0.0000    689.6848      4.1433
   466.5000    112.8282      0.0000    711.8411      4.1787
   466.7500    110.5054      0.0000    721.5995      4.2392
   467.0000    111.2616      0.0000    723.3208      4.3358
   467.2500    115.1582      0.0000    718.7509      4.4281
   467.5000    121.1687      0.0000    706.9613      4.4385
   467.7500    127.3273      0.0000    690.5200      4.3360
   468.0000    132.0328      0.0000    678.5682      4.1780
   468.2500    135.2425      0.0000    680.8079      4.0480
   468.5000    138.1214      0.0000    698.3300      3.9774
   468.7500    141.5911      0.0000    721.8301      3.9432
   469.0000    145.6035      0.0000    738.0612      3.9150
   469.2500    149.6880      0.0000    736.1981      3.8844
   469.5000    153.5562      0.0000    710.7245      3.8602
   469.7500    156.9592      0.0000    664.5585      3.8526
   470.0000    159.4474      0.0000    611.6642      3.8633
   470.2500    160.6137      0.0000    572.4888      3.8863
   470.5000    160.3658      0.0000    562.2272      3.9152
   470.7500    158.7262      0.0000    581.5299      3.9466
   471.0000    155.5636      0.0000    617.6681      3.9770
   471.2500    150.8392      0.0000    654.5481      3.9993
   471.5000    145.1871      0.0000    682.7764      4.0063
   471.7500    140.1457      0.0000    701.6480      3.9995
   472.0000    137.6098      0.0000    713.7007      3.9893
   472.2500    138.6864      0.0000    719.9434      3.9847
   472.5000    142.9451      0.0000    720.5875      3.9863
   472.7500    148.9037      0.0000    717.6962      3.9910
   473.0000    155.1006      0.0000    714.9890      4.0001
   473.2500    160.5172      0.0000    715.5828      4.0194
   473.5000    164.4767      0.0000    720.5010      4.0516
   473.7500    166.7641      0.0000    728.3381      4.0911
   474.0000    167.5373      0.0000    735.6809      4.1260
   474.2500    166.6667      0.0000    738.8450      4.1454
   474.5000    163.7614      0.0000    736.6011      4.1463
   474.7500    159.3157      0.0000    731.6000      4.1355
   475.0000    155.1700      0.0000    728.7211      4.1277
   475.2500    153.3007      0.0000    731.2880      4.1422
   475.5000    154.3075      0.0000    738.0453      4.2022
   475.7500    157.1306      0.0000    743.6692      4.3316
   476.0000    160.0394      0.0000    743.0541      4.5440
   476.2500    161.7825      0.0000    735.7271      4.8220
   476.5000    161.8026      0.0000    725.9481      5.1084
   476.7500    159.6678      0.0000    718.8942      5.3342
   477.0000    154.7213      0.0000    717.5070      5.4685
   477.2500    146.3280      0.0000    722.3116      5.5381
   477.5000    134.6431      0.0000    732.3901      5.5932
   477.7500    121.5042      0.0000    745.6076      5.6573
   478.0000    110.1685      0.0000    758.6003      5.7158
   478.2500    103.5311      0.0000    767.5963      5.7462
   478.5000    102.5817      0.0000    769.8239      5.7485
   478.7500    106.4765      0.0000    764.3821      5.7396
   479.0000    113.4446      0.0000    751.7770      5.7234
   479.2500    121.5543      0.0000    732.2960      5.6743
   479.5000    129.3034      0.0000    704.8577      5.5604
   479.7500    135.8435      0.0000    668.7109      5.3840
   480.0000    140.6268      0.0000    627.8049      5.1887
   480.2500    143.0430      0.0000    592.3229      5.0220
   480.5000    142.5040      0.0000    572.5790      4.9003
   480.7500    138.6926      0.0000    569.9468      4.8098
   481.0000    131.8233      0.0000    575.1785      4.7303
   481.2500    122.8994      0.0000    576.8466      4.6522
   481.5000    113.5705      0.0000    570.9448      4.5774
   481.7500    105.3830      0.0000    562.6773      4.5127
   482.0000     99.1165      0.0000    560.9825      4.4627
   482.2500     94.9126      0.0000    571.9218      4.4273
   482.5000     92.9320      0.0000    595.2856      4.4012
   482.7500     93.7986      0.0000    625.9896      4.3771
   483.0000     98.3188      0.0000    658.5132      4.3509
   483.2500    106.5262      0.0000    689.1807      4.3240
   483.5000    116.8813      0.0000    713.6777      4.2988
   483.7500    126.5837      0.0000    724.6898      4.2766
   484.0000    132.8596      0.0000    715.9445      4.2597
   484.2500    134.1893      0.0000    690.4081      4.2522
   484.5000    130.8406      0.0000    662.4707      4.2552
   484.7500    124.6729      0.0000    648.2050      4.2632
   485.0000    118.4148      0.0000    652.3765      4.2676
   485.2500    114.7941      0.0000    666.5143      4.2653
   485.5000    115.8454      0.0000    679.0485      4.2630
   485.7500    122.2799      0.0000    685.1549      4.2743
   486.0000    132.9208      0.0000    687.6668      4.3096
   486.2500    144.7401      0.0000    691.9175      4.3672
   486.5000    153.8956      0.0000    700.9993      4.4328
   486.7500    157.4656      0.0000    714.1160      4.4895
   487.0000    155.0092      0.0000    727.1245      4.5301
   487.2500    148.8797      0.0000    734.6393      4.5582
   487.5000    142.7619      0.0000    733.7228      4.5789
   487.7500    139.4153      0.0000    726.7598      4.5910
   488.0000    139.4974      0.0000    720.0996      4.5868
   488.2500    142.1815      0.0000    719.5131      4.5597
   488.5000    146.3895      0.0000    726.8729      4.5133
   488.7500    151.2283      0.0000    739.5712      4.4646
   489.0000    155.8336      0.0000    751.6252      4.4345
   489.2500    159.6065      0.0000    756.5593      4.4327
   489.5000    162.6685      0.0000    751.5340      4.4516
   489.7500    165.5255      0.0000    739.3436      4.4729
   490.0000    168.0942      0.0000    725.9128      4.4819
   490.2500    169.3769      0.0000    715.7953      4.4749
   490.5000    168.2731      0.0000    710.0032      4.4579
   490.7500    164.4920      0.0000    707.0847      4.4400
   491.0000    158.4307      0.0000    705.0737      4.4302
   491.2500    150.4839      0.0000    702.4232      4.4393
   491.5000    141.0294      0.0000    698.2277      4.4791
   491.7500    130.9362      0.0000    692.5815      4.5573
   492.0000    121.3050      0.0000    686.8586      4.6701
   492.2500    112.5581      0.0000    683.0962      4.8006
   492.5000    104.2766      0.0000    682.5800      4.9251
   492.7500     95.9747      0.0000    684.7993      5.0225
   493.0000     87.6568      0.0000    687.7418      5.0819
   493.2500     79.7700      0.0000    689.2749      5.1033
   493.5000     73.2055      0.0000    688.3918      5.0926
   493.7500     69.1930      0.0000    685.4120      5.0587
   494.0000     68.5030      0.0000    681.4178      5.0119
   494.2500     70.5879      0.0000    677.6271      4.9636
   494.5000     73.7958      0.0000    674.9097      4.9233
   494.7500     76.6026      0.0000    673.5430      4.8933
   495.0000     78.6738      0.0000    673.3617      4.8672
   495.2500     80.7136      0.0000    674.1594      4.8358
   495.5000     83.2318      0.0000    675.9303      4.7946
   495.7500     85.5790      0.0000    678.7305      4.7453
   496.0000     86.3471      0.0000    682.3362      4.6947
   496.2500     84.6268      0.0000    686.0807      4.6504
   496.5000     80.7908      0.0000    689.0545      4.6179
   496.7500     76.2514      0.0000    690.5865      4.5976
   497.0000     72.6155      0.0000    690.8231      4.5867
   497.2500     70.9410      0.0000    690.9266      4.5834
   497.5000     71.5293      0.0000    692.2755      4.5886
   497.7500     74.0360      0.0000    695.1561      4.6046
   498.0000     77.5443      0.0000    698.4317      4.6314
   498.2500     80.6983      0.0000    700.4865      4.6658
   498.5000     82.1813      0.0000    700.1975      4.7031
   498.7500     81.4881      0.0000    697.2203      4.7399
   499.0000     79.4402      0.0000    692.0320      4.7759
