~Version Information
VERS.                      2.0: CWLS Log ASCII Standard - VERSION 2.0
WRAP.                       NO: One line per depth step
~Well Information Block
STRT.FT               970.0000: 
STOP.FT              1881.0000: 
STEP.FT                 0.1000: 
NULL.                -999.2500: 
COMP.          Petrogulf Corporation: COMPANY
WELL.             Norton 9-14R: WELL
FLD.           Purgatorie River: FIELD
LOC.           725' FSL & 1103' FWL: LOCATION
PROV.                 Colorado: PROVINCE
CNTY.               Las Animas: COUNTRY
SRVC.                Patterson: SERVICE COMPANY
DATE.          Fri Oct 07 07:52:23 2005: LOG DATE
UWI.                          : UNIQUE WELL ID
~Curve Information Block
DEPT.FT            0 000 00 00: Depth
DCAL.in                       : CDL Caliper
RHOB.g/cc                     : CDL Bulk Density
RHOC.g/cc                     : CDL Density Correction
DPOR.pu                       : CDL Density Porosity
GR.GAPI                       : Gamma Ray
NPOR.pu                       : Neutron Porosity
~Parameter Information Block
~A  Depth       DCAL        RHOB        RHOC        DPOR         GR         NPOR    
# ...
  1382.8000      7.9109      2.5752      0.0079      4.5330    117.4312     22.9317
  1382.9000      7.9109      2.5899      0.0087      3.6396    117.1896     22.2934
  1383.0000      7.9067      2.6240      0.0799      1.5761    116.5474     22.3186
  1383.1000      7.9067      2.6506      0.1160     -0.0338    115.2668     22.6011
  1383.2000      7.9067      2.6458      0.0490      0.2546    115.2222     22.6511
  1383.3000      7.9070      2.6233      0.0703      1.6179    116.9965     22.4615
  1383.4000      7.9070      2.6027      0.0453      2.8659    119.6768     22.3593
  1383.5000      7.9123      2.5896      0.0261      3.6622    122.7765     22.5121
  1383.6000      7.9123      2.5859      0.0012      3.8875    125.9562     22.7880
  1383.7000      7.9123      2.5908      0.0204      3.5855    129.8596     23.0370
  1383.8000      7.9160      2.5987      0.0226      3.1081    136.0842     23.2709
  1383.9000      7.9160      2.6005      0.0767      3.0001    144.2077     23.5090
  1384.0000      7.9298      2.5921      0.0759      3.5066    150.0141     23.7790
  1384.1000      7.9298      2.5816      0.0636      4.1448    149.7340     24.0729
  1384.2000      7.9298      2.5745      0.0812      4.5733    146.7463     24.2653
  1384.3000      7.9221      2.5652      0.0536      5.1406    148.0983     24.4262
  1384.4000      7.9221      2.5526      0.0130      5.9030    153.0788     24.5443
  1384.5000      7.8970      2.5494     -0.0036      6.0971    155.0941     24.3547
  1384.6000      7.8970      2.5630      0.0463      5.2755    153.7592     24.0719
  1384.7000      7.8970      2.5799      0.0587      4.2492    152.0511     24.0655
  1384.8000      7.8959      2.5869      0.0712      3.8221    149.4676     24.0714
  1384.9000      7.8959      2.5918      0.0541      3.5287    144.6547     23.6613
  1385.0000      7.8811      2.5995      0.1138      3.0588    137.7310     23.2185
  1385.1000      7.8811      2.6012      0.1197      2.9604    131.7418     23.4818
  1385.2000      7.8811      2.6007      0.0535      2.9883    128.3643     24.2495
  1385.3000      7.8731      2.6133      0.0675      2.2220    124.2423     24.6633
  1385.4000      7.8731      2.6371      0.1014      0.7800    116.8158     24.5989
  1385.5000      7.8741      2.6535      0.0994     -0.2111    109.6211     24.4349
  1385.6000      7.8741      2.6521      0.0812     -0.1283    106.8258     24.1776
  1385.7000      7.8741      2.6480      0.0292      0.1235    107.9349     23.7131
  1385.8000      7.8785      2.6582      0.0853     -0.4981    111.0158     23.0460
  1385.9000      7.8785      2.6710      0.1136     -1.2713    112.5413     22.4025
  1386.0000      7.8683      2.6696      0.0668     -1.1893    110.1124     22.2143
  1386.1000      7.8683      2.6567      0.0773     -0.4090    106.5122     22.5401
  1386.2000      7.8683      2.6460      0.0005      0.2453    106.0243     22.8567
  1386.3000      7.8879      2.6428      0.0046      0.4393    108.6505     22.8928
  1386.4000      7.8879      2.6276      0.0607      1.3587    111.5793     22.9680
  1386.5000      7.8654      2.5930     -0.0241      3.4560    113.9315     23.3694
  1386.6000      7.8654      2.5654     -0.0445      5.1254    114.0753     23.9572
  1386.7000      7.8654      2.5538      0.0460      5.8291    111.5887     24.2115
  1386.8000      7.9068      2.5493     -0.0535      6.1007    109.4179     23.8073
  1386.9000      7.9068      2.5566      0.0276      5.6576    109.3829     23.1351
  1387.0000      7.9210      2.5682      0.0441      4.9548    110.8253     22.7306
  1387.1000      7.9210      2.5732      0.0090      4.6549    111.6884     22.6642
  1387.2000      7.9210      2.5786     -0.0041      4.3293    111.5651     22.8635
  1387.3000      7.9120      2.5918      0.0079      3.5283    112.2821     23.3658
  1387.4000      7.9120      2.6128      0.0160      2.2554    112.4675     23.9917
  1387.5000      7.8935      2.6338      0.0822      0.9824    109.6644     24.2941
  1387.6000      7.8935      2.6422      0.0862      0.4736    104.1311     24.1593
  1387.7000      7.8935      2.6354      0.0750      0.8842     97.0298     23.8759
  1387.8000      7.8694      2.6210      0.0512      1.7559     90.0911     23.5649
  1387.9000      7.8694      2.6106      0.0453      2.3859     85.3395     23.0830
  1388.0000      7.8682      2.6053      0.0424      2.7102     82.6852     22.3428
  1388.1000      7.8682      2.5976      0.0417      3.1766     80.0242     21.5798
  1388.2000      7.8682      2.5940      0.0350      3.3931     77.9263     21.2699
  1388.3000      7.9045      2.5946      0.0716      3.3598     80.5903     21.6180
  1388.4000      7.9045      2.5842      0.0438      3.9862     87.4158     22.5989
  1388.5000      7.9113      2.5698     -0.0139      4.8622     92.2319     23.9200
  1388.6000      7.9113      2.5757      0.0074      4.5028     91.3757     24.7554
  1388.7000      7.9113      2.6021      0.0484      2.9039     86.7710     24.8026
  1388.8000      7.8899      2.6245      0.0802      1.5471     84.3323     24.6198
  1388.9000      7.8899      2.6290      0.0940      1.2717     87.0466     24.4336
  1389.0000      7.8446      2.6195      0.0786      1.8513     90.7473     24.3147
  1389.1000      7.8446      2.6067      0.0881      2.6270     89.3348     24.3781
  1389.2000      7.8446      2.5985      0.0847      3.1187     82.1825     24.2952
  1389.3000      7.8211      2.5964      0.0723      3.2504     73.5892     23.7826
  1389.4000      7.8211      2.6025      0.0752      2.8784     68.5281     23.0274
  1389.5000      7.8345      2.6135      0.0960      2.2123     68.4520     22.3879
  1389.6000      7.8345      2.6174      0.0763      1.9762     70.3877     22.0883
  1389.7000      7.8345      2.6125      0.0715      2.2735     71.2905     22.0295
  1389.8000      7.8745      2.6091      0.0717      2.4813     72.1993     22.0343
  1389.9000      7.8745      2.6098      0.0688      2.4349     74.7071     22.2226
  1390.0000      7.9018      2.6050      0.0606      2.7289     75.1451     22.6830
  1390.1000      7.9018      2.5896      0.0731      3.6586     71.1306     23.0293
  1390.2000      7.9018      2.5703      0.0296      4.8311     66.6903     22.8585
  1390.3000      7.8950      2.5581      0.0469      5.5689     66.3107     22.3481
  1390.4000      7.8950      2.5649      0.0382      5.1571     69.6140     21.8913
  1390.5000      7.8856      2.5894      0.0817      3.6697     71.8501     21.5569
  1390.6000      7.8856      2.6079      0.1220      2.5541     70.8594     21.3889
  1390.7000      7.8856      2.6057      0.0875      2.6837     68.4620     21.5051
  1390.8000      7.8639      2.5943      0.0888      3.3769     67.7566     21.7325
  1390.9000      7.8639      2.5847      0.0530      3.9550     69.4898     21.8708
  1391.0000      7.8658      2.5781      0.0697      4.3566     69.6874     22.0259
  1391.1000      7.8658      2.5794      0.0558      4.2787     66.2179     22.2922
  1391.2000      7.8658      2.5979      0.0567      3.1552     61.4663     22.4573
  1391.3000      7.8647      2.6311      0.0521      1.1476     59.8001     22.3636
  1391.4000      7.8647      2.6593      0.1384     -0.5626     61.7454     21.8393
  1391.5000      7.8679      2.6636      0.0971     -0.8223     64.4829     20.7075
  1391.6000      7.8679      2.6526      0.0844     -0.1565     65.9372     19.3665
  1391.7000      7.8679      2.6459      0.0498      0.2487     66.4377     18.4563
  1391.8000      7.8791      2.6384      0.0993      0.7045     67.1462     18.1259
  1391.9000      7.8791      2.6127      0.0883      2.2631     68.0134     18.1918
  1392.0000      7.8812      2.5780      0.0206      4.3628     70.5053     18.5602
  1392.1000      7.8812      2.5608     -0.0168      5.4067     75.2040     18.9992
  1392.2000      7.8812      2.5662      0.0324      5.0775     80.0528     19.1768
  1392.3000      7.8608      2.5826      0.0437      4.0861     83.4396     19.3110
