~Version Information
VERS.                      2.0: CWLS Log ASCII Standard - VERSION 2.0
WRAP.                       NO: One line per depth step
~Well Information Block
STRT.FT               485.0000: 
STOP.FT              1030.5000: 
STEP.FT                 0.1000: 
NULL.                -999.2500: 
COMP.          Pioneer Natural Resources: COMPANY
WELL.          Red Raider 22-15: WELL
FLD.           Purgatoire River: FIELD
LOC.           1809' FNL & 2107' FWL: LOCATION
CNTY.               Las Animas: COUNTY
SRVC.                Patterson: SERVICE COMPANY
DATE.          Tue Apr 11 10:06:17 2006: LOG DATE
UWI.           05 071 08718 00: UNIQUE WELL ID
STAT.                 Colorado: STATE
~Curve Information Block
DEPT.FT            0 000 00 00: Depth
DCAL.in                       : CDL Caliper
RHOB.g/cc                     : CDL Bulk Density
RHOC.g/cc                     : CDL Density Correction
DPOR.pu                       : CDL Density Porosity
GR.GAPI                       : Gamma Ray
NPOR.pu                       : Neutron Porosity
~Parameter Information Block
~A  Depth       DCAL        RHOB        RHOC        DPOR         GR         NPOR    
# ...
   667.4000      8.1761      1.4007      0.0925     75.7155     42.8779     16.4589
   667.5000      8.1752      1.4798      0.1138     70.9207     46.8859     17.1839
   667.6000      8.1752      1.5701      0.1692     65.4510     50.2816     17.5621
   667.7000      8.1752      1.6558      0.1957     60.2536     55.0808     17.4977
   667.8000      8.1719      1.7220      0.2241     56.2398     60.7490     17.1074
   667.9000      8.1719      1.7609      0.2357     53.8842     65.5500     16.8303
   668.0000      8.1695      1.7708      0.2131     53.2837     68.5379     16.9516
   668.1000      8.1695      1.7502      0.1654     54.5319     70.6019     17.3224
   668.2000      8.1695      1.6983      0.0747     57.6766     71.9422     17.6995
   668.3000      8.1695      1.6249     -0.0135     62.1289     70.1304     18.0022
   668.4000      8.1695      1.5490     -0.0684     66.7298     66.3048     18.1332
   668.5000      8.1715      1.4841     -0.0388     70.6578     63.9143     18.0280
   668.6000      8.1715      1.4354     -0.0677     73.6107     63.7472     18.0581
   668.7000      8.1715      1.4142     -0.0669     74.8949     64.8940     18.7220
   668.8000      8.1753      1.4268      0.0124     74.1328     64.6477     19.6928
   668.9000      8.1753      1.4585      0.0479     72.2106     61.1805     20.2705
   669.0000      8.1777      1.5015      0.0389     69.6065     58.2840     20.5383
   669.1000      8.1777      1.5679      0.0563     65.5810     59.2796     20.9942
   669.2000      8.1777      1.6618      0.0940     59.8921     62.9196     21.4156
   669.3000      8.1738      1.7700      0.0952     53.3347     67.4178     21.2948
   669.4000      8.1738      1.8795      0.1231     46.6954     72.1710     21.0480
   669.5000      8.1672      1.9787      0.1439     40.6832     75.6404     21.4654
   669.6000      8.1672      2.0617      0.1099     35.6558     77.9632     22.5011
   669.7000      8.1672      2.1410      0.0657     30.8485     82.1453     23.5496
   669.8000      8.1631      2.2223      0.1631     25.9184     89.3970     24.0021
   669.9000      8.1631      2.2850      0.1354     22.1225     97.7522     23.6981
   670.0000      8.1612      2.3166      0.0550     20.2061    103.4708     23.2029
   670.1000      8.1612      2.3274      0.0458     19.5499    102.7729     23.0452
   670.2000      8.1612      2.3335     -0.0224     19.1791    106.9229     22.7859
   670.3000      8.1599      2.3476      0.0244     18.3277    107.1854     21.9706
   670.4000      8.1599      2.3668      0.0303     17.1652    110.9032     21.1459
   670.5000      8.1588      2.3833      0.0358     16.1643    113.0302     20.8226
   670.6000      8.1588      2.3946      0.0289     15.4760    115.9270     20.6495
   670.7000      8.1588      2.4013      0.0010     15.0743    118.4858     20.1114
   670.8000      8.1556      2.4117      0.0192     14.4449    117.1802     19.4550
   670.9000      8.1556      2.4306      0.0149     13.2997    117.7618     19.3672
   671.0000      8.1502      2.4482      0.0492     12.2311    123.9572     19.9651
   671.1000      8.1502      2.4552      0.0333     11.8055    131.0665     21.0008
   671.2000      8.1502      2.4528      0.0551     11.9516    146.2076     22.2225
   671.3000      8.1436      2.4519      0.0418     12.0077    148.9973     23.0565
   671.4000      8.1436      2.4688      0.0577     10.9844    149.6443     23.2147
   671.5000      8.1225      2.4981      0.0818      9.2066    148.2547     23.1109
   671.6000      8.1225      2.5168      0.0784      8.0708    147.7635     23.1725
   671.7000      8.1225      2.5204      0.0752      7.8523    149.4800     23.6544
   671.8000      8.0857      2.5146      0.0688      8.2070    148.9473     24.5631
   671.9000      8.0857      2.5021      0.0336      8.9650    144.3150     25.1584
   672.0000      8.0629      2.4946      0.0364      9.4175    139.0703     25.0133
   672.1000      8.0629      2.4980      0.0394      9.2106    136.3282     24.9256
   672.2000      8.0629      2.5054      0.0131      8.7608    135.2951     25.2565
   672.3000      8.0580      2.5083      0.0342      8.5857    131.4146     25.4288
   672.4000      8.0580      2.5032      0.0003      8.8981    126.1956     25.2265
   672.5000      8.0573      2.4980      0.0205      9.2111    126.2900     24.8734
   672.6000      8.0573      2.5046      0.0043      8.8134    130.5519     24.4830
   672.7000      8.0573      2.5252      0.0344      7.5628    132.8384     23.9541
   672.8000      8.0569      2.5504      0.0434      6.0390    133.2742     23.2404
   672.9000      8.0569      2.5623      0.0958      5.3168    133.8812     22.5784
   673.0000      8.0570      2.5480      0.0911      6.1792    134.9608     21.9286
   673.1000      8.0570      2.5193      0.0590      7.9227    137.7406     20.9614
   673.2000      8.0570      2.4928      0.0362      9.5288    143.3436     19.9984
   673.3000      8.0581      2.4662      0.0557     11.1366    152.3590     19.4339
   673.4000      8.0581      2.4237      0.0966     13.7165    162.1597     19.2287
   673.5000      8.0593      2.3571      0.0391     17.7507    168.2842     19.4934
   673.6000      8.0593      2.2882      0.0087     21.9294    168.9523     20.0118
   673.7000      8.0593      2.2428      0.0526     24.6787    164.9020     20.3447
   673.8000      8.0600      2.2200      0.0354     26.0587    159.0349     20.7713
   673.9000      8.0600      2.2082      0.0831     26.7762    155.9538     21.6917
   674.0000      8.0600      2.2049      0.0892     26.9783    154.2372     22.6424
   674.1000      8.0600      2.2166      0.0971     26.2662    149.8737     23.1661
   674.2000      8.0600      2.2442      0.1624     24.5925    145.3191     23.4953
   674.3000      8.0594      2.2748      0.1654     22.7403    140.7297     23.8150
   674.4000      8.0594      2.2936      0.1741     21.6018    134.2297     24.1501
   674.5000      8.0588      2.2964      0.0787     21.4295    129.3284     24.6111
   674.6000      8.0588      2.2976      0.0246     21.3606    129.8155     24.9133
   674.7000      8.0588      2.3169     -0.0051     20.1901    134.6069     24.7827
   674.8000      8.0566      2.3485      0.0693     18.2750    139.3140     24.3713
   674.9000      8.0566      2.3707      0.0155     16.9262    141.2880     23.9099
   675.0000      8.0455      2.3842      0.0729     16.1080    141.6508     23.5675
   675.1000      8.0455      2.3995      0.0410     15.1841    140.5545     23.5987
   675.2000      8.0455      2.4137      0.0958     14.3234    138.4429     24.0209
   675.3000      8.0271      2.4146      0.0530     14.2667    138.2385     24.5190
   675.4000      8.0271      2.4038      0.0313     14.9196    138.5398     24.7397
   675.5000      8.0152      2.3966      0.0265     15.3567    134.9747     24.6101
   675.6000      8.0152      2.3942      0.0627     15.5051    131.0183     24.5109
   675.7000      8.0152      2.3884      0.0097     15.8547    132.5168     24.6994
   675.8000      8.0093      2.3877     -0.0113     15.8965    138.3913     25.0974
   675.9000      8.0093      2.4031      0.0176     14.9648    141.8268     25.6961
   676.0000      8.0027      2.4270      0.0547     13.5162    138.8935     26.1619
   676.1000      8.0027      2.4458      0.0276     12.3772    132.8040     25.7286
   676.2000      8.0027      2.4581      0.0198     11.6328    132.7425     24.5137
   676.3000      7.9943      2.4672      0.0351     11.0759    141.1655     23.8922
   676.4000      7.9943      2.4734      0.0163     10.7013    148.1385     24.5314
   676.5000      7.9887      2.4805      0.0103     10.2718    148.5581     25.6326
   676.6000      7.9887      2.4871      0.0330      9.8757    146.4824     26.3889
   676.7000      7.9887      2.4857      0.0389      9.9600    147.5584     26.6554
   676.8000      7.9866      2.4802      0.0032     10.2879    152.2359     26.6720
   676.9000      7.9866      2.4756      0.0382     10.5703    156.8458     26.5274
