~Version Information
VERS.                      2.0: CWLS Log ASCII Standard - VERSION 2.0
WRAP.                       NO: One line per depth step
~Well Information Block
STRT.FT                 0.0000: 
STOP.FT              1981.7500: 
STEP.FT                 0.2500: 
NULL.                -999.2500: 
COMP.          Petrogulf Corporation: COMPANY
WELL.          Collister 17-31R: WELL
FLD.           Purgatorie River: FIELD
LOC.           962' FNL & 1520' FEL: LOCATION
STAT.                 Colorado: State
CNTY.               Las Animas: COUNTY
CTRY. USA : Country
SECT. 17 : Section
TOWN. 33S : Township
RANG. 67W : Range
SRVC.                Patterson: SERVICE COMPANY
DATE.          Fri Jan 06 10:32:29 2006: LOG DATE
API. 05-071-08436                         : UNIQUE WELL ID
~Curve Information Block
DEPT.FT            0 000 00 00: Depth
CCL.                          : Casing Collar Locator
TT3.usec                      : CBL 3' Travel Time
AMP3.mV                       : CBL 3' Amplitude
GR.GAPI                       : Gamma Ray
~Parameter Information Block
~A  Depth       CCL         TT3         AMP3         GR     
# ...
   502.5000      0.0000    562.8830      5.5480     92.2238
   502.7500      0.0000    504.9868      5.6995     91.6430
   503.0000      0.0000    456.9980      5.9067     92.0359
   503.2500      0.0000    422.0286      6.1825     93.4045
   503.5000      0.0000    397.8383      6.4654     94.8079
   503.7500      0.0000    381.0195      6.6639     95.1394
   504.0000      0.0000    370.4637      6.7581     93.6850
   504.2500      0.0000    365.2916      6.8053     90.4308
   504.5000      0.0000    363.3676      6.8601     86.3208
   504.7500      0.0000    362.7610      6.9422     82.8749
   505.0000      0.0000    362.6276      7.0696     81.0221
   505.2500      0.0000    362.7458      7.2740     80.4086
   505.5000      0.0000    363.0242      7.5594     80.0113
   505.7500      0.0000    363.3463      7.8471     79.1491
   506.0000      0.0000    363.5991      8.0167     77.8170
   506.2500      0.0000    363.7539      8.0495     76.4262
   506.5000      0.0000    363.9242      8.0595     75.4810
   506.7500      0.0000    364.4579      8.1287     75.4225
   507.0000      0.0000    366.2884      8.2133     76.5191
   507.2500      0.0000    371.3318      8.2553     78.5839
   507.5000      0.0000    381.5177      8.2706     80.7764
   507.7500      0.0000    396.4648      8.2737     82.1469
   508.0000      0.0000    412.8740      8.2319     82.6957
   508.2500      0.0000    426.3357      8.1340     83.5548
   508.5000      0.0000    434.3354      8.0153     85.6972
   508.7500      0.0000    440.0280      7.8953     88.6409
   509.0000      0.0000    452.9156      7.7508     90.8993
   509.2500      0.0000    482.5349      7.5695     91.6008
   509.5000      0.0000    527.3597      7.3856     91.1157
   509.7500      0.0000    571.6957      7.2323     90.2327
   510.0000      0.0000    600.3798      7.1052     89.4201
   510.2500      0.0000    613.3384      6.9907     88.7836
   510.5000      0.0000    619.8837      6.8825     88.1377
   510.7500      0.0000    626.7352      6.7761     87.3500
   511.0000      0.0000    636.5872      6.6704     87.0219
   511.2500      0.0000    648.3604      6.5636     88.2881
   511.5000      0.0000    656.2836      6.4636     91.4377
   511.7500      0.0000    658.1608      6.4039     95.2693
   512.0000      0.0000    659.7908      6.4221     98.2491
   512.2500      0.0000    663.3670      6.5192     99.9162
   512.5000      0.0000    664.3391      6.6421    100.7926
   512.7500      0.0000    661.7164      6.7151    101.2334
   513.0000      0.0000    657.4290      6.7195    100.9247
   513.2500      0.0000    647.4742      6.7117     99.5828
   513.5000      0.0000    624.4210      6.7276     97.6131
   513.7500      0.0000    593.4182      6.7424     95.8689
   514.0000      0.0000    578.2617      6.7373     95.1270
   514.2500      0.0000    596.8787      6.7219     95.7327
   514.5000      0.0000    635.5124      6.6916     97.0616
   514.7500      0.0000    664.4981      6.6254     97.2549
   515.0000      0.0000    673.4168      6.5294     94.3875
   515.2500      0.0000    674.2047      6.4520     88.4683
   515.5000      0.0000    678.1606      6.4462     81.8084
   515.7500      0.0000    684.6940      6.5350     76.9470
   516.0000      0.0000    690.4523      6.7173     74.6057
   516.2500      0.0000    697.6807      6.9598     74.0676
   516.5000      0.0000    704.1861      7.1748     74.8206
   516.7500      0.0000    695.6654      7.2808     76.8770
   517.0000      0.0000    660.1476      7.3052     79.7473
   517.2500      0.0000    600.8671      7.3569     82.2457
   517.5000      0.0000    534.3365      7.5136     83.7108
   517.7500      0.0000    480.5046      7.7711     84.8671
   518.0000      0.0000    447.8849      8.0614     87.0566
   518.2500      0.0000    430.2901      8.3024     90.7809
   518.5000      0.0000    419.4207      8.4382     95.0739
   518.7500      0.0000    412.5211      8.4457     98.1542
   519.0000      0.0000    408.7757      8.3351     98.8134
   519.2500      0.0000    406.0010      8.1592     97.4624
   519.5000      0.0000    402.1689      8.0087     95.7297
   519.7500      0.0000    398.3401      7.9604     94.8260
   520.0000      0.0000    399.1697      8.0300     94.4569
   520.2500      0.0000    408.8027      8.1604     93.5854
   520.5000      0.0000    429.0331      8.2297     92.0554
   520.7500      0.0000    463.0110      8.1162     90.9926
   521.0000      0.0000    508.5387      7.8029     91.4856
   521.2500      0.0000    545.7931      7.4680     93.2804
   521.5000      0.0000    555.8677      7.3713     94.9910
   521.7500      0.0000    552.7151      7.4957     95.2754
   522.0000      0.0000    561.8023      7.6278     93.5472
   522.2500      0.0000    573.8510      7.8030     89.9666
   522.5000      0.0000    564.1990      8.1166     85.3729
   522.7500      0.0000    543.3150      8.4175     81.1800
   523.0000      2.0000    543.3322      8.5586     78.7390
   523.2500     -2.0000    571.3707      8.5844     78.5371
   523.5000      0.0000    607.8690      8.5925     80.0856
   523.7500      0.0000    629.2291      8.5932     82.5642
   524.0000      0.0000    620.2545      8.5645     85.3940
   524.2500      0.0000    585.0355      8.5701     88.2130
   524.5000      0.0000    546.8050      8.6078     90.5681
   524.7500      0.0000    528.9811      8.5461     91.8511
   525.0000      0.0000    540.9075      8.3620     91.5618
   525.2500      0.0000    575.1581      8.0993     89.7543
   525.5000      0.0000    608.3549      7.7629     87.3350
   525.7500      0.0000    619.3635      7.4421     85.7334
   526.0000      0.0000    603.9294      7.2799     86.1000
   526.2500      0.0000    566.2462      7.3133     88.7592
   526.5000      0.0000    515.1865      7.4615     93.0522
   526.7500      0.0000    466.0317      7.5980     97.3982
   527.0000      0.0000    430.9527      7.6111     99.9918
   527.2500      0.0000    410.9715      7.4969    100.0306
   527.5000      0.0000    399.1930      7.3877     98.2259
   527.7500      0.0000    388.5489      7.4319     96.0126
   528.0000      0.0000    377.3277      7.6502     94.4004
   528.2500      0.0000    368.1587      7.8993     93.5281
   528.5000      0.0000    362.8271      7.9942     92.9500
   528.7500      0.0000    360.4918      7.8978     92.0852
   529.0000      0.0000    359.5844      7.7488     90.4273
   529.2500      0.0000    358.6884      7.6882     87.7365
   529.5000      0.0000    356.0113      7.7167     84.4124
   529.7500      0.0000    350.1771      7.7364     81.5198
   530.0000      0.0000    342.4193      7.7039     79.9520
   530.2500      0.0000    336.0273      7.6934     79.5940
   530.5000      0.0000    332.7669      7.7784     79.7929
   530.7500      0.0000    331.9902      7.9079     80.5596
   531.0000      0.0000    332.9712      7.9601     82.6317
   531.2500      0.0000    336.2264      7.8741     86.1654
   531.5000      0.0000    342.2611      7.6994     90.0010
   531.7500      0.0000    349.4413      7.5639     92.6237
   532.0000      0.0000    354.7643      7.5621     93.4967
   532.2500      0.0000    357.1270      7.6361     93.0973
   532.5000      0.0000    357.7775      7.6539     91.9609
   532.7500      0.0000    357.9103      7.6026     90.1400
   533.0000      0.0000    357.2825      7.5926     87.5631
   533.2500      0.0000    354.6165      7.6807     84.6026
   533.5000      0.0000    349.5658      7.7749     82.1057
   533.7500      0.0000    345.0083      7.7500     80.8539
   534.0000      0.0000    345.1356      7.6054     80.9320
   534.2500      0.0000    350.0681      7.4346     81.5685
   534.5000      0.0000    355.4110      7.2786     81.6806
   534.7500      0.0000    357.3993      7.1157     80.8127
   535.0000      0.0000    356.5111      6.9522     79.5635
   535.2500      0.0000    356.8122      6.8246     78.9076
   535.5000      0.0000    361.6931      6.7492     79.2290
   535.7500      0.0000    371.2480      6.7034     80.1689
