~Version Information
VERS.                      2.0: CWLS Log ASCII Standard - VERSION 2.0
WRAP.                       NO: One line per depth step
~Well Information Block
STRT.FT               -10.0000: 
STOP.FT              2073.0000: 
STEP.FT                 0.2500: 
NULL.                -999.2500: 
COMP.          Pioneer Natural Resources: COMPANY
WELL.              Joplin 44-5: WELL
FLD.           Purgatorie River: FIELD
LOC.           262' FSL & 418' FEL--: LOCATION
PROV.                       CO: PROVINCE
CNTY.               Las Animas: COUNTRY
SRVC.          Patterson Wireline: SERVICE COMPANY
DATE.          Mon Dec 19 09:21:33 2005: LOG DATE
UWI.           05 071 08623 00: UNIQUE WELL ID
~Curve Information Block
DEPT.FT            0 000 00 00: Depth
CCL.                          : Casing Collar Locator
TT3.usec                      : CBL 3' Travel Time
AMP3.mV                       : CBL 3' Amplitude
GR.GAPI                       : Gamma Ray
~Parameter Information Block
~A  Depth       CCL         TT3         AMP3         GR     
# ...
  2033.5000      0.0000    440.4577      4.0737    129.7786
  2033.7500      0.0000    440.6687      4.1732    130.9232
  2034.0000      0.0000    461.3714      4.2864    132.1303
  2034.2500      0.0000    497.8150      4.3960    132.3953
  2034.5000      0.0000    540.6596      4.4829    131.4860
  2034.7500      0.0000    580.3538      4.5308    129.8012
  2035.0000      0.0000    611.0309      4.5322    127.3292
  2035.2500      0.0000    631.1441      4.4937    123.2571
  2035.5000      0.0000    641.2773      4.4354    117.3402
  2035.7500      0.0000    641.2612      4.3817    111.5852
  2036.0000      0.0000    628.3750      4.3498    109.8750
  2036.2500      0.0000    598.7968      4.3418    115.4833
  2036.5000      0.0000    553.0026      4.3477    128.8150
  2036.7500      0.0000    500.4595      4.3540    147.2007
  2037.0000      0.0000    457.1068      4.3497    166.3444
  2037.2500      0.0000    436.4440      4.3270    182.0852
  2037.5000      0.0000    441.6008      4.2860    192.0120
  2037.7500      0.0000    462.9846      4.2390    196.4233
  2038.0000      0.0000    482.4284      4.2081    197.3172
  2038.2500      0.0000    483.7209      4.2161    195.8107
  2038.5000      0.0000    463.5196      4.2797    190.7620
  2038.7500      0.0000    432.1903      4.4014    180.2930
  2039.0000      0.0000    403.8341      4.5621    164.5726
  2039.2500      0.0000    386.8412      4.7254    146.8022
  2039.5000      2.0000    382.7491      4.8557    131.3173
  2039.7500      0.0000    390.2593      4.9346    120.7274
  2040.0000      0.0000    408.3327      4.9707    114.5698
  2040.2500      0.0000    435.1479      5.0003    110.2076
  2040.5000      0.0000    464.0808      5.0688    105.1001
  2040.7500      0.0000    482.9222      5.1883     98.8566
  2041.0000      0.0000    481.1974      5.3136     93.1989
  2041.2500      0.0000    459.5474      5.3789     89.5122
  2041.5000      0.0000    429.8130      5.3560     86.8357
  2041.7500      0.0000    405.3908      5.2666     83.1868
  2042.0000      0.0000    392.5350      5.1482     78.3906
  2042.2500      0.0000    389.6045      5.0249     74.1826
  2042.5000      0.0000    391.5979      4.9052     71.6856
  2042.7500      0.0000    394.4355      4.7911     70.2664
  2043.0000      0.0000    396.4338      4.6853     68.9560
  2043.2500      0.0000    397.7547      4.5922     67.7770
  2043.5000      0.0000    399.5242      4.5171     67.4328
  2043.7500      0.0000    403.5122      4.4630     68.3523
  2044.0000      0.0000    411.5489      4.4279     70.1954
  2044.2500      0.0000    423.5520      4.4070     72.0874
  2044.5000      0.0000    435.4704      4.3983     73.4067
  2044.7500      0.0000    440.8457      4.4067     74.3831
  2045.0000      0.0000    436.3827      4.4367     75.6005
  2045.2500      0.0000    425.7126      4.4802     76.9393
  2045.5000      0.0000    416.7030      4.5168     77.6644
  2045.7500      0.0000    415.9976      4.5279     77.7472
  2046.0000      0.0000    426.3224      4.5096     78.2968
  2046.2500      0.0000    446.5442      4.4686     80.2867
  2046.5000      0.0000    472.6913      4.4139     83.5015
  2046.7500      0.0000    500.7361      4.3552     87.1368
  2047.0000      0.0000    529.8182      4.3030     90.9002
  2047.2500      0.0000    560.9417      4.2637     94.9566
  2047.5000      0.0000    592.0806      4.2337     99.1538
  2047.7500      0.0000    617.7673      4.2008    102.9317
  2048.0000      0.0000    634.1169      4.1563    105.8056
  2048.2500      0.0000    641.0466      4.1036    107.4488
  2048.5000      0.0000    639.7708      4.0526    107.5065
  2048.7500      0.0000    632.1794      4.0076    105.8820
  2049.0000      0.0000    623.2881      3.9654    103.2794
  2049.2500      0.0000    619.9610      3.9263    101.1819
  2049.5000      0.0000    624.4608      3.9022    100.9042
  2049.7500      0.0000    631.2280      3.9102    102.3713
  2050.0000      0.0000    632.4833      3.9550    103.9096
  2050.2500      0.0000    626.4199      4.0182    103.5146
  2050.5000      0.0000    618.8104      4.0704    100.3429
  2050.7500      0.0000    617.3906      4.0945     95.1490
  2051.0000      0.0000    625.2045      4.0945     89.7262
  2051.2500      0.0000    638.5674      4.0876     86.0785
  2051.5000      0.0000    650.1857      4.0929     85.8292
  2051.7500      0.0000    654.0157      4.1223     89.8476
  2052.0000      0.0000    649.0067      4.1733     97.7902
  2052.2500      0.0000    640.3874      4.2258    107.6763
  2052.5000      0.0000    636.4301      4.2504    116.2362
  2052.7500      0.0000    641.4083      4.2295    120.6217
  2053.0000      0.0000    652.0182      4.1739    120.4577
  2053.2500      0.0000    661.9542      4.1130    118.1582
  2053.5000      0.0000    668.5075      4.0700    116.9641
  2053.7500      0.0000    673.2181      4.0479    118.6090
  2054.0000      0.0000    678.1076      4.0346    122.4227
  2054.2500      0.0000    683.3304      4.0146    125.8619
  2054.5000      0.0000    687.8332      3.9811    125.9600
  2054.7500      0.0000    690.7877      3.9382    121.3252
  2055.0000      0.0000    692.0968      3.8934    113.1309
  2055.2500      0.0000    692.0192      3.8487    103.8202
  2055.5000      0.0000    690.5362      3.7998     94.9703
  2055.7500      0.0000    687.2397      3.7464     86.8316
  2056.0000      0.0000    681.9999      3.7020     79.4921
  2056.2500      0.0000    675.7379      3.6865     73.6209
  2056.5000      0.0000    670.0404      3.7044     70.0412
  2056.7500      0.0000    665.9407      3.7365     69.1199
  2057.0000      0.0000    663.7895      3.7573     70.7231
  2057.2500      0.0000    664.2830      3.7567     74.4307
  2057.5000      0.0000    668.1874      3.7421     79.3776
  2057.7500      0.0000    674.5975      3.7250     84.0301
  2058.0000      0.0000    680.6034      3.7114     86.7297
  2058.2500      0.0000    683.3516      3.7034     86.6717
  2058.5000      0.0000    682.2797      3.7025     83.8253
  2058.7500      0.0000    679.5338      3.7083     77.7370
  2059.0000      0.0000    678.3047      3.7173     67.2586
  2059.2500      0.0000    680.2851      3.7249     52.2392
  2059.5000      0.0000    684.5114      3.7291     35.0876
  2059.7500      0.0000    688.7253      3.7324     19.7844
  2060.0000      0.0000    691.4713      3.7401      9.1652
  2060.2500      0.0000    692.7110      3.7563      3.4350
  2060.5000      0.0000    693.0727      3.7800      1.0305
  2060.7500      0.0000    693.0832      3.8051      0.2452
  2061.0000      0.0000    692.9489      3.8251      0.0455
  2061.2500      0.0000    692.5735      3.8361      0.0062
  2061.5000      0.0000    691.3448      3.8360   -999.2500
  2061.7500      0.0000    687.5274      3.8238   -999.2500
  2062.0000      0.0000    677.7644      3.8016   -999.2500
  2062.2500      0.0000    658.1839      3.7763   -999.2500
  2062.5000      0.0000    628.3802      3.7567   -999.2500
  2062.7500      0.0000    595.7365      3.7483   -999.2500
  2063.0000      0.0000    573.6869      3.7497   -999.2500
  2063.2500      0.0000    572.1093      3.7558   -999.2500
  2063.5000      0.0000    588.5015      3.7598   -999.2500
  2063.7500      0.0000    609.0007      3.7451   -999.2500
  2064.0000      0.0000    615.4257      3.6655   -999.2500
  2064.2500      0.0000    589.9777      3.4405   -999.2500
  2064.5000      0.0000    519.7928      2.9926   -999.2500
  2064.7500      0.0000    406.6803      2.3233   -999.2500
  2065.0000      0.0000    273.5524      1.5557   -999.2500
  2065.2500      0.0000    154.0292      0.8738   -999.2500
  2065.5000      0.0000     71.1528      0.4032   -999.2500
  2065.7500      0.0000     26.5749      0.1506   -999.2500
  2066.0000      0.0000      7.9419      0.0450   -999.2500
  2066.2500      0.0000      1.8823      0.0107   -999.2500
  2066.5000      0.0000      0.3488      0.0020   -999.2500
  2066.7500      0.0000   -999.2500   -999.2500   -999.2500
