~Version Information
VERS.                      2.0: CWLS Log ASCII Standard - VERSION 2.0
WRAP.                       NO: One line per depth step
~Well Information Block
STRT.FT                -9.0000: 
STOP.FT              1754.0000: 
STEP.FT                 0.2500: 
NULL.                -999.2500: 
COMP.          Pioneer Natural Resources: COMPANY
WELL.          Touchstone 11-32 Tr: WELL
FLD.           Purgatorie River: FIELD
LOC.           782' FNL & 840' FWL--: LOCATION
CNTY.               Las Animas: COUNTY
SRVC.          Patterson Wireline: SERVICE COMPANY
DATE.          Mon Mar 06 09:18:09 2006: LOG DATE
UWI.           05 071 08626 00: UNIQUE WELL ID
STAT.                       CO: STATE
~Curve Information Block
DEPT.FT            0 000 00 00: Depth
CCL.                          : Casing Collar Locator
TT3.usec                      : CBL 3' Travel Time
AMP3.mV                       : CBL 3' Amplitude
GR.GAPI                       : Gamma Ray
~Parameter Information Block
~A  Depth       CCL         TT3         AMP3         GR     
# ...
  1264.0000      0.0000    578.3375      6.7249    131.6999
  1264.2500      0.0000    568.5386      6.7016    130.5228
  1264.5000      0.0000    564.0757      6.6351    130.5988
  1264.7500      0.0000    561.8278      6.5489    131.0505
  1265.0000      0.0000    559.5221      6.4656    131.6994
  1265.2500      0.0000    556.9140      6.4018    132.8545
  1265.5000      0.0000    555.1177      6.3594    134.5026
  1265.7500      0.0000    555.4384      6.3234    136.0005
  1266.0000      0.0000    559.0074      6.2697    136.5408
  1266.2500      0.0000    566.7912      6.1756    135.9763
  1266.5000      0.0000    578.9470      6.0288    134.9940
  1266.7500      0.0000    594.1263      5.8363    134.1596
  1267.0000      0.0000    610.2545      5.6270    133.0171
  1267.2500      0.0000    626.4780      5.4430    130.6323
  1267.5000      0.0000    643.6118      5.3272    126.7326
  1267.7500      0.0000    662.0710      5.3147    121.7140
  1268.0000      0.0000    680.0067      5.4215    115.7448
  1268.2500      0.0000    693.7489      5.6283    108.6084
  1268.5000      0.0000    699.7134      5.8809    100.4786
  1268.7500      0.0000    696.3856      6.1167     92.2730
  1269.0000      0.0000    686.1033      6.2940     85.0622
  1269.2500      2.0000    675.3430      6.3961     79.4393
  1269.5000      0.0000    671.8962      6.4238     75.5280
  1269.7500      0.0000    679.5099      6.4077     73.1495
  1270.0000      0.0000    693.8004      6.4220     71.7891
  1270.2500      0.0000    704.8839      6.5580     70.8388
  1270.5000      0.0000    706.0823      6.8586     70.1460
  1270.7500      0.0000    699.1607      7.2704     70.1328
  1271.0000      0.0000    690.4962      7.6668     71.3040
  1271.2500      0.0000    684.5478      7.9341     73.6744
  1271.5000      0.0000    681.9366      8.0421     76.4793
  1271.7500      0.0000    681.4291      8.0384     78.4190
  1272.0000      0.0000    681.8423      7.9912     78.4492
  1272.2500      0.0000    682.4850      7.9452     76.5046
  1272.5000      0.0000    682.9230      7.9155     73.3999
  1272.7500      0.0000    682.5256      7.8991     70.0846
  1273.0000      0.0000    680.0549      7.8856     67.1191
  1273.2500      0.0000    673.4612      7.8671     64.7041
  1273.5000      0.0000    660.3961      7.8422     62.9229
  1273.7500      0.0000    639.3951      7.8134     61.9311
  1274.0000      0.0000    610.6372      7.7823     61.9631
  1274.2500      0.0000    575.5952      7.7498     63.0095
  1274.5000      0.0000    536.6910      7.7190     64.4988
  1274.7500      0.0000    497.7103      7.6958     65.5717
  1275.0000      0.0000    463.4540      7.6859     65.6565
  1275.2500      0.0000    437.6920      7.6893     64.5310
  1275.5000      0.0000    421.3196      7.6997     62.0616
  1275.7500      0.0000    412.5710      7.7085     58.3668
  1276.0000      0.0000    408.6220      7.7120     54.2251
  1276.2500      0.0000    406.9343      7.7119     50.9033
  1276.5000      0.0000    405.6552      7.7117     49.3592
  1276.7500      0.0000    403.4602      7.7146     49.6200
  1277.0000      0.0000    399.5026      7.7220     50.8647
  1277.2500      0.0000    393.7316      7.7326     52.1350
  1277.5000      0.0000    387.1116      7.7436     53.0607
  1277.7500      0.0000    381.1168      7.7541     53.8436
  1278.0000      0.0000    376.7900      7.7666     54.4660
  1278.2500      0.0000    374.2674      7.7825     54.1992
  1278.5000      0.0000    373.0750      7.8000     52.2390
  1278.7500      0.0000    372.6457      7.8162     48.7580
  1279.0000      0.0000    372.5702      7.8309     44.9367
  1279.2500      0.0000    372.6091      7.8457     41.9301
  1279.5000      0.0000    372.6541      7.8587     40.1391
  1279.7500      0.0000    372.6902      7.8635     39.4501
  1280.0000      0.0000    372.7446      7.8553     39.6750
  1280.2500      0.0000    372.8694      7.8373     40.5214
  1280.5000      0.0000    373.2118      7.8219     41.4080
  1280.7500      0.0000    374.1552      7.8220     41.6513
  1281.0000      0.0000    376.3633      7.8436     41.0186
  1281.2500      0.0000    380.4903      7.8830     40.1235
  1281.5000      0.0000    386.6174      7.9301     40.0545
  1281.7500      0.0000    394.0314      7.9719     41.4885
  1282.0000      0.0000    401.8141      7.9961     44.2079
  1282.2500      0.0000    409.5825      7.9950     47.4097
  1282.5000      0.0000    417.3130      7.9665     50.2992
  1282.7500      0.0000    424.5764      7.9133     52.4746
  1283.0000      0.0000    430.5273      7.8403     54.0452
  1283.2500      0.0000    435.0313      7.7531     55.5808
  1283.5000      0.0000    439.9576      7.6609     57.8860
  1283.7500      0.0000    449.8665      7.5770     61.5503
  1284.0000      0.0000    471.1543      7.5144     66.4498
  1284.2500      0.0000    507.8132      7.4798     71.8697
  1284.5000      0.0000    554.2174      7.4723     77.4160
  1284.7500      0.0000    592.3694      7.4860     83.5581
  1285.0000      0.0000    601.9987      7.5120     90.9597
  1285.2500      0.0000    578.6011      7.5384     99.5707
  1285.5000      0.0000    540.8663      7.5530    108.5790
  1285.7500      0.0000    517.1337      7.5459    116.6714
  1286.0000      0.0000    523.3513      7.5117    122.0712
  1286.2500      0.0000    553.5201      7.4518    123.2624
  1286.5000      0.0000    588.2382      7.3752    120.4882
  1286.7500      0.0000    609.4326      7.2969    116.1716
  1287.0000      0.0000    609.8351      7.2325    113.1521
  1287.2500      0.0000    595.6096      7.1931    112.4225
  1287.5000      0.0000    582.4872      7.1837    112.8962
  1287.7500      0.0000    584.9258      7.2044    113.2632
  1288.0000      0.0000    605.2433      7.2502    113.4189
  1288.2500      0.0000    633.8844      7.3102    114.0322
  1288.5000      0.0000    660.1802      7.3711    115.4640
  1288.7500      0.0000    681.1045      7.4227    117.4986
  1289.0000      0.0000    700.3611      7.4625    119.5827
  1289.2500      0.0000    721.9807      7.4938    120.9690
  1289.5000      0.0000    745.7410      7.5217    121.1536
  1289.7500      0.0000    767.5513      7.5479    120.5648
  1290.0000      0.0000    782.9315      7.5682    120.4108
  1290.2500      0.0000    789.7728      7.5728    121.4706
  1290.5000      0.0000    788.5152      7.5544    123.3097
  1290.7500      0.0000    781.0021      7.5160    124.8534
  1291.0000      0.0000    769.6046      7.4685    125.3852
  1291.2500      0.0000    756.6801      7.4212    124.9309
  1291.5000      0.0000    744.0639      7.3774    123.9993
  1291.7500      0.0000    732.6193      7.3381    123.0098
  1292.0000      0.0000    721.9457      7.3092    122.0013
  1292.2500      0.0000    710.7039      7.3031    121.1722
  1292.5000      0.0000    697.8699      7.3314    121.4594
  1292.7500      0.0000    683.9125      7.3936    123.8148
  1293.0000      0.0000    670.6364      7.4712    127.7031
  1293.2500      0.0000    659.8812      7.5345    130.9889
  1293.5000      0.0000    652.1901      7.5604    131.6898
  1293.7500      0.0000    646.5941      7.5442    129.7659
  1294.0000      0.0000    641.8921      7.4966    127.1709
  1294.2500      0.0000    638.1960      7.4332    126.0616
  1294.5000      0.0000    637.0773      7.3678    126.7691
  1294.7500      0.0000    640.3524      7.3122    127.6979
  1295.0000      0.0000    648.7463      7.2747    127.1828
  1295.2500      0.0000    661.1855      7.2567    124.8808
  1295.5000      0.0000    674.8611      7.2513    121.3566
  1295.7500      0.0000    686.0437      7.2472    117.2893
  1296.0000      0.0000    691.4716      7.2342    113.4858
  1296.2500      0.0000    690.0436      7.2066    110.9044
  1296.5000      0.0000    684.0258      7.1635    110.0933
  1296.7500      0.0000    678.1857      7.1071    110.8261
  1297.0000      0.0000    676.1775      7.0437    112.3104
  1297.2500      0.0000    677.0624      6.9842    113.4914
