~Version Information
VERS.                      2.0: CWLS Log ASCII Standard - VERSION 2.0
WRAP.                       NO: One line per depth step
~Well Information Block
STRT.FT               550.0000: 
STOP.FT              1664.0000: 
STEP.FT                 0.2500: 
NULL.                -999.2500: 
COMP.          Pioneer Natural Resources: COMPANY
WELL.          Stock Canyon 34-33: WELL
FLD.           Purgatorie River: FIELD
LOC.           980' FSL & 2191' FEL: LOCATION
PROV.                 Colorado: PROVINCE
CNTY.               Las Animas: COUNTRY
SRVC.                Patterson: SERVICE COMPANY
DATE.          Mon Dec 05 09:58:03 2005: LOG DATE
UWI.                          : UNIQUE WELL ID
~Curve Information Block
DEPT.FT            0 000 00 00: Depth
SN.Ohm-m                      : IEL Short Normal
SP.mV                         : IEL Spontaneous Potential
DIR.Ohm-m                     : IEL Induction Resistivity
GR.GAPI                       : Gamma Ray
~Parameter Information Block
~A  Depth        SN          SP         DIR          GR     
# ...
   851.5000   2000.0000   2000.0000     19.5744     91.5647
   851.7500   2000.0000   2000.0000     19.5185     90.6639
   852.0000   2000.0000   2000.0000     19.4421     91.2009
   852.2500   2000.0000   2000.0000     19.3711     92.1007
   852.5000   2000.0000   2000.0000     19.3158     93.5412
   852.7500   2000.0000   2000.0000     19.2706     94.5244
   853.0000   2000.0000   2000.0000     19.2186     95.9852
   853.2500   2000.0000   2000.0000     19.1392     96.6954
   853.5000   2000.0000   2000.0000     19.0113     96.9088
   853.7500   2000.0000   2000.0000     18.8178     96.5667
   854.0000   2000.0000   2000.0000     18.5571     96.0928
   854.2500   2000.0000   2000.0000     18.2635     96.1669
   854.5000   2000.0000   2000.0000     18.0168     96.7231
   854.7500   2000.0000   2000.0000     17.9218     97.0646
   855.0000   2000.0000   2000.0000     18.0636     97.1971
   855.2500   2000.0000   2000.0000     18.4647     96.9977
   855.5000   2000.0000   2000.0000     19.0654     96.2055
   855.7500   2000.0000   2000.0000     19.7422     95.2942
   856.0000   2000.0000   2000.0000     20.3607     93.4062
   856.2500   2000.0000   2000.0000     20.8393     92.0068
   856.5000   2000.0000   2000.0000     21.1750     90.5355
   856.7500   2000.0000   2000.0000     21.4196     90.6314
   857.0000   2000.0000   2000.0000     21.6372     92.8713
   857.2500   2000.0000   2000.0000     21.8795     95.1339
   857.5000   2000.0000   2000.0000     22.1901     97.3922
   857.7500   2000.0000   2000.0000     22.6146     97.0530
   858.0000   2000.0000   2000.0000     23.1928     93.8349
   858.2500   2000.0000   2000.0000     23.9340     90.9138
   858.5000   2000.0000   2000.0000     24.7921     87.3597
   858.7500   2000.0000   2000.0000     25.6725     86.0839
   859.0000   2000.0000   2000.0000     26.4758     85.3064
   859.2500   2000.0000   2000.0000     27.1495     84.8223
   859.5000   2000.0000   2000.0000     27.7019     83.4265
   859.7500   2000.0000   2000.0000     28.1707     82.1536
   860.0000   2000.0000   2000.0000     28.5839     80.0499
   860.2500   2000.0000   2000.0000     28.9447     78.5058
   860.5000   2000.0000   2000.0000     29.2370     76.0348
   860.7500   2000.0000   2000.0000     29.4242     74.5154
   861.0000   2000.0000   2000.0000     29.4446     72.7522
   861.2500   2000.0000   2000.0000     29.2286     71.8962
   861.5000   2000.0000   2000.0000     28.7321     70.8170
   861.7500   2000.0000   2000.0000     27.9623     70.0613
   862.0000   2000.0000   2000.0000     26.9736     68.8539
   862.2500   2000.0000   2000.0000     25.8501     68.2793
   862.5000   2000.0000   2000.0000     24.6916     68.5142
   862.7500   2000.0000   2000.0000     23.5944     69.6775
   863.0000   2000.0000   2000.0000     22.6275     72.8230
   863.2500   2000.0000   2000.0000     21.8118     75.6209
   863.5000   2000.0000   2000.0000     21.1205     80.6110
   863.7500   2000.0000   2000.0000     20.5012     84.3734
   864.0000   2000.0000   2000.0000     19.9076     90.2591
   864.2500   2000.0000   2000.0000     19.3236     93.9655
   864.5000   2000.0000   2000.0000     18.7637     98.8102
   864.7500   2000.0000   2000.0000     18.2538    101.5648
   865.0000   2000.0000   2000.0000     17.8113    104.9268
   865.2500   2000.0000   2000.0000     17.4379    106.5400
   865.5000   2000.0000   2000.0000     17.1246    108.2265
   865.7500   2000.0000   2000.0000     16.8604    109.2659
   866.0000   2000.0000   2000.0000     16.6367    111.1801
   866.2500   2000.0000   2000.0000     16.4475    112.6138
   866.5000   2000.0000   2000.0000     16.2869    114.4698
   866.7500   2000.0000   2000.0000     16.1482    115.0970
   867.0000   2000.0000   2000.0000     16.0224    114.4597
   867.2500   2000.0000   2000.0000     15.8987    112.9777
   867.5000   2000.0000   2000.0000     15.7658    110.2725
   867.7500   2000.0000   2000.0000     15.6137    109.0415
   868.0000   2000.0000   2000.0000     15.4356    108.4376
   868.2500   2000.0000   2000.0000     15.2299    108.1232
   868.5000   2000.0000   2000.0000     15.0017    106.2769
   868.7500   2000.0000   2000.0000     14.7603    104.1188
   869.0000   2000.0000   2000.0000     14.5136    101.0736
   869.2500   2000.0000   2000.0000     14.2642    100.2086
   869.5000   2000.0000   2000.0000     14.0147    101.5081
   869.7500   2000.0000   2000.0000     13.7763    103.9787
   870.0000   2000.0000   2000.0000     13.5701    108.9445
   870.2500   2000.0000   2000.0000     13.4168    112.1425
   870.5000   2000.0000   2000.0000     13.3230    115.8447
   870.7500   2000.0000   2000.0000     13.2777    117.7904
   871.0000   2000.0000   2000.0000     13.2596    120.5402
   871.2500   2000.0000   2000.0000     13.2488    122.0769
   871.5000   2000.0000   2000.0000     13.2355    123.2021
   871.7500   2000.0000   2000.0000     13.2194    123.3090
   872.0000   2000.0000   2000.0000     13.2055    123.5780
   872.2500   2000.0000   2000.0000     13.1992    123.9142
   872.5000   2000.0000   2000.0000     13.2041    123.2786
   872.7500   2000.0000   2000.0000     13.2220    121.4978
   873.0000   2000.0000   2000.0000     13.2546    117.8552
   873.2500   2000.0000   2000.0000     13.3035    116.1084
   873.5000   2000.0000   2000.0000     13.3699    115.7891
   873.7500   2000.0000   2000.0000     13.4546    116.7500
   874.0000   2000.0000   2000.0000     13.5593    118.1953
   874.2500   2000.0000   2000.0000     13.6873    118.3642
   874.5000   2000.0000   2000.0000     13.8416    117.5363
   874.7500   2000.0000   2000.0000     14.0216    116.9116
   875.0000   2000.0000   2000.0000     14.2212    116.5823
   875.2500   2000.0000   2000.0000     14.4320    116.6171
   875.5000   2000.0000   2000.0000     14.6481    116.3705
   875.7500   2000.0000   2000.0000     14.8706    115.7721
   876.0000   2000.0000   2000.0000     15.1044    114.4263
   876.2500   2000.0000   2000.0000     15.3504    113.5726
   876.5000   2000.0000   2000.0000     15.5978    112.7834
   876.7500   2000.0000   2000.0000     15.8251    112.5742
   877.0000   2000.0000   2000.0000     16.0094    112.4782
   877.2500   2000.0000   2000.0000     16.1384    112.4123
   877.5000   2000.0000   2000.0000     16.2147    112.1530
   877.7500   2000.0000   2000.0000     16.2509    111.7904
   878.0000   2000.0000   2000.0000     16.2604    110.6230
   878.2500   2000.0000   2000.0000     16.2491    109.1141
   878.5000   2000.0000   2000.0000     16.2138    105.6080
   878.7500   2000.0000   2000.0000     16.1452    102.8094
   879.0000   2000.0000   2000.0000     16.0340     98.7294
   879.2500   2000.0000   2000.0000     15.8752     96.3047
   879.5000   2000.0000   2000.0000     15.6707     93.3968
   879.7500   2000.0000   2000.0000     15.4315     92.4372
   880.0000   2000.0000   2000.0000     15.1780     93.5012
   880.2500   2000.0000   2000.0000     14.9342     95.9321
   880.5000   2000.0000   2000.0000     14.7185    100.6428
   880.7500   2000.0000   2000.0000     14.5325    103.0863
   881.0000   2000.0000   2000.0000     14.3583    104.1898
   881.2500   2000.0000   2000.0000     14.1662    103.5644
   881.5000   2000.0000   2000.0000     13.9289    102.6778
   881.7500   2000.0000   2000.0000     13.6323    103.0962
   882.0000   2000.0000   2000.0000     13.2748    105.1423
   882.2500   2000.0000   2000.0000     12.8620    106.7008
   882.5000   2000.0000   2000.0000     12.4052    108.2502
   882.7500   2000.0000   2000.0000     11.9252    108.5684
   883.0000   2000.0000   2000.0000     11.4504    108.2813
   883.2500   2000.0000   2000.0000     11.0069    108.0250
   883.5000   2000.0000   2000.0000     10.6072    108.4108
   883.7500   2000.0000   2000.0000     10.2491    109.3629
   884.0000   2000.0000   2000.0000      9.9232    111.3016
   884.2500   2000.0000   2000.0000      9.6200    112.4669
   884.5000   2000.0000   2000.0000      9.3327    113.6470
   884.7500   2000.0000   2000.0000      9.0568    114.1236
