~Version Information
VERS.                      2.0: CWLS Log ASCII Standard - VERSION 2.0
WRAP.                       NO: One line per depth step
~Well Information Block
STRT.FT               420.0000: 
STOP.FT              2888.7500: 
STEP.FT                 0.2500: 
NULL.                -999.2500: 
COMP.          Pioneer Natural Resources: COMPANY
WELL.          Touchstone 11-32: WELL
FLD.           Purgatoire River: FIELD
LOC.           853' FNL & 407' FWL--: LOCATION
CNTY.               Las Animas: COUNTY
SRVC.                Patterson: SERVICE COMPANY
DATE.          Thu Feb 23 14:02:36 2006: LOG DATE
UWI.           05 071 08564 00: UNIQUE WELL ID
STAT.                 Colorado: STATE
~Curve Information Block
DEPT.FT            0 000 00 00: Depth
SN.Ohm-m                      : IEL Short Normal
SP.mV                         : IEL Spontaneous Potential
DIR.Ohm-m                     : IEL Induction Resistivity
GR.GAPI                       : Gamma Ray
~Parameter Information Block
~A  Depth        SN          SP         DIR          GR     
# ...
  2363.0000     20.6258      6.2296     19.8895     46.6907
  2363.2500     20.9414      6.1299     20.0484     45.1843
  2363.5000     21.2438      5.9708     20.2899     44.7206
  2363.7500     21.4999      5.7850     20.5911     44.3916
  2364.0000     21.6849      5.6085     20.9137     43.1345
  2364.2500     21.7798      5.4747     21.2095     42.1077
  2364.5000     21.7784      5.4084     21.4323     41.1679
  2364.7500     21.6980      5.4228     21.5540     41.2669
  2365.0000     21.5788      5.5197     21.5759     42.7221
  2365.2500     21.4664      5.6913     21.5306     44.5554
  2365.5000     21.3927      5.9223     21.4671     48.2837
  2365.7500     21.3723      6.1927     21.4295     51.0930
  2366.0000     21.4133      6.4781     21.4389     55.2457
  2366.2500     21.5244      6.7473     21.4886     57.7239
  2366.5000     21.7082      6.9632     21.5551     60.5014
  2366.7500     21.9527      7.0849     21.6173     61.3316
  2367.0000     22.2377      7.0711     21.6734     60.5165
  2367.2500     22.5542      6.8881     21.7435     58.6095
  2367.5000     22.9188      6.5192     21.8585     54.2483
  2367.7500     23.3715      5.9704     22.0471     50.7723
  2368.0000     23.9540      5.2746     22.3284     45.4569
  2368.2500     24.6812      4.4926     22.7113     42.2861
  2368.5000     25.5279      3.7102     23.1952     38.6928
  2368.7500     26.4400      3.0305     23.7692     37.2315
  2369.0000     27.3595      2.5600     24.4130     36.3631
  2369.2500     28.2385      2.3898     25.0989     36.4585
  2369.5000     29.0388      2.5716     25.7948     36.9972
  2369.7500     29.7277      3.0985     26.4665     37.1390
  2370.0000     30.2766      3.8965     27.0800     36.3157
  2370.2500     30.6640      4.8338     27.6067     35.0027
  2370.5000     30.8791      5.7493     28.0246     32.5985
  2370.7500     30.9295      6.4924     28.3128     31.3986
  2371.0000     30.8453      6.9603     28.4507     31.0555
  2371.2500     30.6738      7.1204     28.4284     31.8180
  2371.5000     30.4647      7.0111     28.2622     33.9769
  2371.7500     30.2539      6.7205     27.9942     35.9363
  2372.0000     30.0579      6.3535     27.6763     39.8155
  2372.2500     29.8771      5.9995     27.3499     43.0335
  2372.5000     29.7028      5.7117     27.0363     48.0385
  2372.7500     29.5252      5.5020     26.7377     50.7110
  2373.0000     29.3460      5.3494     26.4474     52.6837
  2373.2500     29.1887      5.2159     26.1633     52.5633
  2373.5000     29.1012      5.0608     25.9012     50.9728
  2373.7500     29.1455      4.8494     25.7006     49.6527
  2374.0000     29.3818      4.5537     25.6185     48.2592
  2374.2500     29.8499      4.1488     25.7162     47.9192
  2374.5000     30.5573      3.6115     26.0439     47.9452
  2374.7500     31.4800      2.9197     26.6304     47.9226
  2375.0000     32.5752      2.0586     27.4751     47.1582
  2375.2500     33.7997      1.0289     28.5451     45.8416
  2375.5000     35.1290     -0.1482     29.7777     42.3723
  2375.7500     36.5735     -1.4316     31.0961     39.1329
  2376.0000     38.1781     -2.7641     32.4377     33.3829
  2376.2500     39.9936     -4.0827     33.7827     29.4670
  2376.5000     42.0268     -5.3281     35.1581     24.7784
  2376.7500     44.1955     -6.4510     36.6037     23.2666
  2377.0000     46.3158     -7.4150     38.1131     24.1031
  2377.2500     48.1282     -8.1964     39.5878     26.4008
  2377.5000     49.3580     -8.7819     40.8427     30.9272
  2377.7500     49.7987     -9.1659     41.6739     33.6539
  2378.0000     49.3944     -9.3486     41.9472     36.2096
  2378.2500     48.2738     -9.3333     41.6430     36.9170
  2378.5000     46.6973     -9.1265     40.8319     37.7050
  2378.7500     44.9317     -8.7374     39.6155     39.1124
  2379.0000     43.1287     -8.1797     38.0838     43.8383
  2379.2500     41.2933     -7.4726     36.3121     48.5829
  2379.5000     39.3512     -6.6411     34.3804     56.1388
  2379.7500     37.2521     -5.7155     32.3838     60.0296
  2380.0000     35.0338     -4.7283     30.4175     62.9618
  2380.2500     32.8140     -3.7094     28.5556     63.3978
  2380.5000     30.7311     -2.6823     26.8442     63.3775
  2380.7500     28.8775     -1.6613     25.3058     63.6165
  2381.0000     27.2644     -0.6514     23.9427     64.8970
  2381.2500     25.8297      0.3499     22.7336     66.5966
  2381.5000     24.4790      1.3488     21.6314     70.7849
  2381.7500     23.1347      2.3509     20.5747     74.6618
  2382.0000     21.7677      3.3577     19.5128     81.6895
  2382.2500     20.3992      4.3648     18.4278     86.8355
  2382.5000     19.0815      5.3615     17.3381     94.3198
  2382.7500     17.8749      6.3312     16.2830     98.3903
  2383.0000     16.8278      7.2531     15.3020    102.3079
  2383.2500     15.9620      8.1048     14.4235    103.8471
  2383.5000     15.2688      8.8642     13.6639    106.2588
  2383.7500     14.7176      9.5114     13.0296    108.5343
  2384.0000     14.2705     10.0301     12.5185    111.9511
  2384.2500     13.8934     10.4083     12.1218    112.8428
  2384.5000     13.5676     10.6395     11.8263    110.2682
  2384.7500     13.2992     10.7239     11.6192    105.8453
  2385.0000     13.1189     10.6700     11.4927     96.4008
  2385.2500     13.0645     10.4964     11.4470     89.3519
  2385.5000     13.1549     10.2328     11.4893     79.6805
  2385.7500     13.3737      9.9183     11.6284     74.8403
  2386.0000     13.6724      9.5976     11.8674     70.8087
  2386.2500     13.9905      9.3148     12.1953     70.0075
  2386.5000     14.2774      9.1062     12.5828     70.2186
  2386.7500     14.5064      8.9949     12.9849     70.4035
  2387.0000     14.6751      8.9868     13.3517     69.9877
  2387.2500     14.7938      9.0707     13.6441     69.4510
  2387.5000     14.8749      9.2211     13.8466     69.1316
  2387.7500     14.9286      9.4027     13.9680     69.3951
  2388.0000     14.9650      9.5763     14.0315     69.6438
  2388.2500     14.9942      9.7069     14.0614     69.1063
  2388.5000     15.0252      9.7698     14.0770     67.2490
  2388.7500     15.0634      9.7572     14.0941     65.7866
  2389.0000     15.1115      9.6800     14.1283     63.7493
  2389.2500     15.1691      9.5654     14.1945     62.3937
  2389.5000     15.2336      9.4501     14.3016     60.0845
  2389.7500     15.3021      9.3698     14.4484     58.4291
  2390.0000     15.3711      9.3510     14.6241     56.2199
  2390.2500     15.4366      9.4050     14.8134     55.1023
  2390.5000     15.4950      9.5285     15.0031     53.7020
  2390.7500     15.5472      9.7086     15.1857     52.6308
  2391.0000     15.6000      9.9287     15.3580     50.6614
  2391.2500     15.6626     10.1736     15.5153     49.3687
  2391.5000     15.7386     10.4310     15.6477     48.0525
  2391.7500     15.8212     10.6905     15.7430     47.7605
  2392.0000     15.8959     10.9422     15.7927     48.1505
  2392.2500     15.9469     11.1755     15.7981     48.7997
  2392.5000     15.9611     11.3802     15.7715     49.8865
  2392.7500     15.9314     11.5487     15.7302     50.3522
  2393.0000     15.8601     11.6765     15.6895     50.3462
  2393.2500     15.7599     11.7627     15.6570     50.0144
  2393.5000     15.6485     11.8071     15.6322     49.7700
  2393.7500     15.5409     11.8090     15.6089     50.2225
  2394.0000     15.4459     11.7666     15.5781     51.9878
  2394.2500     15.3675     11.6791     15.5307     53.5472
  2394.5000     15.3091     11.5494     15.4618     55.6186
  2394.7500     15.2772     11.3849     15.3749     56.5114
  2395.0000     15.2798     11.1965     15.2836     57.0070
  2395.2500     15.3212     10.9947     15.2079     56.8095
  2395.5000     15.4002     10.7844     15.1662     55.7917
  2395.7500     15.5155     10.5614     15.1696     54.7079
  2396.0000     15.6739     10.3134     15.2218     52.7491
  2396.2500     15.8913     10.0241     15.3256     51.4757
