~Version Information
VERS.                      2.0: CWLS Log ASCII Standard - VERSION 2.0
WRAP.                       NO: One line per depth step
~Well Information Block
STRT.FT               480.0000: 
STOP.FT              1946.0000: 
STEP.FT                 0.1000: 
NULL.                -999.2500: 
COMP.          XTO Energy Inc.: COMPANY
WELL.          Golden Eagle 19-15: WELL
FLD.           Purgatoire River: FIELD
LOC.           1121' FSL & 2332' FEL--: LOCATION
CNTY.               Las Animas: COUNTY
SRVC.                Patterson: SERVICE COMPANY
DATE.          Mon Mar 13 10:27:20 2006: LOG DATE
UWI.           05 071 08717 00: UNIQUE WELL ID
STAT.                 Colorado: STATE
~Curve Information Block
DEPT.FT            0 000 00 00: Depth
DCAL.in                       : CDL Caliper
RHOB.g/cc                     : CDL Bulk Density
RHOC.g/cc                     : CDL Density Correction
DPOR.pu                       : CDL Density Porosity
NPOR.pu                       : Neutron Porosity
GR.GAPI                       : Gamma Ray
~Parameter Information Block
~A  Depth       DCAL        RHOB        RHOC        DPOR        NPOR         GR     
   480.0000      8.1134      2.2869     -0.3578     22.0037     49.1466     90.7793
   480.1000      8.1134      2.2896     -0.3640     21.8418     49.5772     90.8150
   480.2000      8.1134      2.2857     -0.4061     22.0817     49.7881     92.2173
   480.3000      8.1180      2.2810     -0.6418     22.3625     49.8084     94.7081
   480.4000      8.1180      2.3121     -0.5878     20.4811     49.6370     95.1951
   480.5000      8.1203      2.3820     -0.4106     16.2412     49.4212     92.4579
   480.6000      8.1203      2.4522     -0.3507     11.9861     49.3732     90.7606
   480.7000      8.1203      2.4974     -0.2848      9.2512     49.2045     93.2760
   480.8000      8.1182      2.5141     -0.2926      8.2344     48.6734     97.1208
   480.9000      8.1182      2.5046     -0.2851      8.8094     48.1765     99.4571
   481.0000      8.1150      2.4648     -0.2695     11.2225     48.0364     99.7467
   481.1000      8.1150      2.3981     -0.2839     15.2670     48.0869     98.1794
   481.2000      8.1150      2.3301     -0.3981     19.3872     48.0560     93.7341
   481.3000      8.1124      2.2854     -0.4540     22.0987     48.0240     88.7605
   481.4000      8.1124      2.2714     -0.4704     22.9439     48.0877     88.5828
   481.5000      8.1117      2.2857     -0.4439     22.0810     48.1076     91.1573
   481.6000      8.1117      2.3135     -0.4161     20.3912     48.0247     93.6741
   481.7000      8.1117      2.3405     -0.4374     18.7601     47.7125     95.8963
   481.8000      8.1133      2.3666     -0.3849     17.1773     47.0438     93.9775
   481.9000      8.1133      2.3944     -0.3026     15.4919     46.4539     86.9956
   482.0000      8.1147      2.4186     -0.1708     14.0218     46.5266     79.1537
   482.1000      8.1147      2.4334     -0.1987     13.1281     46.8730     76.4349
   482.2000      8.1147      2.4412     -0.1680     12.6547     46.7442     79.9774
   482.3000      8.1128      2.4451     -0.1507     12.4188     46.3023     82.1812
   482.4000      8.1128      2.4370     -0.1758     12.9082     45.9906     77.9268
   482.5000      8.1082      2.4043     -0.1668     14.8931     45.7877     72.5200
   482.6000      8.1082      2.3527     -0.2425     18.0196     45.6395     71.9843
   482.7000      8.1082      2.3155     -0.2622     20.2724     45.5924     74.3795
   482.8000      8.1052      2.3190     -0.2815     20.0600     45.7038     74.3046
   482.9000      8.1052      2.3419     -0.1839     18.6724     45.9242     71.8400
   483.0000      8.1055      2.3464     -0.2473     18.3980     46.0929     72.5971
   483.1000      8.1055      2.3404     -0.2364     18.7653     46.0642     78.1972
   483.2000      8.1055      2.3420     -0.2024     18.6672     45.8376     83.5093
   483.3000      8.1075      2.3393     -0.1987     18.8285     45.5268     85.4789
   483.4000      8.1075      2.3288     -0.2404     19.4672     45.4529     84.6640
   483.5000      8.1086      2.3270     -0.2597     19.5777     45.8238     81.5193
   483.6000      8.1086      2.3342     -0.2060     19.1408     46.3040     79.8047
   483.7000      8.1086      2.3393     -0.2392     18.8331     46.5042     80.8669
   483.8000      8.1077      2.3417     -0.1867     18.6850     46.3920     79.6381
   483.9000      8.1077      2.3461     -0.2214     18.4179     46.2676     75.0817
   484.0000      8.1051      2.3616     -0.2268     17.4818     46.3043     72.4712
   484.1000      8.1051      2.3853     -0.1854     16.0396     46.3789     75.5376
   484.2000      8.1051      2.3956     -0.1640     15.4158     46.4233     82.8893
   484.3000      8.1045      2.3887     -0.1963     15.8371     46.3595     88.6818
   484.4000      8.1045      2.3823     -0.2018     16.2244     46.2187     88.3250
   484.5000      8.1075      2.3810     -0.2259     16.3007     46.2043     84.5387
   484.6000      8.1075      2.3791     -0.1880     16.4178     46.2748     83.4848
   484.7000      8.1075      2.3746     -0.2172     16.6880     46.3236     86.3036
   484.8000      8.1109      2.3708     -0.2203     16.9187     46.4165     91.5818
   484.9000      8.1109      2.3712     -0.1808     16.8971     46.5637     99.3698
   485.0000      8.1124      2.3744     -0.1723     16.7006     46.6753    105.9231
   485.1000      8.1124      2.3778     -0.2175     16.4997     46.5422    105.6870
   485.2000      8.1124      2.3775     -0.2006     16.5140     46.1988     99.4689
   485.3000      8.1126      2.3717     -0.2077     16.8642     45.8760     90.5707
   485.4000      8.1126      2.3686     -0.2678     17.0541     45.5833     81.7963
   485.5000      8.1128      2.3723     -0.1869     16.8294     45.2385     77.9510
   485.6000      8.1128      2.3768     -0.2071     16.5597     44.9501     80.6156
   485.7000      8.1128      2.3868     -0.2362     15.9488     44.8292     85.5182
   485.8000      8.1137      2.4057     -0.2655     14.8048     44.7128     90.3368
   485.9000      8.1137      2.4110     -0.2008     14.4861     44.4162     95.0394
   486.0000      8.1163      2.3821     -0.2271     16.2365     44.1357     96.0307
   486.1000      8.1163      2.3327     -0.2640     19.2273     44.2591     92.5537
   486.2000      8.1163      2.2987     -0.3495     21.2910     44.7041     87.0092
   486.3000      8.1193      2.2990     -0.2662     21.2730     44.9215     80.3965
   486.4000      8.1193      2.3166     -0.2632     20.2060     44.9059     74.5181
   486.5000      8.1191      2.3278     -0.2601     19.5289     45.0560     69.4350
   486.6000      8.1191      2.3288     -0.2252     19.4691     45.0498     64.8367
   486.7000      8.1191      2.3282     -0.2461     19.5023     44.5989     62.5446
   486.8000      8.1182      2.3287     -0.2312     19.4723     44.2610     62.8288
   486.9000      8.1182      2.3285     -0.2301     19.4873     44.3673     63.3053
   487.0000      8.1197      2.3303     -0.2135     19.3734     44.4021     63.5515
   487.1000      8.1197      2.3335     -0.1976     19.1813     44.0448     66.7551
   487.2000      8.1197      2.3316     -0.2059     19.2950     43.7688     73.2767
   487.3000      8.1199      2.3239     -0.1906     19.7656     43.8639     77.8040
   487.4000      8.1199      2.3152     -0.2127     20.2937     44.2360     76.7600
   487.5000      8.1177      2.3009     -0.1561     21.1569     44.7834     73.0805
   487.6000      8.1177      2.2762     -0.2042     22.6562     45.2007     70.3912
   487.7000      8.1177      2.2547     -0.2098     23.9595     45.2657     68.0865
   487.8000      8.1175      2.2454     -0.2379     24.5222     45.0647     66.4943
   487.9000      8.1175      2.2474     -0.2313     24.3978     44.8856     67.2009
   488.0000      8.1189      2.2579     -0.2226     23.7626     45.1095     69.7532
   488.1000      8.1189      2.2666     -0.1989     23.2390     45.4385     72.7718
   488.2000      8.1189      2.2667     -0.2514     23.2315     45.2289     74.9651
   488.3000      8.1174      2.2607     -0.2030     23.5943     44.8132     75.4877
   488.4000      8.1174      2.2498     -0.2433     24.2519     44.8144     74.5839
   488.5000      8.1137      2.2420     -0.2503     24.7258     45.1644     74.0298
   488.6000      8.1137      2.2460     -0.2245     24.4854     45.4942     73.9863
   488.7000      8.1137      2.2534     -0.1954     24.0336     45.5443     73.7095
   488.8000      8.1120      2.2524     -0.2511     24.0972     45.3321     74.4427
   488.9000      8.1120      2.2412     -0.2083     24.7740     45.1854     77.1545
   489.0000      8.1145      2.2311     -0.2631     25.3897     45.1108     79.4429
   489.1000      8.1145      2.2385     -0.2362     24.9408     44.8363     78.8600
   489.2000      8.1145      2.2526     -0.1701     24.0828     44.4966     75.9952
   489.3000      8.1181      2.2513     -0.2283     24.1620     44.3306     73.1059
   489.4000      8.1181      2.2454     -0.2540     24.5204     44.4559     71.6475
   489.5000      8.1189      2.2460     -0.1728     24.4859     44.6906     71.3837
