~Version Information
 VERS.                                  2.0 : CWLS LAS VERSION
 WRAP.                                   NO : WRAPING MODE
 SWARE .                 MController 2.5.0J : SOFTWARE VERSION
~Well Information
 WELL.                       Montoya 12-44R : WELL
 COMP.                Petrogulf Corporation : COMPANY
 FLD.                      Purgatoire River : FIELD
 LOC.               SE/SE Sec 12 T33S R68W  : LOCATION
 DATE.                             10/01/05 : DATE(S) LOGGED
 SRVC.       BLANCO Geological Services LLC : SERVICE COMPANY
 STAT.                                  CO  : STATE
 CNTY.                           Las Animas : COUNTY
 CTRY.                                  USA : COUNTRY
 API.                       05 071 08538 00 : API NUMBER
 STRT.FT                              22.00 : START DEPTH
 STOP.FT                            2100.00 : STOP DEPTH
 STEP.FT                               1.00 : DEPTH INCREMENT
 NULL.                                -9999 : NULL VALUE
~Curve information
 DEPTH.FT                                   :
 ROP.MIN/FT                                 :
 GAS.UNITS                                  :
~ASCII Log data
# ...
      1622.0         0.60         15.3 
      1623.0         0.75         14.8 
      1624.0         0.80         13.2 
      1625.0         0.97         16.2 
      1626.0         0.88         18.9 
      1627.0         0.70         17.5 
      1628.0         0.73         13.9 
      1629.0         0.47         13.7 
      1630.0         2.82         59.8 
      1631.0         0.63        218.4 
      1632.0         0.62        232.4 
      1633.0         0.63        115.2 
      1634.0         0.73         26.7 
      1635.0         0.70         21.7 
      1636.0         0.53         27.0 
      1637.0         0.37         21.7 
      1638.0         0.28         16.6 
      1639.0         0.30         15.1 
      1640.0         0.50         17.8 
      1641.0         0.67         23.1 
      1642.0         0.73         23.2 
      1643.0         0.80         20.1 
      1644.0         0.85         27.8 
      1645.0         0.50         28.0 
      1646.0         0.40         26.6 
      1647.0         0.40         24.0 
      1648.0         0.57         20.7 
      1649.0         0.95         14.2 
      1650.0         0.87         15.3 
      1651.0         0.57         17.4 
      1652.0         0.50         18.9 
      1653.0         0.40         19.1 
      1654.0         0.40         19.0 
      1655.0         0.45         18.2 
      1656.0         0.43         16.6 
      1657.0         0.43         15.4 
      1658.0         0.33         13.4 
      1659.0         0.43         13.1 
      1660.0         2.55         75.7 
      1661.0         0.50        145.5 
      1662.0         0.37        198.8 
      1663.0         0.47        166.8 
      1664.0         0.57         54.3 
      1665.0         0.52         17.8 
      1666.0         0.73         28.9 
      1667.0         0.53         27.2 
      1668.0         0.80         24.4 
      1669.0         0.60         17.3 
      1670.0         0.52         17.8 
      1671.0         0.73         20.3 
      1672.0         0.77         15.9 
      1673.0         0.67         12.5 
      1674.0         0.33         13.8 
      1675.0         0.33         14.9 
      1676.0         0.38         15.4 
      1677.0         0.37         15.5 
      1678.0         0.57         15.3 
      1679.0         0.40         13.9 
      1680.0         0.33         13.9 
      1681.0         0.33         13.9 
      1682.0         0.43         14.3 
      1683.0         0.50         14.7 
      1684.0         0.45         15.2 
      1685.0         0.40         15.9 
      1686.0         0.53         17.7 
      1687.0         0.73         18.6 
      1688.0         0.80         18.0 
      1689.0         0.75         17.1 
      1690.0         2.77        164.9 
      1691.0         0.62        202.6 
      1692.0         0.47         62.0 
      1693.0         0.53         15.8 
      1694.0         0.47         26.0 
      1695.0         0.37         29.9 
      1696.0         0.43         30.7 
      1697.0         0.43         29.1 
      1698.0         0.42         22.8 
      1699.0         0.33         17.5 
      1700.0         0.33         15.3 
      1701.0         0.37         15.7 
      1702.0         0.40         16.0 
      1703.0         0.40         16.5 
      1704.0         0.40         16.4 
      1705.0         0.43         17.6 
      1706.0         0.45         19.4 
      1707.0         0.40         19.8 
      1708.0         0.30         19.3 
      1709.0         0.37         18.3 
      1710.0         0.37         16.9 
      1711.0         0.37         14.8 
      1712.0         0.30         14.6 
      1713.0         0.30         14.5 
      1714.0         0.33         14.6 
      1715.0         0.35         14.8 
      1716.0         0.40         15.6 
      1717.0         0.37         15.8 
      1718.0         0.43         16.0 
      1719.0         0.43         18.1 
      1720.0         4.35        190.3 
      1721.0         0.52         20.4 
      1722.0         0.43         19.9 
      1723.0         0.73         29.2 
      1724.0         0.63         29.2 
      1725.0         0.83         26.0 
      1726.0         1.15         32.8 
      1727.0         0.83         32.4 
      1728.0         0.57         25.3 
      1729.0         0.77         22.2 
      1730.0         0.58         27.7 
      1731.0         0.67         23.7 
      1732.0         0.60         20.8 
      1733.0         0.73         35.5 
      1734.0         0.73         38.5 
      1735.0         0.75         37.6 
      1736.0         0.63         27.3 
      1737.0         0.63         22.5 
      1738.0         0.63         27.8 
      1739.0         0.63         28.7 
      1740.0         0.72         26.7 
      1741.0         0.60         27.7 
      1742.0         0.73         28.2 
      1743.0         0.67         30.8 
      1744.0         0.70         30.7 
      1745.0         0.95         29.0 
      1746.0         0.70         31.9 
      1747.0         0.80         31.7 
      1748.0         1.00         26.0 
      1749.0         0.72         26.3 
      1750.0         6.33        196.6 
      1751.0         1.03         19.3 
      1752.0         1.10         16.9 
      1753.0         0.70         20.5 
      1754.0         0.65         21.6 
      1755.0         0.90         23.4 
      1756.0         0.43         22.9 
      1757.0         0.43         14.9 
      1758.0         0.47         14.4 
      1759.0         0.45         23.1 
      1760.0         0.60         31.6 
      1761.0         0.43         39.9 
      1762.0         0.47         35.6 
      1763.0         0.75         18.6 
      1764.0         0.67         24.1 
      1765.0         0.40         25.1 
      1766.0         0.47         24.5 
      1767.0         0.93         20.5 
      1768.0         1.22         18.1 
      1769.0         0.33         17.1 
      1770.0         0.30         16.4 
      1771.0         0.37         16.5 
      1772.0         0.30         17.0 
      1773.0         0.23         17.6 
      1774.0         0.23         18.0 
      1775.0         0.37         18.2 
      1776.0         0.47         18.0 
      1777.0         0.48         15.4 
      1778.0         0.77         18.8 
      1779.0         0.40         27.5 
      1780.0         3.82        201.3 
      1781.0         0.63         26.9 
      1782.0         0.85         36.6 
      1783.0         0.80         33.2 
      1784.0         0.63         22.6 
      1785.0         0.70         28.2 
      1786.0         0.77         21.0 
      1787.0         0.25         21.4 
      1788.0         0.43         29.1 
      1789.0         0.40         29.4 
      1790.0         0.43         26.7 
      1791.0         0.53         22.1 
      1792.0         0.50         18.1 
      1793.0         0.47         17.5 
      1794.0         0.38         19.5 
      1795.0         0.60         22.8 
      1796.0         0.77         23.3 
      1797.0         0.80         22.4 
      1798.0         0.83         19.3 
      1799.0         0.65         19.7 
      1800.0         0.67         20.6 
      1801.0         0.90         19.1 
      1802.0         0.83         19.5 
      1803.0         0.78         19.6 
      1804.0         0.93         18.4 
      1805.0         0.63         19.5 
      1806.0         1.23         21.1 
      1807.0         1.28         27.5 
      1808.0         0.87         31.5 
      1809.0         0.87         30.1 
      1810.0         3.02        183.6 
      1811.0         0.57         13.7 
      1812.0         0.55         18.5 
      1813.0         0.53         24.5 
      1814.0         0.53         25.2 
      1815.0         0.40         24.1 
      1816.0         0.43         20.4 
      1817.0         0.43         17.3 
      1818.0         0.40         13.8 
      1819.0         0.35         13.6 
      1820.0         0.40         14.2 
      1821.0         0.50         14.9 
