~Version Information
VERS.                      2.0: CWLS Log ASCII Standard - VERSION 2.0
WRAP.                       NO: One line per depth step
~Well Information Block
STRT.FT                 0.0000: 
STOP.FT              1538.0000: 
STEP.FT                 0.2500: 
NULL.                -999.2500: 
COMP.          Pioneer Natural Resources: COMPANY
WELL.           Butch 33-10 TR: WELL
FLD.           Purgatorie River: FIELD
LOC.           2309' FSL & 1337' FEL: LOCATION
PROV.                 Colorado: PROVINCE
CNTY.               Las Animas: COUNTRY
SRVC.                Patterson: SERVICE COMPANY
DATE.          Thu Jan 19 12:40:27 2006: LOG DATE
UWI.                          : UNIQUE WELL ID
~Curve Information Block
DEPT.FT            0 000 00 00: Depth
CCL.                          : Casing Collar Locator
TT3.usec                      : CBL 3' Travel Time
AMP3.mV                       : CBL 3' Amplitude
GR.GAPI                       : Gamma Ray
~Parameter Information Block
~A  Depth       CCL         TT3         AMP3         GR     
# ...
  1105.5000      0.0000    645.7641     12.0520     96.4433
  1105.7500      0.0000    607.7487     12.8889    109.5839
  1106.0000      0.0000    564.6271     14.0556    120.5993
  1106.2500      0.0000    513.6370     15.6726    128.2656
  1106.5000      0.0000    445.3419     17.7413    132.1100
  1106.7500      0.0000    375.3682     19.9280    132.6295
  1107.0000      0.0000    329.3141     21.6318    131.1674
  1107.2500      0.0000    310.2007     22.4190    129.2832
  1107.5000      0.0000    305.3196     22.3404    128.0871
  1107.7500      0.0000    305.1309     21.7955    128.1756
  1108.0000      0.0000    308.3436     21.1418    129.8587
  1108.2500      0.0000    323.1914     20.4934    132.8440
  1108.5000      0.0000    368.1249     19.8183    135.8112
  1108.7500      0.0000    455.6535     19.0978    137.1364
  1109.0000      0.0000    565.1589     18.3934    136.3549
  1109.2500      0.0000    653.7915     17.7941    134.4875
  1109.5000      0.0000    701.8137     17.3255    132.8068
  1109.7500      0.0000    721.3306     16.9583    131.6899
  1110.0000      0.0000    727.8033     16.6731    130.7232
  1110.2500      0.0000    727.6379     16.4654    129.4659
  1110.5000      0.0000    724.3204     16.3218    127.8508
  1110.7500      0.0000    720.4379     16.2327    126.1873
  1111.0000      0.0000    716.2044     16.2038    125.2483
  1111.2500      0.0000    711.5914     16.2153    126.2320
  1111.5000      0.0000    707.7231     16.1953    130.0531
  1111.7500      0.0000    701.3671     16.0930    136.3656
  1112.0000      0.0000    681.0275     15.9429    143.3177
  1112.2500      0.0000    640.6420     15.8096    148.4116
  1112.5000      0.0000    598.2027     15.7143    149.7805
  1112.7500      0.0000    581.0553     15.6475    146.9468
  1113.0000      0.0000    593.2986     15.5995    140.7589
  1113.2500      0.0000    621.9280     15.5586    132.8219
  1113.5000      0.0000    656.9023     15.5352    124.8657
  1113.7500      0.0000    686.5806     15.5783    118.4703
  1114.0000      0.0000    701.8113     15.7039    115.0541
  1114.2500      0.0000    706.4640     15.8533    115.5137
  1114.5000      0.0000    708.0543     15.9781    119.3820
  1114.7500      0.0000    706.7777     16.0892    124.4047
  1115.0000      0.0000    699.8073     16.1950    127.4299
  1115.2500      0.0000    688.8422     16.2576    126.2578
  1115.5000      0.0000    678.4653     16.2365    120.9223
  1115.7500      0.0000    670.4409     16.1432    113.1859
  1116.0000      0.0000    664.9327     16.0205    104.8150
  1116.2500      0.0000    664.0910     15.8941     96.4911
  1116.5000      0.0000    665.4755     15.7898     88.2112
  1116.7500      0.0000    656.3487     15.7600     80.1587
  1117.0000      0.0000    631.6497     15.8398     72.9101
  1117.2500      0.0000    608.2056     15.9990     67.1683
  1117.5000      0.0000    591.5807     16.1706     63.5566
  1117.7500      0.0000    555.8165     16.3148     62.3427
  1118.0000      0.0000    493.2808     16.4331     62.9765
  1118.2500      0.0000    439.9949     16.5302     64.0275
  1118.5000      0.0000    430.5431     16.5982     63.9643
  1118.7500      0.0000    463.7617     16.6483     62.2030
  1119.0000      0.0000    507.9671     16.7230     59.3845
  1119.2500      0.0000    531.2896     16.8398     56.6321
  1119.5000      0.0000    532.9330     16.9673     54.6319
  1119.7500      0.0000    529.8078     17.0851     53.4295
  1120.0000      0.0000    524.0043     17.1992     52.7751
  1120.2500      0.0000    503.4200     17.3112     52.4330
  1120.5000      0.0000    470.0720     17.3665     52.2943
  1120.7500      0.0000    458.8664     17.0369     52.3803
  1121.0000      0.0000    501.9203     15.7935     52.6333
  1121.2500      0.0000    575.7510     13.7501     52.6267
  1121.5000      0.0000    622.4991     11.9410     51.7392
  1121.7500      0.0000    626.3305     11.1594     49.8482
  1122.0000      2.0000    628.7785     11.1723     47.7537
  1122.2500      0.0000    662.2063     11.3377     46.7192
  1122.5000     -2.0000    710.2638     11.3491     47.6285
  1122.7500      2.0000    743.1926     11.1909     50.6028
  1123.0000      0.0000    753.4214     10.8925     55.1981
  1123.2500      0.0000    750.8447     10.6576     60.6597
  1123.5000      0.0000    743.0781     10.8162     65.9479
  1123.7500      0.0000    724.9805     11.3481     69.8537
  1124.0000      0.0000    685.7236     11.9871     71.4457
  1124.2500      0.0000    625.4454     12.7537     70.4714
  1124.5000      0.0000    561.5834     13.7400     67.2400
  1124.7500      0.0000    512.9124     14.7588     62.3131
  1125.0000      0.0000    491.6339     15.5314     56.5834
  1125.2500      0.0000    509.8812     15.8967     51.4729
  1125.5000      0.0000    561.5822     15.8942     48.4627
  1125.7500      0.0000    615.8492     15.7071     48.0499
  1126.0000      0.0000    649.8533     15.4694     49.2915
  1126.2500      0.0000    664.4760     15.2153     50.7030
  1126.5000      0.0000    669.2465     14.9738     51.7294
  1126.7500      0.0000    670.5637     14.7829     53.0600
  1127.0000      0.0000    670.9590     14.6490     55.4166
  1127.2500      0.0000    671.1269     14.5742     58.3948
  1127.5000      0.0000    671.1957     14.5813     60.7624
  1127.7500      0.0000    671.2473     14.6658     61.5315
  1128.0000      0.0000    671.5989     14.7631     60.3485
  1128.2500      0.0000    673.2020     14.8118     57.3575
  1128.5000      0.0000    677.8817     14.8329     53.4075
  1128.7500      0.0000    686.8316     14.8868     50.0237
  1129.0000      0.0000    697.9119     14.9819     48.3469
  1129.2500      0.0000    706.6922     15.0682     48.1331
  1129.5000      0.0000    710.8709     15.0994     48.2062
  1129.7500      0.0000    710.8623     15.0792     47.6809
  1130.0000      0.0000    706.9294     15.0513     46.4566
  1130.2500      0.0000    699.5978     15.0500     44.8697
  1130.5000      0.0000    692.6559     15.0685     43.3794
  1130.7500      0.0000    690.2787     15.0660     42.5946
  1131.0000      0.0000    689.6974     15.0025     43.2761
  1131.2500      0.0000    684.3457     14.8885     45.8712
  1131.5000      0.0000    675.3647     14.7910     49.7978
  1131.7500      0.0000    669.3502     14.7645     53.4448
  1132.0000      0.0000    665.8296     14.7936     55.3482
  1132.2500      0.0000    660.1380     14.8373     55.3724
  1132.5000      0.0000    654.5732     14.9052     54.4541
  1132.7500      0.0000    655.3630     15.0487     53.3892
  1133.0000      0.0000    662.8546     15.2900     52.3822
  1133.2500      0.0000    669.7690     15.5753     51.7146
  1133.5000      0.0000    669.8533     15.8039     52.3558
  1133.7500      0.0000    666.3013     15.9108     55.8054
  1134.0000      0.0000    667.0585     15.8961     63.4616
  1134.2500      0.0000    675.0250     15.7917     75.8024
  1134.5000      0.0000    685.0128     15.6487     91.6835
  1134.7500      0.0000    688.4011     15.5178    108.5161
  1135.0000      0.0000    680.2386     15.4327    123.5803
  1135.2500      0.0000    657.0707     15.4404    135.3512
  1135.5000      0.0000    614.5433     15.5810    143.6714
  1135.7500      0.0000    560.1221     15.8066    149.0942
  1136.0000      0.0000    514.6956     15.9833    152.2695
  1136.2500      0.0000    490.2974     16.0171    153.5606
  1136.5000      0.0000    481.4268     15.9451    152.9449
  1136.7500      0.0000    477.8485     15.8579    150.4942
  1137.0000      0.0000    473.0245     15.7812    147.0265
  1137.2500      0.0000    464.4714     15.6967    143.9593
  1137.5000      0.0000    454.0186     15.6216    142.4236
  1137.7500      0.0000    446.1373     15.5999    142.7665
  1138.0000      0.0000    443.6964     15.6373    144.8139
  1138.2500      0.0000    446.4908     15.7011    148.0285
  1138.5000      0.0000    451.8117     15.7851    151.2616
  1138.7500      0.0000    453.8766     15.9315    152.8258
