~Version Information
VERS.                      2.0: CWLS Log ASCII Standard - VERSION 2.0
WRAP.                       NO: One line per depth step
~Well Information Block
STRT.FT                -5.0000: 
STOP.FT              1761.2500: 
STEP.FT                 0.2500: 
NULL.                -999.2500: 
COMP.          Pioneer Natural Resources: COMPANY
WELL.          Manville 42-14 Tr: WELL
FLD.           Purgatoire River: FIELD
LOC.           2018'FNL & 562' FEL: LOCATION
STAT.                 Colorado: State
CNTY.               Las Animas: COUNTY
CTRY. USA : Country
SECT. 14 : Section
TOWN. 32S : Township
RANG. 66W : Range
SRVC.                Patterson: SERVICE COMPANY
DATE.          Fri Sep 23 10:37:02 2005: LOG DATE
API. 05-071-08522             : UNIQUE WELL ID
~Curve Information Block
DEPT.FT            0 000 00 00: Depth
CCL.                          : Casing Collar Locator
TT3.usec                      : CBL 3' Travel Time
AMP3.mV                       : CBL 3' Amplitude
AMP5.mV                       : CBL 5' Amplitude
GR.GAPI                       : Gamma Ray
~Parameter Information Block
~A  Depth       CCL         TT3         AMP3        AMP5         GR     
# ...
   807.0000      0.0000    304.1765     16.6965      9.6140    102.5088
   807.2500      0.0000    304.5049     16.3875      9.2658    103.3527
   807.5000      0.0000    304.8648     16.0462      9.0917    101.2503
   807.7500      0.0000    305.1948     15.7219      9.6140     96.6120
   808.0000      0.0000    305.4601     15.4528      9.0917     91.2981
   808.2500      0.0000    305.6717     15.2519      8.6565     87.2051
   808.5000      0.0000    305.8564     15.1160      9.0047     84.7145
   808.7500      0.0000    306.0150     15.0409      8.8306     82.8505
   809.0000      0.0000    306.1189     15.0226      8.9176     81.0105
   809.2500      0.0000    306.1494     15.0504      8.6565     79.9544
   809.5000      0.0000    306.1277     15.1084      8.7435     80.6399
   809.7500      0.0000    306.0944     15.1884      9.0047     82.3787
   810.0000      0.0000    306.0599     15.2985      9.0917     82.8956
   810.2500      0.0000    305.9858     15.4598      9.1788     80.5181
   810.5000      0.0000    305.8232     15.6884      9.9622     75.8684
   810.7500      0.0000    305.5740     15.9739      9.6140     71.0232
   811.0000      0.0000    305.3093     16.2697      9.1788     67.4401
   811.2500      0.0000    305.1219     16.5109      9.1788     65.2719
   811.5000      0.0000    305.0566     16.6534      9.7881     64.3240
   811.7500      0.0000    305.0857     16.7007      9.5270     64.7433
   812.0000      0.0000    305.1479     16.6961      9.7881     66.4463
   812.2500      0.0000    305.2010     16.6875     10.0492     68.3769
   812.5000      0.0000    305.2384     16.6962     10.4845     68.9535
   812.7500      0.0000    305.2688     16.7130      9.9622     67.3698
   813.0000      0.0000    305.2938     16.7177      9.8751     64.2077
   813.2500      0.0000    305.3022     16.7005     10.2233     60.8330
   813.5000      0.0000    305.2840     16.6675     10.3104     58.5469
   813.7500      0.0000    305.2453     16.6300     10.0492     58.2623
   814.0000      0.0000    305.2123     16.5921     10.0492     60.3349
   814.2500      0.0000    305.2101     16.5511     10.3974     64.1265
   814.5000      0.0000    305.2346     16.5145      9.8751     67.8954
   814.7500      0.0000    305.2459     16.5102     10.1363     69.7846
   815.0000      0.0000    305.1940     16.5709     10.5715     69.1947
   815.2500      0.0000    305.0574     16.7010     10.1363     66.9168
   815.5000      0.0000    304.8600     16.8636     10.1363     63.8911
   815.7500      0.0000    304.6552     17.0075     10.1363     60.3346
   816.0000      0.0000    304.4945     17.1019     10.2233     56.3062
   816.2500      0.0000    304.4113     17.1394     10.5715     52.6770
   816.5000      0.0000    304.4255     17.1154     10.5715     51.0505
   816.7500      0.0000    304.5433     17.0255      9.7881     52.8020
   817.0000      0.0000    304.7332     16.8966     10.9197     58.3093
   817.2500      0.0000    304.9071     16.8044     10.4845     66.6388
   817.5000      0.0000    304.9652     16.8290     10.7456     75.4414
   817.7500      0.0000    304.8859     16.9752     10.8327     81.6324
   818.0000      0.0000    304.7604     17.1513     10.7456     83.3118
   818.2500      0.0000    304.7144     17.2436     10.4845     81.3367
   818.5000      0.0000    304.7975     17.2103     10.4845     78.4642
   818.7500      0.0000    304.9533     17.1032     11.2679     76.8408
   819.0000      0.0000    305.0820     17.0129     11.0938     76.7394
   819.2500      0.0000    305.1215     16.9991     10.5715     77.5623
   819.5000      0.0000    305.0814     17.0577     11.0938     79.1321
   819.7500      0.0000    305.0429     17.1410     10.3974     81.5369
   820.0000      0.0000    305.1763     17.2036     10.2233     84.3345
   820.2500      0.0000    306.1275     17.2253      9.6140     86.6918
   820.5000      0.0000    310.0907     17.1891      9.4399     88.1896
   820.7500      0.0000    322.4595     17.0497      9.0917     89.0086
   821.0000      0.0000    352.1414     16.7492      9.0047     89.4502
   821.2500      0.0000    407.3184     16.2799      9.0047     89.7437
   821.5000      0.0000    486.8146     15.7207      9.0917     90.2642
   821.7500      0.0000    574.7170     15.1948      8.8306     91.5445
   822.0000      0.0000    645.8925     14.7907      9.1788     93.9244
   822.2500      0.0000    678.8583     14.5226      8.6565     97.2879
   822.5000      0.0000    665.9742     14.3513      7.1767    101.1445
   822.7500      0.0000    617.8066     14.2086     10.0492    104.8815
   823.0000      0.0000    562.0129     13.9862      9.6140    107.8290
   823.2500      0.0000    532.2966     13.5261      3.4337    109.0924
   823.5000      0.0000    548.3334     12.7083      5.5228    107.7817
   823.7500      0.0000    602.5124     11.6096      5.9580    104.0303
   824.0000      0.0000    667.6431     10.5456      5.7839     99.6166
   824.2500      0.0000    717.9807      9.8769      6.0451     96.7471
   824.5000      0.0000    743.2826      9.7459      5.7839     96.0862
   824.7500     -2.0000    747.3582     10.0137      6.7415     96.4974
   825.0000     -2.0000    738.1823     10.4225      6.7415     96.7458
   825.2500      2.0000    720.1958     10.7821      6.3062     96.9648
   825.5000      0.0000    693.1834     11.0372      6.3933     98.2073
   825.7500      0.0000    655.1575     11.2717      6.0451    100.6216
   826.0000      0.0000    604.5891     11.7089      6.3062    102.5653
   826.2500      0.0000    541.8968     12.6216      6.6544    102.2423
   826.5000      0.0000    472.3379     14.0865      6.4803     99.9940
   826.7500      0.0000    406.9805     15.7915      6.0451     98.0178
   827.0000      0.0000    357.1138     17.1873      6.3062     97.8402
   827.2500      0.0000    326.8861     17.8842      3.6078     98.9321
   827.5000      0.0000    312.4739     17.8795      8.3083     99.7609
   827.7500      0.0000    307.2487     17.4374     18.1446     99.3774
   828.0000      0.0000    306.6399     16.8413     10.2233     97.7439
   828.2500      0.0000    310.0182     16.2598     10.5715     95.1703
   828.5000      0.0000    320.8956     15.7558      9.9622     92.0704
   828.7500      0.0000    345.7668     15.3458      9.5270     89.0753
   829.0000      0.0000    389.3223     15.0339      9.5270     86.7775
   829.2500      0.0000    447.6706     14.8140      8.8306     85.2019
   829.5000      0.0000    507.9502     14.6650      8.1342     83.8302
   829.7500      0.0000    558.7662     14.5535      7.9601     82.2662
   830.0000      0.0000    599.7159     14.4455      7.6990     80.7932
   830.2500      0.0000    636.7964     14.3254      7.5249     80.2442
   830.5000      0.0000    671.3679     14.2038      7.0896     81.3620
   830.7500      0.0000    698.8143     14.0961      7.0026     84.1944
   831.0000      0.0000    715.7410     13.9914      7.0896     87.8903
   831.2500      0.0000    723.6787     13.8555      7.0896     91.0299
   831.5000      0.0000    726.5293     13.6661      7.0026     92.3822
   831.7500      0.0000    727.3547     13.4370      6.7415     91.5303
   832.0000      0.0000    727.6146     13.2088      7.4378     88.7782
   832.2500      0.0000    727.7661     13.0232      7.3508     84.6373
   832.5000      0.0000    727.8540     12.9035      7.2637     79.6942
   832.7500      0.0000    727.7891     12.8505      7.1767     74.7715
   833.0000      0.0000    727.2294     12.8500      6.6544     70.6656
   833.2500      0.0000    725.1146     12.8807      6.6544     67.7339
   833.5000      0.0000    718.9905     12.9162      6.8285     65.9480
   833.7500      0.0000    705.2977     12.9307      6.5674     65.1143
   834.0000      0.0000    682.3871     12.9145      6.5674     64.9334
   834.2500      0.0000    655.2654     12.8875      6.6544     65.1707
   834.5000      0.0000    636.0477     12.8915      6.4803     65.9052
   834.7500      0.0000    635.7272     12.9604      6.7415     67.3392
