~Version Information
VERS.                      2.0: CWLS Log ASCII Standard - VERSION 2.0
WRAP.                       NO: One line per depth step
~Well Information Block
STRT.FT               520.0000: 
STOP.FT              2555.2500: 
STEP.FT                 0.2500: 
NULL.                -999.2500: 
COMP.          Pioneer Natural Resources: COMPANY
WELL.          Horsefeathers 24-34: WELL
FLD.           Purgatoire River: FIELD
LOC.           183' FSL & 1570' FWL--: LOCATION
CNTY.               Las Animas: COUNTY
SRVC.                Patterson: SERVICE COMPANY
DATE.          Sun Feb 05 17:35:59 2006: LOG DATE
UWI.           05 071 08675 00: UNIQUE WELL ID
STAT.                 Colorado: STATE
~Curve Information Block
DEPT.FT            0 000 00 00: Depth
SN.Ohm-m                      : IEL Short Normal
SP.mV                         : IEL Spontaneous Potential
DIR.Ohm-m                     : IEL Induction Resistivity
GR.GAPI                       : Gamma Ray
~Parameter Information Block
NPORSHIFT.              0.0000: NPORSHIFT
~A  Depth        SN          SP         DIR          GR     
# ...
  1458.0000   2000.0000   1975.0000     26.8482     69.0992
  1458.2500   2000.0000   1975.0000     27.3604     65.9739
  1458.5000   2000.0000   1975.0000     28.0035     60.3005
  1458.7500   2000.0000   1975.0000     28.7438     56.5331
  1459.0000   2000.0000   1975.0000     29.5338     51.8314
  1459.2500   2000.0000   1975.0000     30.3168     49.6891
  1459.5000   2000.0000   1975.0000     31.0336     48.3168
  1459.7500   2000.0000   1975.0000     31.6339     48.6035
  1460.0000   2000.0000   1975.0000     32.0833     50.1636
  1460.2500   2000.0000   1975.0000     32.3632     51.2686
  1460.5000   2000.0000   1975.0000     32.4657     52.0621
  1460.7500   2000.0000   1975.0000     32.3882     52.0076
  1461.0000   2000.0000   1975.0000     32.1341     51.9606
  1461.2500   2000.0000   1975.0000     31.7145     52.4902
  1461.5000   2000.0000   1975.0000     31.1512     54.0375
  1461.7500   2000.0000   1975.0000     30.4714     54.8931
  1462.0000   2000.0000   1975.0000     29.6920     54.7363
  1462.2500   2000.0000   1975.0000     28.7987     53.6587
  1462.5000   2000.0000   1975.0000     27.7392     51.9287
  1462.7500   2000.0000   1975.0000     26.4482     51.7477
  1463.0000   2000.0000   1975.0000     24.8955     54.0334
  1463.2500   2000.0000   1975.0000     23.1198     57.2835
  1463.5000   2000.0000   1975.0000     21.2224     64.0893
  1463.7500   2000.0000   1975.0000     19.3273     69.4734
  1464.0000   2000.0000   1975.0000     17.5425     78.3439
  1464.2500   2000.0000   1975.0000     15.9382     84.6169
  1464.5000   2000.0000   1975.0000     14.5439     94.1174
  1464.7500   2000.0000   1975.0000     13.3564    100.1189
  1465.0000   2000.0000   1975.0000     12.3544    108.0010
  1465.2500   2000.0000   1975.0000     11.5115    112.3072
  1465.5000   2000.0000   1975.0000     10.8050    117.2408
  1465.7500   2000.0000   1975.0000     10.2174    119.5808
  1466.0000   2000.0000   1975.0000      9.7351    122.0510
  1466.2500   2000.0000   1975.0000      9.3449    123.2863
  1466.5000   2000.0000   1975.0000      9.0324    124.8914
  1466.7500   2000.0000   1975.0000      8.7822    126.0416
  1467.0000   2000.0000   1975.0000      8.5785    128.5751
  1467.2500   2000.0000   1975.0000      8.4056    131.1616
  1467.5000   2000.0000   1975.0000      8.2488    136.2520
  1467.7500   2000.0000   1975.0000      8.0954    139.8813
  1468.0000   2000.0000   1975.0000      7.9354    144.6163
  1468.2500   2000.0000   1975.0000      7.7642    147.0531
  1468.5000   2000.0000   1975.0000      7.5820    149.9029
  1468.7500   2000.0000   1975.0000      7.3941    151.6765
  1469.0000   2000.0000   1975.0000      7.2078    155.0006
  1469.2500   2000.0000   1975.0000      7.0294    157.9840
  1469.5000   2000.0000   1975.0000      6.8624    163.4641
  1469.7500   2000.0000   1975.0000      6.7075    167.4133
  1470.0000   2000.0000   1975.0000      6.5641    172.9803
  1470.2500   2000.0000   1975.0000      6.4325    175.8336
  1470.5000   2000.0000   1975.0000      6.3145    177.6813
  1470.7500   2000.0000   1975.0000      6.2131    177.0379
  1471.0000   2000.0000   1975.0000      6.1316    173.9617
  1471.2500   2000.0000   1975.0000      6.0731    171.2288
  1471.5000   2000.0000   1975.0000      6.0392    167.1188
  1471.7500   2000.0000   1975.0000      6.0294    164.7119
  1472.0000   2000.0000   1975.0000      6.0413    161.6455
  1472.2500   2000.0000   1975.0000      6.0702    159.5913
  1472.5000   2000.0000   1975.0000      6.1106    155.4905
  1472.7500   2000.0000   1975.0000      6.1564    151.7927
  1473.0000   2000.0000   1975.0000      6.2033    145.6595
  1473.2500   2000.0000   1975.0000      6.2483    142.2874
  1473.5000   2000.0000   1975.0000      6.2904    139.7879
  1473.7500   2000.0000   1975.0000      6.3296    139.8264
  1474.0000   2000.0000   1975.0000      6.3664    141.2759
  1474.2500   2000.0000   1975.0000      6.4021    142.4774
  1474.5000   2000.0000   1975.0000      6.4386    144.1746
  1474.7500   2000.0000   1975.0000      6.4789    145.3630
  1475.0000   2000.0000   1975.0000      6.5267    147.6078
  1475.2500   2000.0000   1975.0000      6.5866    149.3770
  1475.5000   2000.0000   1975.0000      6.6631    151.6373
  1475.7500   2000.0000   1975.0000      6.7599    152.2526
  1476.0000   2000.0000   1975.0000      6.8793    151.3705
  1476.2500   2000.0000   1975.0000      7.0220    149.8056
  1476.5000   2000.0000   1975.0000      7.1877    146.6491
  1476.7500   2000.0000   1975.0000      7.3769    144.2218
  1477.0000   2000.0000   1975.0000      7.5902    140.3640
  1477.2500   2000.0000   1975.0000      7.8274    138.0544
  1477.5000   2000.0000   1975.0000      8.0860    136.0920
  1477.7500   2000.0000   1975.0000      8.3591    136.1562
  1478.0000   2000.0000   1975.0000      8.6351    137.5391
  1478.2500   2000.0000   1975.0000      8.8985    138.1850
  1478.5000   2000.0000   1975.0000      9.1309    137.0846
  1478.7500   2000.0000   1975.0000      9.3141    134.8584
  1479.0000   2000.0000   1975.0000      9.4350    130.4452
  1479.2500   2000.0000   1975.0000      9.4886    127.6516
  1479.5000   2000.0000   1975.0000      9.4794    124.5172
  1479.7500   2000.0000   1975.0000      9.4178    123.1941
  1480.0000   2000.0000   1975.0000      9.3168    122.2792
  1480.2500   2000.0000   1975.0000      9.1891    122.4389
  1480.5000   2000.0000   1975.0000      9.0454    123.7551
  1480.7500   2000.0000   1975.0000      8.8942    124.8798
  1481.0000   2000.0000   1975.0000      8.7419    125.6076
  1481.2500   2000.0000   1975.0000      8.5930    124.9607
  1481.5000   2000.0000   1975.0000      8.4509    122.6362
  1481.7500   2000.0000   1975.0000      8.3194    120.8225
  1482.0000   2000.0000   1975.0000      8.2036    118.5904
  1482.2500   2000.0000   1975.0000      8.1083    117.5533
  1482.5000   2000.0000   1975.0000      8.0347    116.1220
  1482.7500   2000.0000   1975.0000      7.9763    114.6327
  1483.0000   2000.0000   1975.0000      7.9196    111.0238
  1483.2500   2000.0000   1975.0000      7.8515    108.1890
  1483.5000   2000.0000   1975.0000      7.7686    105.1395
  1483.7500   2000.0000   1975.0000      7.6802    104.7584
  1484.0000   2000.0000   1975.0000      7.6008    106.7697
  1484.2500   2000.0000   1975.0000      7.5387    109.2151
  1484.5000   2000.0000   1975.0000      7.4900    112.9971
  1484.7500   2000.0000   1975.0000      7.4421    114.7210
  1485.0000   2000.0000   1975.0000      7.3848    115.0756
  1485.2500   2000.0000   1975.0000      7.3196    113.6615
  1485.5000   2000.0000   1975.0000      7.2586    109.6085
  1485.7500   2000.0000   1975.0000      7.2157    106.2776
  1486.0000   2000.0000   1975.0000      7.1981    101.6575
  1486.2500   2000.0000   1975.0000      7.2046     99.5138
  1486.5000   2000.0000   1975.0000      7.2301     98.3451
  1486.7500   2000.0000   1975.0000      7.2699     98.8342
  1487.0000   2000.0000   1975.0000      7.3217    100.5747
  1487.2500   2000.0000   1975.0000      7.3847    101.6971
  1487.5000   2000.0000   1975.0000      7.4570    102.3273
  1487.7500   2000.0000   1975.0000      7.5351    101.8573
  1488.0000   2000.0000   1975.0000      7.6133    100.4104
  1488.2500   2000.0000   1975.0000      7.6865     99.6270
  1488.5000   2000.0000   1975.0000      7.7519     99.6170
  1488.7500   2000.0000   1975.0000      7.8115    100.4321
  1489.0000   2000.0000   1975.0000      7.8710    102.2319
  1489.2500   2000.0000   1975.0000      7.9378    103.2475
  1489.5000   2000.0000   1975.0000      8.0184    103.6835
  1489.7500   2000.0000   1975.0000      8.1155    103.1088
  1490.0000   2000.0000   1975.0000      8.2278    101.5243
  1490.2500   2000.0000   1975.0000      8.3497    100.6373
  1490.5000   2000.0000   1975.0000      8.4730    100.4058
  1490.7500   2000.0000   1975.0000      8.5901    100.9139
  1491.0000   2000.0000   1975.0000      8.6960    101.6197
  1491.2500   2000.0000   1975.0000      8.7888    101.3901
