~Version Information
VERS.                      2.0: CWLS Log ASCII Standard - VERSION 2.0
WRAP.                       NO: One line per depth step
~Well Information Block
STRT.FT                -5.0000: 
STOP.FT              1761.2500: 
STEP.FT                 0.2500: 
NULL.                -999.2500: 
COMP.          Pioneer Natural Resources: COMPANY
WELL.          Manville 42-14 Tr: WELL
FLD.           Purgatoire River: FIELD
LOC.           2018'FNL & 562' FEL: LOCATION
STAT.                 Colorado: State
CNTY.               Las Animas: COUNTY
CTRY. USA : Country
SECT. 14 : Section
TOWN. 32S : Township
RANG. 66W : Range
SRVC.                Patterson: SERVICE COMPANY
DATE.          Fri Sep 23 10:37:02 2005: LOG DATE
API. 05-071-08522             : UNIQUE WELL ID
~Curve Information Block
DEPT.FT            0 000 00 00: Depth
CCL.                          : Casing Collar Locator
TT3.usec                      : CBL 3' Travel Time
AMP3.mV                       : CBL 3' Amplitude
AMP5.mV                       : CBL 5' Amplitude
GR.GAPI                       : Gamma Ray
~Parameter Information Block
~A  Depth       CCL         TT3         AMP3        AMP5         GR     
# ...
  1031.0000      0.0000    301.4537     23.8604     14.2275    117.2195
  1031.2500      0.0000    301.3628     23.8521     14.1404    114.3856
  1031.5000      0.0000    301.3521     23.6736     13.8793    111.8553
  1031.7500      0.0000    301.4504     23.2940     13.8793    110.0232
  1032.0000      0.0000    301.6504     22.7357     13.2700    109.6350
  1032.2500      0.0000    301.9101     22.0810     13.8793    111.2530
  1032.5000      0.0000    302.1711     21.4606     13.6182    114.5555
  1032.7500      0.0000    302.3805     21.0128     13.6182    118.5760
  1033.0000      0.0000    302.5055     20.8225     12.7477    122.6917
  1033.2500      0.0000    302.5395     20.8848     13.0088    126.8370
  1033.5000      0.0000    302.4993     21.1248     13.1829    130.6559
  1033.7500      0.0000    302.4194     21.4495     12.3124    133.1215
  1034.0000      0.0000    302.3412     21.7872     12.8347    133.4029
  1034.2500      0.0000    302.2943     22.0936     13.6182    131.9571
  1034.5000      0.0000    302.2823     22.3398     13.3570    130.5139
  1034.7500      0.0000    302.2894     22.5027     13.6182    130.7764
  1035.0000      0.0000    302.2996     22.5771     13.7922    132.9704
  1035.2500      0.0000    302.3060     22.5945     13.9663    135.7451
  1035.5000      0.0000    302.3023     22.6195     14.4886    137.6490
  1035.7500      0.0000    302.2755     22.7117     13.7922    138.5847
  1036.0000      0.0000    302.2160     22.8807     14.3145    139.6234
  1036.2500      0.0000    302.1326     23.0798     13.7052    141.6308
  1036.5000      0.0000    302.0475     23.2472     13.7052    144.4536
  1036.7500      0.0000    301.9760     23.3465     13.4441    147.0819
  1037.0000      0.0000    301.9194     23.3636     13.1829    148.1358
  1037.2500      0.0000    301.8775     23.2781     12.5736    146.5308
  1037.5000      0.0000    301.8600     23.0568     13.1829    142.3071
  1037.7500      0.0000    301.8830     22.6752     12.2254    136.9343
  1038.0000      0.0000    301.9571     22.1369     11.3549    132.6589
  1038.2500      0.0000    302.0757     21.4730     11.5290    131.3108
  1038.5000      0.0000    302.2097     20.7353     10.7456    133.2711
  1038.7500      0.0000    302.3210     19.9894     10.9197    137.1789
  1039.0000      0.0000    302.3914     19.2975     10.8327    140.6536
  1039.2500      0.0000    302.4346     18.7004     10.2233    141.6594
  1039.5000      0.0000    302.4758     18.2125     10.3104    139.5039
  1039.7500      0.0000    302.5280     17.8227      9.3529    134.7334
  1040.0000      0.0000    302.5982     17.4915      9.0047    128.2811
  1040.2500      0.0000    302.7051     17.1633      9.1788    121.0138
  1040.5000      0.0000    302.8731     16.8027      8.8306    114.0849
  1040.7500      0.0000    303.1054     16.4241      9.1788    109.2673
  1041.0000      0.0000    303.3696     16.0760      8.3083    108.4175
  1041.2500      0.0000    303.6153     15.7946      8.0472    112.1764
  1041.5000      0.0000    303.8020     15.5798      8.2213    118.9460
  1041.7500      0.0000    303.9016     15.4239      7.8731    125.2915
  1042.0000      0.0000    303.8875     15.3491      7.9601    127.9794
  1042.2500      0.0000    303.7495     15.4020      7.7860    126.3500
  1042.5000      0.0000    303.5222     15.6040      7.9601    122.8904
  1042.7500      0.0000    303.2831     15.9101      7.6990    121.0223
  1043.0000      0.0000    303.1098     16.2248      8.3083    122.0602
  1043.2500      0.0000    303.0355     16.4706      8.1342    124.6276
  1043.5000      0.0000    303.0362     16.6467      8.5694    126.8944
  1043.7500      0.0000    303.0595     16.8113      8.7435    128.5145
  1044.0000      0.0000    303.0706     17.0015      9.0047    130.0676
  1044.2500      0.0000    303.0716     17.1838      8.8306    131.5316
  1044.5000      0.0000    303.0821     17.2878      8.3083    132.1054
  1044.7500      0.0000    303.1145     17.2709      8.3953    131.2919
  1045.0000      0.0000    303.1650     17.1468      8.5694    129.5302
  1045.2500      0.0000    303.2102     16.9788      8.5694    127.7970
  1045.5000      0.0000    303.2127     16.8555      9.2658    127.0588
  1045.7500      0.0000    303.1447     16.8510      9.0047    127.9276
  1046.0000      0.0000    303.0091     16.9875      8.7435    130.1091
  1046.2500      0.0000    302.8402     17.2256      9.3529    132.2119
  1046.5000      0.0000    302.6860     17.4902      9.4399    132.6818
  1046.7500      0.0000    302.5888     17.7158      9.7010    131.0918
  1047.0000      0.0000    302.5660     17.8797      9.8751    128.6767
  1047.2500      0.0000    302.6347     17.9869      9.3529    127.9169
  1047.5000      0.0000    302.9035     18.0240      8.3953    131.2040
  1047.7500      0.0000    303.9668     17.9423      8.6565    138.9488
  1048.0000      0.0000    307.8762     17.6814      7.9601    148.6201
  1048.2500      0.0000    319.7056     17.1813      6.2192    156.1553
  1048.5000      0.0000    348.1257     16.3683      4.6523    158.9620
  1048.7500      0.0000    401.8780     15.1620      3.5207    157.6716
  1049.0000      0.0000    481.8640     13.5311      3.0855    154.7184
  1049.2500      0.0000    575.7653     11.5596      2.3021    151.2964
  1049.5000      0.0000    663.1816      9.4545      1.8668    146.1671
  1049.7500      0.0000    728.1221      7.4678      1.4316    137.3287
  1050.0000      0.0000    766.7504      5.7909      1.6927    124.1735
  1050.2500      0.0000    784.8920      4.5021      1.5187    108.1437
  1050.5000      0.0000    791.0272      3.5933      1.5187     92.0626
  1050.7500      0.0000    791.4224      3.0248      1.5187     78.8987
  1051.0000      0.0000    788.9697      2.7540      1.6057     70.5831
  1051.2500      0.0000    784.7191      2.7371      1.1705     67.6191
  1051.5000      0.0000    780.1855      2.9373      1.6057     69.7082
  1051.7500      0.0000    777.3187      3.3510      1.6057     76.4924
  1052.0000      0.0000    775.0117      4.0225      1.3446     87.4790
  1052.2500      0.0000    765.6712      5.0212      1.5187    101.3696
  1052.5000      0.0000    736.6380      6.3899      1.5187    115.7732
  1052.7500      0.0000    677.7778      8.0980      1.5187    127.7621
  1053.0000      0.0000    591.1324     10.0263      2.0409    135.1045
  1053.2500      0.0000    493.9441     11.9957      2.5632    137.4665
  1053.5000      0.0000    409.3657     13.8312      3.1725    136.4849
  1053.7500      0.0000    351.8890     15.4213      3.9560    134.4827
  1054.0000      0.0000    321.2937     16.7338      5.0876    133.1949
  1054.2500      0.0000    308.4715     17.7827      6.4803    133.5068
  1054.5000      0.0000    304.1644     18.5795      7.0896    135.4822
  1054.7500      0.0000    302.9149     19.1054      7.6990    138.0840
  1055.0000      0.0000    302.5248     19.3258      8.3083    139.5543
  1055.2500      0.0000    302.3692     19.2321      8.2213    138.8694
  1055.5000      0.0000    302.3221     18.8751      8.8306    136.5947
  1055.7500      0.0000    302.3458     18.3593      8.9176    134.0412
  1056.0000      0.0000    302.4260     17.8027      8.7435    132.1280
  1056.2500      0.0000    302.5572     17.2999      8.8306    131.1138
  1056.5000      0.0000    302.7363     16.9054      8.3953    130.5615
  1056.7500      0.0000    302.9492     16.6324      8.2213    129.2002
  1057.0000      0.0000    303.1646     16.4707      7.9601    125.5672
  1057.2500      0.0000    303.3351     16.4137      7.9601    119.3489
  1057.5000      0.0000    303.4142     16.4565      7.5249    111.9024
  1057.7500      0.0000    303.3926     16.5589      7.9601    105.3775
  1058.0000      0.0000    303.3136     16.6380      7.6119    101.5736
  1058.2500      0.0000    303.2398     16.6233      7.6119    101.2743
  1058.5000      0.0000    303.2070     16.5067      7.4378    103.8772
  1058.7500      0.0000    303.2091     16.3316      7.5249    107.6392
