~Version Information
VERS.                      2.0: CWLS Log ASCII Standard - VERSION 2.0
WRAP.                       NO: One line per depth step
~Well Information Block
STRT.FT               340.0000: 
STOP.FT              2342.7500: 
STEP.FT                 0.2500: 
NULL.                -999.2500: 
COMP.          Pioneer Natural Resources: COMPANY
WELL.          Pinkerton 41-12: WELL
FLD.           Purgatoire River: FIELD
LOC.           1222' FNL & 670' FEL--: LOCATION
CNTY.               Las Animas: COUNTY
SRVC.                Patterson: SERVICE COMPANY
DATE.          Wed Mar 15 10:37:39 2006: LOG DATE
UWI.           05 071 08500 00: UNIQUE WELL ID
STAT.                 Colorado: STATE
~Curve Information Block
DEPT.FT            0 000 00 00: Depth
SN.Ohm-m                      : IEL Short Normal
SP.mV                         : IEL Spontaneous Potential
DIR.Ohm-m                     : IEL Induction Resistivity
GR.GAPI                       : Gamma Ray
~Parameter Information Block
~A  Depth        SN          SP         DIR          GR     
# ...
  1144.0000   2000.0000   -999.2500     37.0277     47.3744
  1144.2500   2000.0000   -999.2500     37.0017     47.6289
  1144.5000   2000.0000   -999.2500     36.9087     48.4300
  1144.7500   2000.0000   -999.2500     36.7755     48.9350
  1145.0000   2000.0000   -999.2500     36.6432     49.1151
  1145.2500   2000.0000   -999.2500     36.5367     48.7189
  1145.5000   2000.0000   -999.2500     36.4260     47.5513
  1145.7500   2000.0000   -999.2500     36.2062     46.7527
  1146.0000   2000.0000   -999.2500     35.7222     46.3269
  1146.2500   2000.0000   -999.2500     34.8382     46.8936
  1146.5000   2000.0000   -999.2500     33.5145     49.2467
  1146.7500   2000.0000   -999.2500     31.8271     51.9510
  1147.0000   2000.0000   -999.2500     29.9155     58.1570
  1147.2500   2000.0000   -999.2500     27.9129     63.8811
  1147.5000   2000.0000   -999.2500     25.9150     74.3488
  1147.7500   2000.0000   -999.2500     23.9887     81.8300
  1148.0000   2000.0000   -999.2500     22.1876     92.3308
  1148.2500   2000.0000   -999.2500     20.5515     98.2920
  1148.5000   2000.0000   -999.2500     19.0999    105.5867
  1148.7500   2000.0000   -999.2500     17.8312    109.6360
  1149.0000   2000.0000   -999.2500     16.7309    114.8244
  1149.2500   2000.0000   -999.2500     15.7800    117.5591
  1149.5000   2000.0000   -999.2500     14.9615    120.1265
  1149.7500   2000.0000   -999.2500     14.2607    120.8442
  1150.0000   2000.0000   -999.2500     13.6645    121.2211
  1150.2500   2000.0000   -999.2500     13.1584    121.6131
  1150.5000   2000.0000   -999.2500     12.7256    123.0391
  1150.7500   2000.0000   -999.2500     12.3482    124.5509
  1151.0000   2000.0000   -999.2500     12.0098    127.2316
  1151.2500   2000.0000   -999.2500     11.6971    128.9403
  1151.5000   2000.0000   -999.2500     11.4002    130.7800
  1151.7500   2000.0000   -999.2500     11.1104    131.2621
  1152.0000   2000.0000   -999.2500     10.8185    130.8496
  1152.2500   2000.0000   -999.2500     10.5155    130.1490
  1152.5000   2000.0000   -999.2500     10.1956    129.2097
  1152.7500   2000.0000   -999.2500      9.8611    128.7730
  1153.0000   2000.0000   -999.2500      9.5233    127.8829
  1153.2500   2000.0000   -999.2500      9.1997    126.8509
  1153.5000   2000.0000   -999.2500      8.9074    125.0366
  1153.7500   2000.0000   -999.2500      8.6577    124.3030
  1154.0000   2000.0000   -999.2500      8.4533    124.8312
  1154.2500   2000.0000   -999.2500      8.2893    126.2516
  1154.5000   2000.0000   -999.2500      8.1557    128.9904
  1154.7500   2000.0000   -999.2500      8.0420    130.4577
  1155.0000   2000.0000   -999.2500      7.9405    131.2821
  1155.2500   2000.0000   -999.2500      7.8488    130.8268
  1155.5000   2000.0000   -999.2500      7.7699    128.8696
  1155.7500   2000.0000   -999.2500      7.7105    126.9881
  1156.0000   2000.0000   -999.2500      7.6785    124.1371
  1156.2500   2000.0000   -999.2500      7.6803    122.8540
  1156.5000   2000.0000   -999.2500      7.7191    122.6150
  1156.7500   2000.0000   -999.2500      7.7944    123.5772
  1157.0000   2000.0000   -999.2500      7.9049    126.0208
  1157.2500   2000.0000   -999.2500      8.0521    127.7221
  1157.5000   2000.0000   -999.2500      8.2431    129.3729
  1157.7500   2000.0000   -999.2500      8.4910    129.5178
  1158.0000   2000.0000   -999.2500      8.8124    128.4255
  1158.2500   2000.0000   -999.2500      9.2257    127.1830
  1158.5000   2000.0000   -999.2500      9.7508    125.0121
  1158.7500   2000.0000   -999.2500     10.4114    123.3480
  1159.0000   2000.0000   -999.2500     11.2362    120.0503
  1159.2500   2000.0000   -999.2500     12.2578    116.8437
  1159.5000   2000.0000   -999.2500     13.5086    109.8131
  1159.7500   2000.0000   -999.2500     15.0115    103.6620
  1160.0000   2000.0000   -999.2500     16.7684     93.2934
  1160.2500   2000.0000   -999.2500     18.7457     86.6292
  1160.5000   2000.0000   -999.2500     20.8686     78.7462
  1160.7500   2000.0000   -999.2500     23.0397     75.5272
  1161.0000   2000.0000   -999.2500     25.1787     73.5468
  1161.2500   2000.0000   -999.2500     27.2526     73.2637
  1161.5000   2000.0000   -999.2500     29.2662     72.5701
  1161.7500   2000.0000   -999.2500     31.2198     71.2684
  1162.0000   2000.0000   -999.2500     33.0774     67.9429
  1162.2500   2000.0000   -999.2500     34.7723     65.0762
  1162.5000   2000.0000   -999.2500     36.2472     60.3373
  1162.7500   2000.0000   -999.2500     37.4984     57.2054
  1163.0000   2000.0000   -999.2500     38.5896     53.1675
  1163.2500   2000.0000   -999.2500     39.6163     51.2330
  1163.5000   2000.0000   -999.2500     40.6375     49.6802
  1163.7500   2000.0000   -999.2500     41.6154     49.5094
  1164.0000   2000.0000   -999.2500     42.4017     50.6495
  1164.2500   2000.0000   -999.2500     42.7853     52.5988
  1164.5000   2000.0000   -999.2500     42.5853     57.5659
  1164.7500   2000.0000   -999.2500     41.7367     61.8731
  1165.0000   2000.0000   -999.2500     40.3180     68.3652
  1165.2500   2000.0000   -999.2500     38.5122     71.9393
  1165.5000   2000.0000   -999.2500     36.5369     75.9816
  1165.7500   2000.0000   -999.2500     34.5898     78.2963
  1166.0000   2000.0000   -999.2500     32.8240     81.9439
  1166.2500   2000.0000   -999.2500     31.3387     84.3112
  1166.5000   2000.0000   -999.2500     30.1773     86.6307
  1166.7500   2000.0000   -999.2500     29.3271     86.8691
  1167.0000   2000.0000   -999.2500     28.7268     85.6022
  1167.2500   2000.0000   -999.2500     28.2839     84.4109
  1167.5000   2000.0000   -999.2500     27.9047     83.3978
  1167.7500   2000.0000   -999.2500     27.5338     83.7371
  1168.0000   2000.0000   -999.2500     27.1784     86.3293
  1168.2500   2000.0000   -999.2500     26.8922     89.7077
  1168.5000   2000.0000   -999.2500     26.7268     97.2037
  1168.7500   2000.0000   -999.2500     26.6844    103.1533
  1169.0000   2000.0000   -999.2500     26.7077    111.2532
  1169.2500   2000.0000   -999.2500     26.7155    114.6724
  1169.5000   2000.0000   -999.2500     26.6565    115.5054
  1169.7500   2000.0000   -999.2500     26.5427    113.4478
  1170.0000   2000.0000   -999.2500     26.4418    108.1314
  1170.2500   2000.0000   -999.2500     26.4439    104.1513
  1170.5000   2000.0000   -999.2500     26.6263     98.7040
  1170.7500   2000.0000   -999.2500     27.0309     95.9421
  1171.0000   2000.0000   -999.2500     27.6533     94.0925
  1171.2500   2000.0000   -999.2500     28.4384     94.6478
  1171.5000   2000.0000   -999.2500     29.2814     97.1198
  1171.7500   2000.0000   -999.2500     30.0294     98.5446
  1172.0000   2000.0000   -999.2500     30.4932     98.3586
  1172.2500   2000.0000   -999.2500     30.4861     96.3296
  1172.5000   2000.0000   -999.2500     29.8946     91.3998
  1172.7500   2000.0000   -999.2500     28.7400     88.0837
  1173.0000   2000.0000   -999.2500     27.1777     85.4635
  1173.2500   2000.0000   -999.2500     25.4263     86.3088
  1173.5000   2000.0000   -999.2500     23.6845     91.8052
  1173.7500   2000.0000   -999.2500     22.0841     97.5987
  1174.0000   2000.0000   -999.2500     20.6833    107.2587
  1174.2500   2000.0000   -999.2500     19.4837    112.9504
  1174.5000   2000.0000   -999.2500     18.4545    118.8978
  1174.7500   2000.0000   -999.2500     17.5580    121.0996
  1175.0000   2000.0000   -999.2500     16.7684    122.6526
  1175.2500   2000.0000   -999.2500     16.0804    123.1264
  1175.5000   2000.0000   -999.2500     15.5059    123.6508
  1175.7500   2000.0000   -999.2500     15.0619    123.9673
  1176.0000   2000.0000   -999.2500     14.7577    124.1630
  1176.2500   2000.0000   -999.2500     14.5858    123.9761
  1176.5000   2000.0000   -999.2500     14.5198    123.4274
  1176.7500   2000.0000   -999.2500     14.5177    123.1950
  1177.0000   2000.0000   -999.2500     14.5286    123.3235
  1177.2500   2000.0000   -999.2500     14.5038    123.5691
