~Version Information
VERS.                      2.0: CWLS Log ASCII Standard - VERSION 2.0
WRAP.                       NO: One line per depth step
~Well Information Block
STRT.FT               262.8000: 
STOP.FT              1134.7000: 
STEP.FT                 0.1000: 
NULL.                -999.2500: 
COMP.          Pioneer Natural Resources: COMPANY
WELL.          Black Cat 13-32 Tr: WELL
FLD.           Purgatoire River: FIELD
LOC.           1679' FSL & 1150' FWL--: LOCATION
CNTY.               Las Animas: COUNTY
SRVC.                Patterson: SERVICE COMPANY
DATE.          Tue Mar 07 12:42:54 2006: LOG DATE
UWI.           05 071 08721 00: UNIQUE WELL ID
STAT.                 Colorado: STATE
~Curve Information Block
DEPT.FT            0 000 00 00: Depth
DCAL.in                       : CDL Caliper
RHOB.g/cc                     : CDL Bulk Density
RHOC.g/cc                     : CDL Density Correction
DPOR.pu                       : CDL Density Porosity
GR.GAPI                       : Gamma Ray
~Parameter Information Block
~A  Depth       DCAL        RHOB        RHOC        DPOR         GR     
# ...
   274.0000      8.1063      2.3542     -0.1466     17.9290     40.1475
   274.1000      8.1063      2.3608     -0.1981     17.5281     41.1654
   274.2000      8.1063      2.3522     -0.1969     18.0495     43.2173
   274.3000      8.1047      2.3381     -0.2342     18.9005     43.0116
   274.4000      8.1047      2.3233     -0.1897     19.7983     40.3648
   274.5000      8.1023      2.2994     -0.1999     21.2481     36.6425
   274.6000      8.1023      2.2686     -0.2356     23.1149     34.4603
   274.7000      8.1023      2.2623     -0.3600     23.4964     35.7175
   274.8000      8.1013      2.2917     -0.2346     21.7170     38.5629
   274.9000      8.1013      2.3045     -0.1581     20.9395     41.2077
   275.0000      8.1011      2.2615     -0.2719     23.5474     42.6793
   275.1000      8.1011      2.1957     -0.3433     27.5340     41.6515
   275.2000      8.1011      2.1576     -0.3366     29.8438     38.7794
   275.3000      8.1015      2.1645     -0.3983     29.4256     37.5041
   275.4000      8.1015      2.1913     -0.2429     27.8006     39.8313
   275.5000      8.1026      2.2059     -0.3128     26.9157     43.2881
   275.6000      8.1026      2.2191     -0.3030     26.1155     44.8746
   275.7000      8.1026      2.2435     -0.2112     24.6355     44.5748
   275.8000      8.1047      2.2590     -0.1656     23.6972     44.4180
   275.9000      8.1047      2.2620     -0.3054     23.5174     44.7127
   276.0000      8.1049      2.2754     -0.2201     22.7037     43.8734
   276.1000      8.1049      2.3039     -0.1903     20.9765     43.9807
   276.2000      8.1049      2.3370     -0.1557     18.9668     46.7070
   276.3000      8.1023      2.3791     -0.2274     16.4179     47.4137
   276.4000      8.1023      2.4323     -0.1291     13.1929     42.9776
   276.5000      8.0990      2.4789     -0.1795     10.3713     39.2429
   276.6000      8.0990      2.5026     -0.1238      8.9305     40.7357
   276.7000      8.0990      2.4910     -0.1347      9.6341     44.0398
   276.8000      8.0971      2.4385     -0.2084     12.8170     45.5895
   276.9000      8.0971      2.3436     -0.1900     18.5717     44.3044
   277.0000      8.0980      2.2190     -0.3298     26.1231     40.3967
   277.1000      8.0980      2.1192     -0.4267     32.1722     35.5836
   277.2000      8.0980      2.0812     -0.4091     34.4749     31.2474
   277.3000      8.1000      2.0690     -0.4242     35.2148     30.9978
   277.4000      8.1000      2.0437     -0.6364     36.7430     35.8917
   277.5000      8.1007      2.0276     -0.7311     37.7218     38.9290
   277.6000      8.1007      2.0588     -0.6570     35.8294     36.0949
   277.7000      8.1007      2.1293     -0.4812     31.5563     31.8193
   277.8000      8.0982      2.1875     -0.4231     28.0277     30.6521
   277.9000      8.0982      2.2074     -0.3892     26.8216     31.7158
   278.0000      8.0945      2.2151     -0.2784     26.3567     34.1605
   278.1000      8.0945      2.2275     -0.1705     25.6080     38.8901
   278.2000      8.0945      2.2324     -0.1797     25.3113     43.6050
   278.3000      8.0935      2.2234     -0.1508     25.8526     44.5070
   278.4000      8.0935      2.2030     -0.1965     27.0922     41.9533
   278.5000      8.0946      2.1789     -0.2312     28.5536     38.9565
   278.6000      8.0946      2.1678     -0.2634     29.2249     37.4820
   278.7000      8.0946      2.1747     -0.2115     28.8048     39.4004
   278.8000      8.0963      2.1844     -0.2109     28.2182     43.5315
   278.9000      8.0963      2.1874     -0.2426     28.0376     43.6605
   279.0000      8.0982      2.1881     -0.2337     27.9963     38.8741
   279.1000      8.0982      2.1885     -0.2357     27.9713     35.5069
   279.2000      8.0982      2.1900     -0.2411     27.8801     35.9874
   279.3000      8.0997      2.1907     -0.1689     27.8365     36.3578
   279.4000      8.0997      2.1841     -0.2356     28.2350     35.2726
   279.5000      8.1008      2.1762     -0.2440     28.7158     34.8055
   279.6000      8.1008      2.1826     -0.3066     28.3276     33.7703
   279.7000      8.1008      2.2029     -0.1907     27.0995     32.9002
   279.8000      8.1000      2.2154     -0.1916     26.3401     35.8132
   279.9000      8.1000      2.2155     -0.2319     26.3336     40.6961
   280.0000      8.0980      2.2188     -0.2638     26.1346     43.1321
   280.1000      8.0980      2.2268     -0.1845     25.6498     43.4622
   280.2000      8.0980      2.2327     -0.2285     25.2886     42.9980
   280.3000      8.0957      2.2431     -0.2032     24.6634     42.2753
   280.4000      8.0957      2.2597     -0.1950     23.6559     42.5396
   280.5000      8.0938      2.2713     -0.1727     22.9509     42.5268
   280.6000      8.0938      2.2689     -0.2026     23.0947     39.6124
   280.7000      8.0938      2.2576     -0.2045     23.7825     35.5522
   280.8000      8.0938      2.2519     -0.2405     24.1261     34.4428
   280.9000      8.0938      2.2616     -0.2412     23.5420     36.1235
   281.0000      8.0948      2.2785     -0.1826     22.5132     36.4820
   281.1000      8.0948      2.2764     -0.1464     22.6430     33.9799
   281.2000      8.0948      2.2452     -0.2328     24.5353     31.7412
   281.3000      8.0950      2.2165     -0.2984     26.2701     33.8648
   281.4000      8.0950      2.2157     -0.2990     26.3240     40.7634
   281.5000      8.0949      2.2339     -0.2268     25.2179     48.2349
   281.6000      8.0949      2.2562     -0.2496     23.8667     52.9458
   281.7000      8.0949      2.2704     -0.2019     23.0067     55.5089
   281.8000      8.0952      2.2715     -0.2477     22.9420     54.9337
   281.9000      8.0952      2.2679     -0.2131     23.1589     49.3866
   282.0000      8.0963      2.2648     -0.2532     23.3433     43.0942
   282.1000      8.0963      2.2573     -0.2215     23.7984     41.6180
   282.2000      8.0963      2.2451     -0.2365     24.5413     44.9229
   282.3000      8.0975      2.2449     -0.2728     24.5506     47.6193
   282.4000      8.0975      2.2628     -0.2022     23.4672     44.7757
   282.5000      8.0982      2.2816     -0.1893     22.3251     38.6088
   282.6000      8.0982      2.3000     -0.2760     21.2101     34.6292
   282.7000      8.0982      2.3232     -0.1270     19.8048     33.6147
   282.8000      8.0985      2.3296     -0.1539     19.4158     33.8385
   282.9000      8.0985      2.3088     -0.2067     20.6769     36.1653
   283.0000      8.0986      2.2836     -0.2410     22.2036     41.6913
   283.1000      8.0986      2.2750     -0.2237     22.7289     47.1189
   283.2000      8.0986      2.2803     -0.1889     22.4067     48.1745
   283.3000      8.0983      2.2837     -0.1772     22.1989     45.5265
   283.4000      8.0983      2.2785     -0.1995     22.5175     41.7406
   283.5000      8.0979      2.2716     -0.2186     22.9357     38.6784
   283.6000      8.0979      2.2676     -0.1912     23.1728     38.8589
   283.7000      8.0979      2.2607     -0.2002     23.5962     42.9715
   283.8000      8.0970      2.2553     -0.2475     23.9215     47.4263
   283.9000      8.0970      2.2627     -0.2453     23.4716     48.8924
   284.0000      8.0960      2.2669     -0.1762     23.2157     47.0275
   284.1000      8.0960      2.2533     -0.2233     24.0430     43.9451
   284.2000      8.0960      2.2492     -0.2531     24.2932     41.5162
   284.3000      8.0951      2.2738     -0.1696     22.8007     39.1851
   284.4000      8.0951      2.3018     -0.1268     21.1036     38.0603
   284.5000      8.0953      2.3143     -0.1938     20.3474     38.6744
   284.6000      8.0953      2.3161     -0.2025     20.2392     37.9075
   284.7000      8.0953      2.3033     -0.1697     21.0147     36.1824
   284.8000      8.0955      2.2790     -0.2183     22.4857     37.7577
   284.9000      8.0955      2.2659     -0.2220     23.2772     41.3407
   285.0000      8.0954      2.2646     -0.1904     23.3594     41.0419
   285.1000      8.0954      2.2514     -0.1647     24.1552     38.3098
