~Version Information
VERS.                      2.0: CWLS Log ASCII Standard - VERSION 2.0
WRAP.                       NO: One line per depth step
~Well Information Block
STRT.FT                -8.0000: 
STOP.FT               918.7500: 
STEP.FT                 0.2500: 
NULL.                -999.2500: 
COMP.          Pioneer Natural Resources: COMPANY
WELL.          Sculpin 32-30 Tr: WELL
FLD.           Purgatorie River: FIELD
LOC.           1600' FNL & 1857' FEL--: LOCATION
CNTY.               Las Animas: COUNTY
SRVC.          Patterson Wireline: SERVICE COMPANY
DATE.          Thu Aug 03 08:40:45 2006: LOG DATE
UWI.           05 071 08706 00: UNIQUE WELL ID
STAT.                       CO: STATE
~Curve Information Block
DEPT.FT            0 000 00 00: Depth
CCL.                          : Casing Collar Locator
TT3.usec                      : CBL 3' Travel Time
AMP3.mV                       : CBL 3' Amplitude
GR.GAPI                       : Gamma Ray
~Parameter Information Block
~A  Depth       CCL         TT3         AMP3         GR     
# ...
   226.5000      0.0000    678.7688      3.2049     79.0402
   226.7500      0.0000    669.7449      3.0219     76.6372
   227.0000      0.0000    648.6686      2.8739     74.3852
   227.2500      0.0000    611.4908      2.7580     73.3575
   227.5000      0.0000    558.9695      2.6677     73.8451
   227.7500      0.0000    499.1290      2.6012     75.0853
   228.0000      0.0000    444.1897      2.5643     76.2603
   228.2500      0.0000    403.0335      2.5649     77.6392
   228.5000      0.0000    376.6129      2.6043     80.3804
   228.7500      0.0000    360.4407      2.6704     85.3622
   229.0000      0.0000    349.9238      2.7384     92.4397
   229.2500      0.0000    342.8712      2.7824    100.3848
   229.5000      0.0000    338.6540      2.7882    107.2052
   229.7500      0.0000    336.8463      2.7597    111.0943
   230.0000      0.0000    337.0108      2.7116    111.5965
   230.2500      0.0000    339.0559      2.6580    109.7475
   230.5000      0.0000    343.1749      2.6049    107.2406
   230.7500      0.0000    349.1673      2.5529    105.7909
   231.0000      0.0000    355.9604      2.5012    106.6857
   231.2500      0.0000    362.0700      2.4482    109.8642
   231.5000      0.0000    366.7982      2.3897    113.3863
   231.7500      0.0000    371.2792      2.3248    114.6896
   232.0000      0.0000    378.9493      2.2648    112.8006
   232.2500      0.0000    395.1580      2.2319    108.9931
   232.5000      0.0000    424.9007      2.2445    105.2275
   232.7500      0.0000    468.8176      2.3043    102.4042
   233.0000      0.0000    521.0236      2.3960    100.0965
   233.2500      0.0000    572.1730      2.4955     97.4491
   233.5000      0.0000    615.1878      2.5800     94.1356
   233.7500      0.0000    647.9894      2.6365     90.7076
   234.0000      0.0000    672.4512      2.6646     88.1995
   234.2500      0.0000    692.5282      2.6724     87.2878
   234.5000      0.0000    712.1796      2.6684     87.6234
   234.7500      0.0000    732.3701      2.6585     87.9417
   235.0000      0.0000    749.6833      2.6466     86.9570
   235.2500      0.0000    759.3740      2.6378     84.3038
   235.5000      0.0000    760.2026      2.6400     80.7799
   235.7500      0.0000    755.3017      2.6613     77.8429
   236.0000      0.0000    748.6997      2.7026     76.7961
   236.2500      0.0000    742.7744      2.7555     78.0988
   236.5000      0.0000    739.1738      2.8091     81.2915
   236.7500      0.0000    739.9121      2.8589     85.7536
   237.0000      0.0000    745.6277      2.9051     91.4154
   237.2500      0.0000    753.1526      2.9454     98.3534
   237.5000      0.0000    756.5360      2.9724    105.7146
   237.7500      0.0000    751.3480      2.9777    111.5648
   238.0000      0.0000    737.8443      2.9548    114.1551
   238.2500      0.0000    719.9720      2.8996    113.2735
   238.5000      0.0000    701.3481      2.8093    110.1967
   238.7500      0.0000    681.3778      2.6847    106.4207
   239.0000      0.0000    654.7828      2.5327    102.6863
   239.2500      0.0000    615.8347      2.3666     99.1353
   239.5000      0.0000    564.6169      2.2022     95.7979
   239.7500      0.0000    509.2247      2.0530     92.6769
   240.0000      0.0000    460.6570      1.9282     89.8570
   240.2500      0.0000    425.2461      1.8328     87.7659
   240.5000      0.0000    402.3244      1.7683     86.8556
   240.7500      0.0000    387.9204      1.7332     86.9302
   241.0000      0.0000    378.8112      1.7248     87.3354
   241.2500      0.0000    373.3362      1.7404     87.9278
   241.5000      0.0000    370.4203      1.7755     89.3318
   241.7500      0.0000    369.0489      1.8214     92.0924
   242.0000      0.0000    368.4389      1.8654     95.8559
   242.2500      0.0000    368.2348      1.8952     99.3478
   242.5000      0.0000    368.5105      1.9049    101.0594
   242.7500      0.0000    369.7051      1.8964    100.3423
   243.0000      0.0000    372.5280      1.8785     98.1568
   243.2500      0.0000    377.5906      1.8641     96.3975
   243.5000      0.0000    384.7390      1.8642     96.1390
   243.7500      0.0000    392.6933      1.8810     96.8012
   244.0000      0.0000    399.6182      1.9061     97.0840
   244.2500      0.0000    404.2008      1.9292     96.2336
   244.5000      0.0000    406.1363      1.9478     94.3494
   244.7500      0.0000    405.8228      1.9689     92.0763
   245.0000      0.0000    404.0911      1.9997     90.3197
   245.2500      0.0000    402.2757      2.0406     89.8771
   245.5000      0.0000    402.0562      2.0871     90.9761
   245.7500      0.0000    404.8164      2.1357     93.1627
   246.0000      0.0000    411.4484      2.1839     95.7037
   246.2500      0.0000    422.8850      2.2244     98.0711
   246.5000      0.0000    440.0607      2.2421     99.9360
   246.7500      0.0000    462.8894      2.2226    100.6855
   247.0000      0.0000    489.7615      2.1629     99.4956
   247.2500      0.0000    517.9191      2.0733     96.4268
   247.5000      0.0000    543.4504      1.9692     93.0699
   247.7500      0.0000    562.1030      1.8636     91.3806
   248.0000      0.0000    572.6036      1.7682     91.8478
   248.2500      0.0000    578.4864      1.6961     93.2264
   248.5000      0.0000    583.8732      1.6607     94.0629
   248.7500      0.0000    587.3193      1.6710     94.0838
   249.0000      0.0000    581.9259      1.7264     93.9565
   249.2500      0.0000    562.4792      1.8146     94.0649
   249.5000      0.0000    531.8135      1.9194     93.9893
   249.7500      0.0000    499.4706      2.0322     93.1594
   250.0000      0.0000    474.4278      2.1548     91.6967
   250.2500      0.0000    459.4197      2.2906     90.5180
   250.5000      0.0000    451.4604      2.4365     90.6977
   250.7500      0.0000    446.3209      2.5871     92.6534
   251.0000      0.0000    442.2128      2.7401     95.7961
   251.2500      0.0000    440.1595      2.8945     98.8151
   251.5000      0.0000    441.6224      3.0453    100.2302
   251.7500      0.0000    446.2197      3.1834     99.0471
   252.0000      0.0000    452.2585      3.3025     95.4206
   252.2500      0.0000    459.3296      3.4089     90.6625
   252.5000      0.0000    469.1290      3.5205     86.2240
   252.7500      0.0000    482.6530      3.6480     82.6930
   253.0000      0.0000    497.1117      3.7708     79.9829
   253.2500      0.0000    507.9315      3.8345     78.1253
   253.5000      0.0000    515.4474      3.7857     77.3114
   253.7500      0.0000    527.7418      3.6219     77.3387
   254.0000      0.0000    553.6426      3.4057     77.5346
   254.2500      0.0000    592.9304      3.2239     77.1009
   254.5000      0.0000    635.5194      3.1286     75.3115
   254.7500      0.0000    669.9393      3.1171     71.9702
   255.0000      0.0000    691.0796      3.1632     68.4009
   255.2500      0.0000    700.8544      3.2528     67.4981
   255.5000      0.0000    704.3182      3.3879     71.5645
   255.7500      0.0000    705.7232      3.5669     79.7907
   256.0000      0.0000    706.7310      3.7692     88.3871
   256.2500      0.0000    707.3043      3.9560     93.3523
   256.5000      0.0000    707.7351      4.0878     93.0234
   256.7500      0.0000    709.3528      4.1483     88.4576
   257.0000      0.0000    713.4483      4.1549     82.0457
   257.2500      0.0000    720.1578      4.1434     75.8584
   257.5000      0.0000    728.2278      4.1391     70.9446
   257.7500      0.0000    735.2482      4.1393     67.7120
   258.0000      0.0000    738.2006      4.1245     66.5010
   258.2500      0.0000    734.9108      4.0828     67.6455
   258.5000      0.0000    726.0291      4.0205     71.0609
   258.7500      0.0000    715.3573      3.9535     75.8508
   259.0000      0.0000    707.1573      3.9001     80.5397
   259.2500      0.0000    702.5765      3.8811     83.9460
   259.5000      0.0000    698.9929      3.9173     85.8322
   259.7500      0.0000    693.0619      4.0184     86.7339
