~Version Information
VERS.                      2.0: CWLS Log ASCII Standard - VERSION 2.0
WRAP.                       NO: One line per depth step
~Well Information Block
STRT.FT                -7.7500: 
STOP.FT              2446.5000: 
STEP.FT                 0.2500: 
NULL.                -999.2500: 
COMP.          XTO Energy Inc.: COMPANY
WELL.          Hill Ranch 15-09: WELL
FLD.           Purgatoire River: FIELD
LOC.           1816' FSL & 521' FEL: LOCATION
STAT.                 Colorado: State
CNTY.               Las Animas: COUNTY
CTRY. USA : Country
SECT. 15 : Section
TOWN. 35S : Township
RANG. 67W : Range
SRVC.          Patterson Wireline: SERVICE COMPANY
DATE.          Fri Dec 09 17:49:58 2005: LOG DATE
API. 05-071-08474                          : UNIQUE WELL ID
~Curve Information Block
DEPT.FT            0 000 00 00: Depth
CCL.                          : Casing Collar Locator
TT3.usec                      : CBL 3' Travel Time
AMP3.mV                       : CBL 3' Amplitude
AMP5.mV                       : CBL 5' Amplitude
GR.GAPI                       : Gamma Ray
~Parameter Information Block
~A  Depth       CCL         TT3         AMP3        AMP5         GR     
# ...
   972.2500      0.0000    787.3796      4.7039      1.2969    115.2360
   972.5000      0.0000    771.4284      4.7038      1.2673    117.4000
   972.7500      0.0000    758.9013      4.6949      1.2778    120.8971
   973.0000      0.0000    754.6273      4.6709      1.3200    124.3033
   973.2500      0.0000    759.4091      4.6326      1.3557    126.1619
   973.5000      0.0000    770.9077      4.5881      1.3541    126.4393
   973.7500      0.0000    785.0359      4.5466      1.3259    126.2573
   974.0000      0.0000    797.5142      4.5103      1.3121    126.5159
   974.2500      0.0000    805.1592      4.4710      1.3355    127.3559
   974.5000      0.0000    806.2798      4.4140      1.3748    128.6761
   974.7500      0.0000    800.3355      4.3266      1.3930    130.2548
   975.0000      0.0000    788.0208      4.2063      1.3829    131.2710
   975.2500      0.0000    771.6394      4.0657      1.3710    130.4153
   975.5000      0.0000    754.7720      3.9291      1.3798    126.8156
   975.7500      0.0000    741.2610      3.8201      1.3988    120.8793
   976.0000      0.0000    733.7935      3.7466      1.3971    114.2593
   976.2500      0.0000    732.4018      3.6956      1.3589    108.9490
   976.5000      0.0000    734.4430      3.6448      1.3016    106.3092
   976.7500      0.0000    736.6799      3.5815      1.2593    106.7476
   977.0000      0.0000    737.2184      3.5152      1.2518    109.8669
   977.2500      0.0000    735.3978      3.4676      1.2703    114.5329
   977.5000      0.0000    730.7442      3.4495      1.2883    119.0858
   977.7500      0.0000    722.9556      3.4508      1.2800    122.0960
   978.0000      0.0000    713.1371      3.4525      1.2377    123.1973
   978.2500      0.0000    704.4461      3.4417      1.1757    123.0492
   978.5000      0.0000    700.6443      3.4151      1.1137    122.3758
   978.7500      0.0000    703.3228      3.3758      1.0594    121.2204
   979.0000      0.0000    710.4695      3.3324      1.0152    119.3291
   979.2500      0.0000    717.7813      3.2972      0.9938    117.0222
   979.5000      0.0000    721.3663      3.2806      1.0109    115.1802
   979.7500      0.0000    719.5759      3.2842      1.0672    114.2791
   980.0000      0.0000    713.2231      3.2979      1.1459    113.6559
   980.2500      0.0000    704.7495      3.3051      1.2265    111.9793
   980.5000      0.0000    696.8779      3.2955      1.2928    108.5061
   980.7500      0.0000    691.3884      3.2733      1.3325    103.6963
   981.0000      0.0000    688.8940      3.2504      1.3426     98.4992
   981.2500      0.0000    689.5434      3.2334      1.3361     93.3967
   981.5000      0.0000    693.5522      3.2195      1.3316     88.5366
   981.7500      0.0000    700.9554      3.2030      1.3331     84.3910
   982.0000      0.0000    711.1275      3.1848      1.3296     81.5435
   982.2500      0.0000    722.5980      3.1733      1.3145     79.8715
   982.5000      0.0000    733.3035      3.1756      1.2956     78.4829
   982.7500      0.0000    741.4233      3.1893      1.2846     76.5753
   983.0000      0.0000    746.4433      3.2044      1.2830     74.1861
   983.2500      0.0000    748.9191      3.2123      1.2809     72.0852
   983.5000      0.0000    748.5953      3.2121      1.2685     71.0137
   983.7500      0.0000    743.3796      3.2092      1.2515     71.1171
   984.0000      0.0000    731.2105      3.2078      1.2518     72.1150
   984.2500      0.0000    713.1442      3.2074      1.2873     73.8000
   984.5000      0.0000    694.0968      3.2044      1.3522     76.1214
   984.7500      0.0000    680.3186      3.1975      1.4208     78.7955
   985.0000      0.0000    676.0823      3.1877      1.4650     80.9963
   985.2500      0.0000    681.9597      3.1785      1.4706     81.6018
   985.5000      0.0000    694.6443      3.1781      1.4449     79.8878
   985.7500      0.0000    708.2371      3.1953      1.4043     75.9410
   986.0000      0.0000    717.6567      3.2321      1.3556     70.3859
   986.2500      0.0000    722.4467      3.2826      1.2973     64.0130
   986.5000      0.0000    726.9637      3.3397      1.2377     57.7754
   986.7500      0.0000    735.9381      3.3954      1.1967     52.7249
   987.0000      0.0000    749.7590      3.4360      1.1877     49.5713
   987.2500      0.0000    764.0400      3.4454      1.2069     48.4032
   987.5000      0.0000    773.0608      3.4204      1.2405     49.0031
   987.7500     -2.0000    773.3447      3.3773      1.2774     51.2000
   988.0000      0.0000    764.7935      3.3399      1.3136     54.6366
   988.2500      0.0000    749.6748      3.3239      1.3504     58.3983
   988.5000      0.0000    731.4570      3.3315      1.3859     61.4458
   988.7500      0.0000    714.3757      3.3545      1.4097     63.5739
   989.0000      0.0000    702.8663      3.3794      1.4102     65.4765
   989.2500      0.0000    700.4625      3.3929      1.3906     67.5548
   989.5000      0.0000    708.2156      3.3887      1.3703     69.1079
   989.7500      0.0000    723.0116      3.3701      1.3653     69.2760
   990.0000      0.0000    738.1758      3.3461      1.3700     68.4652
   990.2500      0.0000    747.8287      3.3227      1.3646     68.1387
   990.5000      0.0000    750.8339      3.2973      1.3342     69.2411
   990.7500      0.0000    749.4561      3.2642      1.2844     71.3588
   991.0000      0.0000    745.6210      3.2228      1.2386     73.4779
   991.2500      0.0000    740.7690      3.1799      1.2189     75.0687
   991.5000      0.0000    738.0051      3.1452      1.2272     76.1936
   991.7500      0.0000    740.8716      3.1246      1.2453     77.0250
   992.0000      0.0000    748.8665      3.1185      1.2529     77.7635
   992.2500      0.0000    755.7193      3.1237      1.2477     78.8422
   992.5000      0.0000    753.8595      3.1354      1.2484     80.7275
   992.7500      0.0000    740.9990      3.1475      1.2748     83.4051
   993.0000      0.0000    721.6725      3.1553      1.3261     86.2916
   993.2500      0.0000    702.3888      3.1562      1.3840     88.7905
   993.5000      0.0000    686.5250      3.1499      1.4291     90.8001
   993.7500      0.0000    674.0671      3.1369      1.4517     92.5708
   994.0000      0.0000    664.5536      3.1194      1.4517     94.2726
   994.2500      0.0000    658.9291      3.1026      1.4321     95.9296
   994.5000      0.0000    659.3065      3.0944      1.3955     97.5646
   994.7500      0.0000    668.1137      3.0993      1.3486     99.1708
   995.0000      0.0000    686.8109      3.1159      1.3044    100.7706
   995.2500      0.0000    713.4655      3.1392      1.2794    102.6580
   995.5000      0.0000    741.0797      3.1648      1.2892    105.3286
   995.7500      0.0000    760.1140      3.1883      1.3407    108.9757
   996.0000      0.0000    764.0485      3.2049      1.4187    113.0621
   996.2500      0.0000    752.5757      3.2126      1.4877    116.4006
   996.5000      0.0000    730.7784      3.2145      1.5128    117.8047
   996.7500      0.0000    707.2112      3.2147      1.4822    116.8115
   997.0000      0.0000    690.9395      3.2131      1.4094    113.7588
   997.2500      0.0000    686.3523      3.2065      1.3176    109.3754
   997.5000      0.0000    690.3224      3.1951      1.2258    104.7525
   997.7500      0.0000    696.0895      3.1854      1.1466    101.5081
   998.0000      0.0000    699.3819      3.1847      1.0893    101.0437
   998.2500      0.0000    700.0241      3.1958      1.0586    103.2827
   998.5000      0.0000    699.3052      3.2164      1.0513    106.5740
   998.7500      0.0000    697.7137      3.2462      1.0618    109.1629
   999.0000      0.0000    695.1825      3.2898      1.0885    110.7314
   999.2500      0.0000    692.2147      3.3507      1.1279    112.5237
   999.5000      0.0000    689.8652      3.4236      1.1643    116.0762
   999.7500      0.0000    688.8483      3.4946      1.1749    121.7679
  1000.0000      0.0000    689.1231      3.5491      1.1461    128.2341
