~Version Information
VERS.                      2.0: CWLS Log ASCII Standard - VERSION 2.0
WRAP.                       NO: One line per depth step
~Well Information Block
STRT.FT                 0.0000: 
STOP.FT              1507.7500: 
STEP.FT                 0.2500: 
NULL.                -999.2500: 
COMP.          Pioneer Natural Resources: COMPANY
WELL.          Pioneer 34-27 Tr: WELL
FLD.           Purgatorie River: FIELD
LOC.           243' FSL & 1593' FEL: LOCATION
STAT.                 Colorado: State
CNTY.               Las Animas: COUNTY
CTRY. USA : Country
SECT. 27 : Section
TOWN. 32S : Township
RANG. 67W : Range
SRVC.                Patterson: SERVICE COMPANY
DATE.          Wed Oct 12 09:30:25 2005: LOG DATE
API.                          : UNIQUE WELL ID
~Curve Information Block
DEPT.FT            0 000 00 00: Depth
GR.GAPI                       : Gamma Ray
CCL.                          : Casing Collar Locator
TT3.usec                      : CBL 3' Travel Time
AMP3.mV                       : CBL 3' Amplitude
~Parameter Information Block
~A  Depth        GR         CCL         TT3         AMP3    
# ...
   100.5000     81.1484      0.0000    415.9418     20.5496
   100.7500     83.2360      0.0000    421.1758     20.5595
   101.0000     82.9208      0.0000    405.0159     20.5576
   101.2500     80.7297      0.0000    384.4207     20.5790
   101.5000     77.8893      0.0000    375.1510     20.6176
   101.7500     75.5653      0.0000    385.4258     20.6437
   102.0000     74.4441      0.0000    425.5687     20.6530
   102.2500     74.7308      0.0000    501.9566     20.6424
   102.5000     75.9413      0.0000    597.1176     20.5898
   102.7500     76.8298      0.0000    675.9036     20.5020
   103.0000     76.3152      0.0000    719.0557     20.4304
   103.2500     74.7591      0.0000    733.2573     20.4300
   103.5000     73.7898      0.0000    729.3621     20.5213
   103.7500     74.5604      0.0000    707.8189     20.6851
   104.0000     76.5972      0.0000    667.7746     20.8749
   104.2500     78.5818      0.0000    617.9910     21.0358
   104.5000     79.7849      0.0000    566.5406     21.1314
   104.7500     80.4138      0.0000    516.3810     21.1674
   105.0000     80.9078      0.0000    479.4254     21.1778
   105.2500     81.3482      0.0000    466.5654     21.1750
   105.5000     81.5973      0.0000    469.4857     21.1426
   105.7500     81.7463      0.0000    471.8858     21.0740
   106.0000     82.1901      0.0000    464.3222     20.9786
   106.2500     83.2066      0.0000    445.7065     20.8702
   106.5000     84.5204      0.0000    424.3137     20.7663
   106.7500     85.3663      0.0000    414.4534     20.6659
   107.0000     85.1292      0.0000    423.4859     20.5377
   107.2500     83.9996      0.0000    444.1163     20.3601
   107.5000     82.9561      0.0000    462.9156     20.1450
   107.7500     83.0829      0.0000    473.7759     19.9159
   108.0000     84.7949      0.0000    480.5929     19.6985
   108.2500     87.4402      0.0000    492.7809     19.5158
   108.5000     89.5684      0.0000    521.3752     19.3748
   108.7500     89.8734      0.0000    569.9808     19.2759
   109.0000     88.1681      0.0000    624.3308     19.2319
   109.2500     85.4438      0.0000    659.5956     19.2529
   109.5000     82.8927      0.0000    659.4303     19.3153
   109.7500     80.9692      0.0000    624.1087     19.3708
   110.0000     79.4112      0.0000    570.2534     19.3941
   110.2500     77.9009      0.0000    522.7210     19.3952
   110.5000     76.4446      0.0000    497.0400     19.3955
   110.7500     75.1818      0.0000    495.5334     19.4040
   111.0000     74.0492      0.0000    519.8444     19.4042
   111.2500     72.7662      0.0000    569.6926     19.3853
   111.5000     71.1732      0.0000    625.1612     19.3701
   111.7500     69.4580      0.0000    650.9836     19.3725
   112.0000     67.9485      0.0000    631.1978     19.3655
   112.2500     66.8279      0.0000    588.4611     19.3215
   112.5000     66.2038      0.0000    556.0988     19.2440
   112.7500     66.2610      0.0000    538.4050     19.1477
   113.0000     67.1231      0.0000    521.2307     19.0566
   113.2500     68.6760      0.0000    507.0462     19.0089
   113.5000     70.8054      0.0000    511.5770     19.0136
   113.7500     73.7858      0.0000    538.3455     19.0292
   114.0000     77.9789      0.0000    567.5680     19.0166
   114.2500     82.8079      0.0000    572.0544     18.9790
   114.5000     86.3897      0.0000    548.1403     18.9281
   114.7500     86.7880      0.0000    518.4850     18.8543
   115.0000     83.6546      0.0000    503.4652     18.7640
   115.2500     78.4667      0.0000    507.5392     18.6956
   115.5000     73.3004      0.0000    531.8111     18.6601
   115.7500     69.5016      0.0000    578.7944     18.6276
   116.0000     67.2977      0.0000    640.1332     18.5901
   116.2500     66.1962      0.0000    697.2528     18.5929
   116.5000     65.4391      0.0000    738.3496     18.6922
   116.7500     64.3619      0.0000    765.0115     18.8975
   117.0000     62.8739      0.0000    783.0929     19.1637
   117.2500     61.6580      0.0000    793.2070     19.4227
   117.5000     61.5532      0.0000    793.5409     19.6178
   117.7500     62.6793      0.0000    786.1375     19.7330
   118.0000     64.3744      0.0000    775.5126     19.7906
   118.2500     65.9337      0.0000    767.2000     19.8188
   118.5000     67.1497      0.0000    766.2333     19.8364
   118.7500     68.1526      0.0000    771.0573     19.8670
   119.0000     69.0641      0.0000    773.4044     19.9247
   119.2500     70.0195      0.0000    766.9032     19.9108
   119.5000     71.3506      0.0000    750.8931     19.5106
   119.7500     73.4172      0.0000    724.2014     18.3900
   120.0000     76.1001      0.0000    683.2676     16.8092
   120.2500     78.4656      0.0000    639.6993     15.6082
   120.5000     79.1222      0.0000    627.6292     14.9719
   120.7500     77.2335      0.0000    661.0936     14.2937
   121.0000     73.3034      0.0000    704.9688     13.5384
   121.2500     68.7948      0.0000    721.1456     13.1836
   121.5000     64.9872      0.0000    709.3697     13.2686
   121.7500     62.4110      0.0000    692.5873     13.4607
   122.0000     61.1046     -2.0000    689.6910     13.5244
   122.2500     60.8198     -2.0000    696.9376     13.4338
   122.5000     61.0068      0.0000    688.3969     13.2893
   122.7500     61.1585      0.0000    646.5326     13.4242
   123.0000     61.3623      0.0000    594.9296     14.2981
   123.2500     62.3323      0.0000    580.8347     15.7585
   123.5000     64.7489      0.0000    618.0818     17.1411
   123.7500     68.4046      0.0000    673.9250     18.2923
   124.0000     71.9735      0.0000    713.0383     19.3782
   124.2500     73.9637      0.0000    726.8798     20.2114
   124.5000     74.1261      0.0000    724.6122     20.4996
   124.7500     73.6773      0.0000    718.7927     20.2372
   125.0000     74.0798      0.0000    718.7586     19.6967
   125.2500     75.8986      0.0000    725.4146     19.2061
   125.5000     78.7264      0.0000    732.9006     18.9464
   125.7500     81.5730      0.0000    737.0129     18.9116
   126.0000     83.2522      0.0000    738.2270     19.0063
   126.2500     82.9859      0.0000    738.3554     19.1539
   126.5000     80.9521      0.0000    738.3070     19.3229
   126.7500     78.1196      0.0000    738.3070     19.5014
   127.0000     75.5215      0.0000    738.3860     19.6629
   127.2500     73.7775      0.0000    738.5225     19.7596
   127.5000     73.2558      0.0000    738.6782     19.7538
   127.7500     74.4318      0.0000    738.8012     19.6595
   128.0000     77.6404      0.0000    738.8569     19.5510
   128.2500     82.2439      0.0000    738.8705     19.4966
   128.5000     86.3492      0.0000    738.9022     19.4689
   128.7500     87.9231      0.0000    738.9893     19.3647
   129.0000     86.4866      0.0000    739.1405     19.1603
   129.2500     83.5625      0.0000    739.3455     18.9714
   129.5000     81.2354      0.0000    739.5435     18.8828
   129.7500     80.3844      0.0000    739.8501     18.8441
   130.0000     80.4781      0.0000    741.2556     18.7913
   130.2500     80.7413      0.0000    745.8772     18.7371
   130.5000     80.9569      0.0000    755.0612     18.7215
   130.7500     81.0887      0.0000    766.5170     18.7676
   131.0000     80.7104      0.0000    775.6043     18.8779
   131.2500     79.3340      0.0000    780.1582     19.0355
   131.5000     77.2533      0.0000    781.5146     19.2097
   131.7500     75.6274      0.0000    781.3945     19.3619
   132.0000     75.4279      0.0000    779.7908     19.4709
   132.2500     76.3554      0.0000    775.0957     19.5527
   132.5000     76.9646      0.0000    766.1371     19.6059
   132.7500     75.8800      0.0000    754.9894     19.5787
   133.0000     72.8274      0.0000    746.0147     19.4478
   133.2500     68.7078      0.0000    741.3304     19.2654
   133.5000     64.9797      0.0000    739.6653     19.1117
   133.7500     62.8028      0.0000    739.1826     19.0604
