~Version Information
VERS.                      2.0: CWLS Log ASCII Standard - VERSION 2.0
WRAP.                       NO: One line per depth step
~Well Information Block
STRT.FT               555.0000: 
STOP.FT              2322.2500: 
STEP.FT                 0.2500: 
NULL.                -999.2500: 
COMP.          Pioneer Natural Resources: COMPANY
WELL.          Fittipaldi 21-12: WELL
FLD.           Purgatoire River: FIELD
LOC.           207' FNL & 2110' FWL--: LOCATION
CNTY.               Las Animas: COUNTY
SRVC.                Patterson: SERVICE COMPANY
DATE.          Tue Mar 21 10:27:48 2006: LOG DATE
UWI.           05 071 08492 00: UNIQUE WELL ID
STAT.                 Colorado: STATE
~Curve Information Block
DEPT.FT            0 000 00 00: Depth
SN.Ohm-m                      : IEL Short Normal
SP.mV                         : IEL Spontaneous Potential
DIR.Ohm-m                     : IEL Induction Resistivity
GR.GAPI                       : Gamma Ray
~Parameter Information Block
~A  Depth        SN          SP         DIR          GR     
# ...
   655.5000   2000.0000   1990.0000     23.7429    102.0166
   655.7500   2000.0000   1990.0000     24.7450    102.8813
   656.0000   2000.0000   1990.0000     25.7224    103.7103
   656.2500   2000.0000   1990.0000     26.6134    103.4629
   656.5000   2000.0000   1990.0000     27.3750    101.1725
   656.7500   2000.0000   1990.0000     27.9862     98.2222
   657.0000   2000.0000   1990.0000     28.4488     92.1423
   657.2500   2000.0000   1990.0000     28.7844     87.5902
   657.5000   2000.0000   1990.0000     29.0207     81.1593
   657.7500   2000.0000   1990.0000     29.1662     77.7234
   658.0000   2000.0000   1990.0000     29.1927     74.6964
   658.2500   2000.0000   1990.0000     29.0495     74.5210
   658.5000   2000.0000   1990.0000     28.7076     77.5508
   658.7500   2000.0000   1990.0000     28.1980     81.8002
   659.0000   2000.0000   1990.0000     27.6109     90.7231
   659.2500   2000.0000   1990.0000     27.0567     97.3452
   659.5000   2000.0000   1990.0000     26.6190    105.9872
   659.7500   2000.0000   1990.0000     26.3310    109.7080
   660.0000   2000.0000   1990.0000     26.1763    111.4983
   660.2500   2000.0000   1990.0000     26.1097    110.7131
   660.5000   2000.0000   1990.0000     26.0813    108.4224
   660.7500   2000.0000   1990.0000     26.0534    107.0620
   661.0000   2000.0000   1990.0000     26.0007    105.8522
   661.2500   2000.0000   1990.0000     25.9015    105.4566
   661.5000   2000.0000   1990.0000     25.7330    104.9134
   661.7500   2000.0000   1990.0000     25.4840    104.3734
   662.0000   2000.0000   1990.0000     25.1727    103.4814
   662.2500   2000.0000   1990.0000     24.8509    103.1884
   662.5000   2000.0000   1990.0000     24.5862    103.8400
   662.7500   2000.0000   1990.0000     24.4366    105.2128
   663.0000   2000.0000   1990.0000     24.4304    108.5057
   663.2500   2000.0000   1990.0000     24.5547    111.0271
   663.5000   2000.0000   1990.0000     24.7538    114.0026
   663.7500   2000.0000   1990.0000     24.9426    114.8098
   664.0000   2000.0000   1990.0000     25.0384    113.9885
   664.2500   2000.0000   1990.0000     24.9982    112.3789
   664.5000   2000.0000   1990.0000     24.8331    109.0639
   664.7500   2000.0000   1990.0000     24.5917    106.5814
   665.0000   2000.0000   1990.0000     24.3254    103.1195
   665.2500   2000.0000   1990.0000     24.0633    101.5936
   665.5000   2000.0000   1990.0000     23.8046    101.6577
   665.7500   2000.0000   1990.0000     23.5280    103.6385
   666.0000   2000.0000   1990.0000     23.2064    109.0507
   666.2500   2000.0000   1990.0000     22.8191    113.4448
   666.5000   2000.0000   1990.0000     22.3530    119.4303
   666.7500   2000.0000   1990.0000     21.8008    122.1060
   667.0000   2000.0000   1990.0000     21.1642    123.4454
   667.2500   2000.0000   1990.0000     20.4623    122.9602
   667.5000   2000.0000   1990.0000     19.7347    121.9255
   667.7500   2000.0000   1990.0000     19.0319    121.8991
   668.0000   2000.0000   1990.0000     18.3961    123.0174
   668.2500   2000.0000   1990.0000     17.8453    124.1645
   668.5000   2000.0000   1990.0000     17.3691    126.1647
   668.7500   2000.0000   1990.0000     16.9381    127.7253
   669.0000   2000.0000   1990.0000     16.5232    130.0992
   669.2500   2000.0000   1990.0000     16.1126    131.1996
   669.5000   2000.0000   1990.0000     15.7171    131.4560
   669.7500   2000.0000   1990.0000     15.3604    130.7936
   670.0000   2000.0000   1990.0000     15.0645    129.3773
   670.2500   2000.0000   1990.0000     14.8431    128.6515
   670.5000   2000.0000   1990.0000     14.7034    128.1735
   670.7500   2000.0000   1990.0000     14.6506    127.9194
   671.0000   2000.0000   1990.0000     14.6884    126.4878
   671.2500   2000.0000   1990.0000     14.8145    124.4113
   671.5000   2000.0000   1990.0000     15.0163    120.1684
   671.7500   2000.0000   1990.0000     15.2715    117.4285
   672.0000   2000.0000   1990.0000     15.5530    114.5729
   672.2500   2000.0000   1990.0000     15.8359    113.5875
   672.5000   2000.0000   1990.0000     16.0991    112.9344
   672.7500   2000.0000   1990.0000     16.3236    112.7123
   673.0000   2000.0000   1990.0000     16.4892    112.5736
   673.2500   2000.0000   1990.0000     16.5755    112.6956
   673.5000   2000.0000   1990.0000     16.5675    113.1991
   673.7500   2000.0000   1990.0000     16.4607    113.6593
   674.0000   2000.0000   1990.0000     16.2605    114.6271
   674.2500   2000.0000   1990.0000     15.9796    115.7513
   674.5000   2000.0000   1990.0000     15.6362    118.7994
   674.7500   2000.0000   1990.0000     15.2545    121.8581
   675.0000   2000.0000   1990.0000     14.8627    127.1680
   675.2500   2000.0000   1990.0000     14.4882    130.2250
   675.5000   2000.0000   1990.0000     14.1541    132.6920
   675.7500   2000.0000   1990.0000     13.8772    132.8354
   676.0000   2000.0000   1990.0000     13.6656    131.9866
   676.2500   2000.0000   1990.0000     13.5185    131.7598
   676.5000   2000.0000   1990.0000     13.4253    133.2064
   676.7500   2000.0000   1990.0000     13.3696    135.3600
   677.0000   2000.0000   1990.0000     13.3349    139.1937
   677.2500   2000.0000   1990.0000     13.3129    141.2854
   677.5000   2000.0000   1990.0000     13.3092    142.7771
   677.7500   2000.0000   1990.0000     13.3431    142.5412
   678.0000   2000.0000   1990.0000     13.4400    140.6377
   678.2500   2000.0000   1990.0000     13.6231    138.6534
   678.5000   2000.0000   1990.0000     13.9091    135.0317
   678.7500   2000.0000   1990.0000     14.3084    132.2474
   679.0000   2000.0000   1990.0000     14.8273    127.3270
   679.2500   2000.0000   1990.0000     15.4687    123.3127
   679.5000   2000.0000   1990.0000     16.2319    115.7441
   679.7500   2000.0000   1990.0000     17.1127    109.6048
   680.0000   2000.0000   1990.0000     18.1091     99.2589
   680.2500   2000.0000   1990.0000     19.2275     92.1617
   680.5000   2000.0000   1990.0000     20.4873     82.3360
   680.7500   2000.0000   1990.0000     21.9167     76.9239
   681.0000   2000.0000   1990.0000     23.5381     71.0069
   681.2500   2000.0000   1990.0000     25.3467     68.3858
   681.5000   2000.0000   1990.0000     27.2904     65.7777
   681.7500   2000.0000   1990.0000     29.2612     64.5593
   682.0000   2000.0000   1990.0000     31.1108     63.0624
   682.2500   2000.0000   1990.0000     32.6967     62.1349
   682.5000   2000.0000   1990.0000     33.9405     60.9815
   682.7500   2000.0000   1990.0000     34.8629     60.6622
   683.0000   2000.0000   1990.0000     35.5646     61.1760
   683.2500   2000.0000   1990.0000     36.1671     61.9918
   683.5000   2000.0000   1990.0000     36.7495     63.1200
   683.7500   2000.0000   1990.0000     37.3167     63.3776
   684.0000   2000.0000   1990.0000     37.8081     62.8431
   684.2500   2000.0000   1990.0000     38.1420     62.1292
   684.5000   2000.0000   1990.0000     38.2683     61.1002
   684.7500   2000.0000   1990.0000     38.1971     60.5365
   685.0000   2000.0000   1990.0000     37.9924     59.6615
   685.2500   2000.0000   1990.0000     37.7457     59.0164
   685.5000   2000.0000   1990.0000     37.5523     58.1989
   685.7500   2000.0000   1990.0000     37.4930     57.8777
   686.0000   2000.0000   1990.0000     37.6149     57.7003
   686.2500   2000.0000   1990.0000     37.9140     57.7366
   686.5000   2000.0000   1990.0000     38.3330     58.0190
   686.7500   2000.0000   1990.0000     38.7815     58.2793
   687.0000   2000.0000   1990.0000     39.1697     58.3772
   687.2500   2000.0000   1990.0000     39.4400     58.0430
   687.5000   2000.0000   1990.0000     39.5781     57.0963
   687.7500   2000.0000   1990.0000     39.6083     56.5840
   688.0000   2000.0000   1990.0000     39.5838     56.8652
   688.2500   2000.0000   1990.0000     39.5744     58.0484
   688.5000   2000.0000   1990.0000     39.6492     60.9559
   688.7500   2000.0000   1990.0000     39.8529     62.9065
