~Version Information
VERS.                      2.0: CWLS Log ASCII Standard - VERSION 2.0
WRAP.                       NO: One line per depth step
~Well Information Block
STRT.FT               240.0000: 
STOP.FT              1456.0000: 
STEP.FT                 0.1000: 
NULL.                -999.2500: 
COMP.          Pioneer Natural Resources: COMPANY
WELL.              Darren 11-7: WELL
FLD.           Purgatoire River: FIELD
LOC.           230' FNL & 596' FWL: LOCATION
CNTY.               Las Animas: COUNTY
SRVC.                Patterson: SERVICE COMPANY
DATE.          Mon Mar 20 07:16:06 2006: LOG DATE
UWI.           05 071 08720 00: UNIQUE WELL ID
STAT.                 Colorado: STATE
~Curve Information Block
DEPT.FT            0 000 00 00: Depth
DCAL.in                       : CDL Caliper
RHOB.g/cc                     : CDL Bulk Density
RHOC.g/cc                     : CDL Density Correction
DPOR.pu                       : CDL Density Porosity
GR.GAPI                       : Gamma Ray
NPOR.pu                       : Neutron Porosity
~Parameter Information Block
~A  Depth       DCAL        RHOB        RHOC        DPOR         GR         NPOR    
# ...
   796.8000      7.8742      2.5437      0.0951      6.4404    149.9019     27.9839
   796.9000      7.8742      2.5206      0.0495      7.8422    146.3518     27.7940
   797.0000      7.8894      2.4822      0.0161     10.1710    143.3580     27.4827
   797.1000      7.8894      2.4481      0.0021     12.2340    142.4722     27.0591
   797.2000      7.8894      2.4321     -0.0159     13.2043    145.5525     26.5714
   797.3000      7.9117      2.4328      0.0015     13.1612    153.7113     26.2760
   797.4000      7.9117      2.4337      0.0423     13.1079    165.8148     26.1772
   797.5000      7.9383      2.4261      0.0128     13.5679    172.7589     26.1925
   797.6000      7.9383      2.4155      0.0363     14.2133    168.5071     26.4553
   797.7000      7.9383      2.4048      0.0384     14.8577    161.6139     26.7774
   797.8000      7.9709      2.4027      0.0099     14.9860    159.4221     26.7752
   797.9000      7.9709      2.4214      0.0726     13.8566    161.4861     26.6248
   798.0000      8.0098      2.4500      0.1221     12.1183    164.2025     26.7904
   798.1000      8.0098      2.4620      0.2381     11.3919    165.3338     27.2878
   798.2000      8.0098      2.4465      0.1753     12.3353    165.5995     27.8696
   798.3000      8.0533      2.4222      0.1142     13.8087    163.3081     28.4031
   798.4000      8.0533      2.4173      0.1157     14.1056    156.4616     28.7529
   798.5000      8.0458      2.4375      0.1337     12.8791    150.3099     28.8127
   798.6000      8.0458      2.4677      0.1332     11.0457    148.4230     28.8102
   798.7000      8.0458      2.5034      0.1064      8.8863    146.3430     29.1590
   798.8000      7.9448      2.5529      0.1330      5.8877    144.0505     29.6685
   798.9000      7.9448      2.6129      0.1723      2.2509    143.3669     29.7438
   799.0000      7.9120      2.6630      0.2021     -0.7852    141.1577     29.4676
   799.1000      7.9120      2.6798      0.2313     -1.8053    137.5957     29.3527
   799.2000      7.9120      2.6568      0.1967     -0.4096    134.2916     29.4886
   799.3000      7.9474      2.6110      0.1301      2.3654    129.9437     29.7188
   799.4000      7.9474      2.5655      0.0746      5.1225    124.7306     29.8903
   799.5000      7.9444      2.5436     -0.0148      6.4504    119.7969     29.8063
   799.6000      7.9444      2.5564      0.0580      5.6700    115.9177     29.5736
   799.7000      7.9444      2.5780      0.0961      4.3655    114.2726     29.3490
   799.8000      7.8890      2.5820      0.0858      4.1222    115.4802     28.9750
   799.9000      7.8890      2.5789      0.0805      4.3090    119.0788     28.5419
   800.0000      7.8777      2.5921      0.0729      3.5079    121.7957     28.3395
   800.1000      7.8777      2.6260      0.0933      1.4565    120.6424     28.2527
   800.2000      7.8777      2.6520      0.1912     -0.1209    120.2169     28.0267
   800.3000      7.8671      2.6363      0.1184      0.8333    123.1441     27.7001
   800.4000      7.8671      2.5908      0.0990      3.5874    124.0747     27.3966
   800.5000      7.8584      2.5543      0.1082      5.8019    120.6988     27.2067
   800.6000      7.8584      2.5363      0.1093      6.8898    115.2270     27.1138
   800.7000      7.8584      2.5206      0.0877      7.8430    108.9301     26.9788
   800.8000      7.8564      2.5045      0.0145      8.8192    106.8692     26.7128
   800.9000      7.8564      2.5030      0.0701      8.9075    113.7779     26.5272
   801.0000      7.8633      2.5166      0.0744      8.0835    126.3018     26.7321
   801.1000      7.8633      2.5295      0.1460      7.3035    139.1101     27.0987
   801.2000      7.8633      2.5299      0.1412      7.2809    145.7127     27.3876
   801.3000      7.8521      2.5282      0.1119      7.3788    142.6119     27.7063
   801.4000      7.8521      2.5417      0.0977      6.5636    136.0242     28.0046
   801.5000      7.8517      2.5678      0.1386      4.9790    132.3447     28.3333
   801.6000      7.8517      2.5953      0.1322      3.3168    132.2374     28.8605
   801.7000      7.8517      2.6153      0.1524      2.1050    136.4097     29.4156
   801.8000      7.8648      2.6220      0.1294      1.6956    144.3270     29.8584
   801.9000      7.8648      2.6130      0.1290      2.2426    150.3088     30.1353
   802.0000      7.8934      2.5849      0.0833      3.9467    150.7356     30.2588
   802.1000      7.8934      2.5484      0.0287      6.1575    147.5572     30.2028
   802.2000      7.8934      2.5294      0.0418      7.3094    144.1853     29.8013
   802.3000      7.8948      2.5344      0.0439      7.0052    142.7756     29.3060
   802.4000      7.8948      2.5435      0.0785      6.4533    142.2165     29.1981
   802.5000      7.9028      2.5423      0.0740      6.5247    140.0918     29.3776
   802.6000      7.9028      2.5393      0.0509      6.7103    135.1729     29.3447
   802.7000      7.9028      2.5496      0.0587      6.0866    128.8097     29.1176
   802.8000      7.9021      2.5747      0.1230      4.5623    120.6499     29.0454
   802.9000      7.9021      2.5991      0.1293      3.0864    108.4687     28.9095
   803.0000      7.8862      2.6128      0.1255      2.2562     97.1387     28.2287
   803.1000      7.8862      2.6239      0.1482      1.5793     92.8686     27.0831
   803.2000      7.8862      2.6311      0.2046      1.1462     94.1488     26.0760
   803.3000      7.8657      2.6156      0.1005      2.0874     95.7243     25.7212
   803.4000      7.8657      2.5847      0.0157      3.9570     96.5396     25.8521
   803.5000      7.8722      2.5677      0.0437      4.9886     98.0725     25.9707
   803.6000      7.8722      2.5656      0.0794      5.1175     98.2922     26.0048
   803.7000      7.8722      2.5560      0.0824      5.6956     98.4343     26.2342
   803.8000      7.8963      2.5292      0.0931      7.3215    104.2636     26.7047
   803.9000      7.8963      2.4997      0.0221      9.1119    115.0319     27.1191
   804.0000      7.8909      2.4882      0.0781      9.8070    124.2117     27.3024
   804.1000      7.8909      2.4981      0.0872      9.2038    129.1357     27.5018
   804.2000      7.8909      2.5206      0.1156      7.8419    131.8062     27.7813
   804.3000      7.8966      2.5426      0.1132      6.5079    132.9363     27.8434
   804.4000      7.8966      2.5516      0.0799      5.9627    133.9536     27.6712
   804.5000      7.8794      2.5436      0.1568      6.4489    136.3515     27.4531
   804.6000      7.8794      2.5311      0.1101      7.2070    139.6505     27.3102
   804.7000      7.8794      2.5369      0.0877      6.8522    143.1322     27.2416
   804.8000      7.9085      2.5615      0.1696      5.3637    145.2210     27.1815
   804.9000      7.9085      2.5834      0.1635      4.0366    145.1084     27.2441
   805.0000      7.9095      2.5889      0.1156      3.7033    144.0403     27.6090
   805.1000      7.9095      2.5727      0.1454      4.6867    142.6098     28.2174
   805.2000      7.9095      2.5348      0.0838      6.9837    140.3616     28.7539
   805.3000      7.9472      2.4902      0.0769      9.6846    139.6860     29.0066
   805.4000      7.9472      2.4654     -0.0430     11.1905    143.3965     29.2417
   805.5000      7.9816      2.4723      0.0528     10.7680    147.3815     29.4813
   805.6000      7.9816      2.4932      0.0619      9.5050    147.8313     29.4436
   805.7000      7.9816      2.5100      0.0534      8.4868    146.6134     29.2844
   805.8000      7.9269      2.5179      0.1135      8.0058    144.0183     29.4467
   805.9000      7.9269      2.5222      0.0941      7.7482    140.3233     29.8510
   806.0000      7.9003      2.5314      0.1162      7.1853    136.8605     29.8754
   806.1000      7.9003      2.5388      0.1102      6.7399    133.4774     29.2253
   806.2000      7.9003      2.5370      0.1182      6.8478    130.6707     28.3507
   806.3000      7.9031      2.5341      0.0948      7.0215    127.1786     27.8939
