~Version Information
VERS.                      2.0: CWLS Log ASCII Standard - VERSION 2.0
WRAP.                       NO: One line per depth step
~Well Information Block
STRT.FT               892.0000: 
STOP.FT              2094.0000: 
STEP.FT                 0.1000: 
NULL.                -999.2500: 
COMP.          Pioneer Natural Resources: COMPANY
WELL.          Greenwood 43-29 Tr: WELL
FLD.           Purgatoire River: FIELD
LOC.           1478' FSL & 744' FEL: LOCATION
STAT.                 Colorado: State
CNTY.               Las Animas: COUNTY
CTRY. USA : Country
SECT. 29 : Section
TOWN. 32S : Township
RANG. 67W : Range
SRVC.                Patterson: SERVICE COMPANY
DATE.          Wed Aug 31 10:39:20 2005: LOG DATE
API.           05 071 08478 00: UNIQUE WELL ID
~Curve Information Block
DEPT.FT            0 000 00 00: Depth
DCAL.in                       : CDL Caliper
RHOB.g/cc                     : CDL Bulk Density
RHOC.g/cc                     : CDL Density Correction
DPOR.pu                       : CDL Density Porosity
GR.GAPI                       : Gamma Ray
NPOR.pu                       : Neutron Porosity
~Parameter Information Block
~A  Depth       DCAL        RHOB        RHOC        DPOR         GR         NPOR    
# ...
  1208.8000      8.2845      2.5559     -0.0531      5.7043    124.9591     21.9256
  1208.9000      8.2845      2.5270     -0.0443      7.4555    123.8670     21.9942
  1209.0000      8.2725      2.5087     -0.0571      8.5619    122.8032     23.0093
  1209.1000      8.2725      2.5001     -0.0252      9.0863    121.3990     23.8044
  1209.2000      8.2725      2.4948      0.0131      9.4059    115.6802     23.6764
  1209.3000      8.2303      2.4816      0.0074     10.2075    106.8977     22.6825
  1209.4000      8.2303      2.4577     -0.0306     11.6569    101.0284     20.9665
  1209.5000      8.1860      2.4387     -0.0225     12.8072     98.7283     19.0435
  1209.6000      8.1860      2.4432      0.0124     12.5311     94.3858     17.6305
  1209.7000      8.1860      2.4688      0.0557     10.9839     84.5598     16.7022
  1209.8000      8.1456      2.4969     -0.0120      9.2790     72.6668     16.3607
  1209.9000      8.1456      2.5138      0.0374      8.2554     65.0620     16.7182
  1210.0000      8.1012      2.5099      0.0685      8.4921     63.2440     16.6802
  1210.1000      8.1012      2.4880     -0.0031      9.8187     63.4578     15.8886
  1210.2000      8.1012      2.4648      0.0402     11.2254     62.5695     15.3822
  1210.3000      8.0922      2.4509      0.0024     12.0663     58.7839     15.4350
  1210.4000      8.0922      2.4453     -0.0016     12.4039     52.7091     15.7006
  1210.5000      8.0457      2.4451     -0.0198     12.4156     47.7518     15.9535
  1210.6000      8.0457      2.4564     -0.0353     11.7335     45.5612     16.0488
  1210.7000      8.0457      2.4790      0.0530     10.3606     44.0584     15.8600
  1210.8000      8.0613      2.5012      0.0390      9.0193     40.0840     15.5982
  1210.9000      8.0613      2.5221      0.0522      7.7492     36.1322     15.6295
  1211.0000      8.0729      2.5466      0.0507      6.2690     37.4200     15.7881
  1211.1000      8.0729      2.5664      0.0947      5.0683     41.1604     15.7756
  1211.2000      8.0729      2.5719      0.0829      4.7319     41.5063     15.5783
  1211.3000      8.0709      2.5679      0.1019      4.9768     40.4145     15.3123
  1211.4000      8.0709      2.5656      0.1006      5.1138     41.5299     15.0384
  1211.5000      8.0519      2.5735      0.1060      4.6388     42.9224     14.7355
  1211.6000      8.0519      2.5910      0.1431      3.5779     42.7659     14.3915
  1211.7000      8.0519      2.6105      0.1215      2.3960     41.9952     14.2405
  1211.8000      8.0072      2.6156      0.1563      2.0819     42.3014     14.7216
  1211.9000      8.0072      2.5981      0.1165      3.1472     44.6748     15.7139
  1212.0000      7.9954      2.5752      0.0829      4.5330     47.4877     16.6009
  1212.1000      7.9954      2.5579      0.0868      5.5832     47.8598     16.9323
  1212.2000      7.9954      2.5344      0.0568      7.0045     44.8823     16.8450
  1212.3000      8.0267      2.5028      0.0598      8.9196     39.8370     16.6911
  1212.4000      8.0267      2.4839      0.0075     10.0658     35.9084     16.3934
  1212.5000      8.1210      2.4953      0.0396      9.3736     37.8475     16.0034
  1212.6000      8.1210      2.5260      0.1125      7.5165     44.1574     15.8748
  1212.7000      8.1210      2.5524      0.0782      5.9174     48.1862     16.0212
  1212.8000      8.1298      2.5636      0.1328      5.2335     48.5266     16.2371
  1212.9000      8.1298      2.5636      0.1193      5.2333     45.7392     16.3089
  1213.0000      8.0584      2.5645      0.1071      5.1818     40.7363     16.1801
  1213.1000      8.0584      2.5711      0.0897      4.7815     38.1396     16.0994
  1213.2000      8.0584      2.5774      0.1560      4.3990     39.0309     15.8519
  1213.3000      7.9697      2.5852      0.1060      3.9271     40.5911     14.9730
  1213.4000      7.9697      2.5957      0.1173      3.2916     42.1544     14.0896
  1213.5000      7.9693      2.5873      0.1334      3.8022     43.2712     14.1059
  1213.6000      7.9693      2.5512      0.0730      5.9907     42.2226     14.8745
  1213.7000      7.9693      2.5172      0.0294      8.0494     40.2176     15.5311
  1213.8000      8.0070      2.5118      0.0093      8.3741     40.1334     15.7078
  1213.9000      8.0070      2.5222      0.0398      7.7442     41.3074     15.8634
  1214.0000      7.9931      2.5274      0.0034      7.4303     43.5517     16.4266
  1214.1000      7.9931      2.5396      0.0178      6.6885     47.4412     16.9632
  1214.2000      7.9931      2.5709      0.0217      4.7931     49.9914     16.8292
  1214.3000      8.0353      2.5942      0.0831      3.3846     49.9371     16.7119
  1214.4000      8.0353      2.5844      0.0948      3.9746     52.6998     17.4507
  1214.5000      8.0462      2.5585      0.0764      5.5453     63.3107     18.5124
  1214.6000      8.0462      2.5451      0.0622      6.3579     78.0581     19.5675
  1214.7000      8.0462      2.5498      0.0337      6.0743     89.2784     20.9587
  1214.8000      8.0271      2.5585      0.1175      5.5449     95.0304     22.3848
  1214.9000      8.0271      2.5577      0.1110      5.5919     97.4521     22.9641
  1215.0000      8.0131      2.5546      0.0551      5.7831     97.8929     22.4447
  1215.1000      8.0131      2.5583      0.0829      5.5552     97.0122     21.6474
  1215.2000      8.0131      2.5629      0.1303      5.2760     93.8406     21.2553
  1215.3000      7.9844      2.5630      0.1103      5.2716     90.9211     21.3074
  1215.4000      7.9844      2.5560      0.1557      5.6969     94.2682     21.7166
  1215.5000      8.0405      2.5416      0.1123      6.5712    100.1088     22.4691
  1215.6000      8.0405      2.5272      0.1146      7.4442    100.3016     23.5295
  1215.7000      8.0405      2.5202      0.0767      7.8657     95.7424     24.4884
  1215.8000      8.0744      2.5232      0.0816      7.6839     91.4783     24.5329
  1215.9000      8.0744      2.5287      0.1165      7.3518     88.8639     23.7395
  1216.0000      8.0898      2.5303      0.0904      7.2563     88.2926     22.8886
  1216.1000      8.0898      2.5386      0.0426      6.7510     91.1650     21.9332
  1216.2000      8.0898      2.5626      0.1449      5.2981     93.3121     20.8020
  1216.3000      8.0343      2.5897      0.1887      3.6545     89.2358     19.8596
  1216.4000      8.0343      2.6137      0.1538      2.1988     82.8460     19.1192
  1216.5000      7.9997      2.6414      0.2089      0.5225     80.2630     18.6424
  1216.6000      7.9997      2.6599      0.2012     -0.6002     79.8714     18.6869
  1216.7000      7.9997      2.6472      0.2086      0.1697     77.8554     18.8836
  1216.8000      7.9521      2.6064      0.1178      2.6417     74.5058     18.6515
  1216.9000      7.9521      2.5622      0.0763      5.3238     72.3027     18.4572
  1217.0000      7.9741      2.5369      0.0407      6.8544     71.2355     18.9868
  1217.1000      7.9741      2.5325      0.0659      7.1239     67.1015     19.3907
  1217.2000      7.9741      2.5323      0.0544      7.1356     59.6585     18.7158
  1217.3000      8.0489      2.5335      0.0348      7.0627     54.8954     17.7964
  1217.4000      8.0489      2.5447      0.0464      6.3791     56.3237     17.6953
  1217.5000      8.0673      2.5563      0.1068      5.6760     62.0166     18.4810
  1217.6000      8.0673      2.5546      0.0524      5.7846     67.4789     19.2321
  1217.7000      8.0673      2.5486      0.0793      6.1457     70.6242     19.0346
  1217.8000      8.0786      2.5503      0.0648      6.0438     74.0391     18.2962
  1217.9000      8.0786      2.5541      0.0822      5.8112     78.2543     18.0260
  1218.0000      8.0878      2.5435      0.0751      6.4569     81.2940     18.6402
  1218.1000      8.0878      2.5114      0.0150      8.4010     84.0884     20.0417
  1218.2000      8.0878      2.4708     -0.0053     10.8627     87.0652     21.4957
  1218.3000      8.0753      2.4418      0.0094     12.6208     88.9242     22.0259
