~Version Information
VERS.                      2.0: CWLS Log ASCII Standard - VERSION 2.0
WRAP.                       NO: One line per depth step
~Well Information Block
STRT.FT                -6.7500: 
STOP.FT              1121.2500: 
STEP.FT                 0.2500: 
NULL.                -999.2500: 
COMP.          Pioneer Natural Resources: COMPANY
WELL.              Draco 31-21: WELL
FLD.           Purgatorie River: FIELD
LOC.           491' FNL & 2446' FEL--: LOCATION
CNTY.               Las Animas: COUNTY
SRVC.          Patterson Wireline: SERVICE COMPANY
DATE.          Mon Feb 06 09:50:04 2006: LOG DATE
UWI.           05 071 08672 00: UNIQUE WELL ID
STAT.                       CO: STATE
~Curve Information Block
DEPT.FT            0 000 00 00: Depth
CCL.                          : Casing Collar Locator
TT3.usec                      : CBL 3' Travel Time
AMP3.mV                       : CBL 3' Amplitude
GR.GAPI                       : Gamma Ray
~Parameter Information Block
~A  Depth       CCL         TT3         AMP3         GR     
# ...
   864.2500      0.0000    677.0528      5.5792     82.8109
   864.5000      0.0000    675.8670      5.5871     82.5421
   864.7500      0.0000    675.4230      5.5754     85.3159
   865.0000      0.0000    675.2805      5.5262     90.8911
   865.2500      0.0000    675.1176      5.4360     97.5210
   865.5000      0.0000    674.9836      5.3133    102.5676
   865.7500      0.0000    675.4187      5.1732    103.7872
   866.0000      0.0000    677.3155      5.0311    100.1333
   866.2500      0.0000    681.2686      4.8976     92.0062
   866.5000      0.0000    686.7397      4.7733     81.3064
   866.7500      0.0000    692.2388      4.6454     70.7821
   867.0000      0.0000    697.0304      4.4966     62.6241
   867.2500      0.0000    702.4167      4.3227     57.5311
   867.5000      0.0000    710.3221      4.1402     55.2022
   867.7500      0.0000    720.5319      3.9772     55.4722
   868.0000      0.0000    730.1920      3.8581     58.4839
   868.2500      0.0000    736.0569      3.7961     63.6871
   868.5000      0.0000    736.6070      3.7945     69.3303
   868.7500      0.0000    732.6478      3.8500     73.5402
   869.0000      0.0000    727.2247      3.9541     75.8225
   869.2500      0.0000    724.5862      4.0913     77.1550
   869.5000      0.0000    727.3391      4.2414     78.6864
   869.7500      0.0000    733.9534      4.3880     80.6358
   870.0000      0.0000    739.8776      4.5275     82.3497
   870.2500      0.0000    741.1241      4.6728     83.0293
   870.5000      0.0000    736.2734      4.8447     82.3754
   870.7500      0.0000    726.0534      5.0535     80.9024
   871.0000      0.0000    712.5865      5.2824     79.8880
   871.2500      0.0000    698.8829      5.4917     80.7237
   871.5000      0.0000    687.6647      5.6405     83.7729
   871.7500      0.0000    679.9467      5.7080     87.7887
   872.0000      0.0000    674.7025      5.6987     90.8337
   872.2500      0.0000    669.7681      5.6355     92.0370
   872.5000      0.0000    663.1722      5.5496     92.2471
   872.7500      0.0000    654.2944      5.4707     92.6949
   873.0000      0.0000    644.2803      5.4173     93.2287
   873.2500      0.0000    635.2843      5.3915     92.4060
   873.5000      0.0000    629.1249      5.3789     89.3887
   873.7500      0.0000    626.6709      5.3548     85.2189
   874.0000      0.0000    628.2166      5.2967     81.8866
   874.2500      0.0000    633.7848      5.1964     80.4958
   874.5000      0.0000    642.7222      5.0652     80.6336
   874.7500      0.0000    653.3954      4.9269     81.0452
   875.0000      0.0000    663.8585      4.8059     80.4439
   875.2500      0.0000    672.8539      4.7182     78.0885
   875.5000      0.0000    680.0347      4.6698     74.1817
   875.7500      0.0000    685.6679      4.6597     69.7212
   876.0000      0.0000    690.4799      4.6825     65.8756
   876.2500      0.0000    695.0820      4.7295     63.5825
   876.5000      0.0000    698.8222      4.7905     63.4576
   876.7500      0.0000    699.7489      4.8559     65.5421
   877.0000      0.0000    696.5010      4.9197     69.0954
   877.2500      0.0000    690.0385      4.9832     72.9676
   877.5000      0.0000    683.0600      5.0579     76.2603
   877.7500      0.0000    677.9074      5.1597     78.6275
   878.0000      0.0000    675.2601      5.2905     80.1951
   878.2500      0.0000    674.4501      5.4264     81.4608
   878.5000      0.0000    674.4490      5.5307     83.2016
   878.7500      0.0000    674.4735      5.5828     85.9744
   879.0000      0.0000    673.8820      5.5906     89.3352
   879.2500      0.0000    671.6229      5.5757     91.8087
   879.5000      0.0000    665.8763      5.5475     92.1093
   879.7500      0.0000    654.8096      5.4961     90.5427
   880.0000      0.0000    638.8477      5.4102     88.8935
   880.2500      0.0000    622.5934      5.3019     88.7542
   880.5000      0.0000    612.9420      5.2080     90.0938
   880.7500      0.0000    613.1396      5.1600     91.3680
   881.0000      0.0000    618.7347      5.1538     90.6950
   881.2500      0.0000    621.2867      5.1534     87.1757
   881.5000      0.0000    616.8317      5.1244     81.7199
   881.7500      0.0000    609.3853      5.0669     76.6010
   882.0000      0.0000    605.6528      5.0186     73.7761
   882.2500      0.0000    608.7327      5.0121     73.6087
   882.5000      0.0000    619.1780      5.0160     75.1970
   882.7500      0.0000    639.8978      4.9498     77.4159
   883.0000      0.0000    675.5518      4.7885     79.4808
   883.2500      0.0000    726.2676      4.6228     80.9627
   883.5000      0.0000    783.4401      4.5727     81.5463
   883.7500      0.0000    832.3055      4.6647     80.9194
   884.0000      0.0000    859.8159      4.8247     79.2862
   884.2500      0.0000    862.1247      4.9627     78.0009
   884.5000      0.0000    845.2164      5.0400     78.9412
   884.7500      0.0000    818.6353      5.0796     82.7434
   885.0000      0.0000    789.7474      5.1311     87.8740
   885.2500      0.0000    762.6938      5.2141     91.7609
   885.5000      0.0000    739.0562      5.2987     92.8157
   885.7500      0.0000    718.4380      5.3644     91.3949
   886.0000      0.0000    700.3653      5.4521     88.9975
   886.2500      0.0000    685.9868      5.6172     86.7269
   886.5000      0.0000    676.9338      5.8513     84.6165
   886.7500      0.0000    673.0661      6.0860     82.1757
   887.0000      0.0000    672.3657      6.2575     79.1502
   887.2500      0.0000    672.7211      6.3457     75.7204
   887.5000      0.0000    673.0798      6.3661     72.2998
   887.7500      0.0000    673.2585      6.3460     69.3430
   888.0000      0.0000    673.3465      6.3102     67.3546
   888.2500      0.0000    673.4080      6.2741     66.8548
   888.5000      0.0000    673.4722      6.2426     67.8599
   888.7500      0.0000    673.5582      6.2128     69.3545
   889.0000      0.0000    673.6775      6.1815     69.7885
   889.2500      0.0000    673.8110      6.1494     68.3459
   889.5000      0.0000    673.8762      6.1198     65.5602
   889.7500      0.0000    673.6766      6.0952     62.7329
   890.0000      0.0000    672.8569      6.0742     60.8942
   890.2500      0.0000    671.0398      6.0513     60.1509
   890.5000      0.0000    668.3031      6.0213     59.8534
   890.7500      0.0000    665.6682      5.9849     59.4248
   891.0000      0.0000    664.7807      5.9497     58.9523
   891.2500      0.0000    666.7116      5.9274     58.8357
   891.5000      0.0000    671.0803      5.9243     59.0961
   891.7500      0.0000    676.3409      5.9329     59.4775
   892.0000      0.0000    680.6334      5.9298     60.1759
   892.2500      0.0000    682.5541      5.8857     61.9180
   892.5000      0.0000    681.8311      5.7853     65.0153
   892.7500      0.0000    679.4696      5.6395     68.6983
   893.0000      0.0000    676.9195      5.4780     71.6894
   893.2500      0.0000    675.0340      5.3298     73.3280
   893.5000      0.0000    673.8622      5.2118     73.9838
   893.7500      0.0000    673.1810      5.1296     74.5000
   894.0000      0.0000    672.9664      5.0832     75.4470
   894.2500      0.0000    673.4820      5.0683     76.8538
   894.5000      0.0000    675.0523      5.0756     78.3739
   894.7500      0.0000    677.5934      5.0927     79.6091
   895.0000      0.0000    680.1942      5.1092     80.4751
   895.2500      0.0000    681.4630      5.1216     81.2896
   895.5000      0.0000    680.6814      5.1340     82.4166
   895.7500      0.0000    678.4973      5.1546     84.0318
   896.0000      0.0000    676.1659      5.1902     86.1043
   896.2500      0.0000    674.1934      5.2433     88.1933
   896.5000      0.0000    671.7921      5.3097     89.3798
   896.7500      0.0000    667.4562      5.3752     88.8483
   897.0000      0.0000    660.3506      5.4201     86.5380
   897.2500      0.0000    651.8779      5.4339     83.1142
   897.5000      0.0000    645.7778      5.4278     79.5415
