~Version Information
 VERS.                                  2.0 : CWLS LAS VERSION
 WRAP.                                   NO : WRAPING MODE
 SWARE .                 MController 2.5.0J : SOFTWARE VERSION
~Well Information
 WELL.                        DUDE 43-34 TR : WELL
 COMP.    PIONEER NATURAL RESOURCES USA INC : COMPANY
 FLD.                      PURGATOIRE RIVER : FIELD
 LOC.                NE/SE SEC 34 T32S R67W : LOCATION
 DATE.                          01/25-26/06 : DATE(S) LOGGED
 SRVC.       BLANCO GEOLOGICAL SERVICES LLC : SERVICE COMPANY
 STAT.                             COLORADO : STATE
 CNTY.                           LAS ANIMAS : COUNTY
 CTRY.                                  USA : COUNTRY
 API.                       05-071-08676-00 : API NUMBER
 STRT.FT                             485.00 : START DEPTH
 STOP.FT                            1765.00 : STOP DEPTH
 STEP.FT                               1.00 : DEPTH INCREMENT
 NULL.                                -9999 : NULL VALUE
~Curve information
 DEPTH.FT                                   :
 ROP.MIN/FT                                 :
 GAS.UNITS                                  :
~ASCII Log data
# ...
       685.0         0.17          4.4 
       686.0         3.72          6.0 
       687.0         0.23          5.6 
       688.0         0.20          5.4 
       689.0         0.17          5.3 
       690.0         0.13          5.1 
       691.0         0.17          5.2 
       692.0         0.22          5.9 
       693.0         0.17          5.2 
       694.0         0.17          5.6 
       695.0         0.20          6.2 
       696.0         0.13          6.1 
       697.0         0.23          6.0 
       698.0         0.17          5.3 
       699.0         0.17          5.7 
       700.0         0.20          5.3 
       701.0         0.17          4.9 
       702.0         0.20          5.4 
       703.0         0.13          5.5 
       704.0         0.17          4.8 
       705.0         0.13          5.0 
       706.0         0.13          4.6 
       707.0         0.20          4.9 
       708.0         0.17          4.6 
       709.0         0.20          4.5 
       710.0         0.13          4.4 
       711.0         0.18          4.5 
       712.0         0.20          4.4 
       713.0         0.27          4.9 
       714.0         0.27          4.8 
       715.0         0.20          4.9 
       716.0         2.13          5.5 
       717.0         0.32          5.5 
       718.0         0.23          5.4 
       719.0         0.23          5.4 
       720.0         0.27          5.5 
       721.0         0.33          5.7 
       722.0         0.30          5.7 
       723.0         0.27          5.8 
       724.0         0.23          5.7 
       725.0         0.27          5.5 
       726.0         0.20          5.1 
       727.0         0.23          5.2 
       728.0         0.23          5.8 
       729.0         0.30          5.8 
       730.0         0.28          6.7 
       731.0         0.30          6.1 
       732.0         0.27          5.6 
       733.0         0.20          5.4 
       734.0         0.17          4.9 
       735.0         0.17          5.1 
       736.0         0.13          5.1 
       737.0         0.13          5.1 
       738.0         0.13          4.9 
       739.0         0.13          4.8 
       740.0         0.13          4.3 
       741.0         0.17          4.3 
       742.0         0.23          4.9 
       743.0         0.17          4.7 
       744.0         0.20          4.7 
       745.0         0.23          5.2 
       746.0         2.68          5.7 
       747.0         0.30          5.3 
       748.0         0.27          5.2 
       749.0         0.17          4.7 
       750.0         0.13          4.9 
       751.0         0.22          4.8 
       752.0         0.17          5.2 
       753.0         0.20          4.7 
       754.0         0.23          5.4 
       755.0         0.20          4.9 
       756.0         0.23          5.5 
       757.0         0.20          5.1 
       758.0         0.30          5.2 
       759.0         0.27          5.6 
       760.0         0.23          4.9 
       761.0         0.20          5.6 
       762.0         0.23          5.0 
       763.0         0.20          5.0 
       764.0         0.20          5.3 
       765.0         0.20          4.9 
       766.0         0.17          4.7 
       767.0         0.18          4.5 
       768.0         0.17          4.7 
       769.0         0.20          4.9 
       770.0         0.20          4.3 
       771.0         0.17          5.0 
       772.0         0.17          5.0 
       773.0         0.17          5.0 
       774.0         0.17          5.3 
       775.0         0.20          5.2 
       776.0         2.28          5.8 
       777.0         0.30          6.0 
       778.0         0.27          6.1 
       779.0         0.23          6.2 
       780.0         0.13          6.2 
       781.0         0.13          6.3 
       782.0         0.13          6.4 
       783.0         0.20          6.4 
       784.0         0.20          6.3 
       785.0         0.17          6.4 
       786.0         0.20          5.8 
       787.0         0.13          5.6 
       788.0         0.17          6.1 
       789.0         0.10          5.2 
       790.0         0.13          5.2 
       791.0         0.13          5.6 
       792.0         0.13          5.3 
       793.0         0.12          4.9 
       794.0         0.13          4.9 
       795.0         0.13          4.5 
       796.0         0.10          4.4 
       797.0         0.13          3.8 
       798.0         0.13          4.3 
       799.0         0.13          4.8 
       800.0         0.13          4.2 
       801.0         0.17          4.4 
       802.0         0.13          4.2 
       803.0         0.20          4.3 
       804.0         0.27          5.1 
       805.0         0.27          5.3 
       806.0         2.68          5.6 
       807.0         0.30          4.9 
       808.0         0.23          4.9 
       809.0         0.30          5.6 
       810.0         0.27          5.4 
       811.0         0.27          5.8 
       812.0         0.23          5.5 
       813.0         0.20          5.5 
       814.0         0.20          5.5 
       815.0         0.25          5.2 
       816.0         0.17          5.0 
       817.0         0.17          5.1 
       818.0         0.17          5.4 
       819.0         0.20          5.2 
       820.0         0.13          4.8 
       821.0         0.17          5.5 
       822.0         0.20          5.3 
       823.0         0.30          5.3 
       824.0         0.30          5.4 
       825.0         0.30          4.8 
       826.0         0.37          5.3 
       827.0         0.30          4.6 
       828.0         0.20          4.5 
       829.0         0.15          4.3 
       830.0         0.20          4.4 
       831.0         0.17          4.7 
       832.0         0.20          4.9 
       833.0         0.17          4.7 
       834.0         0.20          4.3 
       835.0         0.23          4.9 
       836.0         2.72         10.3 
       837.0         0.20         10.5 
       838.0         0.10          9.4 
       839.0         0.10          9.3 
       840.0         0.13          8.5 
       841.0         0.13          7.7 
       842.0         0.13          6.6 
       843.0         0.13          6.1 
       844.0         0.10          6.0 
       845.0         0.13          5.4 
       846.0         0.17          5.0 
       847.0         0.10          5.5 
       848.0         0.13          4.9 
       849.0         0.10          5.0 
       850.0         0.13          5.3 
       851.0         0.10          4.6 
       852.0         0.10          4.9 
       853.0         0.17          4.9 
       854.0         0.23          5.5 
       855.0         0.17          4.7 
       856.0         0.25          5.3 
       857.0         0.23          4.7 
       858.0         0.23          4.6 
       859.0         0.27          4.9 
       860.0         0.23          4.6 
       861.0         0.23          5.0 
       862.0         0.27          5.1 
       863.0         0.23          5.0 
       864.0         0.27          5.6 
       865.0         0.33          5.5 
       866.0         2.58          6.8 
       867.0         0.40          5.5 
       868.0         0.30          4.9 
       869.0         0.23          5.1 
       870.0         0.17          5.1 
       871.0         0.13          5.8 
       872.0         0.13          5.7 
       873.0         0.17          5.5 
       874.0         0.20          5.4 
       875.0         0.22          5.0 
       876.0         0.27          5.0 
       877.0         0.13          4.5 
       878.0         0.17          4.8 
       879.0         0.13          4.5 
       880.0         0.13          4.5 
       881.0         0.10          4.6 
       882.0         0.10          5.0 
       883.0         0.13          5.0 
       884.0         0.20          4.6 
