~Version Information
VERS.                      2.0: CWLS Log ASCII Standard - VERSION 2.0
WRAP.                       NO: One line per depth step
~Well Information Block
STRT.FT                -8.0000: 
STOP.FT              2135.0000: 
STEP.FT                 0.2500: 
NULL.                -999.2500: 
COMP.          Pioneer Natural Resources: COMPANY
WELL.             AMX 13-13 Tr: WELL
FLD.           Purgatorie River: FIELD
LOC.           2401' FSL & 895' FWL--: LOCATION
PROV.                       CO: PROVINCE
CNTY.               Las Animas: COUNTRY
SRVC.          Patterson Wireline: SERVICE COMPANY
DATE.          Thu Jan 05 10:37:28 2006: LOG DATE
UWI.           05 071 08631 00: UNIQUE WELL ID
~Curve Information Block
DEPT.FT            0 000 00 00: Depth
CCL.                          : Casing Collar Locator
TT3.usec                      : CBL 3' Travel Time
AMP3.mV                       : CBL 3' Amplitude
GR.GAPI                       : Gamma Ray
~Parameter Information Block
~A  Depth       CCL         TT3         AMP3         GR     
# ...
   561.5000      0.0000    343.6210     18.0459    126.5680
   561.7500      0.0000    343.6237     18.0145    127.2044
   562.0000      0.0000    343.7647     17.9760    127.3703
   562.2500      0.0000    344.5170     17.9282    126.1270
   562.5000      0.0000    347.6140     17.8398    124.3967
   562.7500      0.0000    357.5523     17.6372    123.0742
   563.0000      0.0000    382.5301     17.2109    121.7802
   563.2500      0.0000    431.8947     16.4587    119.6099
   563.5000      0.0000    508.7504     15.3625    116.3909
   563.7500      0.0000    602.9841     14.0568    113.0273
   564.0000      0.0000    693.6090     12.8131    110.9607
   564.2500      0.0000    761.0540     11.9043    111.2920
   564.5000      0.0000    798.2529     11.4371    113.9983
   564.7500      0.0000    811.0103     11.3098    117.7895
   565.0000      0.0000    810.5720     11.3279    120.9904
   565.2500      0.0000    806.6490     11.3496    122.9543
   565.5000      0.0000    804.1782     11.3587    124.6517
   565.7500      0.0000    801.8192     11.4918    127.7086
   566.0000      0.0000    792.2944     12.0170    132.7654
   566.2500      0.0000    766.9888     13.1547    138.6742
   566.5000      0.0000    723.9144     14.7855    143.1015
   566.7500      0.0000    670.9070     16.3928    143.9825
   567.0000      0.0000    618.2582     17.4417    140.8679
   567.2500      0.0000    568.8106     17.8056    135.2637
   567.5000      0.0000    518.3854     17.7584    129.7051
   567.7500      0.0000    465.4312     17.6387    126.2620
   568.0000      0.0000    416.2845     17.6190    125.5608
   568.2500      0.0000    379.5722     17.7170    126.9488
   568.5000      0.0000    358.2480     17.8912    129.4561
   568.7500      0.0000    348.7200     18.0957    132.4864
   569.0000      0.0000    345.4793     18.2940    135.5173
   569.2500      0.0000    344.7073     18.4614    137.2676
   569.5000      0.0000    344.8047     18.5849    135.5649
   569.7500      0.0000    345.7177     18.6596    128.7120
   570.0000      0.0000    349.1188     18.6803    117.4034
   570.2500      0.0000    359.4043     18.6364    104.9823
   570.5000      0.0000    383.8837     18.5188     95.2480
   570.7500      0.0000    429.1466     18.3357     89.8477
   571.0000      0.0000    494.0368     18.1202     87.7317
   571.2500      0.0000    566.2151     17.9201     86.8111
   571.5000      0.0000    628.8974     17.7753     85.9020
   571.7500      0.0000    672.8410     17.7013     85.2486
   572.0000      0.0000    701.2964     17.6868     85.6713
   572.2500      0.0000    724.0073     17.7012     87.4949
   572.5000      0.0000    747.9036     17.7064     90.0093
   572.7500      0.0000    772.9179     17.6689     91.6650
   573.0000      0.0000    794.5896     17.5718     91.0405
   573.2500      0.0000    809.2126     17.4230     87.9209
   573.5000      0.0000    816.1373     17.2533     83.3878
   573.7500      0.0000    815.7527     17.1032     78.8202
   574.0000      0.0000    806.0139     17.0081     74.8560
   574.2500      0.0000    781.9288     16.9898     71.2276
   574.5000      0.0000    741.1188     17.0534     67.3462
   574.7500      0.0000    692.7289     17.1829     62.8090
   575.0000      0.0000    658.4437     17.3420     57.5497
   575.2500      0.0000    657.5023     17.4915     52.0465
   575.5000      0.0000    687.6547     17.6133     47.4496
   575.7500      0.0000    723.4764     17.7175     44.9776
   576.0000      0.0000    733.9427     17.8198     44.9849
   576.2500      0.0000    701.4340     17.9158     46.8672
   576.5000      0.0000    629.7316     17.9840     49.8489
   576.7500      0.0000    540.3165     18.0115     53.5735
   577.0000      0.0000    459.3231     18.0102     58.0492
   577.2500      0.0000    402.7375     18.0069     63.3942
   577.5000      0.0000    371.7553     18.0186     69.6288
   577.7500      0.0000    360.4830     18.0376     76.3847
   578.0000      0.0000    365.8186     18.0425     82.7162
   578.2500      0.0000    390.0710     18.0230     87.4104
   578.5000      0.0000    434.2347     17.9905     89.8682
   578.7500      0.0000    487.3541     17.9664     90.8729
   579.0000      0.0000    524.9801     17.9625     92.1647
   579.2500      0.0000    525.0379     17.9717     94.7219
   579.5000      0.0000    487.4801     17.9730     97.3388
   579.7500      0.0000    434.1686     17.9528     97.2041
   580.0000      0.0000    389.0431     17.9234     92.1347
   580.2500      0.0000    361.9994     17.9182     82.3589
   580.5000      0.0000    349.8297     17.9622     70.4466
   580.7500      0.0000    345.5542     18.0497     59.7105
   581.0000      0.0000    344.3321     18.1502     52.3734
   581.2500      0.0000    344.0800     18.2314     48.7383
   581.5000      0.0000    344.2777     18.2720     47.7366
   581.7500      0.0000    345.3919     18.2652     48.0508
   582.0000      0.0000    349.5084     18.2198     48.9632
   582.2500      0.0000    361.5691     18.1559     50.6708
   582.5000      0.0000    388.7863     18.0920     53.9702
   582.7500      0.0000    435.0483     18.0326     59.4208
   583.0000      0.0000    492.5923     17.9706     66.8715
   583.2500      0.0000    542.4935     17.8988     75.9158
   583.5000      0.0000    570.6722     17.8161     86.3983
   583.7500      0.0000    582.8755     17.7252     98.0303
   584.0000      0.0000    596.9781     17.6287    109.6764
   584.2500      0.0000    622.3602     17.5296    119.3466
   584.5000      0.0000    655.1916     17.4326    124.9843
   584.7500      0.0000    690.4724     17.3407    125.3930
   585.0000      0.0000    727.2780     17.2523    120.7268
   585.2500      0.0000    762.8898     17.1629    112.2475
   585.5000      0.0000    791.2703     17.0709    101.5821
   585.7500      0.0000    808.8224     16.9816     90.1522
   586.0000      0.0000    817.1783     16.9036     79.1881
   586.2500      0.0000    820.1985     16.8389     69.7979
   586.5000      0.0000    820.2674     16.7778     62.6087
   586.7500      0.0000    816.5121     16.7052     57.5054
   587.0000      0.0000    803.7958     16.6149     53.9990
   587.2500      0.0000    772.8975     16.5186     51.6189
   587.5000      0.0000    715.0527     16.4378     49.8349
   587.7500      0.0000    630.8591     16.3871     48.1087
   588.0000      0.0000    535.4544     16.3647     46.4306
   588.2500      0.0000    451.2630     16.3590     45.5912
   588.5000      0.0000    393.3975     16.3615     46.7594
   588.7500      0.0000    362.4161     16.3749     50.7753
   589.0000      0.0000    349.4843     16.4092     57.6742
   589.2500      0.0000    345.2604     16.4729     66.6708
   589.5000      0.0000    344.1667     16.5630     76.6380
   589.7500      0.0000    343.9466     16.6639     86.7065
   590.0000      0.0000    343.9517     16.7547     96.4055
   590.2500      0.0000    344.0430     16.8189    105.2343
   590.5000      0.0000    344.1656     16.8515    112.2161
   590.7500      0.0000    344.2836     16.8591    116.1434
   591.0000      0.0000    344.3706     16.8559    116.6281
   591.2500      0.0000    344.4160     16.8584    114.8398
   591.5000      0.0000    344.4220     16.8796    112.6542
   591.7500      0.0000    344.3994     16.9240    111.0157
   592.0000      0.0000    344.3625     16.9873    109.6762
   592.2500      0.0000    344.3603     17.0564    108.4726
   592.5000      0.0000    344.5674     17.1085    107.9708
   592.7500      0.0000    345.6743     17.1158    108.4934
   593.0000      0.0000    349.8523     17.0615    109.2937
   593.2500      0.0000    361.9801     16.9570    109.2953
   593.5000      0.0000    388.9934     16.8407    108.4141
   593.7500      0.0000    434.0013     16.7604    107.7868
   594.0000      0.0000    487.0995     16.7522    108.7579
   594.2500      0.0000    524.5122     16.8296    111.7538
   594.5000      0.0000    524.5532     16.9838    116.0255
   594.7500      0.0000    487.1904     17.1901    120.3045
