~Version Information
VERS.                      2.0: CWLS Log ASCII Standard - VERSION 2.0
WRAP.                       NO: One line per depth step
~Well Information Block
STRT.FT               460.0000: 
STOP.FT              2824.0000: 
STEP.FT                 0.2500: 
NULL.                -999.2500: 
COMP.          Pioneer Natural Resources: COMPANY
WELL.           Dolzanie 34-12: WELL
FLD.           Purgatoire River: FIELD
LOC.           1001' FSL & 1750' FEL--: LOCATION
PROV.                 Colorado: PROVINCE
CNTY.               Las Animas: COUNTRY
SRVC.                Patterson: SERVICE COMPANY
DATE.          Wed Jul 20 07:51:58 2005: LOG DATE
UWI.           05 071 08439 00: UNIQUE WELL ID
~Curve Information Block
DEPT.FT            0 000 00 00: Depth
DIR.Ohm-m                     : IEL Induction Resistivity
SN.Ohm-m                      : IEL Short Normal
SP.mV                         : IEL Spontaneous Potential
GR.GAPI                       : Gamma Ray
~Parameter Information Block
~A  Depth       DIR          SN          SP          GR     
   460.0000 100000.0000   2000.0000   2000.0000     67.5966
   460.2500 100000.0000   2000.0000   2000.0000     77.2280
   460.5000 100000.0000   2000.0000   2000.0000     91.6086
   460.7500 100000.0000   2000.0000   2000.0000     99.9378
   461.0000 100000.0000   2000.0000   2000.0000    109.4901
   461.2500 100000.0000   2000.0000   2000.0000    113.7418
   461.5000 100000.0000   2000.0000   2000.0000    116.9768
   461.7500 100000.0000   2000.0000   2000.0000    117.2500
   462.0000 100000.0000   2000.0000   2000.0000    115.8962
   462.2500 100000.0000   2000.0000   2000.0000    114.7161
   462.5000 100000.0000   2000.0000   2000.0000    113.4654
   462.7500 100000.0000   2000.0000   2000.0000    112.8544
   463.0000 100000.0000   2000.0000   2000.0000    111.7975
   463.2500 100000.0000   2000.0000   2000.0000    111.1215
   463.5000 100000.0000   2000.0000   2000.0000    110.6308
   463.7500 100000.0000   2000.0000   2000.0000    110.5505
   464.0000 100000.0000   2000.0000   2000.0000    110.0748
   464.2500 100000.0000   2000.0000   2000.0000    109.3330
   464.5000 100000.0000   2000.0000   2000.0000    108.1261
   464.7500 100000.0000   2000.0000   2000.0000    107.7186
   465.0000 100000.0000   2000.0000   2000.0000    107.8314
   465.2500 100000.0000   2000.0000   2000.0000    108.0279
   465.5000 100000.0000   2000.0000   2000.0000     71.8895
   465.7500 100000.0000   2000.0000   2000.0000     71.5006
   466.0000 100000.0000   2000.0000   2000.0000     70.5380
   466.2500 100000.0000   2000.0000   2000.0000     69.7172
   466.5000 100000.0000   2000.0000   2000.0000     68.4374
   466.7500 100000.0000   2000.0000   2000.0000     67.7430
   467.0000 100000.0000   2000.0000   2000.0000     67.0908
   467.2500 100000.0000   2000.0000   2000.0000     66.7984
   467.5000 100000.0000   2000.0000   2000.0000     66.3181
   467.7500 100000.0000   2000.0000   2000.0000     65.9859
   468.0000 100000.0000   2000.0000   2000.0000     65.6769
   468.2500 100000.0000   2000.0000   2000.0000     65.6862
   468.5000 100000.0000   2000.0000   2000.0000     66.1556
   468.7500 100000.0000   2000.0000   2000.0000     66.8951
   469.0000 100000.0000   2000.0000   2000.0000     68.7946
   469.2500 100000.0000   2000.0000   2000.0000     70.5108
   469.5000 100000.0000   2000.0000   2000.0000     73.3210
   469.7500 100000.0000   2000.0000   2000.0000     75.0836
   470.0000 100000.0000   2000.0000   2000.0000     77.5787
   470.2500 100000.0000   2000.0000   2000.0000     79.5573
   470.5000 100000.0000   2000.0000   2000.0000     83.9562
   470.7500 100000.0000   2000.0000   2000.0000     88.1023
   471.0000 100000.0000   2000.0000   2000.0000     95.7938
   471.2500      8.0800   2000.0000   2000.0000    101.4794
   471.5000      4.2940   2000.0000   2000.0000    109.9926
   471.7500      3.7535   2000.0000   2000.0000    114.8954
   472.0000      4.4736   2000.0000   2000.0000    119.4032
   472.2500      7.3726   2000.0000   2000.0000    119.9105
   472.5000     23.5207   2000.0000   2000.0000    117.4303
   472.7500 100000.0000   2000.0000   2000.0000    114.5153
   473.0000 100000.0000   2000.0000   2000.0000    109.6831
   473.2500 100000.0000   2000.0000   2000.0000    106.7094
   473.5000 100000.0000   2000.0000   2000.0000    103.3123
   473.7500 100000.0000   2000.0000   2000.0000    102.0205
   474.0000     33.7873   2000.0000   2000.0000    101.5950
   474.2500     15.1422   2000.0000   2000.0000    102.2462
   474.5000     10.9584   2000.0000   2000.0000    104.6612
   474.7500      9.6000   2000.0000   2000.0000    107.1745
   475.0000      9.3272   2000.0000   2000.0000    111.4429
   475.2500      9.6077   2000.0000   2000.0000    113.7267
   475.5000     10.1824   2000.0000   2000.0000    115.0096
   475.7500     10.8503   2000.0000   2000.0000    114.2037
   476.0000     11.4229   2000.0000   2000.0000    111.1211
   476.2500     11.7740   2000.0000   2000.0000    108.6459
   476.5000     11.9286   2000.0000   2000.0000    105.9508
   476.7500     12.0695   2000.0000   2000.0000    105.3723
   477.0000     12.4402   2000.0000   2000.0000    105.8238
   477.2500     13.2367   2000.0000   2000.0000    106.1664
   477.5000     14.5174   2000.0000   2000.0000    105.7386
   477.7500     16.0754   2000.0000   2000.0000    104.9221
   478.0000     17.3484   2000.0000   2000.0000    103.8748
   478.2500     17.7030   2000.0000   2000.0000    103.8465
   478.5000     17.0415   2000.0000   2000.0000    105.1018
   478.7500     15.8590   2000.0000   2000.0000    106.5808
   479.0000     14.7017   2000.0000   2000.0000    109.1102
   479.2500     13.8584   2000.0000   2000.0000    110.6476
   479.5000     13.4080   2000.0000   2000.0000    112.1986
   479.7500     13.3260   2000.0000   2000.0000    112.4843
   480.0000     13.5364   2000.0000   2000.0000    111.5585
   480.2500     13.9291   2000.0000   2000.0000    109.9560
   480.5000     14.3809   2000.0000   2000.0000    105.9958
   480.7500     14.7894   2000.0000   2000.0000    102.5560
   481.0000     15.1021   2000.0000   2000.0000     97.4799
   481.2500     15.3181   2000.0000   2000.0000     95.1140
   481.5000     15.4652   2000.0000   2000.0000     94.0235
   481.7500     15.5728   2000.0000   2000.0000     94.7931
   482.0000     15.6571   2000.0000   2000.0000     97.2112
   482.2500     15.7170   2000.0000   2000.0000     99.0473
   482.5000     15.7392   2000.0000   2000.0000    101.4467
   482.7500     15.7060   2000.0000   2000.0000    102.6441
   483.0000     15.6044   2000.0000   2000.0000    103.6985
   483.2500     15.4333   2000.0000   2000.0000    103.8438
   483.5000     15.2051   2000.0000   2000.0000    103.4384
   483.7500     14.9445   2000.0000   2000.0000    103.2115
   484.0000     14.6833   2000.0000   2000.0000    103.9433
   484.2500     14.4519   2000.0000   2000.0000    105.4672
   484.5000     14.2712   2000.0000   2000.0000    108.9303
   484.7500     14.1469   2000.0000   2000.0000    111.2721
   485.0000     14.0697   2000.0000   2000.0000    113.2280
   485.2500     14.0225   2000.0000   2000.0000    113.0038
   485.5000     13.9909   2000.0000   2000.0000    111.0373
   485.7500     13.9715   2000.0000   2000.0000    109.5020
   486.0000     13.9729   2000.0000   2000.0000    107.7235
   486.2500     14.0101   2000.0000   2000.0000    106.8616
   486.5000     14.0953   2000.0000   2000.0000    105.9230
   486.7500     14.2309   2000.0000   2000.0000    105.5952
   487.0000     14.4069   2000.0000   2000.0000    105.4556
   487.2500     14.6039   2000.0000   2000.0000    105.3801
   487.5000     14.8003   2000.0000   2000.0000    105.2485
   487.7500     14.9798   2000.0000   2000.0000    105.4360
   488.0000     15.1349   2000.0000   2000.0000    106.5696
   488.2500     15.2647   2000.0000   2000.0000    107.7979
   488.5000     15.3730   2000.0000   2000.0000    109.7226
   488.7500     15.4671   2000.0000   2000.0000    110.7146
   489.0000     15.5567   2000.0000   2000.0000    111.5164
   489.2500     15.6510   2000.0000   2000.0000    111.6498
   489.5000     15.7566   2000.0000   2000.0000    111.5907
   489.7500     15.8771   2000.0000   2000.0000    111.6028
   490.0000     16.0139   2000.0000   2000.0000    111.9336
   490.2500     16.1677   2000.0000   2000.0000    112.4194
   490.5000     16.3392   2000.0000   2000.0000    113.4530
   490.7500     16.5312   2000.0000   2000.0000    114.0340
   491.0000     16.7479   2000.0000   2000.0000    113.7562
   491.2500     16.9946   2000.0000   2000.0000    112.2895
   491.5000     17.2770   2000.0000   2000.0000    107.9253
   491.7500     17.6021   2000.0000   2000.0000    103.7501
   492.0000     17.9750   2000.0000   2000.0000     96.1283
   492.2500     18.3922   2000.0000   2000.0000     90.6341
   492.5000     18.8336   2000.0000   2000.0000     83.1055
   492.7500     19.2644   2000.0000   2000.0000     79.4272
   493.0000     19.6439   2000.0000   2000.0000     76.8378
   493.2500     19.9361   2000.0000   2000.0000     77.0581
