~Version Information
 VERS.                                  2.0 : CWLS LAS VERSION
 WRAP.                                   NO : WRAPING MODE
 SWARE .                MController 2.5.0QA : SOFTWARE VERSION
~Well Information
 WELL.                        Fleming 11-02 : WELL
 COMP.    Pioneer Natural Resources USA Inc : COMPANY
 FLD.                      Purgatoire River : FIELD
 LOC.                 NW/NW Sec02 T33S R66W : LOCATION
 DATE.                          06/25-27/06 : DATE(S) LOGGED
 SRVC.       Blanco Geological Services LLC : SERVICE COMPANY
 STAT.                             Colorado : STATE
 CNTY.                           Las Animas : COUNTY
 CTRY.                                  USA : COUNTRY
 API.                       05-071-08491-00 : API NUMBER
 STRT.FT                             347.00 : START DEPTH
 STOP.FT                            2080.00 : STOP DEPTH
 STEP.FT                               1.00 : DEPTH INCREMENT
 NULL.                                -9999 : NULL VALUE
~Curve information
 DEPTH.FT                                   :
 ROP.MIN/FT                                 :
 GAS.UNITS                                  :
~ASCII Log data
# ...
      1947.0         0.40       1928.3 
      1948.0         0.37       1867.2 
      1949.0         0.38       1839.0 
      1950.0         0.30       1835.1 
      1951.0         0.37       1818.2 
      1952.0         0.30       1782.5 
      1953.0         0.33       1739.9 
      1954.0         0.40       1700.0 
      1955.0         0.37       1646.4 
      1956.0         0.33       1599.3 
      1957.0         0.37       1538.9 
      1958.0         0.38       1502.9 
      1959.0         0.33       1471.1 
      1960.0         0.33       1453.9 
      1961.0         0.33       1455.5 
      1962.0         0.30       1450.3 
      1963.0         0.33       1438.6 
      1964.0         0.27       1416.9 
      1965.0         0.23       1416.9 
      1966.0         0.23       1434.1 
      1967.0         0.23       1460.0 
      1968.0         0.20       1460.0 
      1969.0         0.27       1504.8 
      1970.0         0.32       1539.9 
      1971.0         0.30       1571.7 
      1972.0         5.38       2286.4 
      1973.0         0.60       2147.1 
      1974.0         0.52       2139.3 
      1975.0         0.53       2035.1 
      1976.0         0.53       1881.5 
      1977.0         0.47       1755.8 
      1978.0         0.50       1781.5 
      1979.0         0.53       1778.6 
      1980.0         0.47       1736.0 
      1981.0         0.52       1623.0 
      1982.0         0.63       1591.5 
      1983.0         0.53       1528.6 
      1984.0         0.47       1494.1 
      1985.0         0.47       1459.4 
      1986.0         0.47       1474.0 
      1987.0         0.38       1528.2 
      1988.0         0.40       1570.4 
      1989.0         0.37       1581.2 
      1990.0         0.43       1606.2 
      1991.0         0.40       1608.4 
      1992.0         0.40       1603.6 
      1993.0         0.40       1561.3 
      1994.0         0.40       1542.2 
      1995.0         0.40       1535.0 
      1996.0         0.45       1528.6 
      1997.0         0.50       1549.3 
      1998.0         0.50       1555.5 
      1999.0         0.53       1503.9 
      2000.0         0.57       1466.5 
      2001.0         0.53       1427.6 
      2002.0         4.60       2265.0 
      2003.0         0.57       2115.9 
      2004.0         0.57       2099.4 
      2005.0         0.67       1913.0 
      2006.0         0.60       1711.4 
      2007.0         0.58       1724.0 
      2008.0         0.60       1720.5 
      2009.0         0.63       1651.3 
      2010.0         0.63       1607.8 
      2011.0         0.57       1563.0 
      2012.0         0.62       1523.7 
      2013.0         0.57       1498.7 
      2014.0         0.57       1497.7 
      2015.0         0.60       1496.7 
      2016.0         0.60       1494.1 
      2017.0         0.63       1490.6 
      2018.0         0.65       1484.7 
      2019.0         0.60       1475.6 
      2020.0         0.63       1463.9 
      2021.0         0.63       1471.4 
      2022.0         0.63       1458.7 
      2023.0         0.72       1461.3 
      2024.0         0.77       1448.7 
      2025.0         0.77       1450.9 
      2026.0         0.80       1446.4 
      2027.0         0.82       1451.6 
      2028.0         1.00       1481.1 
      2029.0         0.77       1521.1 
      2030.0         0.63       1504.8 
      2031.0         0.85       1468.2 
      2032.0         4.22       2279.6 
      2033.0         0.53       2212.1 
      2034.0         0.40       2171.8 
      2035.0         0.37       2053.3 
      2036.0         0.40       1925.7 
      2037.0         0.33       1825.3 
      2038.0         0.33       1798.1 
      2039.0         0.38       1765.6 
      2040.0         0.43       1777.3 
      2041.0         0.37       1760.4 
      2042.0         0.43       1733.8 
      2043.0         0.40       1691.6 
      2044.0         0.37       1660.1 
      2045.0         0.37       1622.7 
      2046.0         0.43       1615.6 
      2047.0         0.38       1591.2 
      2048.0         0.43       1559.1 
      2049.0         0.47       1542.2 
      2050.0         0.43       1524.3 
      2051.0         0.43       1482.1 
      2052.0         0.37       1465.6 
      2053.0         0.40       1463.9 
      2054.0         0.40       1466.2 
      2055.0         0.45       1469.5 
      2056.0         0.43       1467.5 
      2057.0         0.43       1464.3 
      2058.0         0.47       1453.2 
      2059.0         0.43       1450.0 
      2060.0         0.47       1444.5 
      2061.0         0.50       1411.7 
      2062.0         0.75       1301.3 
      2063.0         0.87       1046.4 
      2064.0         0.63       1538.9 
      2065.0         0.57       2021.5 
      2066.0         0.60       2038.3 
      2067.0         0.45       1882.2 
      2068.0         0.37       1889.6 
      2069.0         0.53       1908.8 
      2070.0         0.27       1889.0 
      2071.0         0.47       1835.7 
      2072.0         0.53       1755.2 
      2073.0         0.40       1688.0 
      2074.0         0.63       1708.1 
      2075.0         0.65       1707.8 
      2076.0         0.43       1712.0 
      2077.0         0.43       1713.3 
      2078.0         0.47       1697.7 
      2079.0         0.37      -9999.0 
      2080.0         0.70      -9999.0 
