~Version Information
VERS.                      2.0: CWLS Log ASCII Standard - VERSION 2.0
WRAP.                       NO: One line per depth step
~Well Information Block
STRT.FT                 6.0000: 
STOP.FT              1577.7500: 
STEP.FT                 0.2500: 
NULL.                -999.2500: 
COMP.          Pioneer Natural Resources: COMPANY
WELL.           Kermit 32-7 Tr: WELL
FLD.           Purgatoire River: FIELD
LOC.           2009' FNL & 2196' FEL: LOCATION
PROV.                 Colorado: PROVINCE
CNTY.               Las Animas: COUNTRY
SRVC.                Patterson: SERVICE COMPANY
DATE.          Wed Jan 18 14:19:39 2006: LOG DATE
UWI.           05 071 08664 00: UNIQUE WELL ID
~Curve Information Block
DEPT.FT            0 000 00 00: Depth
GR.GAPI                       : Gamma Ray
CCL.                          : Casing Collar Locator
TT3.usec                      : CBL 3' Travel Time
AMP3.mV                       : CBL 3' Amplitude
~Parameter Information Block
~A  Depth        GR         CCL         TT3         AMP3    
# ...
   408.0000     84.1962      0.0000    843.0109      7.7596
   408.2500     87.1354      0.0000    833.7224      7.7882
   408.5000     88.0833      0.0000    820.0848      7.8248
   408.7500     87.8485      0.0000    804.2794      7.8713
   409.0000     87.7898      0.0000    791.5672      7.9231
   409.2500     88.7576      0.0000    789.0349      7.9710
   409.5000     90.5353      0.0000    804.8932      8.0060
   409.7500     92.0368      0.0000    847.3097      8.0243
   410.0000     92.0794      0.0000    917.5406      8.0280
   410.2500     90.1883      0.0000    998.8311      8.0220
   410.5000     86.7394      0.0000   1056.9183      8.0099
   410.7500     82.5368      0.0000   1063.6720      7.9931
   411.0000     78.5342      0.0000   1024.8002      7.9730
   411.2500     75.6320      0.0000    977.0860      7.9514
   411.5000     74.1847      0.0000    953.2241      7.9264
   411.7500     73.7596      0.0000    952.4564      7.8934
   412.0000     73.5470      0.0000    948.2416      7.8546
   412.2500     72.8650      0.0000    920.6107      7.8211
   412.5000     71.3010      0.0000    875.0127      7.8027
   412.7500     68.8356      0.0000    830.9091      7.7965
   413.0000     65.9925      0.0000    801.0077      7.7905
   413.2500     63.6079      0.0000    785.3459      7.7788
   413.5000     62.3801      0.0000    779.0596      7.7722
   413.7500     62.5708      0.0000    779.6415      7.7916
   414.0000     63.8019      0.0000    787.9482      7.8466
   414.2500     65.1555      0.0000    805.3719      7.9190
   414.5000     65.9341      0.0000    829.7984      7.9755
   414.7500     66.3832      0.0000    853.2532      7.9972
   415.0000     67.2983      0.0000    865.4172      7.9922
   415.2500     68.9743      0.0000    861.6750      7.9793
   415.5000     70.8460      0.0000    847.0923      7.9651
   415.7500     72.0641      0.0000    831.1891      7.9404
   416.0000     72.1521      0.0000    819.9844      7.8945
   416.2500     71.1640      0.0000    813.6152      7.8297
   416.5000     69.5252      0.0000    809.2462      7.7605
   416.7500     67.8174      0.0000    804.4382      7.6993
   417.0000     66.5898      0.0000    798.6384      7.6465
   417.2500     66.2906      0.0000    792.8834      7.5954
   417.5000     67.2618      0.0000    788.4311      7.5434
   417.7500     69.4893      0.0000    785.7057      7.4945
   418.0000     72.2288      0.0000    784.6841      7.4528
   418.2500     74.3211      0.0000    785.5193      7.4184
   418.5000     75.2922      0.0000    787.9721      7.3905
   418.7500     75.7571      0.0000    790.7573      7.3691
   419.0000     76.2711      0.0000    792.6057      7.3541
   419.2500     76.3291      0.0000    793.8453      7.3428
   419.5000     75.1768      0.0000    795.9050      7.3310
   419.7500     73.3411      0.0000    799.1315      7.3183
   420.0000     72.6767      0.0000    801.9346      7.3100
   420.2500     74.8002      0.0000    802.2930      7.3129
   420.5000     79.6671      0.0000    799.5186      7.3271
   420.7500     85.5614      0.0000    794.3901      7.3439
   421.0000     90.3634      0.0000    788.1601      7.3517
   421.2500     92.9902      0.0000    781.9199      7.3422
   421.5000     93.8471      0.0000    776.5789      7.3128
   421.7500     94.0016      0.0000    772.7628      7.2672
   422.0000     93.9971      0.0000    770.5404      7.2137
   422.2500     93.5609      0.0000    769.4731      7.1616
   422.5000     92.3676      0.0000    768.9908      7.1185
   422.7500     90.6910      0.0000    768.6591      7.0894
   423.0000     89.1525      0.0000    768.1699      7.0758
   423.2500     88.1669      0.0000    767.2139      7.0740
   423.5000     87.9076      0.0000    765.5070      7.0756
   423.7500     88.5868      0.0000    763.1210      7.0719
   424.0000     90.2943      0.0000    760.8452      7.0602
   424.2500     92.4517      0.0000    759.8821      7.0440
   424.5000     93.7794      0.0000    760.8334      7.0303
   424.7500     93.1564      0.0000    763.0897      7.0241
   425.0000     90.6545      0.0000    765.4315      7.0248
   425.2500     87.7008      0.0000    767.0560      7.0255
   425.5000     85.9845      0.0000    767.8907      7.0192
   425.7500     85.8899      0.0000    768.2161      7.0054
   426.0000     86.1219      0.0000    768.2937      6.9901
   426.2500     85.1903      0.0000    768.2928      6.9809
   426.5000     83.0568      0.0000    768.3333      6.9828
   426.7500     81.0298      0.0000    768.4752      6.9983
   427.0000     80.3759      0.0000    768.6898      7.0267
   427.2500     81.4010      0.0000    768.8801      7.0634
   427.5000     83.5576      0.0000    768.9607      7.1033
   427.7500     85.9095      0.0000    768.9305      7.1452
   428.0000     87.5668      0.0000    768.8773      7.1910
   428.2500     88.1185      0.0000    768.9088      7.2414
   428.5000     87.7966      0.0000    769.0690      7.2927
   428.7500     87.0523      0.0000    769.3092      7.3364
   429.0000     85.9313      0.0000    769.5339      7.3644
   429.2500     83.9722      0.0000    769.6699      7.3748
   429.5000     80.8521      0.0000    769.7032      7.3724
   429.7500     77.1965      0.0000    769.6651      7.3615
   430.0000     74.6220      0.0000    769.5927      7.3408
   430.2500     74.6353      0.0000    769.5128      7.3084
   430.5000     77.2286      0.0000    769.5014      7.2703
   430.7500     80.6048      0.0000    769.8105      7.2401
   431.0000     82.5432      0.0000    770.9983      7.2293
   431.2500     82.2215      0.0000    773.8649      7.2376
   431.5000     80.7093      0.0000    778.9328      7.2531
   431.7500     79.7467      0.0000    785.5510      7.2607
   432.0000     80.2466      0.0000    791.4867      7.2519
   432.2500     81.8890      0.0000    793.9641      7.2281
   432.5000     83.7184      0.0000    791.6760      7.1959
   432.7500     84.8409      0.0000    785.8453      7.1619
   433.0000     84.7182      0.0000    779.1852      7.1284
   433.2500     83.2474      0.0000    773.8897      7.0914
   433.5000     80.8175      0.0000    770.5052      7.0370
   433.7500     78.1199      0.0000    768.2028      6.9369
   434.0000     75.7293      0.0000    765.5141      6.7450
   434.2500     73.9635      0.0000    761.1506      6.4123
   434.5000     73.1131      0.0000    755.4460      5.9225
   434.7500     73.5861      0.0000    751.8904      5.3192
   435.0000     75.6913      0.0000    756.5466      4.6868
   435.2500     79.2740      0.0000    773.9114      4.1091
   435.5000     83.5621      0.0000    801.7583      3.6507
   435.7500     87.3508      0.0000    829.9778      3.3539
   436.0000     89.4732      0.0000    846.3762      3.2175
   436.2500     89.4331      0.0000    845.6155      3.1887
   436.5000     87.8417     -3.0000    832.6419      3.2004
   436.7500     86.1895     -3.0000    817.1083      3.2251
   437.0000     85.9101      0.0000    804.9933      3.3025
   437.2500     87.3741      0.0000    795.3122      3.5264
   437.5000     89.7479      0.0000    783.7758      3.9891
   437.7500     91.9367      0.0000    769.0435      4.6958
   438.0000     93.4357      0.0000    754.9546      5.5183
   438.2500     94.0646      0.0000    746.6668      6.2606
   438.5000     93.3621      0.0000    745.8203      6.7857
   438.7500     90.9358      0.0000    750.1245      7.0794
   439.0000     87.3481      0.0000    756.2033      7.2115
   439.2500     84.1319      0.0000    761.6052      7.2637
   439.5000     82.7211      0.0000    765.0901      7.2872
   439.7500     83.4238      0.0000    766.2864      7.3005
   440.0000     85.2757      0.0000    765.4127      7.3068
   440.2500     86.7038      0.0000    763.2039      7.3080
   440.5000     86.5457      0.0000    760.9732      7.3087
   440.7500     84.8371      0.0000    760.2023      7.3148
   441.0000     82.7749      0.0000    761.6077      7.3323
   441.2500     81.8186      0.0000    764.7559      7.3642
