~Version Information
VERS.                      2.0: CWLS Log ASCII Standard - VERSION 2.0
WRAP.                       NO: One line per depth step
~Well Information Block
STRT.FT                -2.0000: 
STOP.FT              2017.5000: 
STEP.FT                 0.2500: 
NULL.                -999.2500: 
COMP.          Pioneer Natural Resources: COMPANY
WELL.            Zink 44-10 Tr: WELL
FLD.           Purgatoire River: FIELD
LOC.           486' FSL & 554' FEL--: LOCATION
PROV.                 Colorado: PROVINCE
CNTY.               Las Animas: COUNTRY
SRVC.                Patterson: SERVICE COMPANY
DATE.          Mon Aug 01 14:01:23 2005: LOG DATE
UWI.           05 071 08446 00: UNIQUE WELL ID
~Curve Information Block
DEPT.FT            0 000 00 00: Depth
CCL.                          : Casing Collar Locator
TT3.usec                      : CBL 3' Travel Time
AMP3.mV                       : CBL 3' Amplitude
GR.GAPI                       : Gamma Ray
~Parameter Information Block
~A  Depth       CCL         TT3         AMP3         GR     
# ...
  1974.5000      0.0000    789.0007      8.6617     52.3015
  1974.7500      0.0000    788.1024      8.6551     52.0043
  1975.0000      0.0000    786.1130      8.6382     51.9352
  1975.2500      0.0000    782.6716      8.6104     52.8392
  1975.5000      0.0000    777.9386      8.5712     54.4437
  1975.7500      0.0000    772.6881      8.5231     55.6144
  1976.0000      0.0000    767.8978      8.4746     55.3915
  1976.2500      0.0000    764.1025      8.4400     53.9140
  1976.5000      0.0000    760.9112      8.4310     52.4962
  1976.7500      0.0000    757.1124      8.4435     52.8119
  1977.0000      0.0000    751.7593      8.4489     55.6588
  1977.2500      0.0000    745.7198      8.4012     60.2261
  1977.5000      0.0000    742.1511      8.2550     64.7951
  1977.7500      0.0000    744.6998      7.9901     68.5133
  1978.0000      0.0000    754.2359      7.6348     72.2948
  1978.2500      0.0000    766.9642      7.2695     77.6057
  1978.5000      0.0000    776.4351      6.9838     84.5265
  1978.7500      0.0000    778.5273      6.8147     91.4461
  1979.0000      2.0000    775.1564      6.7315     96.5751
  1979.2500     -2.0000    772.7152      6.6789     99.2429
  1979.5000      0.0000    776.1390      6.6192     99.6302
  1979.7500      0.0000    784.6238      6.5441     97.9926
  1980.0000      0.0000    793.1100      6.4752     94.8445
  1980.2500      0.0000    796.9574      6.4577     91.5976
  1980.5000      0.0000    795.0114      6.5413     90.0087
  1980.7500      0.0000    789.3604      6.7503     90.4220
  1981.0000      0.0000    782.9901      7.0568     90.9066
  1981.2500      0.0000    777.6608      7.3813     88.8015
  1981.5000      0.0000    773.8712      7.6330     83.2227
  1981.7500      0.0000    772.1928      7.7628     75.6875
  1982.0000      0.0000    773.4702      7.7795     68.5640
  1982.2500      0.0000    777.5112      7.7255     63.6395
  1982.5000      0.0000    782.6211      7.6466     61.8940
  1982.7500      0.0000    786.9064      7.5802     63.4688
  1983.0000      0.0000    789.5941      7.5498     67.4266
  1983.2500      0.0000    790.9949      7.5604     72.0655
  1983.5000      0.0000    791.7099      7.5968     75.8457
  1983.7500      0.0000    792.1309      7.6328     78.1155
  1984.0000      0.0000    792.4008      7.6463     79.1679
  1984.2500      0.0000    792.5385      7.6311     79.8962
  1984.5000      0.0000    792.5383      7.5984     81.4846
  1984.7500      0.0000    792.4152      7.5689     85.2012
  1985.0000      0.0000    792.2080      7.5614     91.7693
  1985.2500      0.0000    791.9651      7.5831    100.2600
  1985.5000      0.0000    791.7350      7.6261    107.7716
  1985.7500      0.0000    791.5566      7.6734    110.9370
  1986.0000      0.0000    791.4384      7.7103    108.1190
  1986.2500      0.0000    791.3466      7.7348    100.3064
  1986.5000      0.0000    791.2246      7.7566     90.3939
  1986.7500      0.0000    791.0309      7.7840     81.6105
  1987.0000      0.0000    790.7645      7.8126     75.7732
  1987.2500      0.0000    790.4640      7.8265     72.4872
  1987.5000      0.0000    790.1447      7.8108     70.1635
  1987.7500      0.0000    789.6920      7.7634     67.6724
  1988.0000      0.0000    788.7612      7.6977     64.8366
  1988.2500      0.0000    786.8492      7.6328     61.9981
  1988.5000      0.0000    783.6794      7.5810     59.8727
  1988.7500      0.0000    779.7352      7.5438     59.6071
  1989.0000      0.0000    776.3621      7.5178     62.2556
  1989.2500      0.0000    775.0773      7.5047     67.8596
  1989.5000      0.0000    776.5621      7.5119     75.0690
  1989.7500      0.0000    780.1786      7.5430     81.9084
  1990.0000      0.0000    784.4127      7.5898     87.1492
  1990.2500      0.0000    787.8806      7.6364     90.8791
  1990.5000      0.0000    790.0414      7.6725     93.7201
  1990.7500      0.0000    791.1154      7.7006     95.7554
  1991.0000      0.0000    791.5638      7.7294     96.2780
  1991.2500      0.0000    791.7325      7.7625     94.2767
  1991.5000      0.0000    791.7942      7.7964     89.2078
  1991.7500      0.0000    791.8121      7.8210     81.7338
  1992.0000      0.0000    791.7893      7.8240     73.9320
  1992.2500      0.0000    791.7146      7.7984     68.5258
  1992.5000      0.0000    791.5944      7.7492     67.5245
  1992.7500      0.0000    791.4589      7.6868     71.1709
  1993.0000      0.0000    791.3375      7.6171     77.7310
  1993.2500      0.0000    791.2374      7.5434     84.1516
  1993.5000      0.0000    791.1538      7.4761     87.4173
  1993.7500      0.0000    791.0885      7.4330     86.0186
  1994.0000      0.0000    791.0504      7.4259     80.5860
  1994.2500      0.0000    791.0387      7.4505     73.2221
  1994.5000      0.0000    791.0352      7.4879     66.2072
  1994.7500      0.0000    791.0142      7.5152     61.1285
  1995.0000      0.0000    790.9597      7.5189     58.7171
  1995.2500      0.0000    790.8738      7.5020     58.8888
  1995.5000      0.0000    790.7738      7.4813     60.7491
  1995.7500      0.0000    790.6796      7.4745     62.8870
  1996.0000      0.0000    790.6021      7.4888     64.0799
  1996.2500      0.0000    790.5396      7.5221     63.8843
  1996.5000      0.0000    790.4838      7.5686     62.3815
  1996.7500      0.0000    790.4311      7.6225     59.1331
  1997.0000      0.0000    790.3756      7.6777     52.7724
  1997.2500      0.0000    790.2848      7.7331     42.3951
  1997.5000      0.0000    789.9932      7.7952     29.3696
  1997.7500      0.0000    788.9374      7.8726     16.9833
  1998.0000      0.0000    785.7318      7.9639      8.0192
  1998.2500      0.0000    778.0847      8.0544      3.0473
  1998.5000      0.0000    763.9673      8.1307      0.9230
  1998.7500      0.0000    744.0083      8.1974      0.2212
  1999.0000      0.0000    722.8436      8.2757      0.0414
  1999.2500      0.0000    706.9220      8.3843      0.0056
  1999.5000      0.0000    700.0981      8.5201      0.0000
  1999.7500      0.0000    701.5242      8.6576   -999.2500
  2000.0000      0.0000    707.8939      8.7652   -999.2500
  2000.2500      0.0000    717.0792      8.8241   -999.2500
  2000.5000      0.0000    729.1433      8.8362   -999.2500
  2000.7500      0.0000    744.2093      8.8163   -999.2500
  2001.0000      0.0000    760.2186      8.7769   -999.2500
  2001.2500      0.0000    772.7783      8.7129   -999.2500
  2001.5000      0.0000    775.7381      8.5922   -999.2500
  2001.7500      0.0000    759.7205      8.3412   -999.2500
  2002.0000      0.0000    710.6442      7.8349   -999.2500
  2002.2500      0.0000    615.3965      6.9455   -999.2500
  2002.5000      0.0000    475.8762      5.6702   -999.2500
  2002.7500      0.0000    317.5978      4.2230   -999.2500
  2003.0000      0.0000    177.9041      2.9386   -999.2500
  2003.2500      0.0000     81.9030      2.0507   -999.2500
  2003.5000      0.0000     30.5241      1.5732   -999.2500
  2003.7500      0.0000      9.1086      1.3734   -999.2500
  2004.0000      0.0000      2.1567      1.3083   -999.2500
  2004.2500      0.0000      0.3991      1.2919   -999.2500
  2004.5000      0.0000      0.0531      1.2886   -999.2500
  2004.7500      0.0000   -999.2500   -999.2500   -999.2500
  2005.0000      0.0000   -999.2500   -999.2500   -999.2500
  2005.2500      0.0000   -999.2500   -999.2500   -999.2500
  2005.5000      0.0000   -999.2500   -999.2500   -999.2500
  2005.7500      0.0000   -999.2500   -999.2500   -999.2500
  2006.0000      0.0000   -999.2500   -999.2500   -999.2500
  2006.2500      0.0000   -999.2500   -999.2500   -999.2500
  2006.5000      0.0000   -999.2500   -999.2500   -999.2500
  2006.7500      0.0000   -999.2500   -999.2500   -999.2500
  2007.0000      0.0000   -999.2500   -999.2500   -999.2500
  2007.2500      0.0000   -999.2500   -999.2500   -999.2500
  2007.5000      0.0000   -999.2500   -999.2500   -999.2500
  2007.7500      0.0000   -999.2500   -999.2500   -999.2500
