~Version Information
VERS.                      2.0: CWLS Log ASCII Standard - VERSION 2.0
WRAP.                       NO: One line per depth step
~Well Information Block
STRT.FT                -7.2500: 
STOP.FT              1221.7500: 
STEP.FT                 0.2500: 
NULL.                -999.2500: 
COMP.          Pioneer Natural Resources: COMPANY
WELL.           Tennis 7-12 Tr: WELL
FLD.           Purgatorie River: FIELD
LOC.           1794' FNL & 1563' FEL--: LOCATION
PROV.                       CO: PROVINCE
CNTY.               Las Animas: COUNTRY
SRVC.          Patterson Wireline: SERVICE COMPANY
DATE.          Tue Dec 27 14:16:59 2005: LOG DATE
UWI.           05 071 008635 00: UNIQUE WELL ID
~Curve Information Block
DEPT.FT            0 000 00 00: Depth
CCL.                          : Casing Collar Locator
TT3.usec                      : CBL 3' Travel Time
AMP3.mV                       : CBL 3' Amplitude
GR.GAPI                       : Gamma Ray
~Parameter Information Block
~A  Depth       CCL         TT3         AMP3         GR     
# ...
   227.2500      0.0000    759.6655      6.3992     59.1078
   227.5000      0.0000    750.5012      6.4698     56.3395
   227.7500      0.0000    752.4178      6.5251     54.2438
   228.0000      0.0000    764.5567      6.5631     52.2046
   228.2500      0.0000    781.0461      6.5962     49.6327
   228.5000      0.0000    794.1738      6.6377     46.3027
   228.7500      0.0000    799.3063      6.6868     42.8414
   229.0000      0.0000    797.3107      6.7306     40.5877
   229.2500      0.0000    792.6049      6.7600     40.4593
   229.5000      0.0000    789.6523      6.7817     42.0958
   229.7500      0.0000    791.1232      6.8143     44.2355
   230.0000      0.0000    798.0052      6.8709     45.5807
   230.2500      0.0000    810.3196      6.9476     45.2507
   230.5000      0.0000    827.7934      7.0291     43.0234
   230.7500      0.0000    849.9780      7.1026     39.5733
   231.0000      0.0000    875.0405      7.1653     36.1784
   231.2500      0.0000    898.3911      7.2203     33.7725
   231.5000      0.0000    913.3480      7.2698     32.2864
   231.7500      0.0000    913.4897      7.3126     31.1251
   232.0000      0.0000    894.6085      7.3487     30.1854
   232.2500      0.0000    855.6985      7.3824     30.0049
   232.5000      0.0000    799.2250      7.4231     30.9038
   232.7500      0.0000    730.6318      7.4804     32.5597
   233.0000      0.0000    657.8909      7.5585     34.5181
   233.2500      0.0000    590.9567      7.6518     36.5593
   233.5000      0.0000    538.9828      7.7444     38.4557
   233.7500      0.0000    505.9142      7.8169     39.7867
   234.0000      0.0000    489.0837      7.8547     40.1291
   234.2500      0.0000    482.4294      7.8541     39.3171
   234.5000      0.0000    480.5978      7.8204     37.5789
   234.7500      0.0000    480.5817      7.7621     35.4983
   235.0000      0.0000    481.4957      7.6874     33.8180
   235.2500      0.0000    484.2702      7.6048     33.1604
   235.5000      0.0000    491.8314      7.5268     33.6868
   235.7500      0.0000    508.3701      7.4728     34.8971
   236.0000      0.0000    536.2744      7.4637     35.8786
   236.2500      0.0000    572.6186      7.5077     35.8320
   236.5000      0.0000    610.1429      7.5844     34.4790
   236.7500      0.0000    642.9786      7.6493     32.2463
   237.0000      0.0000    669.9645      7.6582     30.1361
   237.2500      0.0000    691.8441      7.5940     29.1444
   237.5000      0.0000    707.9413      7.4710     29.5763
   237.7500      0.0000    717.0250      7.3185     30.9836
   238.0000      0.0000    719.6920      7.1660     32.8992
   238.2500      0.0000    718.5409      7.0382     35.6850
   238.5000      0.0000    716.3981      6.9533     40.5258
   238.7500      0.0000    714.8483      6.9156     48.2990
   239.0000      0.0000    714.1829      6.9114     58.3330
   239.2500      0.0000    714.0886      6.9120     68.4189
   239.5000      0.0000    714.2360      6.8863     76.1721
   239.7500      0.0000    714.3971      6.8151     80.3436
   240.0000      0.0000    714.4304      6.7048     81.0197
   240.2500      0.0000    714.2868      6.5857     79.1567
   240.5000      0.0000    714.0175      6.4945     76.2274
   240.7500      0.0000    713.7269      6.4524     73.8371
   241.0000      0.0000    713.4863      6.4598     73.0781
   241.2500      0.0000    713.2929      6.5037     74.1068
   241.5000      0.0000    713.0985      6.5656     76.3807
   241.7500      0.0000    712.8740      6.6280     79.2435
   242.0000      0.0000    712.6426      6.6784     82.1901
   242.2500      0.0000    712.4548      6.7121     84.6279
   242.5000      0.0000    712.3498      6.7308     85.8125
   242.7500      0.0000    712.3604      6.7389     85.6254
   243.0000      0.0000    712.5930      6.7402     85.4370
   243.2500      0.0000    713.3836      6.7371     87.3862
   243.5000      0.0000    715.5192      6.7305     92.2558
   243.7500      0.0000    720.3344      6.7218     98.3751
   244.0000      0.0000    729.1546      6.7118    102.9637
   244.2500      0.0000    741.9404      6.6988    104.2977
   244.5000      0.0000    756.0947      6.6791    102.5925
   244.7500      0.0000    766.8553      6.6501     99.5528
   245.0000      0.0000    769.7222      6.6129     97.4838
   245.2500      0.0000    763.6514      6.5714     98.2531
   245.5000      0.0000    752.2748      6.5299    102.2098
   245.7500      0.0000    741.1761      6.4924    107.7337
   246.0000      0.0000    733.6996      6.4622    112.1616
   246.2500      0.0000    730.1555      6.4391    113.6571
   246.5000      0.0000    730.4443      6.4190    112.1290
   246.7500      0.0000    735.2776      6.3974    108.1493
   247.0000      0.0000    744.2585      6.3734    101.5614
   247.2500      0.0000    754.2676      6.3476     91.9330
   247.5000      0.0000    761.0822      6.3184     80.0628
   247.7500      0.0000    762.6528      6.2839     68.1220
   248.0000      0.0000    760.5386      6.2482     58.3330
   248.2500      0.0000    758.5251      6.2215     52.0245
   248.5000      0.0000    759.9194      6.2117     49.7199
   248.7500      0.0000    765.3807      6.2166     51.2314
   249.0000      0.0000    772.7753      6.2247     55.2580
   249.2500      0.0000    779.2397      6.2251     59.4769
   249.5000      0.0000    783.0146      6.2153     61.8671
   249.7500      0.0000    782.8897      6.2006     62.1813
   250.0000      0.0000    777.2214      6.1901     61.8777
   250.2500      0.0000    765.3788      6.1906     62.5368
   250.5000      0.0000    749.9337      6.2029     64.6010
   250.7500      0.0000    735.7891      6.2229     67.5696
   251.0000      0.0000    726.6714      6.2453     70.7324
   251.2500      0.0000    722.9756      6.2668     73.4139
   251.5000      0.0000    722.9841      6.2873     75.1651
   251.7500      0.0000    725.4174      6.3080     76.2182
   252.0000      0.0000    730.3120      6.3295     77.4061
   252.2500      0.0000    737.6631      6.3512     79.2167
   252.5000      0.0000    745.8528      6.3725     81.1402
   252.7500      0.0000    751.7874      6.3927     82.2770
   253.0000      0.0000    752.5569      6.4091     82.4132
   253.2500      0.0000    747.2921      6.4152     82.1405
   253.5000      0.0000    737.9135      6.4030     82.0259
   253.7500      0.0000    727.9758      6.3702     82.0859
   254.0000      0.0000    720.3529      6.3233     82.1342
   254.2500      0.0000    715.8568      6.2749     82.2412
   254.5000      0.0000    713.7178      6.2365     82.5561
   254.7500      0.0000    712.8036      6.2135     82.9086
   255.0000      0.0000    712.3015      6.2042     83.0196
   255.2500      0.0000    711.6572      6.1999     83.1003
   255.5000      0.0000    710.2056      6.1868     83.8141
   255.7500      0.0000    706.9570      6.1481     85.3951
   256.0000      0.0000    701.0225      6.0668     87.0400
   256.2500      0.0000    692.7031      5.9364     87.6353
   256.5000      0.0000    684.3832      5.7754     87.0939
   256.7500      0.0000    680.0355      5.6195     86.3257
   257.0000      0.0000    683.4666      5.4913     85.7639
   257.2500      0.0000    696.4860      5.3903     84.6244
   257.5000      0.0000    718.0668      5.3129     81.8265
   257.7500      0.0000    744.8054      5.2619     77.2984
   258.0000      0.0000    772.3398      5.2325     72.4460
   258.2500      0.0000    796.0417      5.2118     69.5597
   258.5000      2.0000    810.3288      5.2064     70.4020
   258.7500      0.0000    809.8229      5.2766     74.9096
   259.0000      0.0000    794.4422      5.5266     81.3764
   259.2500      0.0000    772.5667      6.0121     88.1150
   259.5000      0.0000    755.5272      6.6259     94.5507
   259.7500      0.0000    748.2968      7.1206    100.4088
   260.0000      0.0000    747.4707      7.3037    104.5348
   260.2500      0.0000    747.3629      7.1929    105.3495
   260.5000      0.0000    745.5243      6.9559    102.2696
