~Version Information
VERS.                      2.0: CWLS Log ASCII Standard - VERSION 2.0
WRAP.                       NO: One line per depth step
~Well Information Block
STRT.FT               410.0000: 
STOP.FT              1530.5000: 
STEP.FT                 0.1000: 
NULL.                -999.2500: 
COMP.          Pioneer Natural Resources: COMPANY
WELL.          Pioneer 34-27 Tr: WELL
FLD.           Purgatoire River: FIELD
LOC.           243' FSL & 1593' FEL: LOCATION
STAT.                 Colorado: State
CNTY.               Las Animas: COUNTY
CTRY. USA : Country
SECT. 27 : Section
TOWN. 32S : Township
RANG. 67W : Range 
SRVC.                Patterson: SERVICE COMPANY
DATE.          Fri Oct 07 07:11:38 2005: LOG DATE
API.           05 071 08548 00: UNIQUE WELL ID
~Curve Information Block
DEPT.FT            0 000 00 00: Depth
DCAL.in                       : CDL Caliper
RHOB.g/cc                     : CDL Bulk Density
RHOC.g/cc                     : CDL Density Correction
DPOR.pu                       : CDL Density Porosity
GR.GAPI                       : Gamma Ray
NPOR.pu                       : Neutron Porosity
~Parameter Information Block
~A  Depth       DCAL        RHOB        RHOC        DPOR         GR         NPOR    
# ...
  1370.0000      7.9221      2.5334      0.0824      7.0684    119.5138     23.7749
  1370.1000      7.9221      2.5481      0.0797      6.1749    124.1346     23.6219
  1370.2000      7.9221      2.5838      0.1143      4.0110    126.2193     24.1315
  1370.3000      7.9454      2.6226      0.2161      1.6589    123.7073     24.6027
  1370.4000      7.9454      2.6406      0.2398      0.5678    120.9668     24.1440
  1370.5000      8.0021      2.6436      0.2245      0.3905    120.6256     23.3955
  1370.6000      8.0021      2.6496      0.2439      0.0240    120.1871     23.3717
  1370.7000      8.0021      2.6553      0.2539     -0.3219    119.1744     24.0739
  1370.8000      7.9035      2.6512      0.2207     -0.0704    117.4875     24.7802
  1370.9000      7.9035      2.6436      0.2150      0.3857    115.3487     24.8878
  1371.0000      7.8224      2.6361      0.2068      0.8453    114.8304     24.4151
  1371.1000      7.8224      2.6245      0.1635      1.5461    115.7267     23.7943
  1371.2000      7.8224      2.6128      0.1782      2.2573    116.5032     23.4793
  1371.3000      7.8349      2.6079      0.1210      2.5507    115.8453     23.6078
  1371.4000      7.8349      2.6152      0.0934      2.1090    114.0984     23.7709
  1371.5000      7.9089      2.6365      0.0420      0.8163    112.1386     23.6156
  1371.6000      7.9089      2.6640      0.0807     -0.8465    108.4376     23.5272
  1371.7000      7.9089      2.6785      0.1145     -1.7243    103.1882     24.3354
  1371.8000      7.9333      2.6749      0.1216     -1.5090     98.2429     25.8857
  1371.9000      7.9333      2.6678      0.0970     -1.0761     94.5213     26.5469
  1372.0000      8.0055      2.6647      0.1165     -0.8897     94.2636     25.7249
  1372.1000      8.0055      2.6642      0.0668     -0.8606     95.7833     25.0284
  1372.2000      8.0055      2.6616      0.0967     -0.7004     95.6508     25.3495
  1372.3000      7.9721      2.6421      0.0937      0.4777     94.8729     25.6238
  1372.4000      7.9721      2.6076      0.0100      2.5672     92.8486     25.2600
  1372.5000      7.9620      2.5854      0.0194      3.9181     88.6481     24.8717
  1372.6000      7.9620      2.5918      0.0410      3.5288     86.8478     24.4165
  1372.7000      7.9620      2.6132      0.1180      2.2323     89.5875     23.7263
  1372.8000      7.9682      2.6190      0.1263      1.8797     92.2907     23.2739
  1372.9000      7.9682      2.6000      0.0571      3.0275     91.9462     23.0361
  1373.0000      7.9680      2.5834      0.0085      4.0335     90.1127     22.4905
  1373.1000      7.9680      2.5837      0.0516      4.0191     90.7576     21.7502
  1373.2000      7.9680      2.5747      0.0898      4.5614     93.5070     21.6474
  1373.3000      7.9738      2.5453      0.0156      6.3484     93.7578     22.3431
  1373.4000      7.9738      2.5183      0.0102      7.9817     90.6914     22.7945
  1373.5000      8.0025      2.5087      0.0168      8.5645     89.0109     22.6836
  1373.6000      8.0025      2.5139      0.0460      8.2460     91.2231     22.6448
  1373.7000      8.0025      2.5227      0.0456      7.7143     93.6058     22.7039
  1373.8000      8.0162      2.5258      0.0070      7.5253     94.7889     22.9468
  1373.9000      8.0162      2.5283      0.0248      7.3781     96.2046     23.9382
  1374.0000      8.0065      2.5357      0.0357      6.9247     96.0302     25.1619
  1374.1000      8.0065      2.5466      0.0677      6.2655     92.1055     25.5533
  1374.2000      8.0065      2.5672      0.0663      5.0195     85.5534     25.1920
  1374.3000      8.0138      2.5966      0.1608      3.2368     79.4501     24.6427
  1374.4000      8.0138      2.6099      0.1227      2.4296     76.6880     23.8457
  1374.5000      8.0261      2.5992      0.0966      3.0806     75.1507     22.3186
  1374.6000      8.0261      2.5843      0.0584      3.9836     70.9577     20.6919
  1374.7000      8.0261      2.5727      0.1083      4.6833     66.2601     20.1041
  1374.8000      7.9800      2.5584      0.0877      5.5498     62.7208     20.2234
  1374.9000      7.9800      2.5454      0.0516      6.3393     57.8641     19.8330
  1375.0000      7.9657      2.5379      0.0710      6.7913     52.9592     18.7931
  1375.1000      7.9657      2.5332      0.0268      7.0759     49.9063     17.8163
  1375.2000      7.9657      2.5328      0.0582      7.1043     46.2669     17.7423
  1375.3000      7.9978      2.5354      0.0762      6.9446     42.0603     18.6834
  1375.4000      7.9978      2.5327      0.0929      7.1069     39.6319     19.7949
  1375.5000      8.0267      2.5222      0.0871      7.7428     38.5998     20.4528
  1375.6000      8.0267      2.5095      0.0838      8.5122     38.7556     20.6472
  1375.7000      8.0267      2.4983      0.0583      9.1961     39.0845     20.6642
  1375.8000      8.0485      2.4841      0.0715     10.0519     37.3016     20.1362
  1375.9000      8.0485      2.4591      0.0739     11.5708     34.1022     18.8457
  1376.0000      8.0000      2.4339      0.0073     13.0964     31.8822     17.9556
  1376.1000      8.0000      2.4320      0.0238     13.2102     31.2157     17.9659
  1376.2000      8.0000      2.4545      0.0420     11.8466     30.8910     18.0634
  1376.3000      8.0023      2.4889      0.0470      9.7623     30.7448     17.5506
  1376.4000      8.0023      2.5181      0.1354      7.9934     32.8725     16.3708
  1376.5000      7.9770      2.5287      0.0705      7.3541     36.8181     15.1183
  1376.6000      7.9770      2.5269      0.0942      7.4629     38.7920     14.4554
  1376.7000      7.9770      2.5196      0.0897      7.9051     38.4495     14.6687
  1376.8000      8.0165      2.5142      0.0842      8.2293     39.3549     15.3737
  1376.9000      8.0165      2.5214      0.0225      7.7930     41.5729     15.9938
  1377.0000      8.0109      2.5343      0.0879      7.0101     41.2073     16.6026
  1377.1000      8.0109      2.5333      0.0965      7.0755     38.4881     17.1036
  1377.2000      8.0109      2.5186      0.0227      7.9623     37.4816     17.4681
  1377.3000      8.0053      2.5140      0.0126      8.2400     39.2680     18.2417
  1377.4000      8.0053      2.5263      0.0596      7.4955     43.1917     19.4463
  1377.5000      8.0023      2.5331      0.0671      7.0828     47.7209     20.1617
  1377.6000      8.0023      2.5159      0.0741      8.1296     49.1149     19.8173
  1377.7000      8.0023      2.4868      0.0320      9.8903     48.7935     19.2928
  1377.8000      7.9972      2.4680      0.0366     11.0333     52.6053     19.4270
  1377.9000      7.9972      2.4530      0.0664     11.9380     61.0213     20.0101
  1378.0000      7.9776      2.4163      0.1253     14.1619     67.1172     20.5264
  1378.1000      7.9776      2.3476      0.0599     18.3271     66.8541     20.8216
  1378.2000      7.9776      2.2693      0.0156     23.0718     65.8081     21.1686
  1378.3000      8.0132      2.2165     -0.0283     26.2734     71.7885     22.0858
  1378.4000      8.0132      2.2047     -0.0074     26.9889     84.6337     23.4616
  1378.5000      8.0084      2.2230      0.0407     25.8804     96.9021     24.5421
  1378.6000      8.0084      2.2579      0.0128     23.7617    104.8251     25.2115
  1378.7000      8.0084      2.3104      0.0886     20.5839    110.8621     25.8050
  1378.8000      8.0083      2.3766      0.1197     16.5724    118.4485     26.0483
  1378.9000      8.0083      2.4324      0.2232     13.1890    128.4644     26.2408
  1379.0000      8.0027      2.4589      0.1451     11.5813    137.3869     27.3910
  1379.1000      8.0027      2.4708      0.1056     10.8577    142.5644     28.9993
  1379.2000      8.0027      2.4833      0.1445     10.1021    146.7982     30.0500
  1379.3000      7.9460      2.4912      0.0868      9.6234    151.2163     30.8755
  1379.4000      7.9460      2.4997      0.0675      9.1089    151.9627     31.9434
  1379.5000      7.9805      2.5193      0.0890      7.9195    146.9621     32.4545
