~Version Information
VERS.                      2.0: CWLS Log ASCII Standard - VERSION 2.0
WRAP.                       NO: One line per depth step
~Well Information Block
STRT.FT               310.0000: 
STOP.FT              2298.0000: 
STEP.FT                 0.2500: 
NULL.                -999.2500: 
COMP.          Pioneer Natural Resources: COMPANY
WELL.               Relay 12-7: WELL
FLD.           Purgatoire River: FIELD
LOC.           1999' FNL & 848' FWL: LOCATION
PROV.                 Colorado: PROVINCE
CNTY.               Las Animas: COUNTRY
SRVC.                Patterson: SERVICE COMPANY
DATE.          Fri Dec 16 17:39:57 2005: LOG DATE
UWI.           05 071 08453 00: UNIQUE WELL ID
~Curve Information Block
DEPT.FT            0 000 00 00: Depth
SN.Ohm-m                      : IEL Short Normal
SP.mV                         : IEL Spontaneous Potential
DIR.Ohm-m                     : IEL Induction Resistivity
GR.GAPI                       : Gamma Ray
~Parameter Information Block
~A  Depth        SN          SP         DIR          GR     
# ...
  1348.5000     23.7804     44.8261     16.8352    115.0807
  1348.7500     23.5674     44.7461     16.7679    114.8471
  1349.0000     23.4155     44.6834     17.0045    114.5960
  1349.2500     23.2363     44.6635     17.6818    114.7827
  1349.5000     22.9553     44.6982     19.1464    116.3255
  1349.7500     22.5752     44.7802     22.1348    118.2382
  1350.0000     22.1578     44.8847     28.3964    121.4228
  1350.2500     21.7262     44.9787     43.6266    122.8871
  1350.5000     21.3746     45.0341    105.3840    123.2274
  1350.7500     21.2769     45.0372 100000.0000    122.3934
  1351.0000     21.3723     44.9931 100000.0000    120.7198
  1351.2500     21.3477     44.9232 100000.0000    120.0693
  1351.5000     21.0256     44.8574 100000.0000    120.3540
  1351.7500     20.5559     44.8192 100000.0000    121.0693
  1352.0000     20.1663     44.8112 100000.0000    121.6805
  1352.2500     19.8973     44.8122 100000.0000    121.3238
  1352.5000     19.7010     44.7873 100000.0000    120.3563
  1352.7500     19.5940     44.7005 100000.0000    120.4312
  1353.0000     19.5807     44.5135 100000.0000    122.6828
  1353.2500     19.6118     44.1774 100000.0000    125.2689
  1353.5000     19.6449     43.6350 100000.0000    129.0241
  1353.7500     19.6593     42.8364 100000.0000    130.3836
  1354.0000     19.6783     41.7483 100000.0000    129.5994
  1354.2500     19.7533     40.3460 100000.0000    127.1291
  1354.5000     19.8852     38.5973 100000.0000    121.5851
  1354.7500     20.0115     36.4551 100000.0000    117.9268
  1355.0000     20.0522     33.8576 100000.0000    114.8394
  1355.2500     19.9548     30.7379 100000.0000    115.1336
  1355.5000     19.6916     27.0506 100000.0000    118.6611
  1355.7500     19.2157     22.8044 100000.0000    122.0818
  1356.0000     18.5020     18.0540 100000.0000    127.1892
  1356.2500     17.6117     12.8156 100000.0000    130.2738
  1356.5000     16.6176      6.9510 100000.0000    134.9674
  1356.7500     15.4650      0.1335      7.8461    138.3930
  1357.0000     13.9751     -8.0286      2.8784    143.0647
  1357.2500     11.9954    -17.7505      1.7471    144.6678
  1357.5000      9.5939    -28.8239      1.2839    142.9323
  1357.7500      7.1843    -40.4498      1.0412    138.5551
  1358.0000      5.3315    -51.2190      0.8939    127.3198
  1358.2500      4.3175    -59.3433      0.8009    117.1378
  1358.5000      3.9918    -63.1857      0.7499     99.1661
  1358.7500      4.0216    -61.9198      0.7371     86.6730
  1359.0000      4.1105    -55.9447      0.7559     69.9998
  1359.2500      4.1501    -46.7642      0.7913     61.7609
  1359.5000      4.4770    -36.3716      0.8225     54.8482
  1359.7500      5.9749    -26.5064      0.8415     53.4404
  1360.0000      9.8829    -18.1953      0.8722     54.3280
  1360.2500     17.1855    -11.7369      0.9726     55.9983
  1360.5000     27.7456     -6.9812      1.2509     59.3787
  1360.7500     40.2255     -3.6343      2.0289     62.0563
  1361.0000     53.0241     -1.3990      5.3475     66.4952
  1361.2500     64.9943      0.0949 100000.0000     69.5827
  1361.5000     75.3916      1.4751 100000.0000     73.8324
  1361.7500     83.7547      3.6637 100000.0000     75.8157
  1362.0000     89.9867      7.4739 100000.0000     76.6625
  1362.2500     94.1854     12.8333 100000.0000     75.8967
  1362.5000     96.2098     18.3328 100000.0000     74.0958
  1362.7500     95.6286     21.8527 100000.0000     73.4679
  1363.0000     92.5967     21.9979 100000.0000     74.2041
  1363.2500     88.6910     19.0319 100000.0000     75.4564
  1363.5000     85.7052     14.4123 100000.0000     77.2070
  1363.7500     83.4340      9.5312 100000.0000     77.8576
  1364.0000     80.0347      4.9221 100000.0000     78.2155
  1364.2500     74.4428      0.3719 100000.0000     78.2585
  1364.5000     67.0439     -4.5870 100000.0000     77.8465
  1364.7500     58.4640    -10.3555 100000.0000     76.8436
  1365.0000     48.7996    -17.2119 100000.0000     73.6698
  1365.2500     38.0156    -25.3621 100000.0000     70.4890
  1365.5000     26.8788    -34.9623 100000.0000     64.9200
  1365.7500     17.1025    -46.0809 100000.0000     61.3670
  1366.0000     10.1962    -58.6402 100000.0000     57.4779
  1366.2500      6.3973    -72.3915 100000.0000     56.4331
  1366.5000      4.8094    -86.9230 100000.0000     57.8415
  1366.7500      4.2542   -101.6544 100000.0000     60.9094
  1367.0000      3.9897   -115.8085 100000.0000     68.4601
  1367.2500      3.8069   -128.4320 100000.0000     74.8959
  1367.5000      3.6334   -138.5769 100000.0000     84.9496
  1367.7500      3.4159   -145.6409 100000.0000     90.7994
  1368.0000      3.3063   -149.6563 100000.0000     96.7858
  1368.2500      3.5094   -151.2360 100000.0000     98.4027
  1368.5000      3.9517   -151.1519 100000.0000     97.2618
  1368.7500      4.3286   -149.8817 100000.0000     94.7302
  1369.0000      4.4168   -147.4534 100000.0000     89.8789
  1369.2500      4.2441   -143.5301 100000.0000     86.7275
  1369.5000      4.0267   -137.5182 100000.0000     82.9412
  1369.7500      3.9544   -128.7865 100000.0000     81.3693
  1370.0000      4.0334   -117.2393 100000.0000     80.4921
  1370.2500      4.1426   -103.9593 100000.0000     80.1623
  1370.5000      4.1637    -91.1096 100000.0000     77.6338
  1370.7500      4.0667    -80.8409      4.7049     73.5551
  1371.0000      3.9133    -74.1121      1.5195     64.5485
  1371.2500      3.7856    -70.4661      0.8316     58.3261
  1371.5000      3.7389    -68.6632      0.5845     52.0610
  1371.7500      3.7679    -67.2882      0.5029     51.3669
  1372.0000      3.8283    -64.9913      0.5201     56.4273
  1372.2500      3.9046    -60.7496      0.6209     63.4543
  1372.5000      3.9941    -54.2445      0.7977     77.8153
  1372.7500      4.1025    -45.8924      1.0008     88.7494
  1373.0000      4.2769    -36.3708      1.1102    104.5683
  1373.2500      4.5257    -26.1280      1.0706    112.8109
  1373.5000      4.7739    -15.3468      0.9844    119.3310
  1373.7500      5.0284     -4.2796      0.9688    120.0215
  1374.0000      5.5927      6.4943      1.1089    118.4135
  1374.2500      6.9926     16.1981      1.5732    117.1626
  1374.5000      9.4436     24.2495      3.1402    115.8002
  1374.7500     12.4242     30.5389     23.6894    115.0252
  1375.0000     15.0658     35.3801 100000.0000    114.2046
  1375.2500     16.8607     39.2348 100000.0000    114.4199
  1375.5000     17.8039     42.4301 100000.0000    116.7643
  1375.7500     18.1574     45.0350 100000.0000    119.8446
  1376.0000     18.2626     46.9530 100000.0000    126.2236
  1376.2500     18.3546     48.1422 100000.0000    130.8004
  1376.5000     18.4852     48.7535 100000.0000    135.9823
  1376.7500     18.6295     49.0610 100000.0000    137.1542
  1377.0000     18.7298     49.2864 100000.0000    134.7888
  1377.2500     18.7165     49.5129 100000.0000    130.9997
  1377.5000     18.5985     49.7407 100000.0000    124.0140
  1377.7500     18.4745     49.9807 100000.0000    119.8832
  1378.0000     18.4131     50.2843 100000.0000    116.7607
  1378.2500     18.3515     50.7034 100000.0000    117.7346
  1378.5000     18.1521     51.2382 100000.0000    124.1081
  1378.7500     17.7225     51.8198 100000.0000    130.6660
  1379.0000     17.0839     52.3418 100000.0000    140.9673
  1379.2500     16.3796     52.7176 100000.0000    146.5695
  1379.5000     15.7534     52.9207 100000.0000    152.1412
  1379.7500     15.2390     52.9834 100000.0000    154.4557
  1380.0000     14.8411     52.9636 100000.0000    157.3742
  1380.2500     14.5641     52.9136 100000.0000    159.5551
  1380.5000     14.3469     52.8691     80.6464    162.6416
  1380.7500     14.1442     52.8495     33.4883    163.3888
  1381.0000     13.9824     52.8613     20.5105    160.7774
  1381.2500     13.8533     52.9005     15.1415    156.7188
  1381.5000     13.6820     52.9547     12.5667    149.3961
  1381.7500     13.4604     53.0087     11.2590    145.0706
