~Version Information
VERS.                      2.0: CWLS Log ASCII Standard - VERSION 2.0
WRAP.                       NO: One line per depth step
~Well Information Block
STRT.FT               262.2500: 
STOP.FT              1942.0000: 
STEP.FT                 0.2500: 
NULL.                -999.2500: 
COMP.          XTO Energy Inc.: COMPANY
WELL.          Golden Eagle 19-11: WELL
FLD.           Purgatoire River: FIELD
LOC.           2351' FSL & 1926' FWL--: LOCATION
CNTY.               Las Animas: COUNTY
SRVC.                Patterson: SERVICE COMPANY
DATE.          Wed Mar 08 23:33:01 2006: LOG DATE
UWI.           05 071 08696 00: UNIQUE WELL ID
STAT.                 Colorado: STATE
~Curve Information Block
DEPT.FT            0 000 00 00: Depth
SP.mV                         : DIL Spontaneous Potential
RILD.Ohm-m                    : DIL Deep Resistivity
RILM.Ohm-m                    : DIL Medium Resistivity
RLL3.Ohm-m                    : DIL Shallow Resistivity
GR.GAPI                       : Gamma Ray
~Parameter Information Block
~A  Depth        SP         RILD        RILM        RLL3         GR     
# ...
  1914.2500     10.0284      5.9597      7.0797      7.5167   -999.2500
  1914.5000      9.8385      5.9565      7.0607      7.3789   -999.2500
  1914.7500      9.7234      5.9333      7.0239      7.2639   -999.2500
  1915.0000      9.7131      5.8880      6.9691      7.1745   -999.2500
  1915.2500      9.8172      5.8220      6.8935      7.1006   -999.2500
  1915.5000     10.0288      5.7400      6.7940      7.0160   -999.2500
  1915.7500     10.3192      5.6480      6.6699      6.8838   -999.2500
  1916.0000     10.6322      5.5510      6.5247      6.6812   -999.2500
  1916.2500     10.8981      5.4521      6.3661      6.4260   -999.2500
  1916.5000     11.0665      5.3531      6.2033      6.1755   -999.2500
  1916.7500     11.1289      5.2556      6.0439      5.9892   -999.2500
  1917.0000     11.1145      5.1613      5.8920      5.8846   -999.2500
  1917.2500     11.0641      5.0723      5.7482      5.8219   -999.2500
  1917.5000     11.0023      4.9904      5.6124      5.7352   -999.2500
  1917.7500     10.9263      4.9167      5.4861      5.5851   -999.2500
  1918.0000     10.8212      4.8514      5.3730      5.3899   -999.2500
  1918.2500     10.6852      4.7946      5.2775      5.2121   -999.2500
  1918.5000     10.5373      4.7461      5.2029      5.1164   -999.2500
  1918.7500     10.4052      4.7063      5.1496      5.1340   -999.2500
  1919.0000     10.3135      4.6751      5.1153      5.2445   -999.2500
  1919.2500     10.2780      4.6521      5.0962      5.3819   -999.2500
  1919.5000     10.2945      4.6364      5.0885      5.4718   -999.2500
  1919.7500     10.3263      4.6263      5.0896      5.4830   -999.2500
  1920.0000     10.3175      4.6203      5.0987      5.4494   -999.2500
  1920.2500     10.2362      4.6167      5.1163      5.4384   -999.2500
  1920.5000     10.1082      4.6131      5.1422      5.4984   -999.2500
  1920.7500      9.9999      4.6061      5.1746      5.6325   -999.2500
  1921.0000      9.9610      4.5910      5.2099      5.8059   -999.2500
  1921.2500      9.9845      4.5645      5.2432      5.9640   -999.2500
  1921.5000     10.0273      4.5265      5.2706      6.0530   -999.2500
  1921.7500     10.0678      4.4820      5.2902      6.0447   -999.2500
  1922.0000     10.1331      4.4386      5.3030      5.9549   -999.2500
  1922.2500     10.2658      4.4032      5.3120      5.8300   -999.2500
  1922.5000     10.4742      4.3784      5.3206      5.7139   -999.2500
  1922.7500     10.7223      4.3629      5.3309      5.6287   -999.2500
  1923.0000     10.9630      4.3530      5.3424      5.5810   -999.2500
  1923.2500     11.1769      4.3456      5.3524      5.5707   -999.2500
  1923.5000     11.3788      4.3390      5.3569      5.5885   -999.2500
  1923.7500     11.5886      4.3328      5.3524      5.6132   -999.2500
  1924.0000     11.7998      4.3278      5.3378      5.6238   -999.2500
  1924.2500     11.9806      4.3347      5.3143      5.6125   -999.2500
  1924.5000     12.1013      4.3500      5.2860      5.5837   -999.2500
  1924.7500     12.1476      4.3704      5.2581      5.5445   -999.2500
  1925.0000     12.0910      4.4073      5.2363      5.5020   -999.2500
  1925.2500     11.8573      4.4606      5.2255      5.4647   -999.2500
  1925.5000     11.3605      4.5265      5.2302      5.4396   -999.2500
  1925.7500     10.6026      4.5988      5.2536      5.4315   -999.2500
  1926.0000      9.7316      4.6723      5.2980      5.4491   -999.2500
  1926.2500      8.9638      4.7447      5.3645      5.5079   -999.2500
  1926.5000      8.4402      4.8180      5.4534      5.6210   -999.2500
  1926.7500      8.1627      4.9000      5.5644      5.7897   -999.2500
  1927.0000      8.0482      5.0094      5.6970      6.0115   -999.2500
  1927.2500      8.0113      5.1858      5.8486      6.2934   -999.2500
  1927.5000      8.0021      5.5024      6.0138      6.6428   -999.2500
  1927.7500      8.0003      6.0846      6.1832      7.0335   -999.2500
  1928.0000   -999.2500      7.1201      6.3453      7.3904   -999.2500
  1928.2500   -999.2500      9.0275      6.4900      7.6202   -999.2500
  1928.5000   -999.2500     12.5266      6.6115      7.6675   -999.2500
  1928.7500   -999.2500     19.1335      6.7097      7.5473   -999.2500
  1929.0000   -999.2500     31.9946      6.7897      7.3328   -999.2500
  1929.2500   -999.2500     57.1018      6.8582      7.1183   -999.2500
  1929.5000   -999.2500    102.4648      6.9204      6.9841   -999.2500
  1929.7500   -999.2500    168.3007      6.9779      6.9692   -999.2500
  1930.0000   -999.2500    237.0383      7.0286      7.0544   -999.2500
  1930.2500   -999.2500    298.5697      7.0715      7.1739   -999.2500
  1930.5000   -999.2500    380.1703      7.1133      7.2588   -999.2500
  1930.7500   -999.2500    585.8277      7.1796      7.2787   -999.2500
  1931.0000   -999.2500    139.6465      7.3270      7.2445   -999.2500
  1931.2500   -999.2500    179.0758      7.6557      7.1791   -999.2500
  1931.5000   -999.2500    255.9804      8.3273      7.0963   -999.2500
  1931.7500   -999.2500    420.5128      9.6055      7.0068   -999.2500
  1932.0000   -999.2500    841.7589     11.9576      6.9290   -999.2500
  1932.2500   -999.2500   2520.2937     16.2894      6.8840   -999.2500
  1932.5000   -999.2500 100000.0000     24.4731      6.8823   -999.2500
  1932.7500   -999.2500 100000.0000     40.4436      6.9225   -999.2500
  1933.0000   -999.2500 100000.0000     71.8958      7.0000   -999.2500
  1933.2500   -999.2500 100000.0000    129.6016      7.1100   -999.2500
  1933.5000   -999.2500 100000.0000    213.6221      7.2476   -999.2500
  1933.7500   -999.2500 100000.0000    293.9998      7.4092   -999.2500
  1934.0000   -999.2500 100000.0000    341.4357      7.5890   -999.2500
  1934.2500   -999.2500 100000.0000    361.4092      7.7617   -999.2500
  1934.5000   -999.2500 100000.0000    369.4837      7.8666   -999.2500
  1934.7500   -999.2500 100000.0000    357.6807      7.8192   -999.2500
  1935.0000   -999.2500 100000.0000    360.2462      7.5539   -999.2500
  1935.2500   -999.2500 100000.0000    362.3525      7.0756   -999.2500
  1935.5000   -999.2500 100000.0000    364.3910      6.4762   -999.2500
  1935.7500   -999.2500 100000.0000    367.7042      5.8956   -999.2500
  1936.0000   -999.2500 100000.0000    375.2247      5.4520   -999.2500
  1936.2500   -999.2500 100000.0000    392.1548      5.1795   -999.2500
  1936.5000   -999.2500 100000.0000    426.9527      4.9925   -999.2500
  1936.7500   -999.2500 100000.0000    493.6597      4.6920   -999.2500
  1937.0000   -999.2500 100000.0000    617.8700      4.0569   -999.2500
  1937.2500   -999.2500 100000.0000    851.5800      3.0121   -999.2500
  1937.5000   -999.2500   -999.2500   1311.1986      1.7355   -999.2500
  1937.7500   -999.2500   -999.2500   2282.3962      0.5576   -999.2500
  1938.0000   -999.2500   -999.2500   4539.0874     -0.2741   -999.2500
  1938.2500   -999.2500   -999.2500  10440.6748     -0.7271   -999.2500
  1938.5000   -999.2500   -999.2500  28464.8945     -0.9180   -999.2500
  1938.7500   -999.2500   -999.2500 100000.0000     -0.9805   -999.2500
  1939.0000   -999.2500   -999.2500 100000.0000     -0.9964   -999.2500
  1939.2500   -999.2500   -999.2500 100000.0000     -0.9995   -999.2500
  1939.5000   -999.2500   -999.2500 100000.0000   -999.2500   -999.2500
  1939.7500   -999.2500   -999.2500 100000.0000   -999.2500   -999.2500
  1940.0000   -999.2500   -999.2500 100000.0000   -999.2500   -999.2500
  1940.2500   -999.2500   -999.2500 100000.0000   -999.2500   -999.2500
  1940.5000   -999.2500   -999.2500 100000.0000   -999.2500   -999.2500
  1940.7500   -999.2500   -999.2500 100000.0000   -999.2500   -999.2500
  1941.0000   -999.2500   -999.2500 100000.0000   -999.2500   -999.2500
  1941.2500   -999.2500   -999.2500 100000.0000   -999.2500   -999.2500
  1941.5000   -999.2500   -999.2500 100000.0000   -999.2500   -999.2500
  1941.7500   -999.2500   -999.2500 100000.0000   -999.2500   -999.2500
  1942.0000   -999.2500   -999.2500 100000.0000   -999.2500   -999.2500
