~Version Information
VERS.                      2.0: CWLS Log ASCII Standard - VERSION 2.0
WRAP.                       NO: One line per depth step
~Well Information Block
STRT.FT                 0.0000: 
STOP.FT              1507.7500: 
STEP.FT                 0.2500: 
NULL.                -999.2500: 
COMP.          Pioneer Natural Resources: COMPANY
WELL.          Pioneer 34-27 Tr: WELL
FLD.           Purgatorie River: FIELD
LOC.           243' FSL & 1593' FEL: LOCATION
STAT.                 Colorado: State
CNTY.               Las Animas: COUNTY
CTRY. USA : Country
SECT. 27 : Section
TOWN. 32S : Township
RANG. 67W : Range
SRVC.                Patterson: SERVICE COMPANY
DATE.          Wed Oct 12 09:30:25 2005: LOG DATE
API.                          : UNIQUE WELL ID
~Curve Information Block
DEPT.FT            0 000 00 00: Depth
GR.GAPI                       : Gamma Ray
CCL.                          : Casing Collar Locator
TT3.usec                      : CBL 3' Travel Time
AMP3.mV                       : CBL 3' Amplitude
~Parameter Information Block
~A  Depth        GR         CCL         TT3         AMP3    
# ...
  1474.0000     85.7115      0.0000    528.1747     19.4184
  1474.2500     82.9670      0.0000    569.3250     19.4665
  1474.5000     84.0552      0.0000    600.8534     19.3942
  1474.7500     90.5282      0.0000    599.2081     19.3036
  1475.0000    102.1043      0.0000    589.0839     19.0052
  1475.2500    116.5504      0.0000    596.9479     18.3207
  1475.5000    130.5405      0.0000    615.8680     17.3274
  1475.7500    141.1366      0.0000    630.3975     16.2307
  1476.0000    146.8541      0.0000    638.1873     15.1843
  1476.2500    147.6969      0.0000    637.2696     14.3000
  1476.5000    144.5641      0.0000    621.7304     13.6593
  1476.7500    138.7301      0.0000    595.1309     13.2513
  1477.0000    131.7803      0.0000    570.2030     12.9995
  1477.2500    125.5177      0.0000    552.9711     12.8490
  1477.5000    121.1976      0.0000    539.5659     12.7748
  1477.7500    118.7513      0.0000    526.8596     12.7531
  1478.0000    117.1863      0.0000    514.9739     12.7694
  1478.2500    115.8079      0.0000    499.6646     12.8222
  1478.5000    114.7713      0.0000    473.1990     12.8955
  1478.7500    114.3469      0.0000    437.6865     12.9537
  1479.0000    113.9315      0.0000    406.7598     12.9767
  1479.2500    112.2950      0.0000    389.1907     12.9657
  1479.5000    108.9645      0.0000    382.0442     12.9183
  1479.7500    105.0810      0.0000    379.3209     12.8401
  1480.0000    102.6975      0.0000    377.9858     12.7690
  1480.2500    103.4754      0.0000    377.3253     12.7497
  1480.5000    108.0087      0.0000    377.3365     12.7909
  1480.7500    115.6867      0.0000    378.0775     12.8689
  1481.0000    124.5847      0.0000    379.6534     12.9626
  1481.2500    131.9366      0.0000    383.1609     13.0689
  1481.5000    135.6627      0.0000    393.3623     13.1939
  1481.7500    135.7219      0.0000    420.1071     13.3225
  1482.0000    133.6356      0.0000    469.4464     13.3942
  1482.2500    130.7508      0.0000    529.9287     13.3384
  1482.5000    127.3716      0.0000    581.3169     13.1495
  1482.7500    123.4328      0.0000    616.7235     12.9070
  1483.0000    119.3247      0.0000    638.5275     12.6988
  1483.2500    115.8096      0.0000    642.8933     12.5424
  1483.5000    113.6196      0.0000    625.9539     12.4038
  1483.7500    113.4669      0.0000    596.4568     12.2653
  1484.0000    116.0898      0.0000    569.9286     12.1445
  1484.2500    121.7350      0.0000    553.2726     12.0624
  1484.5000    129.3650      0.0000    543.9472     12.0222
  1484.7500    136.6632      0.0000    540.0347     12.0234
  1485.0000    141.2798      0.0000    541.6002     12.0723
  1485.2500    142.3271      0.0000    546.2623     12.1663
  1485.5000    140.7430      0.0000    551.0947     12.3032
  1485.7500    138.2745      0.0000    556.5406     12.5120
  1486.0000    136.1635      0.0000    563.9528     12.8020
  1486.2500    134.7754      0.0000    569.0706     13.0934
  1486.5000    134.1343      0.0000    561.4742     13.3023
  1486.7500    134.3491      0.0000    535.7672     13.4613
  1487.0000    135.3257      0.0000    502.8134     13.6635
  1487.2500    136.1337      0.0000    481.1746     13.9451
  1487.5000    135.0197      0.0000    477.9167     14.2629
  1487.7500    130.7290      0.0000    489.5645     14.5414
  1488.0000    124.1822      0.0000    513.6651     14.7260
  1488.2500    118.4557      0.0000    542.8176     14.7931
  1488.5000    116.5794      0.0000    559.4871     14.7436
  1488.7500    119.2542      0.0000    552.8480     14.5967
  1489.0000    124.6609      0.0000    532.4367     14.3626
  1489.2500    130.0679      0.0000    516.2117     14.0474
  1489.5000    133.5086      0.0000    507.6063     13.6914
  1489.7500    134.4977      0.0000    491.7737     13.3793
  1490.0000    133.6817      0.0000    459.2471     13.2013
  1490.2500    131.8296      0.0000    421.9877     13.1819
  1490.5000    129.1016      0.0000    396.3959     13.2478
  1490.7500    125.4119      0.0000    385.0354     13.3039
  1491.0000    121.2787      0.0000    381.4865     13.3304
  1491.2500    117.7083      0.0000    380.4867     13.3591
  1491.5000    115.1186      0.0000    379.9987     13.3933
  1491.7500    113.0340      0.0000    379.5363     13.4109
  1492.0000    111.1148      0.0000    379.0364     13.4006
  1492.2500    109.8069      0.0000    378.5504     13.3574
  1492.5000    109.4533      0.0000    377.9734     13.2831
  1492.7500    109.3174      0.0000    376.3448     13.2013
  1493.0000    108.1681      0.0000    370.4763     13.0991
  1493.2500    105.6598      0.0000    352.5301     12.7269
  1493.5000    102.5753      0.0000    308.6870     11.4725
  1493.7500     99.5858      0.0000    229.9574      8.8877
  1494.0000     96.1155      0.0000    133.5997      5.5894
  1494.2500     90.8849      0.0000     56.3571      2.9289
  1494.5000     83.5580      0.0000     16.4433      1.5599
  1494.7500     75.3620      0.0000      3.2194      1.1091
  1495.0000     67.8396      0.0000      0.4141      1.0140
  1495.2500     61.4879      0.0000      0.0333      1.0011
  1495.5000     55.9565      0.0000   -999.2500   -999.2500
  1495.7500     51.0781      0.0000   -999.2500   -999.2500
  1496.0000     47.1578      0.0000   -999.2500   -999.2500
  1496.2500     44.5472      0.0000   -999.2500   -999.2500
  1496.5000     43.3639      0.0000   -999.2500   -999.2500
  1496.7500     43.4913      0.0000   -999.2500   -999.2500
  1497.0000     44.5976      0.0000   -999.2500   -999.2500
  1497.2500     46.1793      0.0000   -999.2500   -999.2500
  1497.5000     47.6459      0.0000   -999.2500   -999.2500
  1497.7500     48.4516      0.0000   -999.2500   -999.2500
  1498.0000     48.3866      0.0000   -999.2500   -999.2500
  1498.2500     47.8301      0.0000   -999.2500   -999.2500
  1498.5000     47.5474      0.0000   -999.2500   -999.2500
  1498.7500     48.1285      0.0000   -999.2500   -999.2500
  1499.0000     49.7114      0.0000   -999.2500   -999.2500
  1499.2500     52.1556      0.0000   -999.2500   -999.2500
  1499.5000     55.2114      0.0000   -999.2500   -999.2500
  1499.7500     58.5475      0.0000   -999.2500   -999.2500
  1500.0000     61.9291      0.0000   -999.2500   -999.2500
  1500.2500     65.4422      0.0000   -999.2500   -999.2500
  1500.5000     69.2749      0.0000   -999.2500   -999.2500
  1500.7500     73.2805      0.0000   -999.2500   -999.2500
  1501.0000     77.0183      0.0000   -999.2500   -999.2500
  1501.2500     80.3321      0.0000   -999.2500   -999.2500
  1501.5000     83.7643      0.0000   -999.2500   -999.2500
  1501.7500     88.2534   -999.2500   -999.2500   -999.2500
  1502.0000     94.3746   -999.2500   -999.2500   -999.2500
  1502.2500    101.8335   -999.2500   -999.2500   -999.2500
  1502.5000    109.5619   -999.2500   -999.2500   -999.2500
  1502.7500    116.0945   -999.2500   -999.2500   -999.2500
  1503.0000    119.7822   -999.2500   -999.2500   -999.2500
  1503.2500    118.6900   -999.2500   -999.2500   -999.2500
  1503.5000    110.7013   -999.2500   -999.2500   -999.2500
  1503.7500     94.5913   -999.2500   -999.2500   -999.2500
  1504.0000     71.8037   -999.2500   -999.2500   -999.2500
  1504.2500     47.0037   -999.2500   -999.2500   -999.2500
  1504.5000     25.8681   -999.2500   -999.2500   -999.2500
  1504.7500     11.7314   -999.2500   -999.2500   -999.2500
  1505.0000      4.3186   -999.2500   -999.2500   -999.2500
  1505.2500      1.2760   -999.2500   -999.2500   -999.2500
  1505.5000      0.2996   -999.2500   -999.2500   -999.2500
  1505.7500      0.0550   -999.2500   -999.2500   -999.2500
  1506.0000      0.0072   -999.2500   -999.2500   -999.2500
  1506.2500      0.0000   -999.2500   -999.2500   -999.2500
  1506.5000   -999.2500   -999.2500   -999.2500   -999.2500
  1506.7500   -999.2500   -999.2500   -999.2500   -999.2500
  1507.0000   -999.2500   -999.2500   -999.2500   -999.2500
  1507.2500   -999.2500   -999.2500   -999.2500   -999.2500
