~Version Information
VERS.                      2.0: CWLS Log ASCII Standard - VERSION 2.0
WRAP.                       NO: One line per depth step
~Well Information Block
STRT.FT                 7.7500: 
STOP.FT              2101.0000: 
STEP.FT                 0.2500: 
NULL.                -999.2500: 
COMP.          Pioneer Natural Resources: COMPANY
WELL.          Gunslinger 13-24: WELL
FLD.           Purgatoire River: FIELD
LOC.           1968' FSL & 633' FWL: LOCATION
PROV.                 Colorado: PROVINCE
CNTY.               Las Animas: COUNTRY
SRVC.                Patterson: SERVICE COMPANY
DATE.          Mon Aug 15 11:00:02 2005: LOG DATE
UWI.           05 071 08442 00: UNIQUE WELL ID
~Curve Information Block
DEPT.FT            0 000 00 00: Depth
GR.GAPI                       : Gamma Ray
CCL.                          : Casing Collar Locator
TT3.usec                      : CBL 3' Travel Time
AMP3.mV                       : CBL 3' Amplitude
~Parameter Information Block
~A  Depth        GR         CCL         TT3         AMP3    
# ...
  1113.2500    120.9895      0.0000    654.7877     16.3086
  1113.5000    122.2383      0.0000    578.8663     20.4615
  1113.7500    122.2027      0.0000    489.2542     24.5851
  1114.0000    121.6169      0.0000    408.0142     28.1527
  1114.2500    120.8592      0.0000    350.1747     30.7453
  1114.5000    120.1224      0.0000    317.6172     32.1992
  1114.7500    119.7697      0.0000    303.1354     32.6565
  1115.0000    120.2678      0.0000    298.0894     32.5185
  1115.2500    121.8010      0.0000    296.7318     32.3057
  1115.5000    124.1534      0.0000    296.3952     32.4463
  1115.7500    126.8994      0.0000    296.1657     33.0942
  1116.0000    129.3662      0.0000    295.8422     34.1078
  1116.2500    130.2930      0.0000    295.4448     35.2088
  1116.5000    128.1104      0.0000    295.0548     36.1719
  1116.7500    122.4174      0.0000    294.7819     36.8950
  1117.0000    115.3089      0.0000    294.8076     37.3567
  1117.2500    110.5202      0.0000    295.7127     37.5668
  1117.5000    110.6075      0.0000    299.3506     37.5535
  1117.7500    114.8526      0.0000    310.2220     37.3454
  1118.0000    119.9956      0.0000    335.7974     36.9297
  1118.2500    122.9517      0.0000    382.8423     36.2357
  1118.5000    122.8680      0.0000    449.7824     35.1897
  1118.7500    120.9609      0.0000    521.9684     33.8068
  1119.0000    118.9816      0.0000    577.8459     32.2289
  1119.2500    118.0963      0.0000    602.9037     30.6569
  1119.5000    118.7047      0.0000    598.0493     29.2260
  1119.7500    120.4388      0.0000    575.7629     27.9146
  1120.0000    122.1597      0.0000    551.7148     26.5673
  1120.2500    122.6297      0.0000    540.4977     25.0261
  1120.5000    121.7259      0.0000    552.5323     23.2527
  1120.7500    120.6623      0.0000    588.0402     21.3238
  1121.0000    120.4670      0.0000    634.9833     19.3662
  1121.2500    120.3600      0.0000    677.4295     17.5651
  1121.5000    118.2571      0.0000    706.5633     16.1550
  1121.7500    113.1829      0.0000    723.3398     15.2742
  1122.0000    106.7774      0.0000    733.1498     14.8436
  1122.2500    102.0899      0.0000    740.2181     14.6501
  1122.5000    101.1689      3.0000    745.8301     14.5160
  1122.7500    103.9359      0.0000    749.1541     14.3954
  1123.0000    108.7688      0.0000    748.4413     14.4130
  1123.2500    113.7237      0.0000    741.2017     14.8441
  1123.5000    117.5628      0.0000    724.1207     15.9531
  1123.7500    120.1266      0.0000    695.5836     17.7554
  1124.0000    121.7985      0.0000    660.1635     19.9706
  1124.2500    122.7212      0.0000    628.8624     22.2131
  1124.5000    122.7571      0.0000    612.4755     24.1562
  1124.7500    122.0441      0.0000    614.9246     25.5298
  1125.0000    121.2752      0.0000    632.8669     26.1036
  1125.2500    121.4278      0.0000    658.8587     25.7374
  1125.5000    123.0840      0.0000    683.3848     24.4144
  1125.7500    125.6860      0.0000    697.6967     22.2280
  1126.0000    127.6753      0.0000    699.1159     19.3714
  1126.2500    127.8517      0.0000    693.4907     16.1416
  1126.5000    126.3883      0.0000    690.7504     12.9066
  1126.7500    124.2047      0.0000    697.9726     10.0175
  1127.0000    121.7470      0.0000    716.2066      7.7138
  1127.2500    118.9199      0.0000    741.2435      6.0822
  1127.5000    115.9762      0.0000    765.0720      5.0779
  1127.7500    113.7739      0.0000    777.8288      4.5811
  1128.0000    112.9206      0.0000    772.5446      4.4613
  1128.2500    113.2020      0.0000    750.7515      4.6224
  1128.5000    114.1851      0.0000    722.5200      5.0154
  1128.7500    115.9701      0.0000    699.4008      5.6336
  1129.0000    119.0024      0.0000    687.2427      6.5216
  1129.2500    123.4964      0.0000    684.6598      7.7931
  1129.5000    129.2052      0.0000    685.1793      9.6317
  1129.7500    135.4957      0.0000    679.1853     12.2534
  1130.0000    141.6339      0.0000    656.0337     15.8095
  1130.2500    147.0962      0.0000    608.5065     20.2405
  1130.5000    151.5053      0.0000    538.6067     25.1622
  1130.7500    154.3980      0.0000    459.5298     29.9030
  1131.0000    155.3690      0.0000    389.3835     33.7337
  1131.2500    154.3463      0.0000    340.4158     36.1865
  1131.5000    151.6462      0.0000    313.5670     37.2628
  1131.7500    148.1192      0.0000    302.0951     37.3657
  1132.0000    145.1639      0.0000    298.3915     37.0092
  1132.2500    143.8008      0.0000    297.6338     36.5532
  1132.5000    143.5326      0.0000    297.7097     36.1446
  1132.7500    142.7797      0.0000    297.9229     35.8092
  1133.0000    140.5550      0.0000    298.0837     35.5495
  1133.2500    137.2407      0.0000    298.1400     35.3817
  1133.5000    133.8743      0.0000    298.0908     35.3305
  1133.7500    131.3143      0.0000    297.9492     35.4105
  1134.0000    129.9217      0.0000    297.7414     35.6087
  1134.2500    129.3082      0.0000    297.5058     35.8820
  1134.5000    128.4431      0.0000    297.2826     36.1717
  1134.7500    126.6588      0.0000    297.1105     36.4173
  1135.0000    124.6185      0.0000    297.0453     36.5614
  1135.2500    123.8604      0.0000    297.1636     36.5611
  1135.5000    125.2989      0.0000    297.6245     36.4142
  1135.7500    128.3655      0.0000    298.8389     36.1714
  1136.0000    131.5793      0.0000    301.6746     35.9090
  1136.2500    133.8583      0.0000    307.1550     35.6791
  1136.5000    135.3887      0.0000    315.1569     35.4839
  1136.7500    137.2583      0.0000    323.1884     35.2945
  1137.0000    140.2167      0.0000    327.6935     35.0838
  1137.2500    143.9371      0.0000    327.9627     34.8322
  1137.5000    147.6024      0.0000    328.2383     34.5121
  1137.7500    150.9038      0.0000    334.4102     34.1014
  1138.0000    153.9388      0.0000    348.2285     33.6453
  1138.2500    156.1457      0.0000    365.3467     33.2990
  1138.5000    156.2087      0.0000    379.1487     33.2663
  1138.7500    153.6322      0.0000    386.6002     33.6544
  1139.0000    149.8957      0.0000    390.6220     34.3816
  1139.2500    147.3516      0.0000    396.3087     35.2269
  1139.5000    147.1411      0.0000    404.4366     35.9650
  1139.7500    148.4560      0.0000    410.4599     36.4683
  1140.0000    149.5016      0.0000    411.1728     36.7305
  1140.2500    149.0510      0.0000    408.7310     36.8490
  1140.5000    147.3797      0.0000    405.2995     37.0022
  1140.7500    145.8272      0.0000    397.6368     37.4143
  1141.0000    145.2979      0.0000    380.6803     38.2756
  1141.2500    145.2299      0.0000    354.2865     39.6242
  1141.5000    144.1853      0.0000    324.0758     41.2774
  1141.7500    141.3005      0.0000    297.0161     42.9198
  1142.0000    136.9960      0.0000    277.3671     44.3088
  1142.2500    132.5113      0.0000    265.6453     45.4064
  1142.5000    129.0495      0.0000    259.8534     46.3295
  1142.7500    127.2433      0.0000    257.4211     47.2069
  1143.0000    127.1040      0.0000    256.4622     48.0917
  1143.2500    128.2212      0.0000    256.0159     48.9671
  1143.5000    129.8298      0.0000    255.7334     49.7934
  1143.7500    130.7768      0.0000    255.5226     50.5332
  1144.0000    129.8710      0.0000    255.3715     51.1358
  1144.2500    126.5862      0.0000    255.2882     51.5168
  1144.5000    121.6185      0.0000    255.2891     51.5839
  1144.7500    116.9534      0.0000    255.3834     51.3029
  1145.0000    115.1062      0.0000    255.5601     50.7341
  1145.2500    117.4803      0.0000    255.7915     49.9969
  1145.5000    123.0137      0.0000    256.0470     49.2023
  1145.7500    128.7390      0.0000    256.3051     48.4136
  1146.0000    132.0579      0.0000    256.5613     47.6500
  1146.2500    132.5741      0.0000    256.8310     46.9088
  1146.5000    131.8532      0.0000    257.1955     46.1904
