~Version Information
VERS.                      2.0: CWLS Log ASCII Standard - VERSION 2.0
WRAP.                       NO: One line per depth step
~Well Information Block
STRT.FT               -15.7500: 
STOP.FT              1862.5000: 
STEP.FT                 0.2500: 
NULL.                -999.2500: 
COMP.          XTO Energy Inc.: COMPANY
WELL.          Golden Eagle 19-11: WELL
FLD.           Purgatorie River: FIELD
LOC.           2351' FSL &1926' WL--: LOCATION
CNTY.               Las Animas: COUNTY
SRVC.          Patterson Wireline: SERVICE COMPANY
DATE.          Fri Mar 24 16:29:29 2006: LOG DATE
UWI.           05 071 08696 00: UNIQUE WELL ID
STAT.                       CO: STATE
~Curve Information Block
DEPT.FT            0 000 00 00: Depth
CCL.                          : Casing Collar Locator
TT3.usec                      : CBL 3' Travel Time
AMP3.mV                       : CBL 3' Amplitude
GR.GAPI                       : Gamma Ray
~Parameter Information Block
~A  Depth       CCL         TT3         AMP3         GR     
# ...
  1826.7500      0.0000    683.5053      2.3936     94.9237
  1827.0000      0.0000    689.8739      2.4401     92.2385
  1827.2500      0.0000    699.1677      2.4994     91.3249
  1827.5000      0.0000    711.1149      2.5668     92.6193
  1827.7500      0.0000    725.5562      2.6319     95.0733
  1828.0000      0.0000    739.7560      2.6828     96.8854
  1828.2500      0.0000    748.0020      2.7092     97.1589
  1828.5000      0.0000    744.8874      2.7046     96.8078
  1828.7500      0.0000    730.0418      2.6690     97.7543
  1829.0000      0.0000    709.5836      2.6108    101.2097
  1829.2500      0.0000    692.1394      2.5454    106.5915
  1829.5000      0.0000    682.9979      2.4881    111.9477
  1829.7500      0.0000    681.5759      2.4476    115.3832
  1830.0000      0.0000    683.3521      2.4246    115.9968
  1830.2500      0.0000    683.4609      2.4140    113.5015
  1830.5000      0.0000    679.1472      2.4094    107.7123
  1830.7500      0.0000    670.5450      2.4086     99.2920
  1831.0000      0.0000    660.2789      2.4143     90.5372
  1831.2500      0.0000    651.8494      2.4316     84.2338
  1831.5000      0.0000    647.4808      2.4606     81.6243
  1831.7500      0.0000    647.2683      2.4939     82.0647
  1832.0000      0.0000    650.3388      2.5209     84.2833
  1832.2500      0.0000    656.1505      2.5345     87.1506
  1832.5000      0.0000    664.2574      2.5328     89.5911
  1832.7500      0.0000    673.4433      2.5142     90.8855
  1833.0000      0.0000    681.9882      2.4749     91.4487
  1833.2500      0.0000    688.8099      2.4120     92.8895
  1833.5000      0.0000    693.6971      2.3304     96.8651
  1833.7500      0.0000    696.3777      2.2430    103.7445
  1834.0000      0.0000    696.1335      2.1659    112.3635
  1834.2500      0.0000    692.6996      2.1121    120.9100
  1834.5000      0.0000    686.9370      2.0865    128.1150
  1834.7500      0.0000    680.3415      2.0861    133.7796
  1835.0000      0.0000    674.5609      2.1034    138.1219
  1835.2500      0.0000    671.6465      2.1304    140.6640
  1835.5000      0.0000    673.8370      2.1602    140.1708
  1835.7500      0.0000    681.9603      2.1895    135.9440
  1836.0000      0.0000    693.8119      2.2205    128.8783
  1836.2500      0.0000    705.0736      2.2598    120.9420
  1836.5000      0.0000    713.0048      2.3128    113.8197
  1836.7500      0.0000    718.8318      2.3796    108.1740
  1837.0000      0.0000    725.4299      2.4541    103.7579
  1837.2500      0.0000    733.3241      2.5297     99.8898
  1837.5000      0.0000    740.2338      2.6027     96.1016
  1837.7500      0.0000    743.8326      2.6695     92.5300
  1838.0000      0.0000    743.5213      2.7212     89.5252
  1838.2500      0.0000    739.8661      2.7446     87.1720
  1838.5000      0.0000    733.8101      2.7325     85.7856
  1838.7500      0.0000    726.6321      2.6922     86.3659
  1839.0000      0.0000    719.7819      2.6427     89.5352
  1839.2500      0.0000    714.3306      2.6040     94.1095
  1839.5000      0.0000    710.9301      2.5863     97.6153
  1839.7500      0.0000    710.6504      2.5880     98.4373
  1840.0000      0.0000    715.1232      2.6011     97.0674
  1840.2500      0.0000    724.6389      2.6165     95.1796
  1840.5000      0.0000    736.1784      2.6257     93.7892
  1840.7500      0.0000    744.5009      2.6224     92.3497
  1841.0000      0.0000    745.1122      2.6062     89.4184
  1841.2500      0.0000    735.0824      2.5831     84.0598
  1841.5000      0.0000    712.6376      2.5611     76.5506
  1841.7500      0.0000    680.0571      2.5456     67.9513
  1842.0000      0.0000    647.5576      2.5379     59.6915
  1842.2500      0.0000    629.5596      2.5336     53.7583
  1842.5000      0.0000    633.6099      2.5210     52.3925
  1842.7500      0.0000    654.2831      2.4830     56.7459
  1843.0000      0.0000    679.0385      2.4099     65.7252
  1843.2500      0.0000    698.0800      2.3125     76.3444
  1843.5000      0.0000    708.3548      2.2214     85.5014
  1843.7500      0.0000    711.2604      2.1708     91.7097
  1844.0000      0.0000    709.1082      2.1789     95.2719
  1844.2500      0.0000    703.8749      2.2371     97.1010
  1844.5000      0.0000    697.8802      2.3156     97.8793
  1844.7500      0.0000    693.8858      2.3813     98.1409
  1845.0000      0.0000    693.3982      2.4164     98.3994
  1845.2500      0.0000    695.2739      2.4247     98.9943
  1845.5000      0.0000    696.9976      2.4205    100.0009
  1845.7500      0.0000    697.1586      2.4153    101.1275
  1846.0000      0.0000    696.1605      2.4124    101.7531
  1846.2500      0.0000    695.0103      2.4104    101.4279
  1846.5000      0.0000    694.2478      2.4070    100.2491
  1846.7500      0.0000    693.9451      2.3980     98.4978
  1847.0000      0.0000    694.1952      2.3775     96.3512
  1847.2500      0.0000    695.5267      2.3421     94.3381
  1847.5000      0.0000    699.0329      2.2962     93.5916
  1847.7500      0.0000    705.8829      2.2507     94.9412
  1848.0000      0.0000    715.9691      2.2176     97.3267
  1848.2500      0.0000    726.5774      2.2048     97.0416
  1848.5000      0.0000    733.0747      2.2125     89.3908
  1848.7500      0.0000    732.3163      2.2315     72.5183
  1849.0000      0.0000    725.8950      2.2491     49.9534
  1849.2500      0.0000    719.3705      2.2585     28.4875
  1849.5000      0.0000    717.7752      2.2620     13.2229
  1849.7500      0.0000    721.9226      2.2653      4.9380
  1850.0000      0.0000    728.7640      2.2699      1.4715
  1850.2500      0.0000    734.6719      2.2700      0.3475
  1850.5000      0.0000    738.4722      2.2589      0.0643
  1850.7500      0.0000    741.8945      2.2363      0.0083
  1851.0000      0.0000    747.4088      2.2116      0.0000
  1851.2500      0.0000    755.6279      2.1996   -999.2500
  1851.5000      0.0000    764.2926      2.2136   -999.2500
  1851.7500      0.0000    769.1931      2.2577   -999.2500
  1852.0000      0.0000    766.6223      2.3225   -999.2500
  1852.2500      0.0000    756.5634      2.3886   -999.2500
  1852.5000      0.0000    744.3100      2.4390   -999.2500
  1852.7500      0.0000    737.1865      2.4675   -999.2500
  1853.0000      0.0000    736.7583      2.4729   -999.2500
  1853.2500      0.0000    732.0623      2.4444   -999.2500
  1853.5000      0.0000    700.5977      2.3554   -999.2500
  1853.7500      0.0000    620.3650      2.1788   -999.2500
  1854.0000      0.0000    488.4185      1.9186   -999.2500
  1854.2500      0.0000    330.3827      1.6252   -999.2500
  1854.5000      0.0000    186.9030      1.3690   -999.2500
  1854.7500      0.0000     86.6768      1.1952   -999.2500
  1855.0000      0.0000     32.4803      1.1033   -999.2500
  1855.2500      0.0000      9.7329      1.0653   -999.2500
  1855.5000      0.0000      2.3120      1.0531   -999.2500
  1855.7500      0.0000      0.4293      1.0501   -999.2500
  1856.0000      0.0000      0.0574      1.0495   -999.2500
  1856.2500      0.0000   -999.2500   -999.2500   -999.2500
  1856.5000      0.0000   -999.2500   -999.2500   -999.2500
  1856.7500      0.0000   -999.2500   -999.2500   -999.2500
  1857.0000      0.0000   -999.2500   -999.2500   -999.2500
  1857.2500      0.0000   -999.2500   -999.2500   -999.2500
  1857.5000      0.0000   -999.2500   -999.2500   -999.2500
  1857.7500      0.0000   -999.2500   -999.2500   -999.2500
  1858.0000      0.0000   -999.2500   -999.2500   -999.2500
  1858.2500      0.0000   -999.2500   -999.2500   -999.2500
  1858.5000      0.0000   -999.2500   -999.2500   -999.2500
  1858.7500      0.0000   -999.2500   -999.2500   -999.2500
  1859.0000      0.0000   -999.2500   -999.2500   -999.2500
  1859.2500      0.0000   -999.2500   -999.2500   -999.2500
  1859.5000      0.0000   -999.2500   -999.2500   -999.2500
  1859.7500      0.0000   -999.2500   -999.2500   -999.2500
  1860.0000      0.0000   -999.2500   -999.2500   -999.2500
