~Version Information
 VERS.                                  2.0 : CWLS LAS VERSION
 WRAP.                                   NO : WRAPING MODE
 SWARE .                 MController 2.5.0J : SOFTWARE VERSION
~Well Information
 WELL.                    Greenwood 43-29Tr : WELL
 COMP.    Pioneer Natural Resources USA Inc : COMPANY
 FLD.                      Purgatoire River : FIELD
 LOC.                 NE/SE SEC29 T32S R67W : LOCATION
 DATE.                          08/30-31/05 : DATE(S) LOGGED
 SRVC.       Blanco Geological Services LLC : SERVICE COMPANY
 STAT.                             Colorado : STATE
 CNTY.                           Las Animas : COUNTY
 CTRY.                                  USA : COUNTRY
 API.                       05-071-08478-00 : API NUMBER
 STRT.FT                             941.00 : START DEPTH
 STOP.FT                            2097.00 : STOP DEPTH
 STEP.FT                               1.00 : DEPTH INCREMENT
 NULL.                                -9999 : NULL VALUE
~Curve information
 DEPTH.FT                                   :
 ROP.MIN/FT                                 :
 GAS.UNITS                                  :
~ASCII Log data
       941.0     -9999.00         15.0 
       942.0         0.58         15.4 
       943.0         0.23         15.9 
       944.0         0.23         15.6 
       945.0         0.37         16.0 
       946.0         0.23         15.5 
       947.0         0.23         15.6 
       948.0         0.35         15.8 
       949.0         0.23         15.6 
       950.0         0.23         16.5 
       951.0         0.23         15.7 
       952.0         0.58         16.6 
       953.0         0.58         16.7 
       954.0         0.47         16.1 
       955.0         0.58         16.1 
       956.0         0.47         16.0 
       957.0         0.58         16.7 
       958.0         0.58         15.9 
       959.0         0.47         16.8 
       960.0         0.58         15.7 
       961.0         0.23         16.0 
       962.0         0.23         15.1 
       963.0         0.35         17.6 
       964.0         0.23         16.7 
       965.0         0.23         16.9 
       966.0         0.58         16.3 
       967.0         0.23         16.5 
       968.0         0.23         17.5 
       969.0         0.58         16.7 
       970.0         0.23         16.4 
       971.0         0.58         17.4 
       972.0         0.23         17.0 
       973.0         0.23         17.2 
       974.0         0.35         19.0 
       975.0         0.23         18.0 
       976.0         0.23         17.5 
       977.0         0.37         17.2 
       978.0         0.23         17.0 
       979.0         0.47         17.3 
       980.0         0.35         17.0 
       981.0         0.23         17.5 
       982.0         0.23         16.7 
       983.0         0.35         17.7 
       984.0         0.23         17.7 
       985.0         0.23         17.6 
       986.0         0.23         16.7 
       987.0         0.58         17.8 
       988.0         0.23         18.9 
       989.0         0.58         18.8 
       990.0         0.23         16.9 
       991.0         0.58         16.8 
       992.0         0.23         16.4 
       993.0         0.23         16.6 
       994.0         0.58         17.3 
       995.0         0.23         17.0 
       996.0         0.58         16.5 
       997.0         0.23         16.1 
       998.0         0.23         16.7 
       999.0         0.23         16.6 
      1000.0         0.35         17.4 
      1001.0         0.47         17.8 
      1002.0         0.35         19.4 
      1003.0         0.23         19.5 
      1004.0         0.23         19.1 
      1005.0         0.35         19.1 
      1006.0         0.23         19.6 
      1007.0         0.23         19.8 
      1008.0         0.23         19.0 
      1009.0         0.35         18.7 
      1010.0         0.47         19.0 
      1011.0         0.35         19.5 
      1012.0         0.23         21.0 
      1013.0         0.48         25.5 
      1014.0         0.58         24.2 
      1015.0         0.58         21.3 
      1016.0         0.47         19.8 
      1017.0         0.35         20.4 
      1018.0         0.23         19.0 
      1019.0         0.23         20.2 
      1020.0         0.23         19.0 
      1021.0         0.35         20.3 
      1022.0         0.23         19.4 
      1023.0         0.23         19.1 
      1024.0         0.35         19.2 
      1025.0         0.23         20.1 
      1026.0         0.58         20.2 
      1027.0         0.23         19.3 
      1028.0         0.23         19.5 
      1029.0         0.58         19.9 
      1030.0         0.23         19.9 
      1031.0         0.58         20.0 
      1032.0         0.47         19.0 
      1033.0         0.35         19.4 
      1034.0         0.23         19.5 
      1035.0         0.87         19.9 
      1036.0         0.80         23.8 
      1037.0         0.53         23.9 
      1038.0         0.82         21.9 
      1039.0         0.27         19.7 
      1040.0         0.53         19.5 
      1041.0         0.50         19.1 
      1042.0         0.53         19.1 
      1043.0         0.27         18.7 
      1044.0         0.57         19.7 
      1045.0         0.55         19.1 
      1046.0         0.80         20.3 
      1047.0         0.27         20.7 
      1048.0         0.27         20.3 
      1049.0         0.27         19.5 
      1050.0         0.27         19.3 
      1051.0         0.27         20.0 
      1052.0         0.27         20.1 
      1053.0         0.27         19.9 
      1054.0         0.27         18.8 
      1055.0         0.28         19.1 
      1056.0         0.53         20.7 
      1057.0         0.27         22.1 
      1058.0         0.27         24.8 
      1059.0         0.27         26.3 
      1060.0         0.27         24.8 
      1061.0         0.27         23.6 
      1062.0         0.27         23.6 
      1063.0         0.27         21.5 
      1064.0         0.27         20.8 
      1065.0         0.27         19.7 
      1066.0         0.28         20.6 
      1067.0         0.27         20.4 
      1068.0         0.27         20.1 
      1069.0         0.53         19.6 
      1070.0         0.27         19.0 
      1071.0         0.30         19.4 
      1072.0         0.40         21.7 
      1073.0         0.27         23.7 
      1074.0         0.27         24.3 
      1075.0         0.27         27.7 
      1076.0         0.27         27.8 
      1077.0         0.28         26.2 
      1078.0         0.27         23.7 
      1079.0         0.27         22.0 
      1080.0         0.27         20.8 
      1081.0         0.27         21.0 
      1082.0         0.27         21.3 
      1083.0         0.27         21.5 
      1084.0         0.23         25.1 
      1085.0         0.27         25.6 
      1086.0         0.23         29.9 
      1087.0         0.27         33.3 
      1088.0         0.27         32.3 
      1089.0         0.28         29.9 
      1090.0         0.23         26.6 
      1091.0         0.27         23.1 
      1092.0         0.17         22.9 
      1093.0         0.27         21.0 
      1094.0         0.27         20.8 
      1095.0         0.27         20.7 
      1096.0         0.10         20.7 
      1097.0         0.33         21.2 
      1098.0         0.27         21.0 
      1099.0         0.27         21.6 
      1100.0         0.27         20.6 
      1101.0         0.27         19.6 
      1102.0         0.27         19.8 
      1103.0         0.28         19.8 
      1104.0         0.27         18.8 
      1105.0         0.27         19.0 
      1106.0         0.17         19.0 
      1107.0         0.27         20.0 
      1108.0         0.27         21.8 
      1109.0         0.27         23.5 
      1110.0         0.27         23.0 
      1111.0         0.27         22.6 
      1112.0         0.27         21.0 
      1113.0         0.27         20.0 
      1114.0         0.27         19.4 
      1115.0         0.27         20.2 
      1116.0         0.28         21.6 
      1117.0         0.27         22.9 
      1118.0         0.27         25.4 
      1119.0         0.27         28.8 
      1120.0         0.17         34.0 
      1121.0         0.27         35.5 
      1122.0         0.27         32.9 
      1123.0         0.27         30.0 
      1124.0         0.27         27.5 
      1125.0         0.23         26.2 
      1126.0         0.27         22.9 
      1127.0         0.27         22.6 
      1128.0         0.27         21.0 
      1129.0         0.15         20.6 
      1130.0         0.27         20.2 
      1131.0         0.27         20.4 
      1132.0         0.27         21.1 
      1133.0         0.27         21.5 
      1134.0         0.27         21.1 
      1135.0         0.23         21.1 
      1136.0         0.33         20.7 
      1137.0         0.37         19.9 
      1138.0         0.27         20.8 
      1139.0         0.33         20.0 
      1140.0         0.27         20.8 
