~Version Information
VERS.                      2.0: CWLS Log ASCII Standard - VERSION 2.0
WRAP.                       NO: One line per depth step
~Well Information Block
STRT.FT                -8.5000: 
STOP.FT              1945.2500: 
STEP.FT                 0.2500: 
NULL.                -999.2500: 
COMP.          Pioneer Natural Resources: COMPANY
WELL.          Flying Horse 12-11 Tr: WELL
FLD.           Purgatorie River: FIELD
LOC.           2459' FNL & 410' FWL: LOCATION
STAT.                       CO: PROVINCE
CNTY.               Las Animas: COUNTY
CTRY.        USA : Country
SECT. 11 : Section
TOWN. 32S : Township
RANG. 66W : Range
SRVC.          Patterson Wireline: SERVICE COMPANY
DATE.          Thu Sep 08 15:44:22 2005: LOG DATE
API.           05 071 08485 00: UNIQUE WELL ID
~Curve Information Block
DEPT.FT            0 000 00 00: Depth
CCL.                          : Casing Collar Locator
TT3.usec                      : CBL 3' Travel Time
AMP3.mV                       : CBL 3' Amplitude
GR.GAPI                       : Gamma Ray
~Parameter Information Block
~A  Depth       CCL         TT3         AMP3         GR     
# ...
   360.0000      0.0000    564.9873     25.3956     83.4105
   360.2500      0.0000    588.6262     25.4459     79.8172
   360.5000      0.0000    580.7026     25.4898     77.3943
   360.7500      0.0000    561.7761     25.3919     77.3498
   361.0000      0.0000    556.5495     24.9950     79.2167
   361.2500      0.0000    583.3540     24.2500     81.6407
   361.5000      0.0000    651.2813     23.2358     83.5531
   361.7500      0.0000    752.6744     22.0565     84.5794
   362.0000      0.0000    858.3542     20.8166     84.5436
   362.2500      0.0000    929.8856     19.7066     83.1353
   362.5000      0.0000    941.8932     18.9601     80.4732
   362.7500     -2.0000    895.5059     18.6588     77.7852
   363.0000      0.0000    813.3267     18.6621     77.0130
   363.2500      0.0000    724.0287     18.7654     79.3290
   363.5000      0.0000    650.7079     18.9028     83.8354
   363.7500      0.0000    604.2750     19.2607     88.0246
   364.0000      0.0000    577.1635     20.2438     89.9035
   364.2500      0.0000    546.8138     22.1931     89.5738
   364.5000      0.0000    496.2815     24.9391     88.6451
   364.7500      0.0000    431.3539     27.6762     88.6788
   365.0000      0.0000    372.4821     29.4655     90.5249
   365.2500      0.0000    334.1929     29.9016     94.4158
   365.5000      0.0000    317.0920     29.2560     99.7054
   365.7500      0.0000    314.8069     28.0981    104.5485
   366.0000      0.0000    321.5222     26.8939    106.7240
   366.2500      0.0000    333.2880     25.8729    105.4549
   366.5000      0.0000    346.3867     25.0920    102.3667
   366.7500      0.0000    357.3332     24.5368    100.1338
   367.0000      0.0000    363.9309     24.1807     99.7402
   367.2500      0.0000    365.3587     24.0008     99.2397
   367.5000      0.0000    361.5986     23.9698     95.7278
   367.7500      0.0000    354.1433     24.0390     88.6051
   368.0000      0.0000    346.7779     24.1295     80.4586
   368.2500      0.0000    343.8429     24.1603     74.7743
   368.5000      0.0000    347.0311     24.0966     73.4753
   368.7500      0.0000    354.4970     23.9661     76.6779
   369.0000      0.0000    363.0618     23.8237     83.5700
   369.2500      0.0000    370.4998     23.7032     92.4329
   369.5000      0.0000    375.9496     23.6033    100.3004
   369.7500      0.0000    379.3724     23.5121    104.0308
   370.0000      0.0000    381.1642     23.4396    102.3936
   370.2500      0.0000    381.8903     23.4247     96.8822
   370.5000      0.0000    381.9802     23.5051     90.2001
   370.7500      0.0000    381.5755     23.6757     84.0524
   371.0000      0.0000    380.5612     23.8833     78.6965
   371.2500      0.0000    378.7559     24.0689     74.4927
   371.5000      0.0000    376.2970     24.2116     72.8786
   371.7500      0.0000    373.9929     24.3294     74.8446
   372.0000      0.0000    373.0128     24.4503     78.8185
   372.2500      0.0000    373.8932     24.5889     81.3034
   372.5000      0.0000    375.8966     24.7440     80.0243
   372.7500      0.0000    377.4507     24.9113     75.8153
   373.0000      0.0000    376.8945     25.1005     71.2497
   373.2500      0.0000    372.7123     25.3412     67.9656
   373.5000      0.0000    363.8253     25.6673     65.4941
   373.7500      0.0000    350.5982     26.0893     62.2827
   374.0000      0.0000    335.5442     26.5760     57.5885
   374.2500      0.0000    322.2374     27.0621     52.2967
   374.5000      0.0000    313.0701     27.4833     47.9313
   374.7500      0.0000    308.1367     27.8123     45.2574
   375.0000      0.0000    306.0493     28.0636     44.1080
   375.2500      0.0000    305.3419     28.2684     44.1524
   375.5000      0.0000    305.1350     28.4527     45.4161
   375.7500      0.0000    305.0497     28.6416     48.1317
   376.0000      0.0000    304.9391     28.8695     52.1003
   376.2500      0.0000    304.7472     29.1680     56.0028
   376.5000      0.0000    304.4759     29.5376     57.7593
   376.7500      0.0000    304.1743     29.9393     56.2225
   377.0000      0.0000    303.9024     30.3143     52.2905
   377.2500      0.0000    303.6984     30.6107     47.9096
   377.5000      0.0000    303.5729     30.7979     44.4132
   377.7500      0.0000    303.5212     30.8681     42.2072
   378.0000      0.0000    303.5315     30.8322     41.3405
   378.2500      0.0000    303.5804     30.7183     41.5135
   378.5000      0.0000    303.6278     30.5740     41.7803
   378.7500      0.0000    303.6287     30.4596     41.0519
   379.0000      0.0000    303.5628     30.4191     39.0659
   379.2500      0.0000    303.4578     30.4460     36.4628
   379.5000      0.0000    303.3771     30.4806     34.0597
   379.7500      0.0000    303.3773     30.4475     32.6399
   380.0000      0.0000    303.4737     30.3042     33.2807
   380.2500      0.0000    303.6397     30.0625     36.8573
   380.5000      0.0000    303.8308     29.7750     42.8116
   380.7500      0.0000    304.0029     29.5028     48.9760
   381.0000      0.0000    304.1158     29.2887     53.0455
   381.2500      0.0000    304.1416     29.1411     54.1414
   381.5000      0.0000    304.0958     29.0321     52.9989
   381.7500      0.0000    304.0647     28.9132     51.0355
   382.0000      0.0000    304.2403     28.7460     49.2852
   382.2500      0.0000    305.0343     28.5243     47.9177
   382.5000      0.0000    307.3164     28.2650     46.7320
   382.7500      0.0000    312.4941     27.9820     46.0565
   383.0000      0.0000    321.8326     27.6756     46.6274
   383.2500      0.0000    334.9543     27.3468     48.3249
   383.5000      0.0000    348.8124     27.0193     49.7388
   383.7500      0.0000    358.6662     26.7414     49.4978
   384.0000      0.0000    360.6982     26.5677     47.7033
   384.2500      0.0000    354.2133     26.5375     45.7948
   384.5000      0.0000    341.9175     26.6632     45.2949
   384.7500      0.0000    328.2937     26.9330     46.7965
   385.0000      0.0000    317.1701     27.3211     49.7697
   385.2500      0.0000    310.0989     27.7949     52.9345
   385.5000      0.0000    306.5095     28.3162     54.8673
   385.7500      0.0000    304.9974     28.8470     54.6902
   386.0000      0.0000    304.4070     29.3633     52.5592
   386.2500      0.0000    304.1237     29.8660     49.6138
   386.5000      0.0000    303.9043     30.3739     47.2809
   386.7500      0.0000    303.6733     30.9020     46.3253
   387.0000      0.0000    303.4274     31.4406     46.4371
   387.2500      0.0000    303.1994     31.9547     46.7744
   387.5000      0.0000    303.0249     32.4057     46.8499
   387.7500      0.0000    302.9152     32.7770     46.7737
   388.0000      0.0000    302.8539     33.0822     46.8985
   388.2500      0.0000    302.8110     33.3572     47.5454
   388.5000      0.0000    302.7576     33.6421     48.8844
   388.7500      0.0000    302.6785     33.9600     50.8174
   389.0000      0.0000    302.5785     34.3027     53.0286
   389.2500      0.0000    302.4743     34.6440     55.1508
   389.5000      0.0000    302.3755     34.9685     56.7694
   389.7500      0.0000    302.2786     35.2834     57.3403
   390.0000      0.0000    302.1786     35.5960     56.3524
   390.2500      0.0000    302.0826     35.8834     53.7992
   390.5000      0.0000    302.0075     36.0895     50.5400
   390.7500      0.0000    301.9676     36.1526     47.9595
   391.0000      0.0000    301.9669     36.0388     46.9177
   391.2500      0.0000    302.0025     35.7537     47.0182
   391.5000      0.0000    302.0699     35.3275     47.1550
   391.7500      0.0000    302.1639     34.7971     46.7579
   392.0000      0.0000    302.2782     34.2030     46.3153
   392.2500      0.0000    302.4073     33.5906     46.7673
   392.5000      0.0000    302.5496     33.0031     48.5000
   392.7500      0.0000    302.7082     32.4691     50.8711
   393.0000      0.0000    302.8876     31.9964     52.7406
   393.2500      0.0000    303.0876     31.5771     53.5672
