~Version Information
VERS.                      2.0: CWLS Log ASCII Standard - VERSION 2.0
WRAP.                       NO: One line per depth step
~Well Information Block
STRT.FT                -7.0000: 
STOP.FT              1155.0000: 
STEP.FT                 0.2500: 
NULL.                -999.2500: 
COMP.          Pioneer Natural Resources: COMPANY
WELL.          Whitecoat 14-36: WELL
FLD.           Purgatorie River: FIELD
LOC.           606' FSL & 260' FWL--: LOCATION
PROV.                       CO: PROVINCE
CNTY.               Las Animas: COUNTRY
SRVC.          Patterson Wireline: SERVICE COMPANY
DATE.          Mon Dec 12 12:56:49 2005: LOG DATE
UWI.           08 071 08593 00: UNIQUE WELL ID
~Curve Information Block
DEPT.FT            0 000 00 00: Depth
CCL.                          : Casing Collar Locator
TT3.usec                      : CBL 3' Travel Time
AMP3.mV                       : CBL 3' Amplitude
GR.GAPI                       : Gamma Ray
~Parameter Information Block
~A  Depth       CCL         TT3         AMP3         GR     
# ...
   227.5000      0.0000    541.2678      6.2094     80.9296
   227.7500      0.0000    552.7331      6.2147     88.6317
   228.0000      0.0000    568.1627      6.2756     96.1910
   228.2500      0.0000    583.7475      6.3849    101.5955
   228.5000      0.0000    594.3801      6.5146    104.1744
   228.7500      0.0000    597.8120      6.6304    104.8761
   229.0000      0.0000    594.7452      6.7091    105.1201
   229.2500      0.0000    583.5642      6.7492    105.4712
   229.5000      0.0000    558.8092      6.7655    105.4085
   229.7500      0.0000    518.3910      6.7692    104.2182
   230.0000      0.0000    470.3244      6.7539    101.8755
   230.2500      0.0000    429.0232      6.7046     98.9506
   230.5000      0.0000    405.4662      6.6206     95.9926
   230.7500      0.0000    402.5318      6.5209     93.5264
   231.0000      0.0000    417.5193      6.4273     92.4210
   231.2500      0.0000    444.6227      6.3468     93.4996
   231.5000      0.0000    474.0613      6.2739     96.4625
   231.7500      0.0000    493.2306      6.2038     99.6201
   232.0000      0.0000    493.7477      6.1379    101.1728
   232.2500      0.0000    477.7985      6.0820    100.7730
   232.5000      0.0000    455.8255      6.0403     99.6108
   232.7500      0.0000    438.3185      6.0096     98.9095
   233.0000      0.0000    430.1850      5.9759     98.5476
   233.2500      0.0000    430.6992      5.9237     97.3292
   233.5000      0.0000    436.5842      5.8571     94.4701
   233.7500      0.0000    445.1468      5.8056     90.5577
   234.0000      0.0000    454.8362      5.8051     86.9848
   234.2500      0.0000    463.2741      5.8713     84.5937
   234.5000      0.0000    467.0970      5.9898     83.0740
   234.7500      0.0000    465.4446      6.1259     81.6483
   235.0000      0.0000    461.8876      6.2436     80.0483
   235.2500      0.0000    460.5695      6.3233     78.7373
   235.5000      0.0000    461.9548      6.3671     78.4668
   235.7500      0.0000    464.3795      6.3850     79.6930
   236.0000      0.0000    466.7802      6.3760     82.0106
   236.2500      0.0000    466.5423      6.3307     84.0489
   236.5000      0.0000    458.1772      6.2518     84.4885
   236.7500      0.0000    438.9326      6.1631     83.5386
   237.0000      0.0000    413.8518      6.0961     83.0748
   237.2500      0.0000    391.8144      6.0720     84.8131
   237.5000      0.0000    377.9173      6.0938     88.3991
   237.7500      0.0000    371.4824      6.1443     91.6702
   238.0000      0.0000    369.3689      6.1936     92.7350
   238.2500      0.0000    369.0123      6.2159     91.5542
   238.5000      0.0000    369.1208      6.2027     89.7394
   238.7500      0.0000    369.2218      6.1582     89.1646
   239.0000      0.0000    369.2513      6.0859     90.6097
   239.2500      0.0000    369.2922      5.9831     93.3629
   239.5000      0.0000    369.4493      5.8439     95.9238
   239.7500      0.0000    369.7627      5.6650     97.0077
   240.0000      0.0000    370.1902      5.4566     96.1075
   240.2500      0.0000    370.6230      5.2577     93.6795
   240.5000      0.0000    370.9328      5.1343     90.9233
   240.7500      0.0000    371.0403      5.1437     88.9616
   241.0000      0.0000    370.9525      5.2924     88.1783
   241.2500      0.0000    370.7401      5.5288     88.4826
   241.5000      0.0000    370.5186      5.7803     89.7736
   241.7500      0.0000    370.4996      5.9981     91.5382
   242.0000      0.0000    371.1236      6.1743     92.2920
   242.2500      0.0000    373.1271      6.3266     90.3414
   242.5000      0.0000    377.2489      6.4725     85.4093
   242.7500      0.0000    383.5554      6.6164     79.0669
   243.0000      0.0000    391.1247      6.7519     73.4897
   243.2500      0.0000    399.0429      6.8715     70.2576
   243.5000      0.0000    408.2739      6.9702     70.1560
   243.7500      0.0000    422.4103      7.0409     73.2427
   244.0000      0.0000    445.0587      7.0707     78.7849
   244.2500      0.0000    474.2360      7.0482     85.3218
   244.5000      0.0000    499.1466      6.9767     90.8630
   244.7500      0.0000    505.7917      6.8770     93.6305
   245.0000      0.0000    488.6323      6.7730     93.3378
   245.2500      0.0000    455.8502      6.6727     91.4590
   245.5000      0.0000    422.0763      6.5661     89.8890
   245.7500      0.0000    397.4347      6.4402     89.7453
   246.0000      0.0000    383.6978      6.2972     91.2067
   246.2500      0.0000    377.6602      6.1603     93.5354
   246.5000      0.0000    375.5499      6.0621     95.2932
   246.7500      0.0000    374.9697      6.0268     95.2863
   247.0000      0.0000    374.8435      6.0601     93.4695
   247.2500      0.0000    374.8132      6.1504     90.8834
   247.5000      0.0000    374.7926      6.2715     88.8377
   247.7500      0.0000    374.7982      6.3867     88.0604
   248.0000      0.0000    374.8724      6.4645     88.3033
   248.2500      0.0000    375.0456      6.4964     88.6149
   248.5000      0.0000    375.3098      6.4996     88.0744
   248.7500      0.0000    375.6234      6.4970     86.4587
   249.0000      0.0000    375.9421      6.4955     84.4960
   249.2500      0.0000    376.2471      6.4851     83.4846
   249.5000      0.0000    376.5564      6.4622     84.1573
   249.7500      0.0000    376.9539      6.4491     85.7342
   250.0000      0.0000    377.7045      6.4873     86.6689
   250.2500      0.0000    379.4882      6.6082     86.6731
   250.5000      0.0000    383.5833      6.8070     87.3885
   250.7500      0.0000    391.5708      7.0444     90.5731
   251.0000      0.0000    404.3240      7.2747     95.9523
   251.2500      0.0000    421.0131      7.4745    101.2461
   251.5000      0.0000    439.5501      7.6468    104.1212
   251.7500      0.0000    458.6536      7.7985    103.8880
   252.0000      0.0000    479.8403      7.9183    101.4892
   252.2500      0.0000    507.3814      7.9820     98.2981
   252.5000      0.0000    545.4828      7.9781     95.2048
   252.7500      0.0000    593.7837      7.9198     92.7120
   253.0000      0.0000    644.9358      7.8260     91.5438
   253.2500      0.0000    687.9884      7.6888     92.7311
   253.5000      0.0000    715.3821      7.4715     96.6863
   253.7500      0.0000    726.8826      7.1563    102.1157
   254.0000      0.0000    727.8086      6.7956    106.3352
   254.2500      0.0000    724.8022      6.4978    107.3043
   254.5000      0.0000    722.6420      6.3431    105.5192
   254.7500      0.0000    723.1039      6.3130    103.7081
   255.0000      0.0000    725.7500      6.3051    104.5007
   255.2500      0.0000    729.5343      6.2239    108.3226
   255.5000      0.0000    733.7199      6.0757    113.3399
   255.7500      0.0000    737.7344      5.9704    117.1765
   256.0000      0.0000    741.8206      5.9896    118.6836
   256.2500      0.0000    748.9180      6.0561    118.3552
   256.5000      0.0000    763.5725      5.9953    117.2175
   256.7500      0.0000    786.1325      5.7312    115.6237
   257.0000      0.0000    809.8074      5.3602    113.5268
   257.2500      2.0000    826.1479      5.0367    111.4819
   257.5000      0.0000    830.7874      4.8467    110.3866
   257.7500      0.0000    822.3625      4.7966    110.3426
   258.0000      0.0000    801.2237      4.8690    110.7331
   258.2500      0.0000    772.3282      5.0544    111.4831
   258.5000      0.0000    745.2192      5.3304    113.4466
   258.7500      0.0000    727.8441      5.6243    117.2211
   259.0000      0.0000    721.2870      5.8237    121.9367
   259.2500      0.0000    721.0233      5.8550    125.7383
   259.5000      0.0000    721.9667      5.7414    127.5952
   259.7500      0.0000    721.5431      5.5657    128.1171
   260.0000      0.0000    719.3620      5.3909    128.2436
   260.2500      0.0000    715.9803      5.2345    127.9500
   260.5000      0.0000    712.6364      5.1017    126.7645
   260.7500      0.0000    711.3240      5.0126    124.7828
