~Version Information
VERS.                      2.0: CWLS Log ASCII Standard - VERSION 2.0
WRAP.                       NO: One line per depth step
~Well Information Block
STRT.FT                -8.5000: 
STOP.FT              2591.0000: 
STEP.FT                 0.2500: 
NULL.                -999.2500: 
COMP.          Pioneer Natural Resources: COMPANY
WELL.             Aviator 12-4: WELL
FLD.           Purgatorie River: FIELD
LOC.           1969' FNL & 732' FWL--: LOCATION
CNTY.               Las Animas: COUNTY
SRVC.          Patterson Wireline: SERVICE COMPANY
DATE.          Wed Apr 19 09:09:26 2006: LOG DATE
UWI.           05 071 08714 00: UNIQUE WELL ID
STAT.                       CO: STATE
~Curve Information Block
DEPT.FT            0 000 00 00: Depth
CCL.                          : Casing Collar Locator
TT3.usec                      : CBL 3' Travel Time
AMP3.mV                       : CBL 3' Amplitude
GR.GAPI                       : Gamma Ray
~Parameter Information Block
~A  Depth       CCL         TT3         AMP3         GR     
# ...
   159.0000      0.0000    264.7769     71.8328     86.4791
   159.2500      0.0000    264.8267     71.6082     87.0202
   159.5000      0.0000    264.9819     70.9112     89.1795
   159.7500      0.0000    265.3680     69.5609     93.6609
   160.0000      0.0000    266.1148     67.4278     99.9667
   160.2500      0.0000    267.2588     64.4483    106.5427
   160.5000      0.0000    268.6706     60.7200    112.1272
   160.7500      0.0000    270.0938     56.6764    116.4359
   161.0000      0.0000    271.2747     53.0525    119.4968
   161.2500      0.0000    272.0817     50.4921    120.6039
   161.5000      0.0000    272.5319     49.1541    118.2316
   161.7500      2.0000    272.7314     48.7408    111.6457
   162.0000     -2.0000    272.7879     48.8721    102.8984
   162.2500      0.0000    272.7448     49.4407     96.1610
   162.5000      0.0000    272.5635     50.7082     94.0295
   162.7500      0.0000    272.1518     53.0575     94.9725
   163.0000      0.0000    271.4242     56.5181     95.1119
   163.2500      0.0000    270.3678     60.5187     91.9740
   163.5000      0.0000    269.0823     64.2466     86.0290
   163.7500      0.0000    267.7631     67.2475     79.4634
   164.0000      0.0000    266.6251     69.5369     74.4613
   164.2500      0.0000    265.8084     71.2297     72.2011
   164.5000      0.0000    265.3294     72.3219     72.4123
   164.7500      0.0000    265.1058     72.8278     73.6550
   165.0000      0.0000    265.0267     72.9256     74.4495
   165.2500      0.0000    265.0073     72.8964     74.1082
   165.5000      0.0000    265.0030     72.9736     72.3741
   165.7500      0.0000    264.9988     73.2512     68.9249
   166.0000      0.0000    264.9936     73.6867     63.9076
   166.2500      0.0000    264.9902     74.1615     58.5713
   166.5000      0.0000    264.9900     74.5578     54.6619
   166.7500      0.0000    264.9924     74.8064     53.1091
   167.0000      0.0000    264.9963     74.8931     53.4855
   167.2500      0.0000    265.0005     74.8404     54.5586
   167.5000      0.0000    265.0028     74.6954     55.1206
   167.7500      0.0000    265.0014     74.5288     54.4716
   168.0000      0.0000    264.9958     74.4204     52.6765
   168.2500      0.0000    264.9873     74.4282     50.6445
   168.5000      0.0000    264.9780     74.5576     49.5932
   168.7500      0.0000    264.9698     74.7547     50.0509
   169.0000      0.0000    264.9644     74.9275     51.5483
   169.2500      0.0000    264.9632     74.9856     53.3512
   169.5000      0.0000    264.9669     74.8739     55.0745
   169.7500      0.0000    264.9739     74.5919     56.4080
   170.0000      0.0000    264.9801     74.2000     56.7795
   170.2500      0.0000    264.9816     73.8077     55.7260
   170.5000      0.0000    264.9768     73.5367     53.4946
   170.7500      0.0000    264.9678     73.4757     51.0431
   171.0000      0.0000    264.9582     73.6512     49.3598
   171.2500      0.0000    264.9509     74.0192     48.8551
   171.5000      0.0000    264.9463     74.4787     49.4945
   171.7500      0.0000    264.9439     74.9083     51.3589
   172.0000      0.0000    264.9433     75.2104     54.8981
   172.2500      0.0000    264.9445     75.3383     60.8235
   172.5000      0.0000    264.9473     75.2955     69.7030
   172.7500      0.0000    264.9507     75.1273     81.1824
   173.0000      0.0000    264.9523     74.9164     93.6919
   173.2500      0.0000    264.9490     74.7616    105.5104
   173.5000      0.0000    264.9391     74.7335    116.0142
   173.7500      0.0000    264.9244     74.8417    125.2697
   174.0000      0.0000    264.9091     75.0442    132.8567
   174.2500      0.0000    264.8974     75.2798    138.1905
   174.5000      0.0000    264.8914     75.4936    141.8121
   174.7500      0.0000    264.8905     75.6523    145.0524
   175.0000      0.0000    264.8932     75.7495    148.0896
   175.2500      0.0000    264.8982     75.8057    149.2389
   175.5000      0.0000    264.9034     75.8643    146.6696
   175.7500      0.0000    264.9052     75.9815    140.4798
   176.0000      0.0000    264.8998     76.2067    132.7759
   176.2500      0.0000    264.8875     76.5622    125.9231
   176.5000      0.0000    264.8720     77.0295    121.0111
   176.7500      0.0000    264.8578     77.5530    117.8537
   177.0000      0.0000    264.8470     78.0670    115.9081
   177.2500      0.0000    264.8391     78.5340    115.0205
   177.5000      0.0000    264.8329     78.9616    115.6647
   177.7500      0.0000    264.8300     79.3715    118.5675
   178.0000      0.0000    264.8341     79.7158    123.8921
   178.2500      0.0000    264.8470     79.8154    130.7136
   178.5000      0.0000    264.8659     79.4443    137.4156
   178.7500      0.0000    264.8858     78.5500    142.6601
   179.0000      0.0000    264.9036     77.3727    146.1988
   179.2500      0.0000    264.9179     76.2903    148.7678
   179.5000      0.0000    264.9273     75.5514    150.8941
   179.7500      0.0000    264.9312     75.1655    151.8875
   180.0000      0.0000    264.9322     74.9968    150.5590
   180.2500      0.0000    264.9344     74.9094    146.9422
   180.5000      0.0000    264.9402     74.8320    142.6352
   180.7500      0.0000    264.9474     74.7382    139.1245
   181.0000      0.0000    264.9514     74.6206    136.2500
   181.2500      0.0000    264.9497     74.4940    132.7626
   181.5000      0.0000    264.9437     74.3954    128.2254
   181.7500      0.0000    264.9379     74.3616    124.0215
   182.0000      0.0000    264.9356     74.4118    122.5471
   182.2500      0.0000    264.9367     74.5487    125.4486
   182.5000      0.0000    264.9395     74.7557    132.0900
   182.7500      0.0000    264.9427     74.9920    139.2019
   183.0000      0.0000    264.9461     75.2084    142.5945
   183.2500      0.0000    264.9494     75.3752    140.1991
   183.5000      0.0000    264.9514     75.4927    133.6256
   183.7500      0.0000    264.9512     75.5832    126.5477
   184.0000      0.0000    264.9489     75.6812    121.8358
   184.2500      0.0000    264.9465     75.8216    120.2720
   184.5000      0.0000    264.9470     76.0182    121.1898
   184.7500      0.0000    264.9523     76.2503    123.4932
   185.0000      0.0000    264.9619     76.4734    126.1051
   185.2500      0.0000    264.9731     76.6495    128.1989
   185.5000      0.0000    264.9834     76.7624    129.5622
   185.7500      0.0000    264.9916     76.8145    130.5460
   186.0000      0.0000    264.9974     76.8221    131.3524
   186.2500      0.0000    264.9998     76.8081    131.6884
   186.5000      0.0000    264.9978     76.7842    131.4901
   186.7500      0.0000    264.9926     76.7392    131.4023
   187.0000      0.0000    264.9872     76.6561    131.8879
   187.2500      0.0000    264.9841     76.5346    132.2838
   187.5000      0.0000    264.9838     76.3956    131.2993
   187.7500      0.0000    264.9857     76.2678    128.2496
   188.0000      0.0000    264.9897     76.1711    123.5645
   188.2500      0.0000    264.9958     76.1073    118.4073
   188.5000      0.0000    265.0016     76.0633    113.9713
   188.7500      0.0000    265.0036     76.0222    110.7881
   189.0000      0.0000    264.9992     75.9694    108.4075
   189.2500      0.0000    264.9894     75.8918    105.7489
   189.5000      0.0000    264.9773     75.7805    101.9709
   189.7500      0.0000    264.9669     75.6418     97.3398
   190.0000      0.0000    264.9615     75.5021     93.4349
   190.2500      0.0000    264.9630     75.3958     92.3319
   190.5000      0.0000    264.9707     75.3441     95.4339
   190.7500      0.0000    264.9816     75.3405    102.8054
   191.0000      0.0000    264.9922     75.3553    112.9456
   191.2500      0.0000    265.0017     75.3547    122.8027
   191.5000      0.0000    265.0097     75.3244    128.8375
   191.7500      0.0000    265.0143     75.2808    129.2670
   192.0000      0.0000    265.0119     75.2562    125.4866
   192.2500      0.0000    265.0015     75.2699    120.8316
