~Version Information
VERS.                      2.0: CWLS Log ASCII Standard - VERSION 2.0
WRAP.                       NO: One line per depth step
~Well Information Block
STRT.FT               -11.5000: 
STOP.FT              1961.7500: 
STEP.FT                 0.2500: 
NULL.                -999.2500: 
COMP.          Petrogulf Corporation: COMPANY
WELL.           State 16-23R-X: WELL
FLD.           Purgatorie River: FIELD
LOC.           2381' FSL & 2072' FWL--: LOCATION
PROV.                       CO: PROVINCE
CNTY.               Las Animas: COUNTRY
SRVC.          Patterson Wireline: SERVICE COMPANY
DATE.          Fri Sep 09 14:32:42 2005: LOG DATE
UWI.           05 071 08324 00: UNIQUE WELL ID
~Curve Information Block
DEPT.FT            0 000 00 00: Depth
CCL.                          : Casing Collar Locator
TT3.usec                      : CBL 3' Travel Time
AMP3.mV                       : CBL 3' Amplitude
GR.GAPI                       : Gamma Ray
~Parameter Information Block
~A  Depth       CCL         TT3         AMP3         GR     
# ...
  1663.5000      0.0000    698.7300      2.3227     55.4739
  1663.7500      0.0000    692.4736      2.3304     53.9421
  1664.0000      0.0000    678.1125      2.3381     53.1916
  1664.2500      0.0000    664.3354      2.3473     53.6528
  1664.5000      0.0000    659.7783      2.3563     55.3147
  1664.7500      0.0000    666.6808      2.3596     57.4953
  1665.0000      0.0000    680.6851      2.3500     59.0431
  1665.2500      0.0000    695.9086      2.3256     58.8809
  1665.5000      0.0000    709.3948      2.2915     56.7279
  1665.7500      0.0000    720.4866      2.2566     53.6539
  1666.0000      0.0000    727.4864      2.2271     51.7023
  1666.2500      0.0000    727.8392      2.2051     52.4059
  1666.5000      0.0000    721.8589      2.1909     55.5162
  1666.7500      0.0000    713.9298      2.1845     59.2809
  1667.0000      0.0000    709.4152      2.1853     61.9384
  1667.2500      0.0000    711.4791      2.1917     62.9566
  1667.5000      0.0000    720.0642      2.2022     63.1180
  1667.7500      0.0000    731.7633      2.2165     63.6232
  1668.0000      0.0000    740.7750      2.2332     64.8986
  1668.2500      0.0000    742.1813      2.2488     66.1145
  1668.5000      0.0000    735.7737      2.2589     66.0879
  1668.7500      0.0000    726.3477      2.2627     64.7126
  1669.0000      0.0000    719.3516      2.2634     63.1385
  1669.2500      0.0000    715.7824      2.2633     62.4482
  1669.5000      0.0000    711.5597      2.2606     62.5671
  1669.7500      0.0000    702.0568      2.2528     62.6341
  1670.0000      0.0000    686.7626      2.2411     62.0298
  1670.2500      0.0000    669.2990      2.2298     60.8142
  1670.5000      0.0000    653.7326      2.2238     59.4710
  1670.7500      0.0000    641.9165      2.2257     58.5953
  1671.0000      0.0000    633.8229      2.2354     58.7097
  1671.2500      0.0000    628.9333      2.2506     59.8260
  1671.5000      0.0000    627.0999      2.2682     60.9618
  1671.7500      0.0000    629.1512      2.2874     60.6154
  1672.0000      0.0000    636.9467      2.3106     58.2936
  1672.2500      0.0000    651.7838      2.3430     55.5147
  1672.5000      0.0000    672.1004      2.3903     54.9075
  1672.7500      0.0000    693.6156      2.4566     58.1311
  1673.0000      0.0000    712.3600      2.5430     64.8272
  1673.2500      0.0000    726.7582      2.6481     73.5925
  1673.5000      0.0000    736.6389      2.7679     83.2990
  1673.7500      0.0000    741.7792      2.8982     93.0162
  1674.0000      0.0000    742.2095      3.0406    101.3458
  1674.2500      0.0000    739.1085      3.2100    106.7210
  1674.5000      0.0000    734.7328      3.4320    108.3048
  1674.7500      0.0000    731.3755      3.7295    106.3515
  1675.0000      0.0000    730.2606      4.1063    101.9778
  1675.2500      0.0000    731.3149      4.5368     96.7868
  1675.5000      0.0000    733.6395      4.9681     92.4308
  1675.7500      0.0000    735.5695      5.3379     90.2058
  1676.0000      0.0000    734.4261      5.5999     90.9159
  1676.2500      0.0000    727.5250      5.7438     94.8675
  1676.5000      0.0000    714.4449      5.7978    101.7631
  1676.7500      0.0000    698.2021      5.8126    110.6545
  1677.0000      0.0000    683.4891      5.8330    120.2416
  1677.2500      0.0000    673.5198      5.8746    129.4562
  1677.5000      0.0000    668.6258      5.9197    137.7947
  1677.7500      0.0000    667.4521      5.9335    144.9040
  1678.0000      0.0000    668.7281      5.8897    149.9109
  1678.2500      0.0000    671.8005      5.7884    151.6914
  1678.5000      0.0000    676.1260      5.6555    150.2623
  1678.7500      0.0000    680.8744      5.5259    147.7127
  1679.0000      0.0000    685.1296      5.4252    147.1432
  1679.2500      0.0000    688.3353      5.3636    150.3728
  1679.5000      0.0000    690.6237      5.3441    156.8407
  1679.7500      0.0000    692.7805      5.3723    164.4553
  1680.0000      0.0000    695.7165      5.4526    170.9939
  1680.2500      0.0000    700.0133      5.5741    174.7921
  1680.5000      0.0000    706.2300      5.7032    174.9875
  1680.7500      0.0000    715.2406      5.7983    171.9214
  1681.0000      0.0000    727.3357      5.8327    167.3130
  1681.2500      0.0000    740.7661      5.8087    163.4998
  1681.5000      0.0000    752.0128      5.7520    161.9516
  1681.7500      0.0000    758.3932      5.6938    162.2190
  1682.0000      0.0000    760.2514      5.6559    162.2175
  1682.2500      0.0000    759.9794      5.6484    159.6925
  1682.5000      0.0000    759.1569      5.6762    153.8167
  1682.7500      0.0000    757.4745      5.7364    145.6581
  1683.0000      0.0000    754.2779      5.8084    137.0907
  1683.2500      0.0000    749.9918      5.8531    129.3638
  1683.5000      0.0000    745.5533      5.8370    122.9535
  1683.7500      0.0000    741.0458      5.7606    118.5225
  1684.0000      0.0000    735.3868      5.6577    117.4033
  1684.2500      0.0000    727.1429      5.5659    120.7566
  1684.5000      0.0000    715.5133      5.5010    128.3281
  1684.7500      0.0000    701.0493      5.4637    138.1587
  1685.0000      0.0000    686.3214      5.4607    147.5223
  1685.2500      0.0000    676.0401      5.5016    154.2203
  1685.5000      0.0000    675.3607      5.5678    157.2822
  1685.7500      0.0000    686.4525      5.6053    157.0058
  1686.0000      0.0000    706.0367      5.5720    154.4962
  1686.2500      0.0000    726.9727      5.4814    150.8534
  1686.5000      0.0000    743.1658      5.3829    146.7048
  1686.7500      0.0000    752.9061      5.3134    142.6426
  1687.0000      0.0000    757.4468      5.2860    139.7866
  1687.2500     -2.0000    757.7542      5.3075    139.4075
  1687.5000      0.0000    753.8087      5.3863    141.8948
  1687.7500      0.0000    746.2387      5.5193    146.1456
  1688.0000      0.0000    737.2259      5.6766    149.8936
  1688.2500      0.0000    729.2874      5.8007    150.9132
  1688.5000      0.0000    723.3771      5.8413    148.4527
  1688.7500      0.0000    718.5024      5.8046    143.6194
  1689.0000      0.0000    713.2800      5.7475    138.2594
  1689.2500      0.0000    707.6613      5.7072    133.5811
  1689.5000      0.0000    703.1795      5.6602    129.9878
  1689.7500      0.0000    701.7762      5.5649    127.7789
  1690.0000      0.0000    704.3545      5.4132    127.4000
  1690.2500      0.0000    709.9576      5.2257    129.0678
  1690.5000      0.0000    715.9341      5.0192    132.4770
  1690.7500      0.0000    719.1463      4.7980    136.7994
  1691.0000      0.0000    717.6497      4.5684    140.9094
  1691.2500      0.0000    711.7727      4.3471    143.8172
  1691.5000      0.0000    703.8311      4.1537    145.0703
  1691.7500      0.0000    696.6134      3.9989    144.7784
  1692.0000      0.0000    691.7173      3.8841    143.1289
  1692.2500      0.0000    688.9620      3.8089    139.8846
  1692.5000      0.0000    687.0910      3.7734    134.8057
  1692.7500      0.0000    684.8731      3.7723    128.6371
  1693.0000      0.0000    681.8357      3.7903    122.8905
  1693.2500      0.0000    678.5390      3.8053    118.1495
  1693.5000      0.0000    676.3243      3.7997    113.2971
  1693.7500      0.0000    676.3978      3.7709    107.1793
  1694.0000      0.0000    678.8890      3.7302    100.7924
  1694.2500      0.0000    682.9337      3.6909     96.9999
  1694.5000      0.0000    687.5779      3.6562     97.6888
  1694.7500      0.0000    692.0544      3.6186    101.5391
  1695.0000      0.0000    695.1064      3.5726    105.2586
  1695.2500      0.0000    694.9590      3.5245    107.1679
  1695.5000      0.0000    690.7415      3.4843    108.9990
  1695.7500      0.0000    683.3893      3.4509    113.9765
  1696.0000      0.0000    674.1834      3.4104    123.5000
  1696.2500      0.0000    663.2009      3.3503    135.6283
  1696.5000      0.0000    650.8947      3.2706    146.1833
  1696.7500      0.0000    640.7814      3.1815    151.2030
