~Version Information
VERS.                      2.0: CWLS Log ASCII Standard - VERSION 2.0
WRAP.                       NO: One line per depth step
~Well Information Block
STRT.FT               460.0000: 
STOP.FT              2311.7000: 
STEP.FT                 0.1000: 
NULL.                -999.2500: 
COMP.          Pioneer Natural Resources: COMPANY
WELL.          McDonald 33-31 R: WELL
FLD.           Purgatoire River: FIELD
LOC.           1386' FSL & 1926' FEL: LOCATION
STAT.                 Colorado: State
CNTY.               Las Animas: COUNTY
CTRY.                      USA: Country
SECT.                       31: Section
TOWN.                      32S: Township
RANG.                      66W: Range
SRVC.                Patterson: SERVICE COMPANY
DATE.          Sat Sep 24 09:00:13 2005: LOG DATE
API.           05 071 08533 00: API
~Curve Information Block
DEPT.FT            0 000 00 00: Depth
DCAL.in                       : CDL Caliper
RHOB.g/cc                     : CDL Bulk Density
RHOC.g/cc                     : CDL Density Correction
DPOR.pu                       : CDL Density Porosity
NPOR.pu                       : Neutron Porosity
GR.GAPI                       : Gamma Ray
~Parameter Information Block
~A  Depth       DCAL        RHOB        RHOC        DPOR        NPOR         GR     
# ...
  1679.2000      7.9525      2.5819      0.0810      4.1263     16.2135     54.7796
  1679.3000      7.9463      2.5920      0.0573      3.5123     16.5155     54.8997
  1679.4000      7.9463      2.5963      0.0634      3.2551     16.8318     52.1217
  1679.5000      7.9360      2.6019      0.0618      2.9145     17.1822     49.3298
  1679.6000      7.9360      2.6113      0.0576      2.3474     17.9416     48.7716
  1679.7000      7.9360      2.6299      0.0267      1.2195     19.1108     51.0660
  1679.8000      7.9286      2.6492      0.0660      0.0470     20.3550     55.3378
  1679.9000      7.9286      2.6564      0.0751     -0.3902     21.4615     58.9149
  1680.0000      7.9275      2.6533      0.0984     -0.1991     22.1874     61.0969
  1680.1000      7.9275      2.6381      0.0903      0.7213     22.7153     63.2772
  1680.2000      7.9275      2.6054      0.0828      2.7019     23.5544     66.3956
  1680.3000      7.9304      2.5641      0.0087      5.2083     24.4811     71.3259
  1680.4000      7.9304      2.5293     -0.0242      7.3163     25.1680     78.8820
  1680.5000      7.9352      2.5043     -0.0227      8.8295     25.5687     87.7214
  1680.6000      7.9352      2.4861     -0.0385      9.9328     25.7371     94.7509
  1680.7000      7.9352      2.4781     -0.0357     10.4199     25.9142     98.7692
  1680.8000      7.9470      2.4789     -0.0325     10.3672     25.9499    102.8177
  1680.9000      7.9470      2.4791      0.0138     10.3572     25.1801    111.8731
  1681.0000      7.9707      2.4727      0.0249     10.7475     23.8321    125.1607
  1681.1000      7.9707      2.4613      0.0447     11.4385     23.0826    133.6267
  1681.2000      7.9707      2.4496      0.0590     12.1479     22.9894    133.1995
  1681.3000      7.9947      2.4441      0.0703     12.4798     22.5091    130.5018
  1681.4000      7.9947      2.4499      0.0890     12.1268     21.3063    129.8247
  1681.5000      8.0042      2.4587      0.1428     11.5916     20.0862    130.1851
  1681.6000      8.0042      2.4589      0.1059     11.5843     19.3954    134.5501
  1681.7000      8.0042      2.4599      0.0661     11.5210     18.8966    140.4768
  1681.8000      8.0013      2.4680      0.1531     11.0297     18.4658    139.3237
  1681.9000      8.0013      2.4702      0.0947     10.8950     18.5792    132.6559
  1682.0000      7.9990      2.4700      0.0788     10.9075     19.1862    127.4840
  1682.1000      7.9990      2.4860      0.0865      9.9385     19.7150    126.3207
  1682.2000      7.9990      2.5221      0.1411      7.7505     20.1316    128.5578
  1682.3000      7.9989      2.5609      0.1818      5.4013     20.5730    131.9216
  1682.4000      7.9989      2.5806      0.1648      4.2084     20.7261    135.3302
  1682.5000      7.9922      2.5783      0.1513      4.3432     20.6814    137.7167
  1682.6000      7.9922      2.5701      0.1065      4.8407     20.8845    139.2607
  1682.7000      7.9922      2.5650      0.1417      5.1505     21.2903    143.4099
  1682.8000      7.9874      2.5592      0.0950      5.5056     21.8104    146.8395
  1682.9000      7.9874      2.5495      0.0794      6.0904     22.3106    144.5578
  1683.0000      7.9869      2.5347      0.0473      6.9886     22.1885    141.2166
  1683.1000      7.9869      2.5164      0.0718      8.0954     21.7110    141.5169
  1683.2000      7.9869      2.4977      0.0375      9.2279     21.7035    144.8779
  1683.3000      7.9861      2.4814      0.0511     10.2154     21.9665    149.6766
  1683.4000      7.9861      2.4743      0.0271     10.6470     22.0294    150.3758
  1683.5000      7.9838      2.4830      0.0449     10.1192     22.0321    146.1411
  1683.6000      7.9838      2.4984      0.0981      9.1851     22.2219    142.5469
  1683.7000      7.9838      2.5013      0.0925      9.0132     22.6685    138.1129
  1683.8000      7.9811      2.4909      0.0304      9.6435     23.1563    133.1017
  1683.9000      7.9811      2.4827      0.0370     10.1382     23.3116    134.1998
  1684.0000      7.9806      2.4819      0.0590     10.1893     22.8142    139.5620
  1684.1000      7.9806      2.4869      0.0195      9.8833     21.8542    141.7660
  1684.2000      7.9806      2.5041      0.0375      8.8449     21.2081    138.8962
  1684.3000      7.9793      2.5325      0.0785      7.1232     21.2074    134.1507
  1684.4000      7.9793      2.5539      0.0972      5.8256     21.4781    132.7485
  1684.5000      7.9708      2.5558      0.0805      5.7106     21.8686    137.4599
  1684.6000      7.9708      2.5469      0.0901      6.2465     22.5236    145.3518
  1684.7000      7.9708      2.5408      0.0703      6.6205     23.1706    150.1878
  1684.8000      7.9532      2.5398      0.0765      6.6809     23.5564    147.8613
  1684.9000      7.9532      2.5382      0.0612      6.7755     23.8715    141.7672
  1685.0000      7.9306      2.5365      0.0423      6.8764     24.4241    139.9545
  1685.1000      7.9306      2.5440      0.0450      6.4242     25.0568    141.7175
  1685.2000      7.9306      2.5625      0.0733      5.3017     25.1382    141.0495
  1685.3000      7.9156      2.5724      0.1101      4.7008     24.5495    139.0096
  1685.4000      7.9156      2.5536      0.0573      5.8443     23.9507    137.4523
  1685.5000      7.9097      2.5192      0.0310      7.9257     23.7391    136.1834
  1685.6000      7.9097      2.4956     -0.0045      9.3590     23.7484    135.8822
  1685.7000      7.9097      2.4895      0.0086      9.7294     23.8341    134.9501
  1685.8000      7.9119      2.4946      0.0405      9.4174     23.8306    132.8035
  1685.9000      7.9119      2.5032      0.0583      8.8984     23.6857    133.3854
  1686.0000      7.9205      2.5054      0.0303      8.7650     23.8010    137.8690
  1686.1000      7.9205      2.4899      0.0552      9.7052     24.0860    140.0275
  1686.2000      7.9205      2.4620     -0.0298     11.3956     24.2503    135.7106
  1686.3000      7.9265      2.4453     -0.0226     12.4052     24.3694    130.9244
  1686.4000      7.9265      2.4457      0.0087     12.3803     24.1935    131.2563
  1686.5000      7.9302      2.4504      0.0201     12.0997     23.7379    133.2224
  1686.6000      7.9302      2.4577      0.0187     11.6543     23.1581    132.9506
  1686.7000      7.9302      2.4752      0.0600     10.5943     22.2677    131.0448
  1686.8000      7.9370      2.4922      0.0981      9.5649     21.2956    129.0431
  1686.9000      7.9370      2.4917      0.0770      9.5927     20.7312    127.3805
  1687.0000      7.9447      2.4807      0.0299     10.2625     20.4742    124.8973
  1687.1000      7.9447      2.4763      0.0496     10.5283     20.3554    121.5489
  1687.2000      7.9447      2.4783      0.0678     10.4040     20.7760    119.6223
  1687.3000      7.9435      2.4820      0.0279     10.1824     21.8300    119.5280
  1687.4000      7.9435      2.4976      0.0375      9.2358     23.1631    119.0036
  1687.5000      7.9348      2.5288      0.0570      7.3437     24.4967    116.1410
  1687.6000      7.9348      2.5491      0.1144      6.1132     25.3480    111.9835
  1687.7000      7.9348      2.5329      0.0753      7.0966     25.5249    112.0960
  1687.8000      7.9292      2.4984      0.0183      9.1885     25.6132    117.4920
  1687.9000      7.9292      2.4827      0.0144     10.1386     26.0915    122.3347
  1688.0000      7.9263      2.4915      0.0612      9.6061     26.6079    124.3444
  1688.1000      7.9263      2.5034      0.0466      8.8821     26.8015    124.4653
  1688.2000      7.9263      2.5082      0.0546      8.5939     27.0178    121.3601
  1688.3000      7.9224      2.5104      0.0473      8.4593     27.3880    114.2015
  1688.4000      7.9224      2.5111      0.0876      8.4174     27.6125    105.9550
  1688.5000      7.9191      2.5086      0.0917      8.5723     27.6826     99.8972
  1688.6000      7.9191      2.5131      0.0546      8.2966     27.5424     98.6258
  1688.7000      7.9191      2.5409      0.0666      6.6147     27.0824    101.9009
