~Version Information
VERS.                      2.0: CWLS Log ASCII Standard - VERSION 2.0
WRAP.                       NO: One line per depth step
~Well Information Block
STRT.FT               305.0000: 
STOP.FT              1376.5000: 
STEP.FT                 0.1000: 
NULL.                -999.2500: 
COMP.          Pioneer Natural Resources: COMPANY
WELL.               LPGC 32-32: WELL
FLD.           Purgatoire River: FIELD
LOC.           1937' FNL & 1661' FEL: LOCATION
PROV.                 Colorado: PROVINCE
CNTY.               Las Animas: COUNTRY
SRVC.                Patterson: SERVICE COMPANY
DATE.          Mon Jan 30 07:33:36 2006: LOG DATE
UWI.           05 071 08641 00: UNIQUE WELL ID
~Curve Information Block
DEPT.FT            0 000 00 00: Depth
DCAL.in                       : CDL Caliper
RHOB.g/cc                     : CDL Bulk Density
RHOC.g/cc                     : CDL Density Correction
DPOR.pu                       : CDL Density Porosity
GR.GAPI                       : Gamma Ray
NPOR.pu                       : Neutron Porosity
~Parameter Information Block
~A  Depth       DCAL        RHOB        RHOC        DPOR         GR         NPOR    
   305.0000      8.1825      2.2592     -0.4574     23.6864     72.1168     20.5919
   305.1000      8.1825      2.2527     -0.4429     24.0784     70.2627     21.2149
   305.2000      8.1825      2.2560     -0.4349     23.8781     67.3014     21.8145
   305.3000      8.1844      2.2743     -0.4716     22.7685     67.8449     22.3302
   305.4000      8.1844      2.3025     -0.4247     21.0593     71.6606     22.3523
   305.5000      8.1849      2.3199     -0.3035     20.0044     72.8295     21.7286
   305.6000      8.1849      2.3149     -0.4390     20.3075     70.0135     21.2718
   305.7000      8.1849      2.3066     -0.3867     20.8125     67.3198     21.2092
   305.8000      8.1853      2.3138     -0.4639     20.3787     69.0728     20.7463
   305.9000      8.1853      2.3357     -0.4089     19.0479     74.2711     19.6476
   306.0000      8.1790      2.3404     -0.3670     18.7616     76.5599     19.0755
   306.1000      8.1790      2.3041     -0.4224     20.9628     75.1542     20.0531
   306.2000      8.1790      2.2634     -0.4727     23.4312     73.6241     21.7182
   306.3000      8.1787      2.2641     -0.4515     23.3850     71.4939     22.6770
   306.4000      8.1787      2.2911     -0.3732     21.7490     68.9608     22.8630
   306.5000      8.1770      2.3043     -0.4092     20.9516     69.5719     22.6856
   306.6000      8.1770      2.3061     -0.4294     20.8419     74.4672     22.2791
   306.7000      8.1770      2.3130     -0.3749     20.4267     79.7907     21.8205
   306.8000      8.1767      2.3152     -0.3917     20.2887     81.4627     21.4853
   306.9000      8.1767      2.2946     -0.3664     21.5368     80.5762     21.3771
   307.0000      8.1763      2.2450     -0.4735     24.5479     79.5826     21.4229
   307.1000      8.1763      2.1989     -0.5027     27.3409     77.7414     21.4772
   307.2000      8.1763      2.2072     -0.4979     26.8382     73.8349     21.4102
   307.3000      8.1759      2.2625     -0.3549     23.4872     69.3315     21.0036
   307.4000      8.1759      2.3056     -0.3273     20.8707     67.5100     20.2470
   307.5000      8.1736      2.3124     -0.3780     20.4609     68.1511     19.4655
   307.6000      8.1736      2.3095     -0.4109     20.6373     69.8729     19.0930
   307.7000      8.1736      2.3143     -0.3534     20.3440     72.9564     19.4252
   307.8000      8.1723      2.3054     -0.3249     20.8834     76.5946     20.0889
   307.9000      8.1723      2.2703     -0.3965     23.0147     79.5894     20.5047
   308.0000      8.1496      2.2397     -0.4383     24.8672     82.4961     20.5597
   308.1000      8.1496      2.2362     -0.4014     25.0760     86.7155     20.2530
   308.2000      8.1496      2.2487     -0.4454     24.3186     90.4011     19.3881
   308.3000      8.1724      2.2608     -0.3495     23.5886     89.4692     18.1933
   308.4000      8.1724      2.2592     -0.3344     23.6870     85.1750     17.7526
   308.5000      8.1780      2.2496     -0.4553     24.2643     85.7839     18.7102
   308.6000      8.1780      2.2507     -0.4235     24.1987     92.2255     20.1135
   308.7000      8.1780      2.2599     -0.3816     23.6425     94.5422     20.5700
   308.8000      8.1809      2.2697     -0.4404     23.0492     87.8130     20.3001
   308.9000      8.1809      2.2797     -0.4005     22.4415     78.4803     20.4933
   309.0000      8.1807      2.2868     -0.4226     22.0140     76.7438     21.0420
   309.1000      8.1807      2.2932     -0.4293     21.6245     84.5931     21.0246
   309.2000      8.1807      2.2891     -0.3349     21.8698     91.5946     20.2331
   309.3000      8.1802      2.2613     -0.3874     23.5547     91.6919     19.2875
   309.4000      8.1802      2.2288     -0.4900     25.5250     91.3496     19.1044
   309.5000      8.1802      2.2122     -0.4250     26.5362     94.0830     19.7932
   309.6000      8.1802      2.2104     -0.4557     26.6447     94.8028     20.5017
   309.7000      8.1802      2.2127     -0.4284     26.5025     93.0271     20.5237
   309.8000      8.1833      2.2025     -0.4602     27.1206     94.7270     20.1390
   309.9000      8.1833      2.1821     -0.4657     28.3590     97.6552     19.8592
   310.0000      8.1813      2.1697     -0.4279     29.1099     97.2091     19.9050
   310.1000      8.1813      2.1728     -0.4861     28.9210     95.3664     20.5232
   310.2000      8.1813      2.1852     -0.4177     28.1697     93.6401     21.6362
   310.3000      8.1823      2.1862     -0.3844     28.1068     93.2117     22.7538
   310.4000      8.1823      2.1543     -0.4144     30.0429     95.5776     23.0781
   310.5000      8.1821      2.0867     -0.4333     34.1417     99.1225     22.3583
   310.6000      8.1821      2.0017     -0.5553     39.2931    101.2967     21.8489
   310.7000      8.1821      1.9265     -0.5460     43.8482    100.8513     22.2724
   310.8000      8.1806      1.8686     -0.5550     47.3558     99.2870     22.9462
   310.9000      8.1806      1.8101     -0.5218     50.9050     97.6926     23.3620
   311.0000      8.1854      1.7408     -0.6102     55.1013     94.6535     23.7114
   311.1000      8.1854      1.6946     -0.7481     57.9011     90.5528     24.5291
   311.2000      8.1854      1.7207     -0.7237     56.3222     87.1266     25.9549
   311.3000      8.1843      1.8153     -0.6037     50.5876     84.6511     27.2595
   311.4000      8.1843      1.9187     -0.4449     44.3189     83.1395     27.2937
   311.5000      8.1876      1.9923     -0.5594     39.8631     80.9829     25.8144
   311.6000      8.1876      2.0516     -0.5222     36.2690     78.1183     24.0925
   311.7000      8.1876      2.1024     -0.4029     33.1856     78.6972     23.5356
   311.8000      8.1901      2.1285     -0.4603     31.6056     84.9182     24.1710
   311.9000      8.1901      2.1344     -0.4725     31.2455     91.0045     25.1270
   312.0000      8.1768      2.1440     -0.5237     30.6679     91.3093     25.8454
   312.1000      8.1768      2.1705     -0.4388     29.0593     85.7789     25.9004
   312.2000      8.1768      2.1977     -0.3875     27.4107     79.2877     25.1432
   312.3000      8.1772      2.2084     -0.4264     26.7664     78.3591     24.3918
   312.4000      8.1772      2.2120     -0.4426     26.5473     82.5365     24.3576
   312.5000      8.1745      2.2204     -0.3634     26.0375     87.2289     24.4393
   312.6000      8.1745      2.2301     -0.4626     25.4482     91.6031     24.0672
   312.7000      8.1745      2.2291     -0.3964     25.5104     95.6341     23.5400
   312.8000      8.1746      2.2142     -0.4282     26.4121     96.9686     22.8977
   312.9000      8.1746      2.2061     -0.4997     26.9045     95.7960     22.1753
   313.0000      8.1755      2.2126     -0.4723     26.5087     95.5771     21.7133
   313.1000      8.1755      2.2162     -0.4586     26.2915     96.9998     21.7448
   313.2000      8.1755      2.2221     -0.5146     25.9363     99.2344     22.0954
   313.3000      8.1751      2.2427     -0.4282     24.6869    101.0819     22.2739
   313.4000      8.1751      2.2578     -0.4311     23.7704     99.3942     22.0342
   313.5000      8.1752      2.2486     -0.3988     24.3255     93.3663     21.6693
   313.6000      8.1752      2.2333     -0.4896     25.2529     89.8014     21.7938
   313.7000      8.1752      2.2447     -0.5028     24.5651     92.4190     22.7306
   313.8000      8.1785      2.2717     -0.3796     22.9272     94.7859     23.9324
   313.9000      8.1785      2.2717     -0.4105     22.9245     94.7796     24.5616
   314.0000      8.1749      2.2431     -0.4211     24.6596     96.7435     24.3248
   314.1000      8.1749      2.2147     -0.4374     26.3806     97.0137     23.5521
   314.2000      8.1749      2.1918     -0.4124     27.7725     91.5687     22.8489
   314.3000      8.1728      2.1643     -0.4932     29.4376     88.5581     22.8657
   314.4000      8.1728      2.1463     -0.5283     30.5303     92.2467     23.4686
   314.5000      8.1741      2.1608     -0.4705     29.6480     94.2532     23.9775
