~Version Information
VERS.                      2.0: CWLS Log ASCII Standard - VERSION 2.0
WRAP.                       NO: One line per depth step
~Well Information Block
STRT.FT                -7.0000: 
STOP.FT              2328.5000: 
STEP.FT                 0.2500: 
NULL.                -999.2500: 
COMP.          Pioneer Natural Resources: COMPANY
WELL.              Rolls 14-14: WELL
FLD.           Purgatorie River: FIELD
LOC.           572' FSL & 856' FWL--: LOCATION
PROV.                       CO: PROVINCE
CNTY.               Las Animas: COUNTRY
SRVC.          Patterson Wireline: SERVICE COMPANY
DATE.          Mon Aug 08 10:10:54 2005: LOG DATE
UWI.           05 071 08455 00: UNIQUE WELL ID
~Curve Information Block
DEPT.FT            0 000 00 00: Depth
CCL.                          : Casing Collar Locator
TT3.usec                      : CBL 3' Travel Time
AMP3.mV                       : CBL 3' Amplitude
GR.GAPI                       : Gamma Ray
~Parameter Information Block
~A  Depth       CCL         TT3         AMP3         GR     
# ...
   462.0000      0.0000    813.3939      7.1599     45.7720
   462.2500      0.0000    807.2893      7.1267     43.9276
   462.5000      0.0000    799.5482      7.0857     42.3337
   462.7500      0.0000    789.4996      7.0583     41.5679
   463.0000      0.0000    779.3226      7.0485     42.1181
   463.2500      0.0000    772.6426      7.0475     44.0181
   463.5000      0.0000    772.1828      7.0450     46.7568
   463.7500      0.0000    779.0959      7.0364     49.4058
   464.0000      0.0000    792.8633      7.0207     50.9641
   464.2500      0.0000    810.5189      6.9934     50.9449
   464.5000      0.0000    826.9977      6.9513     49.7621
   464.7500      0.0000    837.8574      6.9015     48.4086
   465.0000      0.0000    841.9848      6.8605     47.7215
   465.2500      0.0000    841.5219      6.8412     47.9427
   465.5000      0.0000    839.4980      6.8421     48.6721
   465.7500      0.0000    837.8015      6.8474     48.9957
   466.0000      0.0000    836.8895      6.8402     47.9296
   466.2500      0.0000    836.5232      6.8158     45.1535
   466.5000      0.0000    836.4008      6.7835     41.4061
   466.7500      0.0000    836.3477      6.7541     38.0262
   467.0000      0.0000    836.2475      6.7282     36.1142
   467.2500      0.0000    835.9016      6.6994     36.1505
   467.5000      0.0000    834.8636      6.6623     38.0182
   467.7500      0.0000    832.4316      6.6175     41.0605
   468.0000      0.0000    828.0743      6.5711     44.4365
   468.2500      0.0000    822.2913      6.5329     47.6886
   468.5000      0.0000    817.0447      6.5088     50.6881
   468.7500      0.0000    814.7203      6.4949     53.1316
   469.0000      0.0000    816.0437      6.4822     54.8345
   469.2500      0.0000    819.0233      6.4667     56.6690
   469.5000      0.0000    820.3848      6.4506     60.4343
   469.7500      0.0000    818.3615      6.4384     67.4220
   470.0000      0.0000    814.2040      6.4300     77.2023
   470.2500      0.0000    811.1080      6.4166     87.5823
   470.5000      0.0000    811.7646      6.3851     95.5126
   470.7500      0.0000    816.6524      6.3312     98.6709
   471.0000      0.0000    824.0823      6.2692     97.0282
   471.2500      0.0000    831.3187      6.2236     92.9220
   471.5000      0.0000    835.4692      6.2046     89.2646
   471.7500      0.0000    833.9182      6.1874     87.6763
   472.0000      0.0000    825.9116      6.1169     88.0364
   472.2500      0.0000    815.4909      5.9478     89.2184
   472.5000      0.0000    811.4585      5.6877     90.2101
   472.7500      0.0000    821.1934      5.3975     90.8484
   473.0000      0.0000    843.8041      5.1442     91.4878
   473.2500      0.0000    870.8722      4.9580     92.0509
   473.5000      0.0000    893.5248      4.8335     91.9532
   473.7500      0.0000    907.7006      4.7536     91.1534
   474.0000      0.0000    914.3193      4.7084     90.7441
   474.2500     -2.0000    916.3890      4.7021     92.2460
   474.5000     -2.0000    915.7035      4.7577     96.5711
   474.7500      0.0000    911.7356      4.9141    103.6217
   475.0000      0.0000    903.2238      5.1976    112.1852
   475.2500      0.0000    890.2184      5.5735    119.7953
   475.5000      0.0000    875.0507      5.9347    123.3263
   475.7500      0.0000    861.9059      6.1682    120.8919
   476.0000      0.0000    854.7257      6.2406    113.5913
   476.2500      0.0000    854.4459      6.2072    104.9896
   476.5000      0.0000    858.2004      6.1490     98.5380
   476.7500      0.0000    861.3029      6.1184     95.4513
   477.0000      0.0000    859.5614      6.1292     94.7298
   477.2500      0.0000    850.2966      6.1656     94.6578
   477.5000      0.0000    833.5743      6.1965     94.2530
   477.7500      0.0000    814.0278      6.1951     93.6579
   478.0000      0.0000    799.6400      6.1563     93.4653
   478.2500      0.0000    795.1005      6.0969     93.8758
   478.5000      0.0000    795.6019      6.0404     94.5105
   478.7500      0.0000    789.7443      6.0016     94.6723
   479.0000      0.0000    769.9431      5.9838     93.5918
   479.2500      0.0000    739.0015      5.9837     90.7667
   479.5000      0.0000    706.6806      5.9959     86.3825
   479.7500      0.0000    682.1784      6.0128     81.3204
   480.0000      0.0000    670.3281      6.0268     76.6269
   480.2500      0.0000    672.1058      6.0347     72.9371
   480.5000      0.0000    685.9271      6.0382     70.2390
   480.7500      0.0000    707.7147      6.0376     68.0948
   481.0000      0.0000    730.1956      6.0304     66.3123
   481.2500      0.0000    743.9294      6.0180     65.5206
   481.5000      0.0000    742.0496      6.0065     66.7493
   481.7500      0.0000    725.5480      5.9965     70.1540
   482.0000      0.0000    702.9762      5.9778     74.4286
   482.2500      0.0000    684.2034      5.9384     77.7077
   482.5000      0.0000    674.8445      5.8779     78.9527
   482.7500      0.0000    675.7929      5.8083     78.5065
   483.0000      0.0000    685.6915      5.7468     77.5152
   483.2500      0.0000    702.6323      5.7083     76.8482
   483.5000      0.0000    724.2252      5.6960     76.5126
   483.7500      0.0000    747.2119      5.6975     75.9693
   484.0000      0.0000    767.6892      5.6955     74.7020
   484.2500      0.0000    782.1790      5.6833     72.3661
   484.5000      0.0000    788.9908      5.6636     68.9721
   484.7500      0.0000    789.0934      5.6393     65.3282
   485.0000      0.0000    785.6805      5.6117     62.7658
   485.2500      0.0000    781.8120      5.5865     61.8510
   485.5000      0.0000    777.5686      5.5748     61.7199
   485.7500      0.0000    770.0387      5.5899     61.2346
   486.0000      0.0000    756.8102      5.6407     60.5325
   486.2500      0.0000    739.1545      5.7227     60.8847
   486.5000      0.0000    721.5342      5.8144     63.2068
   486.7500      0.0000    708.6658      5.8888     67.2010
   487.0000      0.0000    703.3903      5.9302     71.9095
   487.2500      0.0000    706.0784      5.9406     76.6913
   487.5000      0.0000    714.3224      5.9318     81.4742
   487.7500      0.0000    722.9911      5.9136     86.0379
   488.0000      0.0000    726.1673      5.8881     89.2744
   488.2500      0.0000    720.7189      5.8535     89.7122
   488.5000      0.0000    708.2347      5.8113     87.0975
   488.7500      0.0000    693.2697      5.7668     83.0507
   489.0000      0.0000    680.2103      5.7268     79.8375
   489.2500      0.0000    671.7468      5.6972     78.5340
   489.5000      0.0000    668.9630      5.6812     78.4351
   489.7500      0.0000    671.6551      5.6757     78.2023
   490.0000      0.0000    678.3767      5.6711     77.5674
   490.2500      0.0000    686.6779      5.6585     77.7367
   490.5000      0.0000    694.0243      5.6371     79.8344
   490.7500      0.0000    698.9687      5.6133     83.1635
   491.0000      0.0000    701.5758      5.5946     85.6408
   491.2500      0.0000    702.8304      5.5854     86.0315
   491.5000      0.0000    703.9796      5.5871     85.1918
   491.7500      0.0000    706.5983      5.5974     84.8906
   492.0000      0.0000    713.0907      5.6138     85.9693
   492.2500      0.0000    726.4834      5.6362     88.0067
   492.5000      0.0000    748.5264      5.6663     90.2447
   492.7500      0.0000    777.0027      5.7045     92.0717
   493.0000      0.0000    805.3089      5.7479     92.7917
   493.2500      0.0000    826.0436      5.7900     91.7464
   493.5000      0.0000    835.5402      5.8220     88.9916
   493.7500      0.0000    834.6873      5.8357     85.5133
   494.0000      0.0000    826.2120      5.8280     82.7288
   494.2500      0.0000    812.7733      5.8020     81.9892
   494.5000      0.0000    797.8244      5.7612     84.2600
   494.7500      0.0000    786.5409      5.7061     89.7255
   495.0000      0.0000    784.0264      5.6391     97.4953
   495.2500      0.0000    791.9929      5.5694    105.7566
