~Version Information
VERS.                      2.0: CWLS Log ASCII Standard - VERSION 2.0
WRAP.                       NO: One line per depth step
~Well Information Block
STRT.FT               240.0000: 
STOP.FT              1252.5000: 
STEP.FT                 0.2500: 
NULL.                -999.2500: 
COMP.          Pioneer Natural Resources: COMPANY
WELL.             Margaux 11-1: WELL
FLD.           Purgatoire River: FIELD
LOC.           1154' FNL & 472' FWL: LOCATION
PROV.                 Colorado: PROVINCE
CNTY.               Las Animas: COUNTRY
SRVC.                Patterson: SERVICE COMPANY
DATE.          Mon Dec 19 04:21:59 2005: LOG DATE
UWI.           05 071 08639 00: UNIQUE WELL ID
~Curve Information Block
DEPT.FT            0 000 00 00: Depth
SN.Ohm-m                      : IEL Short Normal
SP.mV                         : IEL Spontaneous Potential
DIR.Ohm-m                     : IEL Induction Resistivity
GR.GAPI                       : Gamma Ray
~Parameter Information Block
~A  Depth        SN          SP         DIR          GR     
# ...
   742.5000     23.4786     -2.8616     23.4076    100.9116
   742.7500     23.7325     -2.8142     23.9816     98.3503
   743.0000     23.9887     -2.7729     24.3474     96.4017
   743.2500     24.1935     -2.7440     24.4716     96.6785
   743.5000     24.3232     -2.7261     24.4241     98.9012
   743.7500     24.4257     -2.7109     24.3150    100.9254
   744.0000     24.5075     -2.6903     24.2196    103.5127
   744.2500     24.4905     -2.6621     24.1555    104.4082
   744.5000     24.3064     -2.6316     24.1046    104.3559
   744.7500     23.9743     -2.6097     24.0480    103.7223
   745.0000     23.5818     -2.6106     23.9842    102.8711
   745.2500     23.2253     -2.6442     23.9275    102.9943
   745.5000     22.9644     -2.7092     23.8966    104.7356
   745.7500     22.7782     -2.7920     23.9011    106.6149
   746.0000     22.6077     -2.8727     23.9342    109.0345
   746.2500     22.4731     -2.9328     23.9768    109.4560
   746.5000     22.4495     -2.9595     24.0124    107.5785
   746.7500     22.5416     -2.9478     24.0385    104.9809
   747.0000     22.6644     -2.9020     24.0693    100.5441
   747.2500     22.7421     -2.8356     24.1260     98.1665
   747.5000     22.8043     -2.7685     24.2224     96.5660
   747.7500     22.9535     -2.7187     24.3550     97.0100
   748.0000     23.2263     -2.6936     24.5053     99.3545
   748.2500     23.5006     -2.6865     24.6550    101.1724
   748.5000     23.6317     -2.6825     24.8007    102.6348
   748.7500     23.6757     -2.6659     24.9475    102.2571
   749.0000     23.7998     -2.6223     25.0865     99.6740
   749.2500     24.0204     -2.5387     25.1780     96.7299
   749.5000     24.2201     -2.4091     25.1654     90.6189
   749.7500     24.3461     -2.2412     25.0136     85.8123
   750.0000     24.4338     -2.0585     24.7403     79.0736
   750.2500     24.4807     -1.8924     24.4114     75.8318
   750.5000     24.4456     -1.7709     24.1024     73.1207
   750.7500     24.3983     -1.7066     23.8515     72.0154
   751.0000     24.4675     -1.6920     23.6390     69.9511
   751.2500     24.6284     -1.7043     23.4049     68.1297
   751.5000     24.7287     -1.7196     23.0905     65.7894
   751.7500     24.6646     -1.7241     22.6795     65.3612
   752.0000     24.3994     -1.7191     22.2138     67.3939
   752.2500     23.8880     -1.7172     21.7807     70.6955
   752.5000     23.1562     -1.7373     21.4747     78.2271
   752.7500     22.3871     -1.7959     21.3521     84.3225
   753.0000     21.7524     -1.8975     21.3954     93.3124
   753.2500     21.2742     -2.0307     21.5120     98.2161
   753.5000     20.9199     -2.1744     21.5749    103.0729
   753.7500     20.7059     -2.3112     21.4905    104.5379
   754.0000     20.7384     -2.4363     21.2442    104.0339
   754.2500     21.1324     -2.5554     20.8923    101.9574
   754.5000     21.7795     -2.6757     20.5203     97.0202
   754.7500     22.3341     -2.8010     20.2056     93.4916
   755.0000     22.5519     -2.9315     19.9997     89.8060
   755.2500     22.4807     -3.0655     19.9229     89.2182
   755.5000     22.2569     -3.1974     19.9645     91.3771
   755.7500     21.9362     -3.3158     20.0880     94.4155
   756.0000     21.5671     -3.4072     20.2427    100.2332
   756.2500     21.2337     -3.4652     20.3701    104.3251
   756.5000     20.9953     -3.4945     20.4053    109.9216
   756.7500     20.8665     -3.5058     20.2799    112.8055
   757.0000     20.7944     -3.5061     19.9383    114.9971
   757.2500     20.6608     -3.4944     19.3672    114.7528
   757.5000     20.4318     -3.4647     18.6109    112.1855
   757.7500     20.1841     -3.4067     17.7560    109.6953
   758.0000     19.9522     -3.3090     16.8942    106.4690
   758.2500     19.7223     -3.1654     16.0925    105.7838
   758.5000     19.4684     -2.9816     15.3853    108.6111
   758.7500     19.1144     -2.7764     14.7822    113.3484
   759.0000     18.6072     -2.5781     14.2794    123.3518
   759.2500     17.9999     -2.4159     13.8645    130.3226
   759.5000     17.3789     -2.3105     13.5178    138.5471
   759.7500     16.7614     -2.2646     13.2116    141.8338
   760.0000     16.1367     -2.2610     12.9164    144.0239
   760.2500     15.5455     -2.2688     12.6103    144.4202
   760.5000     15.0073     -2.2557     12.2897    143.9720
   760.7500     14.4927     -2.1976     11.9721    142.6238
   761.0000     14.0226     -2.0862     11.6866    138.3714
   761.2500     13.6180     -1.9328     11.4595    134.3993
   761.5000     13.2533     -1.7614     11.3018    128.7160
   761.7500     13.0357     -1.5917     11.2064    126.3342
   762.0000     13.1805     -1.4278     11.1510    125.5468
   762.2500     13.6932     -1.2635     11.1065    126.1562
   762.5000     14.3253     -1.0963     11.0457    126.3250
   762.7500     14.8212     -0.9327     10.9500    124.5592
   763.0000     15.0197     -0.7826     10.8127    118.2768
   763.2500     14.8363     -0.6464     10.6387    112.5693
   763.5000     14.3125     -0.5069     10.4424    105.1958
   763.7500     13.6396     -0.3327     10.2440    103.2443
   764.0000     13.0680     -0.0899     10.0662    106.6610
   764.2500     12.7874      0.2426      9.9295    112.6480
   764.5000     12.8103      0.6615      9.8460    124.0651
   764.7500     12.9187      1.1344      9.8158    131.0727
   765.0000     12.9133      1.6075      9.8262    138.0422
   765.2500     12.8949      2.0261      9.8574    140.0456
   765.5000     13.0353      2.3565      9.8915    140.2648
   765.7500     13.2463      2.5908      9.9214    139.4129
   766.0000     13.4040      2.7366      9.9521    137.2963
   766.2500     13.6173      2.8068      9.9970    135.1629
   766.5000     13.9600      2.8188     10.0722    130.3612
   766.7500     14.2790      2.7983     10.1929    126.2868
   767.0000     14.4417      2.7760     10.3720    120.5592
   767.2500     14.4856      2.7769     10.6192    118.1394
   767.5000     14.5376      2.8131     10.9403    117.0390
   767.7500     14.7415      2.8850     11.3369    117.1976
   768.0000     15.1666      2.9858     11.8076    116.9954
   768.2500     15.7264      3.1009     12.3497    116.0631
   768.5000     16.2756      3.2088     12.9605    113.9186
   768.7500     16.7366      3.2898     13.6373    112.6621
   769.0000     17.1073      3.3385     14.3743    111.7925
   769.2500     17.4350      3.3659     15.1598    111.7573
   769.5000     17.7649      3.3888     15.9746    111.5950
   769.7500     18.1493      3.4187     16.7950    110.8577
   770.0000     18.7020      3.4606     17.6018    108.3268
   770.2500     19.5202      3.5171     18.3922    105.7026
   770.5000     20.5683      3.5884     19.1860    100.5170
   770.7500     21.6814      3.6699     20.0181     96.2259
   771.0000     22.7323      3.7559     20.9195     88.6215
   771.2500     23.7715      3.8437     21.9004     83.1196
   771.5000     24.9054      3.9326     22.9446     75.1615
   771.7500     26.1241      4.0172     24.0154     70.4053
   772.0000     27.3687      4.0834     25.0590     64.0993
   772.2500     28.6296      4.1102     26.0015     60.4112
   772.5000     29.8348      4.0766     26.7446     55.9338
   772.7500     30.8023      3.9704     27.1738     53.8699
   773.0000     31.3672      3.7950     27.1810     52.3154
   773.2500     31.4137      3.5710     26.6949     52.4366
   773.5000     30.8568      3.3305     25.7148     55.0995
   773.7500     29.7115      3.1069     24.3396     59.2012
   774.0000     28.1202      2.9234     22.7597     69.5862
   774.2500     26.3280      2.7863     21.1963     79.0727
   774.5000     24.6520      2.6846     19.8254     95.3577
   774.7500     23.3085      2.5974     18.7384    106.0483
   775.0000     22.2670      2.5071     17.9495    119.2255
   775.2500     21.3606      2.4095     17.4223    125.0710
   775.5000     20.4650      2.3151     17.0965    128.8267
   775.7500     19.6012      2.2417     16.9094    128.1078
