~Version Information
VERS.                      2.0: CWLS Log ASCII Standard - VERSION 2.0
WRAP.                       NO: One line per depth step
~Well Information Block
STRT.FT               240.0000: 
STOP.FT              1342.0000: 
STEP.FT                 0.1000: 
NULL.                -999.2500: 
COMP.          Pioneer Natural Resources: COMPANY
WELL.          Lorencito 9-4-34-66: WELL
FLD.           Purgatoire River: FIELD
LOC.           2540' FSL & 438' FEL: LOCATION
STAT.                 Colorado: State
CNTY.               Las Animas: COUNTY
CTRY. USA : Country
SECT. 4 : Section
TOWN. 34S : Township
RANG. 68W : range
SRVC.                Patterson: SERVICE COMPANY
DATE.          Thu Sep 15 13:16:59 2005: LOG DATE
API.           05 071 08498 00: UNIQUE WELL ID
~Curve Information Block
DEPT.FT            0 000 00 00: Depth
DCAL.in                       : CDL Caliper
RHOB.g/cc                     : CDL Bulk Density
RHOC.g/cc                     : CDL Density Correction
DPOR.pu                       : CDL Density Porosity
GR.GAPI                       : Gamma Ray
NPOR.pu                       : Neutron Porosity
~Parameter Information Block
~A  Depth       DCAL        RHOB        RHOC        DPOR         GR         NPOR    
# ...
  1036.8000      8.0611      2.4703      0.1014     10.8909    150.4125     22.2354
  1036.9000      8.0611      2.5137      0.1014      8.2620    146.2138     22.7669
  1037.0000      8.0183      2.5636      0.1423      5.2367    144.6930     24.0141
  1037.1000      8.0183      2.6093      0.1732      2.4637    145.4624     24.8678
  1037.2000      8.0183      2.6313      0.2186      1.1359    147.2203     24.0713
  1037.3000      8.0258      2.6142      0.1857      2.1686    145.1026     22.5953
  1037.4000      8.0258      2.5711      0.0984      4.7793    139.8562     22.0753
  1037.5000      8.0241      2.5271      0.0799      7.4496    138.2162     22.5131
  1037.6000      8.0241      2.4905      0.0434      9.6695    140.2668     23.0008
  1037.7000      8.0241      2.4598      0.0189     11.5264    142.8192     23.1035
  1037.8000      8.0396      2.4360      0.0328     12.9690    144.9300     23.0096
  1037.9000      8.0396      2.4232     -0.0317     13.7477    144.7564     22.6967
  1038.0000      8.0801      2.4223      0.0346     13.7992    141.3316     22.2208
  1038.1000      8.0801      2.4240      0.0256     13.6978    136.9031     22.1550
  1038.2000      8.0801      2.4279      0.0229     13.4583    132.7574     22.6746
  1038.3000      8.1307      2.4395      0.0771     12.7574    129.1708     23.3926
  1038.4000      8.1307      2.4546      0.0493     11.8429    129.4731     24.2141
  1038.5000      8.1490      2.4668      0.0723     11.1034    133.9850     24.9101
  1038.6000      8.1490      2.4753      0.0493     10.5877    138.5062     25.1899
  1038.7000      8.1490      2.4894      0.0285      9.7306    142.5388     25.2940
  1038.8000      8.1559      2.5125      0.0663      8.3335    143.8583     25.4533
  1038.9000      8.1559      2.5304      0.0853      7.2480    141.7775     25.9767
  1039.0000      8.1922      2.5321      0.0784      7.1442    139.7910     26.4686
  1039.1000      8.1922      2.5293      0.0393      7.3169    138.4670     26.4324
  1039.2000      8.1922      2.5390      0.0737      6.7262    137.1046     26.5668
  1039.3000      8.1707      2.5524      0.0309      5.9133    136.9805     26.8792
  1039.4000      8.1707      2.5520      0.0228      5.9399    138.4539     26.4010
  1039.5000      8.1190      2.5327      0.0046      7.1121    136.6041     25.3344
  1039.6000      8.1190      2.4978      0.0222      9.2268    127.7076     24.5798
  1039.7000      8.1190      2.4610     -0.0184     11.4570    117.4294     24.1570
  1039.8000      8.1375      2.4413     -0.0531     12.6457    112.3952     23.8126
  1039.9000      8.1375      2.4413     -0.0513     12.6501    110.3478     23.5652
  1040.0000      8.1364      2.4517     -0.0427     12.0152    108.6388     23.2169
  1040.1000      8.1364      2.4711     -0.0348     10.8400    109.5577     23.0664
  1040.2000      8.1364      2.4955      0.0326      9.3617    114.6651     23.4851
  1040.3000      8.1381      2.5165      0.0440      8.0909    122.6602     24.3589
  1040.4000      8.1381      2.5361      0.0384      6.9017    129.6382     25.3173
  1040.5000      8.1516      2.5534      0.0673      5.8518    134.4723     25.3239
  1040.6000      8.1516      2.5583      0.1078      5.5591    138.2307     24.2064
  1040.7000      8.1516      2.5492      0.0818      6.1094    138.4565     23.0056
  1040.8000      8.1464      2.5296      0.0951      7.2980    137.7198     22.2159
  1040.9000      8.1464      2.5104      0.0331      8.4634    141.6325     21.9362
  1041.0000      8.1055      2.5119      0.0292      8.3709    146.5940     22.0062
  1041.1000      8.1055      2.5261      0.1048      7.5108    147.4081     22.0268
  1041.2000      8.1055      2.5225      0.0731      7.7255    146.7503     21.9313
  1041.3000      8.1061      2.5003      0.0357      9.0714    147.9986     22.1187
  1041.4000      8.1061      2.4869     -0.0301      9.8844    150.3353     22.6880
  1041.5000      8.1273      2.4948      0.0421      9.4041    152.8817     23.3038
  1041.6000      8.1273      2.4992      0.0779      9.1405    152.7590     23.9383
  1041.7000      8.1273      2.4781      0.0308     10.4158    148.6056     24.6113
  1041.8000      8.1442      2.4513     -0.0097     12.0405    142.4337     24.6638
  1041.9000      8.1442      2.4468      0.0030     12.3178    136.6976     23.8084
  1042.0000      8.1223      2.4601      0.0712     11.5086    134.6136     23.1295
  1042.1000      8.1223      2.4663      0.0565     11.1343    137.5759     23.4078
  1042.2000      8.1223      2.4556      0.0515     11.7823    142.8267     24.0524
  1042.3000      8.1020      2.4402      0.0310     12.7159    145.4718     24.1003
  1042.4000      8.1020      2.4328      0.0277     13.1658    143.5063     23.1483
  1042.5000      8.1215      2.4308      0.0612     13.2832    140.0387     21.8669
  1042.6000      8.1215      2.4307      0.0258     13.2893    140.1943     20.9472
  1042.7000      8.1215      2.4341      0.0523     13.0877    144.2240     20.4157
  1042.8000      8.1607      2.4313      0.0573     13.2530    144.5197     20.1428
  1042.9000      8.1607      2.4186      0.0615     14.0253    135.9103     20.0676
  1043.0000      8.1735      2.4054      0.0560     14.8255    125.6444     20.3640
  1043.1000      8.1735      2.3957      0.1011     15.4099    121.6384     20.9579
  1043.2000      8.1735      2.3863      0.0565     15.9811    119.9757     21.3579
  1043.3000      8.1789      2.3815      0.0628     16.2705    117.8183     21.6090
  1043.4000      8.1789      2.3909      0.0368     15.7039    117.3167     22.4657
  1043.5000      8.2370      2.4073      0.0343     14.7109    117.1921     23.8524
  1043.6000      8.2370      2.4111      0.0662     14.4790    119.7496     24.7293
  1043.7000      8.2370      2.4067      0.0486     14.7454    127.7452     24.7512
  1043.8000      8.2359      2.4122      0.0378     14.4093    134.1730     24.5093
  1043.9000      8.2359      2.4219      0.0610     13.8226    134.7786     24.5985
  1044.0000      8.1924      2.4223      0.0537     13.8016    135.7388     25.1235
  1044.1000      8.1924      2.4195      0.0083     13.9701    138.7635     25.8325
  1044.2000      8.1924      2.4274      0.0329     13.4919    138.7704     26.2052
  1044.3000      8.1816      2.4405      0.0381     12.6943    135.2149     25.8024
  1044.4000      8.1816      2.4436      0.0388     12.5061    130.0157     24.8486
  1044.5000      8.1417      2.4449     -0.0051     12.4280    124.6376     23.9013
  1044.6000      8.1417      2.4668      0.0563     11.1039    120.2876     23.3894
  1044.7000      8.1417      2.5014      0.0996      9.0070    118.1851     23.0597
  1044.8000      8.1319      2.5198      0.1179      7.8890    119.2145     22.7169
  1044.9000      8.1319      2.5183      0.0877      7.9842    120.4413     22.9071
  1045.0000      8.0986      2.5166      0.1063      8.0852    120.0151     23.8155
  1045.1000      8.0986      2.5199      0.1094      7.8833    118.4445     24.5806
  1045.2000      8.0986      2.5157      0.0967      8.1424    114.5356     24.5126
  1045.3000      8.0591      2.5021      0.0369      8.9665    110.7879     24.1333
  1045.4000      8.0591      2.4871      0.0763      9.8707    112.6558     24.0670
  1045.5000      8.0463      2.4772      0.0442     10.4728    120.3618     24.4961
  1045.6000      8.0463      2.4773      0.0501     10.4692    126.6877     25.2775
  1045.7000      8.0463      2.4788      0.1076     10.3740    125.2266     26.0208
  1045.8000      8.0593      2.4724      0.0864     10.7635    121.9861     26.4059
  1045.9000      8.0593      2.4664      0.0641     11.1276    123.1128     26.4230
  1046.0000      8.0450      2.4695      0.0802     10.9419    121.8781     26.3770
  1046.1000      8.0450      2.4732      0.0431     10.7165    116.6780     26.3632
  1046.2000      8.0450      2.4776      0.0227     10.4489    117.1173     26.3379
  1046.3000      8.0340      2.4922      0.0902      9.5661    125.9713     26.3788
