~Version Information
VERS.                      2.0: CWLS Log ASCII Standard - VERSION 2.0
WRAP.                       NO: One line per depth step
~Well Information Block
STRT.FT               240.0000: 
STOP.FT               713.7500: 
STEP.FT                 0.2500: 
NULL.                -999.2500: 
COMP.          Pioneer Natural Resources: COMPANY
WELL.           Belvedere 14-7: WELL
FLD.           Purgatorie River: FIELD
LOC.           786' FSL & 1283' FWL: LOCATION
PROV.                 Colorado: PROVINCE
CNTY.               Las Animas: COUNTRY
SRVC.                Patterson: SERVICE COMPANY
DATE.          Sun Nov 27 03:38:28 2005: LOG DATE
UWI.           05-071-08557               : UNIQUE WELL ID
~Curve Information Block
DEPT.FT            0 000 00 00: Depth
DIR.Ohm-m                     : IEL Induction Resistivity
GR.GAPI                       : Gamma Ray
~Parameter Information Block
~A  Depth       DIR          GR     
# ...
   351.5000     13.9358    129.0168
   351.7500     13.9630    134.6028
   352.0000     13.9605    141.0838
   352.2500     13.9486    143.1097
   352.5000     13.9493    142.8612
   352.7500     13.9787    141.3704
   353.0000     14.0427    139.2855
   353.2500     14.1372    139.2516
   353.5000     14.2505    142.4040
   353.7500     14.3692    146.2841
   354.0000     14.4844    152.6012
   354.2500     14.5951    155.6699
   354.5000     14.7054    156.9911
   354.7500     14.8176    155.5836
   355.0000     14.9261    150.9508
   355.2500     15.0186    147.0170
   355.5000     15.0797    141.1846
   355.7500     15.0974    137.8568
   356.0000     15.0663    134.2273
   356.2500     14.9877    132.8398
   356.5000     14.8683    131.8688
   356.7500     14.7170    131.3452
   357.0000     14.5437    129.9458
   357.2500     14.3589    128.6251
   357.5000     14.1736    126.5833
   357.7500     13.9973    125.5535
   358.0000     13.8335    125.3019
   358.2500     13.6777    126.5209
   358.5000     13.5200    130.9344
   358.7500     13.3500    135.3935
   359.0000     13.1616    143.1124
   359.2500     12.9552    148.0062
   359.5000     12.7374    153.7762
   359.7500     12.5202    156.3995
   360.0000     12.3181    159.0834
   360.2500     12.1457    160.6065
   360.5000     12.0154    162.9375
   360.7500     11.9362    164.2427
   361.0000     11.9132    165.1372
   361.2500     11.9470    165.0602
   361.5000     12.0339    164.9242
   361.7500     12.1664    165.4993
   362.0000     12.3364    167.5440
   362.2500     12.5388    168.8518
   362.5000     12.7743    168.3530
   362.7500     13.0480    165.5315
   363.0000     13.3660    158.5729
   363.2500     13.7311    153.7569
   363.5000     14.1407    148.4694
   363.7500     14.5858    146.2934
   364.0000     15.0505    144.0342
   364.2500     15.5113    142.9724
   364.5000     15.9382    142.3873
   364.7500     16.2979    142.5192
   365.0000     16.5589    142.2030
   365.2500     16.6980    140.9411
   365.5000     16.7070    137.5159
   365.7500     16.5946    134.8811
   366.0000     16.3823    131.5783
   366.2500     16.0949    130.0886
   366.5000     15.7534    128.9853
   366.7500     15.3735    129.1443
   367.0000     14.9691    130.9589
   367.2500     14.5541    132.9347
   367.5000     14.1422    135.7475
   367.7500     13.7452    136.7794
   368.0000     13.3728    136.8058
   368.2500     13.0348    136.3920
   368.5000     12.7409    136.5286
   368.7500     12.4990    137.4352
   369.0000     12.3127    139.2753
   369.2500     12.1803    140.2207
   369.5000     12.0960    141.1256
   369.7500     12.0529    141.9089
   370.0000     12.0458    144.3410
   370.2500     12.0726    147.0000
   370.5000     12.1344    152.2556
   370.7500     12.2334    156.2515
   371.0000     12.3713    161.8069
   371.2500     12.5506    164.0967
   371.5000     12.7747    163.9314
   371.7500     13.0474    161.6769
   372.0000     13.3690    157.1937
   372.2500     13.7324    154.6962
   372.5000     14.1229    152.4680
   372.7500     14.5219    151.6463
   373.0000     14.9134    150.0483
   373.2500     15.2897    148.0240
   373.5000     15.6536    143.3279
   373.7500     16.0172    139.4720
   374.0000     16.3979    133.2596
   374.2500     16.8119    129.1500
   374.5000     17.2677    123.8910
   374.7500     17.7635    121.4466
   375.0000     18.2902    119.2285
   375.2500     18.8371    118.2882
   375.5000     19.3966    117.3721
   375.7500     19.9632    117.0899
   376.0000     20.5316    116.5872
   376.2500     21.0963    115.6884
   376.5000     21.6533    113.5256
   376.7500     22.1999    112.1956
   377.0000     22.7308    111.3181
   377.2500     23.2335    111.3265
   377.5000     23.6901    110.9926
   377.7500     24.0858    109.7517
   378.0000     24.4177    105.5634
   378.2500     24.6982    101.1854
   378.5000     24.9482     92.7560
   378.7500     25.1894     86.3571
   379.0000     25.4363     76.5830
   379.2500     25.6922     70.7648
   379.5000     25.9454     64.6714
   379.7500     26.1684     62.9447
   380.0000     26.3223     63.6165
   380.2500     26.3709     65.3898
   380.5000     26.2964     67.9838
   380.7500     26.1111     68.6357
   381.0000     25.8560     67.4582
   381.2500     25.5891     65.7272
   381.5000     25.3650     63.1030
   381.7500     25.2181     61.9644
   382.0000     25.1545     61.5937
   382.2500     25.1585     62.1292
   382.5000     25.2084     63.5589
   382.7500     25.2896     64.6431
   383.0000     25.3977     66.4805
   383.2500     25.5326     68.0326
   383.5000     25.6919     70.6795
   383.7500     25.8681     72.0282
   384.0000     26.0486     72.0623
   384.2500     26.2177     70.4119
   384.5000     26.3610     66.0672
   384.7500     26.4737     62.7327
   385.0000     26.5674     58.3141
   385.2500     26.6681     56.1382
   385.5000     26.8053     54.1474
   385.7500     26.9982     53.5394
   386.0000     27.2472     53.2122
   386.2500     27.5296     53.0344
   386.5000     27.8002     52.5276
   386.7500     27.9931     52.1386
   387.0000     28.0305     51.8397
   387.2500     27.8382     51.9670
   387.5000     27.3650     52.7091
   387.7500     26.6027     53.4930
   388.0000     25.5942     54.7503
   388.2500     24.4234     55.4615
   388.5000     23.1876     56.3859
   388.7500     21.9692     57.0700
   389.0000     20.8207     58.4212
   389.2500     19.7648     59.7763
   389.5000     18.8025     63.6936
   389.7500     17.9229     68.6571
   390.0000     17.1117     80.7370
   390.2500     16.3576     91.2657
   390.5000     15.6569    107.8880
   390.7500     15.0141    117.8100
   391.0000     14.4399    129.3335
   391.2500     13.9465    134.5900
   391.5000     13.5416    139.5503
   391.7500     13.2244    141.8065
   392.0000     12.9854    145.1790
   392.2500     12.8085    147.8772
   392.5000     12.6758    152.4519
   392.7500     12.5730    155.2749
   393.0000     12.4932    157.4609
   393.2500     12.4387    156.5623
   393.5000     12.4183    151.1428
   393.7500     12.4429    145.4220
   394.0000     12.5208    135.7857
   394.2500     12.6558    129.9742
   394.5000     12.8464    123.7545
   394.7500     13.0883    121.6377
   395.0000     13.3753    121.2687
   395.2500     13.6993    122.3038
   395.5000     14.0495    124.2007
   395.7500     14.4130    124.7919
   396.0000     14.7773    124.0900
   396.2500     15.1339    123.0548
   396.5000     15.4798    122.1497
   396.7500     15.8151    122.3700
   397.0000     16.1381    123.0774
   397.2500     16.4405    122.9369
   397.5000     16.7081    121.0816
   397.7500     16.9259    118.9563
   398.0000     17.0859    115.4444
   398.2500     17.1912    113.6895
   398.5000     17.2542    113.2253
   398.7500     17.2898    114.6169
   399.0000     17.3091    118.6271
   399.2500     17.3184    122.0529
   399.5000     17.3220    127.6223
   399.7500     17.3256    130.9962
   400.0000     17.3383    133.9673
   400.2500     17.3726    134.0931
   400.5000     17.4436    132.4608
   400.7500     17.5666    131.0596
   401.0000     17.7566    128.8158
   401.2500     18.0284    126.8320
   401.5000     18.3985    123.1268
   401.7500     18.8846    120.7400
   402.0000     19.5027    117.7723
   402.2500     20.2646    115.6831
   402.5000     21.1772    111.2457
   402.7500     22.2434    107.5755
   403.0000     23.4600    102.6580
   403.2500     24.8145    100.4658
   403.5000     26.2828     98.0452
   403.7500     27.8312     95.8301
   404.0000     29.4243     90.2382
   404.2500     31.0330     85.1474
   404.5000     32.6358     77.0261
   404.7500     34.2110     72.3990
   405.0000     35.7261     67.7452
   405.2500     37.1348     66.0320
   405.5000     38.3860     64.6220
   405.7500     39.4410     64.2855
   406.0000     40.2886     65.6888
   406.2500     40.9441     68.7865
   406.5000     41.4328     77.2275
   406.7500     41.7718     84.7286
   407.0000     41.9682     96.4872
