~Version Information
 VERS.                                  2.0 : CWLS LAS VERSION
 WRAP.                                   NO : WRAPING MODE
 SWARE .                 MController 2.5.0J : SOFTWARE VERSION
~Well Information
 WELL.                       Montoya 12-44R : WELL
 COMP.                Petrogulf Corporation : COMPANY
 FLD.                      Purgatoire River : FIELD
 LOC.               SE/SE Sec 12 T33S R68W  : LOCATION
 DATE.                             10/01/05 : DATE(S) LOGGED
 SRVC.       BLANCO Geological Services LLC : SERVICE COMPANY
 STAT.                                  CO  : STATE
 CNTY.                           Las Animas : COUNTY
 CTRY.                                  USA : COUNTRY
 API.                       05 071 08538 00 : API NUMBER
 STRT.FT                              22.00 : START DEPTH
 STOP.FT                            2100.00 : STOP DEPTH
 STEP.FT                               1.00 : DEPTH INCREMENT
 NULL.                                -9999 : NULL VALUE
~Curve information
 DEPTH.FT                                   :
 ROP.MIN/FT                                 :
 GAS.UNITS                                  :
~ASCII Log data
        22.0     -9999.00          2.2 
        23.0         0.17          2.3 
        24.0         0.53          2.0 
        25.0         0.50          1.9 
        26.0         0.32          1.8 
        27.0         0.50          1.8 
        28.0         0.33          1.7 
        29.0         0.53          1.9 
        30.0         0.60          1.9 
        31.0         0.33          1.8 
        32.0         0.68          1.9 
        33.0         0.63          1.9 
        34.0         0.23          2.1 
        35.0         0.33          1.9 
        36.0         0.33          1.6 
        37.0         0.37          1.9 
        38.0         0.37          2.0 
        39.0         0.33          1.8 
        40.0         0.33          1.7 
        41.0         0.45          1.8 
        42.0         0.60          1.7 
        43.0         0.40          1.9 
        44.0         0.43          1.9 
        45.0         0.50          1.8 
        46.0         0.33          2.0 
        47.0         0.45          2.0 
        48.0         0.33          2.0 
        49.0         0.37          2.1 
        50.0         0.27          1.9 
        51.0         0.37          1.9 
        52.0         0.27          1.9 
        53.0         0.40          2.0 
        54.0         0.33          1.9 
        55.0         0.37          1.8 
        56.0         0.35          1.9 
        57.0         0.47          2.0 
        58.0         0.30          1.7 
        59.0         0.33          1.7 
        60.0         0.30          1.7 
        61.0         0.33          1.7 
        62.0         0.23          2.0 
        63.0         0.20          2.0 
        64.0         0.27          1.9 
        65.0         0.20          1.7 
        66.0         0.20          1.6 
        67.0         0.32          1.9 
        68.0         0.20          1.7 
        69.0         0.33          1.8 
        70.0         0.23          1.8 
        71.0         0.23          1.9 
        72.0         0.27          1.8 
        73.0         0.20          2.0 
        74.0         0.20          1.9 
        75.0         0.23          1.8 
        76.0         0.23          1.7 
        77.0         0.23          1.6 
        78.0         0.23          1.6 
        79.0         0.20          1.7 
        80.0         0.23          1.7 
        81.0         0.22          1.1 
        82.0         0.23          1.8 
        83.0         0.20          3.7 
        84.0         0.20          4.7 
        85.0         0.17          4.4 
        86.0         1.17          6.1 
        87.0         0.23          6.9 
        88.0         0.27          7.7 
        89.0         0.23          8.5 
        90.0         0.33          9.1 
        91.0         0.25          9.4 
        92.0         0.23          9.0 
        93.0         0.27         13.2 
        94.0         0.23         88.9 
        95.0         0.23        149.3 
        96.0         0.27        148.9 
        97.0         0.30        102.4 
        98.0         0.23         48.0 
        99.0         0.27         27.1 
       100.0         0.23         16.0 
       101.0         0.27         12.3 
       102.0         0.30         10.4 
       103.0         0.28          8.9 
       104.0         0.27          8.4 
       105.0         0.27          7.8 
       106.0         0.27          8.1 
       107.0         0.27          8.5 
       108.0         0.27          8.7 
       109.0         0.23          8.9 
       110.0         0.23          9.2 
       111.0         0.27          9.5 
       112.0         0.27          9.8 
       113.0         0.27         10.3 
       114.0         0.20         10.0 
       115.0         0.27         10.1 
       116.0         1.32         11.2 
       117.0         0.27         11.2 
       118.0         0.27         11.4 
       119.0         0.23         11.2 
       120.0         0.23         11.4 
       121.0         0.30         11.1 
       122.0         0.23         11.1 
       123.0         0.23         11.9 
       124.0         0.28         11.9 
       125.0         0.27         12.1 
       126.0         0.27         12.1 
       127.0         0.23         12.2 
       128.0         0.27         12.1 
       129.0         0.27         12.0 
       130.0         0.30         12.2 
       131.0         0.23         12.6 
       132.0         0.27         12.6 
       133.0         0.23         12.9 
       134.0         0.27         12.8 
       135.0         0.23         12.7 
       136.0         0.27         13.0 
       137.0         0.25         12.8 
       138.0         0.30         12.6 
       139.0         0.30         12.8 
       140.0         0.27         12.9 
       141.0         0.23         13.3 
       142.0         0.23         13.6 
       143.0         0.30         13.8 
       144.0         0.27         13.7 
       145.0         0.33         13.9 
       146.0         1.02         14.3 
       147.0         0.23         13.6 
       148.0         0.23         13.8 
       149.0         0.23         13.1 
       150.0         0.20         13.1 
       151.0         0.27         13.4 
       152.0         0.33         13.7 
       153.0         0.27         13.5 
       154.0         0.27         13.8 
       155.0         0.23         13.7 
       156.0         0.20         12.9 
       157.0         0.23         13.7 
       158.0         0.23         13.1 
       159.0         0.25         13.5 
       160.0         0.23         13.4 
       161.0         0.23         13.8 
       162.0         0.27         13.5 
       163.0         0.27         13.5 
       164.0         0.23         13.4 
       165.0         0.27         13.7 
       166.0         0.23         13.5 
       167.0         0.23         13.8 
       168.0         0.27         13.9 
       169.0         0.27         14.0 
       170.0         0.23         13.9 
       171.0         0.27         13.9 
       172.0         0.25         14.0 
       173.0         0.23         13.9 
       174.0         0.23         13.9 
       175.0         0.27         14.1 
       176.0         1.20         14.6 
       177.0         0.23         14.3 
       178.0         0.20         14.5 
       179.0         0.23         14.1 
       180.0         0.23         14.4 
       181.0         0.23         14.4 
       182.0         0.28         14.3 
       183.0         0.27         14.0 
       184.0         0.23         14.2 
       185.0         0.23         14.2 
       186.0         0.23         14.2 
       187.0         0.27         14.2 
       188.0         0.23         13.9 
       189.0         0.27         13.9 
       190.0         0.33         14.3 
       191.0         0.27         14.3 
       192.0         0.23         14.3 
       193.0         0.27         14.2 
       194.0         0.23         14.4 
       195.0         0.32         14.1 
       196.0         0.27         14.2 
       197.0         0.27         14.4 
       198.0         0.23         14.2 
       199.0         0.27         14.3 
       200.0         0.27         14.3 
       201.0         0.27         13.9 
       202.0         0.23         14.3 
       203.0         0.27         14.2 
       204.0         0.23         14.5 
       205.0         0.27         14.7 
       206.0         1.62         15.3 
       207.0         0.27         14.5 
       208.0         0.23         14.3 
       209.0         0.20         14.7 
       210.0         0.23         14.8 
       211.0         0.27         14.6 
       212.0         0.23         14.6 
       213.0         0.23         14.8 
       214.0         0.25         14.6 
       215.0         0.23         14.1 
       216.0         0.27         14.5 
       217.0         0.27         14.9 
       218.0         0.30         14.6 
       219.0         0.30         14.5 
       220.0         0.23         14.0 
       221.0         0.27         14.3 
