~Version Information
VERS.                      2.0: CWLS Log ASCII Standard - VERSION 2.0
WRAP.                       NO: One line per depth step
~Well Information Block
STRT.FT                -6.5000: 
STOP.FT              1317.5000: 
STEP.FT                 0.2500: 
NULL.                -999.2500: 
COMP.          Pioneer Natural Resources: COMPANY
WELL.              Dicks 32-5R: WELL
FLD.           Purgatorie River: FIELD
LOC.           1485' FNL & 1684' FEL--: LOCATION
PROV.                       CO: PROVINCE
CNTY.               Las Animas: COUNTRY
SRVC.          Patterson Wireline: SERVICE COMPANY
DATE.          Tue Dec 13 09:33:22 2005: LOG DATE
UWI.           05 071 08596 00: UNIQUE WELL ID
~Curve Information Block
DEPT.FT            0 000 00 00: Depth
CCL.                          : Casing Collar Locator
TT3.usec                      : CBL 3' Travel Time
AMP3.mV                       : CBL 3' Amplitude
GR.GAPI                       : Gamma Ray
~Parameter Information Block
~A  Depth       CCL         TT3         AMP3         GR     
# ...
   764.0000      0.0000    737.8046      8.2276    165.4091
   764.2500      0.0000    737.8625      8.3756    161.7909
   764.5000      0.0000    738.3689      8.4650    158.5348
   764.7500      0.0000    739.6611      8.4934    158.3973
   765.0000      0.0000    742.1787      8.4813    161.5143
   765.2500      0.0000    746.1949      8.4571    164.5117
   765.5000      0.0000    751.4055      8.4348    163.4734
   765.7500      0.0000    756.7535      8.4125    157.9748
   766.0000      0.0000    760.6767      8.3911    151.5128
   766.2500      0.0000    761.6467      8.3871    148.0672
   766.5000      0.0000    758.9719      8.4216    148.9490
   766.7500      0.0000    753.5156      8.4998    152.9201
   767.0000      0.0000    747.3583      8.6075    158.2891
   767.2500      0.0000    742.3254      8.7224    164.1661
   767.5000      0.0000    738.8198      8.8251    170.0106
   767.7500      0.0000    736.0827      8.9084    174.7979
   768.0000      0.0000    733.3795      8.9795    177.3056
   768.2500      0.0000    730.8297      9.0523    177.3146
   768.5000      0.0000    728.9824      9.1348    175.8252
   768.7500      0.0000    727.5723      9.2220    173.5319
   769.0000      0.0000    725.1393      9.2946    169.7881
   769.2500      0.0000    720.3980      9.3267    163.8183
   769.5000      0.0000    713.7851      9.3019    156.3351
   769.7500      0.0000    707.1927      9.2241    149.1699
   770.0000      0.0000    702.3125      9.1090    143.5181
   770.2500      0.0000    699.5622      8.9688    139.0400
   770.5000      0.0000    698.3497      8.8150    134.5670
   770.7500      0.0000    697.8345      8.6714    129.5034
   771.0000      0.0000    697.2421      8.5711    124.5659
   771.2500      0.0000    695.6730      8.5376    121.3046
   771.5000      0.0000    691.7791      8.5689    121.0138
   771.7500      0.0000    684.1361      8.6401    123.8741
   772.0000      0.0000    672.9687      8.7206    128.7773
   772.2500      0.0000    661.7587      8.7956    134.1287
   772.5000      0.0000    655.3456      8.8771    139.1790
   772.7500      0.0000    654.3231      8.9940    144.2836
   773.0000      0.0000    651.8419      9.1635    149.7616
   773.2500      0.0000    638.0523      9.3708    155.1435
   773.5000      0.0000    608.5762      9.5749    159.6641
   773.7500      0.0000    568.5346      9.7299    162.7618
   774.0000      0.0000    528.8890      9.8014    164.0607
   774.2500      0.0000    499.7820      9.7710    163.8386
   774.5000      0.0000    487.2429      9.6403    163.5149
   774.7500      0.0000    493.6849      9.4432    164.7690
   775.0000      0.0000    517.2867      9.2537    168.0106
   775.2500      0.0000    548.7816      9.1674    172.1350
   775.5000      0.0000    572.2526      9.2493    175.3636
   775.7500      0.0000    575.3759      9.4848    176.0092
   776.0000      0.0000    561.0869      9.7832    173.1808
   776.2500      0.0000    546.5204     10.0359    167.3727
   776.5000      0.0000    548.3777     10.1780    160.2092
   776.7500      0.0000    569.5754     10.2126    153.5195
   777.0000      0.0000    599.7950     10.1893    148.6749
   777.2500      0.0000    626.7213     10.1641    146.2866
   777.5000      0.0000    643.6126     10.1751    145.8952
   777.7500      0.0000    646.3102     10.2499    145.9019
   778.0000      0.0000    629.5626     10.4107    144.4850
   778.2500      0.0000    592.3979     10.6459    141.3001
   778.5000      0.0000    544.6959     10.8852    137.9282
   778.7500      0.0000    502.6338     11.0297    135.8842
   779.0000      0.0000    477.5129     11.0120    134.4686
   779.2500      0.0000    471.7218     10.8237    131.4742
   779.5000      0.0000    483.4160     10.4975    125.9184
   779.7500      0.0000    509.4468     10.0889    119.2594
   780.0000      0.0000    541.8394      9.6751    113.7590
   780.2500      0.0000    565.8816      9.3479    110.4041
   780.5000      0.0000    567.9454      9.1775    109.0198
   780.7500      0.0000    546.9244      9.1752    109.9813
   781.0000      0.0000    515.2843      9.2975    114.6416
   781.2500      0.0000    488.2305      9.4889    123.4236
   781.5000      0.0000    473.5408      9.7179    134.0941
   781.7500      0.0000    470.5747      9.9794    142.8454
   782.0000      0.0000    474.7330     10.2704    147.0015
   782.2500      0.0000    481.3957     10.5630    146.3122
   782.5000      0.0000    488.4923     10.7922    142.0407
   782.7500      0.0000    498.4279     10.8686    135.5295
   783.0000      0.0000    517.5251     10.7143    127.8027
   783.2500      0.0000    551.3220     10.3157    119.9586
   783.5000      0.0000    598.5656      9.7679    113.2246
   783.7500      0.0000    649.5831      9.2561    108.5924
   784.0000      0.0000    690.8271      8.9448    106.6424
   784.2500      0.0000    712.4175      8.8624    107.2137
   784.5000      0.0000    714.3692      8.9041    108.8758
   784.7500      2.0000    707.0670      8.9483    109.6532
   785.0000      2.0000    702.3475      8.9508    109.1066
   785.2500      0.0000    701.4938      8.9378    109.2441
   785.5000      0.0000    694.7234      8.9558    112.9168
   785.7500      0.0000    673.5596      9.0606    121.3968
   786.0000      0.0000    638.7648      9.3257    133.2882
   786.2500      0.0000    594.9858      9.7934    145.3669
   786.5000      0.0000    544.7953     10.3933    154.5462
   786.7500      0.0000    491.5340     10.9507    159.4615
   787.0000      0.0000    442.6174     11.3073    160.7351
   787.2500      0.0000    406.3365     11.4161    160.3878
   787.5000      0.0000    386.9200     11.3289    160.9380
   787.7500      0.0000    382.5699     11.1369    163.9602
   788.0000      0.0000    386.2837     10.9287    168.7866
   788.2500      0.0000    389.5015     10.7555    172.8611
   788.5000      0.0000    387.2848     10.6147    173.6205
   788.7500      0.0000    380.6022     10.4800    170.1629
   789.0000      0.0000    373.4300     10.3486    163.5846
   789.2500      0.0000    368.5482     10.2489    156.0820
   789.5000      0.0000    366.2443     10.2093    149.4974
   789.7500      0.0000    365.6959     10.2332    144.2824
   790.0000      0.0000    366.6447     10.2993    139.8914
   790.2500      0.0000    370.2500     10.3781    136.2581
   790.5000      0.0000    379.0151     10.4493    134.5712
   790.7500      0.0000    395.3479     10.4988    136.1614
   791.0000      0.0000    418.8790     10.5002    140.6552
   791.2500      0.0000    444.8498     10.4157    145.7061
   791.5000      0.0000    466.0883     10.2319    148.9664
   791.7500      0.0000    477.5417      9.9869    150.0740
   792.0000      0.0000    479.2623      9.7475    150.1972
   792.2500      0.0000    475.6281      9.5613    149.9603
   792.5000      0.0000    472.4319      9.4327    148.8741
   792.7500      0.0000    474.5389      9.3349    146.8799
   793.0000      0.0000    485.4565      9.2368    145.2113
   793.2500      0.0000    508.0663      9.1304    145.3400
   793.5000      0.0000    544.2514      9.0387    147.8824
   793.7500      0.0000    592.1761      8.9941    152.3784
   794.0000      0.0000    643.8275      9.0032    157.1447
   794.2500      0.0000    687.2614      9.0341    159.5563
   794.5000      0.0000    712.9145      9.0413    157.5500
   794.7500      0.0000    718.4928      8.9994    151.2206
   795.0000      0.0000    709.4361      8.9167    142.6805
   795.2500      0.0000    696.2433      8.8218    134.2508
   795.5000      0.0000    689.5173      8.7422    126.7374
   795.7500      0.0000    693.9221      8.6895    119.2089
   796.0000      0.0000    705.9570      8.6555    110.4657
   796.2500      0.0000    718.4694      8.6213    100.9589
   796.5000      0.0000    726.9103      8.5752     93.0352
   796.7500      0.0000    731.0787      8.5295     88.7330
   797.0000      0.0000    732.8213      8.5153     87.6249
   797.2500      0.0000    733.6626      8.5541     87.6682
