~Version Information
VERS.                      2.0: CWLS Log ASCII Standard - VERSION 2.0
WRAP.                       NO: One line per depth step
~Well Information Block
STRT.FT               491.0000: 
STOP.FT              1911.5000: 
STEP.FT                 0.2500: 
NULL.                -999.2500: 
COMP.          Pioneer Natural Resources: COMPANY
WELL.            Corazon 13-10: WELL
FLD.           Purgatoire River: FIELD
LOC.           2510' FSL & 439' FWL: LOCATION
PROV.                 Colorado: PROVINCE
CNTY.               Las Animas: COUNTRY
SRVC.                Patterson: SERVICE COMPANY
DATE.          Wed Nov 30 22:14:48 2005: LOG DATE
UWI.           05 071 08613 00: UNIQUE WELL ID
~Curve Information Block
DEPT.FT            0 000 00 00: Depth
SN.Ohm-m                      : IEL Short Normal
SP.mV                         : IEL Spontaneous Potential
DIR.Ohm-m                     : IEL Induction Resistivity
GR.GAPI                       : Gamma Ray
~Parameter Information Block
~A  Depth        SN          SP         DIR          GR     
# ...
   759.0000     11.6093      7.5780 100000.0000    112.7865
   759.2500     11.7581      7.6244 100000.0000    112.5495
   759.5000     11.9980      7.6485 100000.0000    112.5219
   759.7500     12.3972      7.6396 100000.0000    111.7550
   760.0000     12.8228      7.6043 100000.0000    108.0489
   760.2500     13.1283      7.5623 100000.0000    104.0419
   760.5000     13.3157      7.5306 100000.0000     97.5526
   760.7500     13.4733      7.5137 100000.0000     94.0757
   761.0000     13.7083      7.5058     60.1927     91.3740
   761.2500     14.0892      7.5006     21.9296     91.5587
   761.5000     14.5591      7.4989     14.1946     94.7887
   761.7500     14.9975      7.5075     11.2763     98.4050
   762.0000     15.3389      7.5347     10.0069    104.2677
   762.2500     15.5481      7.5856      9.4763    107.3716
   762.5000     15.5475      7.6590      9.3050    109.8786
   762.7500     15.2801      7.7478      9.3001    110.3062
   763.0000     14.8405      7.8386      9.3633    110.1507
   763.2500     14.4121      7.9101      9.4582    110.1489
   763.5000     14.0876      7.9356      9.5848    110.9298
   763.7500     13.8896      7.8949      9.7511    112.0769
   764.0000     13.8268      7.7890      9.9496    114.7039
   764.2500     13.8193      7.6445     10.1494    116.9715
   764.5000     13.7531      7.5004     10.3053    120.7803
   764.7500     13.6318      7.3873     10.3802    123.2245
   765.0000     13.5319      7.3162     10.3638    126.1031
   765.2500     13.4646      7.2830     10.2760    127.4224
   765.5000     13.3594      7.2773     10.1546    129.2556
   765.7500     13.1402      7.2865     10.0361    131.1121
   766.0000     12.8118      7.2947      9.9435    135.5380
   766.2500     12.4647      7.2820      9.8829    139.2163
   766.5000     12.1848      7.2280      9.8484    144.1672
   766.7500     12.0174      7.1178      9.8299    146.1458
   767.0000     11.9470      6.9492      9.8188    146.5666
   767.2500     11.8596      6.7351      9.8122    145.4353
   767.5000     11.6525      6.5007      9.8128    142.3102
   767.7500     11.3404      6.2739      9.8266    139.4034
   768.0000     10.9232      6.0768      9.8613    133.7097
   768.2500     10.3613      5.9225      9.9250    129.1643
   768.5000      9.8311      5.8140     10.0256    122.3001
   768.7500      9.7254      5.7427     10.1701    118.6882
   769.0000     10.2570      5.6879     10.3635    116.0716
   769.2500     11.2848      5.6216     10.6060    116.1914
   769.5000     12.5613      5.5210     10.8891    117.7307
   769.7500     13.8863      5.3773     11.1914    118.6133
   770.0000     15.0616      5.1976     11.4781    118.7224
   770.2500     15.9208      4.9964     11.7097    118.0144
   770.5000     16.3938      4.7887     11.8599    116.5168
   770.7500     16.5151      4.5889     11.9277    115.8298
   771.0000     16.3991      4.4112     11.9349    116.3035
   771.2500     16.1470      4.2656     11.9092    118.1466
   771.5000     15.7595      4.1499     11.8692    123.6092
   771.7500     15.2424      4.0476     11.8205    128.6554
   772.0000     14.7443      3.9382     11.7622    136.5163
   772.2500     14.3800      3.8120     11.6947    140.8735
   772.5000     14.0380      3.6778     11.6206    145.4488
   772.7500     13.6186      3.5581     11.5433    147.4076
   773.0000     13.2740      3.4758     11.4657    148.8812
   773.2500     13.1853      3.4433     11.3928    148.6344
   773.5000     13.2965      3.4574     11.3346    146.2515
   773.7500     13.4659      3.5027     11.3071    143.8795
   774.0000     13.6684      3.5606     11.3275    140.7664
   774.2500     13.8778      3.6199     11.4099    139.3975
   774.5000     14.0026      3.6818     11.5609    136.9613
   774.7500     14.0274      3.7531     11.7795    133.4239
   775.0000     14.0478      3.8333     12.0598    123.4673
   775.2500     14.1981      3.9095     12.3945    114.3124
   775.5000     14.6018      3.9646     12.7767    100.0494
   775.7500     15.3263      3.9901     13.1988     92.1537
   776.0000     16.3322      3.9897     13.6519     84.3327
   776.2500     17.5441      3.9717     14.1287     81.6155
   776.5000     18.9960      3.9404     14.6280     80.1927
   776.7500     20.6874      3.8953     15.1537     80.4554
   777.0000     22.3707      3.8343     15.7025     81.7957
   777.2500     23.7513      3.7580     16.2447     82.6751
   777.5000     24.7244      3.6729     16.7146     82.9816
   777.7500     25.3285      3.5915     17.0235     82.4063
   778.0000     25.7184      3.5280     17.0975     81.1993
   778.2500     26.0749      3.4911     16.9145     80.8819
   778.5000     26.3265      3.4791     16.5119     81.9005
   778.7500     26.1689      3.4808     15.9633     83.5810
   779.0000     25.3887      3.4837     15.3453     87.2040
   779.2500     23.9691      3.4810     14.7166     90.1636
   779.5000     22.0576      3.4752     14.1125     95.4766
   779.7500     19.9516      3.4746     13.5496     99.8887
   780.0000     17.9423      3.4847     13.0316    108.3138
   780.2500     16.1783      3.5029     12.5549    115.0189
   780.5000     14.6935      3.5206     12.1124    125.6418
   780.7500     13.5006      3.5270     11.6981    132.3719
   781.0000     12.6412      3.5101     11.3115    141.1454
   781.2500     12.1264      3.4581     10.9591    145.8379
   781.5000     11.8811      3.3627     10.6497    150.6658
   781.7500     11.7898      3.2233     10.3867    152.2235
   782.0000     11.7577      3.0431     10.1650    152.2987
   782.2500     11.7120      2.8168      9.9737    151.2879
   782.5000     11.5944      2.5197      9.8014    149.0565
   782.7500     11.4064      2.1195      9.6398    147.4444
   783.0000     11.2156      1.6142      9.4833    145.0855
   783.2500     11.1300      1.0673      9.3280    143.5403
   783.5000     11.2415      0.6023      9.1703    141.1358
   783.7500     11.4777      0.3492      9.0072    139.4585
   784.0000     11.5952      0.3753      8.8376    137.2778
   784.2500     11.4385      0.6490      8.6639    136.6914
   784.5000     11.0988      1.0622      8.4896    138.2464
   784.7500     10.7379      1.4918      8.3164    140.8399
   785.0000     10.3994      1.8553      8.1417    145.0689
   785.2500     10.0554      2.1262      7.9603    146.5257
   785.5000      9.7250      2.3167      7.7696    145.4785
   785.7500      9.5035      2.4486      7.5735    143.3843
   786.0000      9.4475      2.5350      7.3812    140.6396
   786.2500      9.4414      2.5781      7.2034    140.0437
   786.5000      9.3200      2.5800      7.0490    140.8480
   786.7500      9.1161      2.5542      6.9234    141.7042
   787.0000      8.9833      2.5264      6.8291    142.0863
   787.2500      8.9688      2.5236      6.7658    141.4833
   787.5000      9.0147      2.5614      6.7307    139.9831
   787.7500      9.0392      2.6400      6.7194    139.2782
   788.0000      8.9751      2.7470      6.7279    139.5033
   788.2500      8.8147      2.8632      6.7536    140.6749
   788.5000      8.6200      2.9710      6.7954    143.7271
   788.7500      8.4490      3.0643      6.8521    146.0569
   789.0000      8.2963      3.1541      6.9216    148.3661
   789.2500      8.1649      3.2599      7.0022    148.3723
   789.5000      8.1462      3.3937      7.0935    146.1953
   789.7500      8.3572      3.5499      7.1967    143.9834
   790.0000      8.8224      3.7092      7.3120    140.6331
   790.2500      9.4224      3.8512      7.4369    138.6201
   790.5000      9.9771      3.9635      7.5650    135.7742
   790.7500     10.3722      4.0430      7.6886    133.7815
   791.0000     10.5957      4.0916      7.8011    130.5762
   791.2500     10.7139      4.1115      7.8990    128.6003
   791.5000     10.7932      4.1045      7.9821    126.7274
   791.7500     10.8354      4.0746      8.0529    126.5294
   792.0000     10.8226      4.0312      8.1154    127.8135
   792.2500     10.7582      3.9887      8.1733    129.5297
