~Version Information
VERS.                      2.0: CWLS Log ASCII Standard - VERSION 2.0
WRAP.                       NO: One line per depth step
~Well Information Block
STRT.FT               525.0000: 
STOP.FT              2377.2500: 
STEP.FT                 0.2500: 
NULL.                -999.2500: 
COMP.          Pioneer Natural Resources: COMPANY
WELL.          Sparrowhawk 22-12: WELL
FLD.           Purgatoire River: FIELD
LOC.           2049' FNL & 2060' FWL--: LOCATION
CNTY.               Las Animas: COUNTY
SRVC.                Patterson: SERVICE COMPANY
DATE.          Thu Mar 23 10:52:44 2006: LOG DATE
UWI.           05 071 08484 00: UNIQUE WELL ID
STAT.                 Colorado: STATE
~Curve Information Block
DEPT.FT            0 000 00 00: Depth
SN.Ohm-m                      : IEL Short Normal
SP.mV                         : IEL Spontaneous Potential
DIR.Ohm-m                     : IEL Induction Resistivity
GR.GAPI                       : Gamma Ray
~Parameter Information Block
~A  Depth        SN          SP         DIR          GR     
# ...
  2334.0000     24.7971    124.5125     20.4849     96.2916
  2334.2500     25.8614    123.0497     20.9018     98.6623
  2334.5000     27.0581    121.4377     21.4494    100.4051
  2334.7500     28.3917    119.7527     22.1289     99.3285
  2335.0000     29.8465    118.0841     22.9277     94.7739
  2335.2500     31.3581    116.5266     23.8151     90.9455
  2335.5000     32.8023    115.1684     24.7377     85.9647
  2335.7500     34.0240    114.0817     25.6149     83.6584
  2336.0000     34.8961    113.3128     26.3486     81.5597
  2336.2500     35.3666    112.8773     26.8564     80.8271
  2336.5000     35.4636    112.7599     27.1172     80.7580
  2336.7500     35.2597    112.9178     27.1868     81.4872
  2337.0000     34.8304    113.2888     27.1623     83.2321
  2337.2500     34.2323    113.8006     27.1225     84.2438
  2337.5000     33.5083    114.3802     27.0951     85.0788
  2337.7500     32.7039    114.9612     27.0656     85.4034
  2338.0000     31.8769    115.4889     27.0135     85.9413
  2338.2500     31.0938    115.9222     26.9417     86.2286
  2338.5000     30.4229    116.2324     26.8840     86.1176
  2338.7500     29.9263    116.4016     26.8872     85.6114
  2339.0000     29.6495    116.4195     26.9876     84.4367
  2339.2500     29.6122    116.2818     27.1961     83.5146
  2339.5000     29.8063    115.9886     27.4993     81.9912
  2339.7500     30.2043    115.5447     27.8702     80.9642
  2340.0000     30.7681    114.9595     28.2769     79.8212
  2340.2500     31.4556    114.2475     28.6884     79.6460
  2340.5000     32.2265    113.4279     29.0801     80.4642
  2340.7500     33.0504    112.5245     29.4436     81.3787
  2341.0000     33.9098    111.5645     29.7905     81.9964
  2341.2500     34.7971    110.5772     30.1456     81.2360
  2341.5000     35.7090    109.5939     30.5343     78.3844
  2341.7500     36.6434    108.6464     30.9752     76.0876
  2342.0000     37.5937    107.7671     31.4798     73.3738
  2342.2500     38.5353    106.9882     32.0504     72.1584
  2342.5000     39.4106    106.3414     32.6695     70.3251
  2342.7500     40.1300    105.8570     33.2861     68.7086
  2343.0000     40.5959    105.5625     33.8150     66.2570
  2343.2500     40.7404    105.4803     34.1602     65.3005
  2343.5000     40.5502    105.6257     34.2554     65.3878
  2343.7500     40.0676    106.0039     34.0912     66.0738
  2344.0000     39.3687    106.6085     33.7106     66.5855
  2344.2500     38.5343    107.4192     33.1820     65.4995
  2344.5000     37.6281    108.4020     32.5761     59.8628
  2344.7500     36.6909    109.5104     31.9498     52.7814
  2345.0000     35.7478    110.6885     31.3325     37.9950
  2345.2500     34.8173    111.8758     30.7224     27.1671
  2345.5000     33.9181    113.0126     30.1013     13.3343
  2345.7500     33.0705    114.0461     29.4646      7.1073
  2346.0000     32.2974    114.9349     28.8402      2.1490
  2346.2500     31.6192    115.6523     28.2816      0.8109
  2346.5000     31.0432    116.1876     27.8443      0.1419
  2346.7500     30.5541    116.5459     27.5629      0.0359
  2347.0000     30.1203    116.7465     27.4413      0.0022
  2347.2500     29.7104    116.8210     27.4501   -999.2500
  2347.5000     29.3072    116.8100     27.5335   -999.2500
  2347.7500     28.9119    116.7598     27.6226   -999.2500
  2348.0000     28.5381    116.7179     27.6563   -999.2500
  2348.2500     28.2000    116.7287     27.5968   -999.2500
  2348.5000     27.9002    116.8289     27.4333   -999.2500
  2348.7500     27.6221    117.0447     27.1709   -999.2500
  2349.0000     27.3322    117.3895     26.8159   -999.2500
  2349.2500     26.9913    117.8645     26.3719   -999.2500
  2349.5000     26.5694    118.4596     25.8440   -999.2500
  2349.7500     26.0578    119.1563     25.2433   -999.2500
  2350.0000     25.4720    119.9303     24.5847   -999.2500
  2350.2500     24.8422    120.7538     23.8818   -999.2500
  2350.5000     24.2001    121.5983     23.1475   -999.2500
  2350.7500     23.5690    122.4358     22.4004   -999.2500
  2351.0000     22.9646    123.2402     21.6689   -999.2500
  2351.2500     22.3980    123.9884     20.9862   -999.2500
  2351.5000     21.8777    124.6609     20.3798   -999.2500
  2351.7500     21.4084    125.2430     19.8632   -999.2500
  2352.0000     20.9908    125.7250     19.4350   -999.2500
  2352.2500     20.6229    126.1020     19.0839   -999.2500
  2352.5000     20.3005    126.3738     18.7957   -999.2500
  2352.7500     20.0187    126.5439     18.5606   -999.2500
  2353.0000     19.7732    126.6177     18.3748   -999.2500
  2353.2500     19.5613    126.6018     18.2373   -999.2500
  2353.5000     19.3828    126.5029     18.1433   -999.2500
  2353.7500     19.2403    126.3273     18.0799   -999.2500
  2354.0000     19.1380    126.0816     18.0314   -999.2500
  2354.2500     19.0794    125.7725     17.9879   -999.2500
  2354.5000     19.0620    125.4070     17.9499   -999.2500
  2354.7500     19.0724    124.9920     17.9237   -999.2500
  2355.0000     19.0882    124.5336     17.9121   -999.2500
  2355.2500     19.0892    124.0362     17.9106   -999.2500
  2355.5000     19.0694    123.5017     17.9117   -999.2500
  2355.7500     19.0391    122.9295     17.9137   -999.2500
  2356.0000     19.0156    122.3170     17.9247   -999.2500
  2356.2500     19.0119    121.6612     17.9587   -999.2500
  2356.5000     19.0317    120.9607     18.0287   -999.2500
  2356.7500     19.0722    120.2181     18.1388   -999.2500
  2357.0000     19.1270    119.4419     18.2811   -999.2500
  2357.2500     19.1877    118.6483     18.4361   -999.2500
  2357.5000     19.2440    117.8616     18.5791   -999.2500
  2357.7500     19.2839    117.1127     18.6905   -999.2500
  2358.0000     19.2969    116.4365     18.7634   -999.2500
  2358.2500     19.2782    115.8675     18.8028   -999.2500
  2358.5000     19.2316    115.4341     18.8169   -999.2500
  2358.7500     19.1662    115.1539     18.8096   -999.2500
  2359.0000     19.0893    115.0298     18.7784   -999.2500
  2359.2500     19.0032    115.0492     18.7165   -999.2500
  2359.5000     18.9073    115.1853     18.6190   -999.2500
  2359.7500     18.8009    115.4013     18.4868   -999.2500
  2360.0000     18.6827    115.6562     18.3285   -999.2500
  2360.2500     18.5503    115.9101     18.1565   -999.2500
  2360.5000     18.4017    116.1287     17.9819   -999.2500
  2360.7500     18.2417    116.2855     17.8084   -999.2500
  2361.0000     18.0860    116.3635     17.6320   -999.2500
  2361.2500     17.9564    116.3539     17.4452   -999.2500
  2361.5000     17.8707    116.2554     17.2461   -999.2500
  2361.7500     17.8380    116.0726     17.0450   -999.2500
  2362.0000     17.8595    115.8147     16.8615   -999.2500
  2362.2500     17.9301    115.4939     16.7132   -999.2500
  2362.5000     18.0354    115.1240     16.6057   -999.2500
  2362.7500     18.1545    114.7192     16.5312   -999.2500
  2363.0000     18.2697    114.2925     16.4769   -999.2500
  2363.2500     18.3788    113.8549     16.4362   -999.2500
  2363.5000     18.4980    113.4154     16.4152   -999.2500
  2363.7500     18.6548    112.9812     16.4318   -999.2500
  2364.0000     18.8728    112.5590     16.5107   -999.2500
  2364.2500     19.1553    112.1565     16.7069   -999.2500
  2364.5000     19.4746    111.7840     16.9717   -999.2500
  2364.7500     19.7771    111.4554     17.3298   -999.2500
  2365.0000     20.0039    111.1883     17.7466   -999.2500
  2365.2500     20.1151    111.0036     18.1596   -999.2500
  2365.5000     20.1061    110.9234     18.4934   -999.2500
  2365.7500     20.0077    110.9678     18.6884   -999.2500
  2366.0000     19.8685    111.1509     18.7230   -999.2500
  2366.2500     19.7260    111.4768     18.6215   -999.2500
  2366.5000     19.5833    111.9361     18.4483   -999.2500
  2366.7500     19.4096    112.5045     18.3125   -999.2500
  2367.0000     19.1661    113.1441     18.3908   -999.2500
  2367.2500     18.8396    113.8062     18.9615   -999.2500
