~Version Information
VERS.                      2.0: CWLS Log ASCII Standard - VERSION 2.0
WRAP.                       NO: One line per depth step
~Well Information Block
STRT.FT               -11.5000: 
STOP.FT              1961.7500: 
STEP.FT                 0.2500: 
NULL.                -999.2500: 
COMP.          Petrogulf Corporation: COMPANY
WELL.           State 16-23R-X: WELL
FLD.           Purgatorie River: FIELD
LOC.           2381' FSL & 2072' FWL--: LOCATION
PROV.                       CO: PROVINCE
CNTY.               Las Animas: COUNTRY
SRVC.          Patterson Wireline: SERVICE COMPANY
DATE.          Fri Sep 09 14:32:42 2005: LOG DATE
UWI.           05 071 08324 00: UNIQUE WELL ID
~Curve Information Block
DEPT.FT            0 000 00 00: Depth
CCL.                          : Casing Collar Locator
TT3.usec                      : CBL 3' Travel Time
AMP3.mV                       : CBL 3' Amplitude
GR.GAPI                       : Gamma Ray
~Parameter Information Block
~A  Depth       CCL         TT3         AMP3         GR     
# ...
   625.0000      0.0000    369.6433      5.4092     75.4937
   625.2500      0.0000    370.7738      5.6886     77.2712
   625.5000      0.0000    372.8007      5.9582     78.8971
   625.7500      0.0000    376.0089      6.2011     79.1101
   626.0000      0.0000    380.9237      6.3825     77.6020
   626.2500      0.0000    389.7317      6.4358     75.3805
   626.5000      0.0000    407.7328      6.2726     74.2825
   626.7500      0.0000    441.2060      5.8418     75.8865
   627.0000      0.0000    489.8986      5.1941     80.3888
   627.2500      0.0000    540.3317      4.4703     86.3864
   627.5000      0.0000    570.2868      3.8193     91.9277
   627.7500      0.0000    564.9855      3.3359     95.7254
   628.0000      0.0000    530.0874      3.0533     97.2661
   628.2500      0.0000    487.3799      2.9445     96.3816
   628.5000     -2.0000    457.9990      2.9293     93.4136
   628.7500      0.0000    449.9800      2.9179     89.5217
   629.0000      0.0000    458.0351      2.8631     86.1452
   629.2500      0.0000    470.9751      2.7643     84.1251
   629.5000      0.0000    479.8418      2.6367     83.5727
   629.7500      0.0000    481.6967      2.5014     84.1672
   630.0000      0.0000    477.2354      2.3985     85.1565
   630.2500      0.0000    467.0243      2.3747     85.6571
   630.5000      0.0000    451.9230      2.4390     85.5721
   630.7500      0.0000    435.2607      2.5443     85.7740
   631.0000      0.0000    421.4409      2.6255     86.8129
   631.2500      0.0000    412.5173      2.6505     87.9838
   631.5000      0.0000    407.2787      2.6313     88.2172
   631.7500      0.0000    403.0636      2.5996     87.2328
   632.0000      0.0000    397.7422      2.5799     85.2385
   632.2500      0.0000    390.7133      2.5773     82.2024
   632.5000      0.0000    382.9456      2.5810     78.1585
   632.7500      0.0000    376.0910      2.5763     73.8580
   633.0000      0.0000    371.2421      2.5545     70.5031
   633.2500      0.0000    368.4222      2.5097     68.8190
   633.5000      0.0000    367.0458      2.4343     68.4266
   633.7500      0.0000    366.6190      2.3297     68.1737
   634.0000      0.0000    367.0342      2.2232     67.3773
   634.2500      0.0000    368.4644      2.1679     66.6795
   634.5000      0.0000    371.0925      2.2109     67.2038
   634.7500      0.0000    375.0174      2.3566     69.1212
   635.0000      0.0000    380.5775      2.5614     71.6276
   635.2500      0.0000    388.5570      2.7665     74.0387
   635.5000      0.0000    399.4342      2.9335     76.1816
   635.7500      0.0000    412.5471      3.0601     77.8847
   636.0000      0.0000    427.2159      3.1818     78.8453
   636.2500      0.0000    444.9513      3.3627     79.1982
   636.5000      0.0000    468.6047      3.6569     79.7826
   636.7500      0.0000    497.9564      4.0629     81.4013
   637.0000      0.0000    528.0478      4.5192     83.7656
   637.2500      0.0000    554.2292      4.9430     85.4904
   637.5000      0.0000    577.4848      5.2646     85.2759
   637.7500      0.0000    602.2076      5.4368     82.9469
   638.0000      0.0000    630.0176      5.4401     79.4682
   638.2500      0.0000    657.8022      5.2954     76.3982
   638.5000      0.0000    680.2959      5.0642     75.2219
   638.7500      0.0000    693.0388      4.8246     76.5126
   639.0000      0.0000    694.5514      4.6413     79.3658
   639.2500      0.0000    687.4155      4.5454     81.9622
   639.5000      0.0000    677.0511      4.5304     83.0829
   639.7500      0.0000    668.8210      4.5640     83.1715
   640.0000      0.0000    665.3541      4.6088     83.7902
   640.2500      0.0000    665.2590      4.6339     86.0212
   640.5000      0.0000    664.5319      4.6168     89.5281
   640.7500      0.0000    660.5058      4.5508     92.9595
   641.0000      0.0000    654.2804      4.4549     94.8599
   641.2500      0.0000    648.4312      4.3600     94.4442
   641.5000      0.0000    643.3604      4.2792     92.1052
   641.7500      0.0000    637.4939      4.2023     89.1282
   642.0000      0.0000    630.5081      4.1244     86.5063
   642.2500      0.0000    624.3963      4.0682     84.1854
   642.5000      0.0000    621.3287      4.0733     81.7899
   642.7500      0.0000    622.0703      4.1679     79.8123
   643.0000      0.0000    626.6539      4.3478     79.5531
   643.2500      0.0000    634.8805      4.5743     81.7968
   643.5000      0.0000    645.4816      4.7888     85.7357
   643.7500      0.0000    656.0604      4.9420     89.1394
   644.0000      0.0000    664.9249      5.0226     89.5550
   644.2500      0.0000    672.9117      5.0636     85.8583
   644.5000      0.0000    683.1529      5.1157     79.1876
   644.7500      0.0000    698.4645      5.2088     72.4344
   645.0000      0.0000    717.6596      5.3351     68.6244
   645.2500      0.0000    734.0748      5.4649     69.3504
   645.5000      0.0000    739.4670      5.5738     74.1391
   645.7500      0.0000    730.9108      5.6546     80.8248
   646.0000      0.0000    713.4836      5.7103     86.4830
   646.2500      0.0000    695.7408      5.7444     88.5626
   646.5000      0.0000    683.3510      5.7610     85.9958
   646.7500      0.0000    677.0351      5.7727     79.7901
   647.0000      0.0000    674.7392      5.7991     72.5811
   647.2500      0.0000    674.3799      5.8549     67.1378
   647.5000      0.0000    675.1466      5.9347     64.5975
   647.7500      0.0000    677.6409      6.0131     63.8759
   648.0000      0.0000    683.1702      6.0657     63.0933
   648.2500      0.0000    692.0182      6.0922     61.5866
   648.5000      0.0000    701.6238      6.1168     60.1590
   648.7500      0.0000    707.1725      6.1672     59.6942
   649.0000      0.0000    705.4374      6.2553     60.3532
   649.2500      0.0000    698.2125      6.3774     62.0050
   649.5000      0.0000    691.4059      6.5272     64.5927
   649.7500      0.0000    691.0112      6.7021     67.8597
   650.0000      0.0000    699.8891      6.8980     71.2039
   650.2500      0.0000    716.8126      7.1026     74.0389
   650.5000      0.0000    737.2948      7.2986     76.2215
   650.7500      0.0000    756.0256      7.4722     78.1626
   651.0000      0.0000    769.7729      7.6175     80.4849
   651.2500      0.0000    778.5394      7.7298     83.3607
   651.5000      0.0000    783.6759      7.7959     86.2734
   651.7500      0.0000    784.4093      7.7935     88.7095
   652.0000      0.0000    776.7141      7.7047     90.9842
   652.2500      0.0000    757.4182      7.5303     93.9847
   652.5000      0.0000    729.7639      7.2955     97.9604
   652.7500      0.0000    702.8500      7.0438    101.7730
   653.0000      0.0000    684.4952      6.8212    103.6667
   653.2500      0.0000    675.8891      6.6593    102.9887
   653.5000      0.0000    673.2574      6.5636    101.0398
   653.7500      0.0000    672.5519      6.5149     99.9325
   654.0000      0.0000    671.8109      6.4816    100.5243
   654.2500      0.0000    670.7801      6.4387    101.6734
   654.5000      0.0000    670.0590      6.3826    101.6628
   654.7500      0.0000    671.0008      6.3317     99.9722
   655.0000      0.0000    675.7123      6.3161     97.3337
   655.2500      0.0000    685.7796      6.3610     94.6121
   655.5000      0.0000    699.8745      6.4718     92.3335
   655.7500      0.0000    713.1030      6.6257     90.9124
   656.0000      0.0000    720.7246      6.7779     90.4576
   656.2500      0.0000    723.7841      6.8817     90.3997
   656.5000      0.0000    729.6603      6.9116     89.8560
   656.7500      0.0000    745.0987      6.8691     88.4181
   657.0000      0.0000    768.7226      6.7784     86.4272
   657.2500      0.0000    790.8688      6.6786     84.5653
   657.5000      0.0000    799.9883      6.6125     83.3296
   657.7500      0.0000    789.4562      6.6041     82.9162
   658.0000      0.0000    760.9902      6.6423     83.5017
   658.2500      0.0000    723.7870      6.6895     85.4839
