~Version Information
VERS.                      2.0: CWLS Log ASCII Standard - VERSION 2.0
WRAP.                       NO: One line per depth step
~Well Information Block
STRT.FT               230.0000: 
STOP.FT               706.5000: 
STEP.FT                 0.1000: 
NULL.                -999.2500: 
COMP.          Pioneer Natural Resources: COMPANY
WELL.          Razor Clam 23-27: WELL
FLD.           Purgatoire River: FIELD
LOC.           2499' FSL & 2636' FWL: LOCATION
CNTY.               Las Animas: COUNTY
SRVC.                Patterson: SERVICE COMPANY
DATE.          Mon Feb 13 07:31:47 2006: LOG DATE
UWI.           05 071 08667 00: UNIQUE WELL ID
STAT.                 Colorado: STATE
~Curve Information Block
DEPT.FT            0 000 00 00: Depth
DCAL.in                       : CDL Caliper
RHOB.g/cc                     : CDL Bulk Density
RHOC.g/cc                     : CDL Density Correction
DPOR.pu                       : CDL Density Porosity
GR.GAPI                       : Gamma Ray
NPOR.pu                       : Neutron Porosity
~Parameter Information Block
~A  Depth       DCAL        RHOB        RHOC        DPOR         GR         NPOR    
# ...
   287.6000      8.0117      2.5406     -0.0217      6.6289     52.2749     20.5250
   287.7000      8.0117      2.5383      0.0082      6.7669     53.7205     20.2193
   287.8000      8.0123      2.5465      0.0424      6.2745     57.7147     19.2253
   287.9000      8.0123      2.5602      0.0448      5.4443     64.0393     18.3786
   288.0000      8.0128      2.5684      0.0381      4.9464     71.1879     18.4607
   288.1000      8.0128      2.5585      0.0544      5.5451     76.2560     19.2544
   288.2000      8.0128      2.5392     -0.0137      6.7153     77.7369     19.8738
   288.3000      8.0228      2.5293      0.0140      7.3177     77.8030     19.7741
   288.4000      8.0228      2.5239      0.0387      7.6409     78.6072     19.2689
   288.5000      8.0118      2.5171      0.0077      8.0531     78.3841     19.2528
   288.6000      8.0118      2.5163      0.0085      8.1039     74.2139     19.9693
   288.7000      8.0118      2.5174      0.0435      8.0349     68.3192     21.0690
   288.8000      8.0091      2.5093     -0.0299      8.5245     65.3220     22.0125
   288.9000      8.0091      2.4989     -0.0555      9.1562     66.7181     22.0380
   289.0000      8.0081      2.4975     -0.0051      9.2425     69.7605     21.5673
   289.1000      8.0081      2.5002      0.0045      9.0806     71.6627     21.8204
   289.2000      8.0081      2.5023      0.0056      8.9503     71.5305     22.5638
   289.3000      8.0054      2.5060      0.0211      8.7260     67.0687     22.6923
   289.4000      8.0054      2.5104      0.0131      8.4601     60.4058     22.2342
   289.5000      7.9966      2.5172     -0.0046      8.0481     57.7318     21.8392
   289.6000      7.9966      2.5265      0.0500      7.4827     59.5041     21.7139
   289.7000      7.9966      2.5350      0.0509      6.9709     63.0074     21.8224
   289.8000      7.9930      2.5436      0.0688      6.4506     67.9021     22.2184
   289.9000      7.9930      2.5484      0.0903      6.1596     69.3300     22.8331
   290.0000      7.9891      2.5495      0.0678      6.0890     64.3764     23.3245
   290.1000      7.9891      2.5571      0.0929      5.6311     60.0382     23.6606
   290.2000      7.9891      2.5671      0.1183      5.0270     60.8862     24.3032
   290.3000      7.9847      2.5687      0.0865      4.9281     64.9531     25.7516
   290.4000      7.9847      2.5648      0.0904      5.1617     70.7087     27.6457
   290.5000      7.9794      2.5631      0.0724      5.2639     74.7781     28.5348
   290.6000      7.9794      2.5615      0.1472      5.3618     74.9719     28.0259
   290.7000      7.9794      2.5487      0.1024      6.1378     74.8713     27.3506
   290.8000      7.9795      2.5290      0.0613      7.3352     76.5856     26.9936
   290.9000      7.9795      2.5239      0.0649      7.6431     77.9066     26.6363
   291.0000      7.9806      2.5394      0.1124      6.7043     80.5028     26.2626
   291.1000      7.9806      2.5628      0.0486      5.2828     86.9464     26.0964
   291.2000      7.9806      2.5849      0.0946      3.9468     92.7682     26.1946
   291.3000      7.9788      2.6028      0.0976      2.8598     94.5307     26.1155
   291.4000      7.9788      2.6112      0.1884      2.3501     96.5950     25.6715
   291.5000      7.9770      2.5985      0.1494      3.1242    101.3068     25.3373
   291.6000      7.9770      2.5649      0.1250      5.1567    104.8185     25.4254
   291.7000      7.9770      2.5287      0.0623      7.3533    107.4134     25.6380
   291.8000      7.9896      2.5061      0.0795      8.7189    111.6673     25.6586
   291.9000      7.9896      2.5055      0.0504      8.7588    118.2823     25.6302
   292.0000      7.9949      2.5244      0.0966      7.6138    128.7860     25.7320
   292.1000      7.9949      2.5459      0.0927      6.3075    134.8288     26.0219
   292.2000      7.9949      2.5585      0.0634      5.5468    128.6408     26.3816
   292.3000      8.0108      2.5655      0.1100      5.1196    117.2054     26.6690
   292.4000      8.0108      2.5729      0.1037      4.6714    111.6988     27.1460
   292.5000      8.0153      2.5787      0.1303      4.3234    115.9806     28.0301
   292.6000      8.0153      2.5776      0.0993      4.3850    123.4243     29.0848
   292.7000      8.0153      2.5753      0.1002      4.5243    129.3806     29.8558
   292.8000      8.0154      2.5755      0.1275      4.5153    134.5520     29.9908
   292.9000      8.0154      2.5656      0.1202      5.1123    132.5392     29.3233
   293.0000      8.0153      2.5388      0.0553      6.7393    120.9720     28.0370
   293.1000      8.0153      2.5082      0.0407      8.5962    114.0474     27.0993
   293.2000      8.0153      2.4907      0.0363      9.6553    120.9106     27.0928
   293.3000      8.0111      2.4895      0.0439      9.7281    133.2169     27.2854
   293.4000      8.0111      2.4906      0.0564      9.6609    140.3306     26.9155
   293.5000      8.0125      2.4833      0.0456     10.1059    139.1989     26.4792
   293.6000      8.0125      2.4747      0.0428     10.6244    135.0289     26.6632
   293.7000      8.0125      2.4770      0.0335     10.4876    131.8222     27.1673
   293.8000      8.0121      2.4906      0.0697      9.6633    128.6120     27.3976
   293.9000      8.0121      2.5077      0.0783      8.6255    128.6389     27.3135
   294.0000      8.0126      2.5210      0.1184      7.8179    133.5985     26.9670
   294.1000      8.0126      2.5276      0.0997      7.4178    137.7115     26.2796
   294.2000      8.0126      2.5331      0.1372      7.0839    137.7171     25.5461
   294.3000      8.0095      2.5413      0.1352      6.5872    136.3113     25.1037
   294.4000      8.0095      2.5517      0.1087      5.9553    139.6427     24.8798
   294.5000      8.0179      2.5603      0.1541      5.4344    150.3533     24.7916
   294.6000      8.0179      2.5523      0.1497      5.9190    160.4485     24.8906
   294.7000      8.0179      2.5211      0.0734      7.8144    161.7495     24.7289
   294.8000      8.0265      2.4859     -0.0240      9.9438    153.9698     23.9925
   294.9000      8.0265      2.4631      0.0257     11.3269    142.5195     23.3706
   295.0000      8.0286      2.4460      0.0259     12.3621    137.5329     23.7469
   295.1000      8.0286      2.4383     -0.0047     12.8328    142.6400     25.1138
   295.2000      8.0286      2.4507      0.0367     12.0765    149.3021     26.5821
   295.3000      8.0298      2.4682      0.0555     11.0190    152.2502     27.4020
   295.4000      8.0298      2.4746      0.0131     10.6291    155.5547     27.8640
   295.5000      8.0266      2.4830      0.0296     10.1197    157.7966     28.5360
   295.6000      8.0266      2.5067      0.0416      8.6819    153.0608     29.4128
   295.7000      8.0266      2.5293      0.1068      7.3175    141.4358     30.2584
   295.8000      8.0261      2.5305      0.0575      7.2449    131.8988     30.7769
   295.9000      8.0261      2.5178      0.0609      8.0104    131.5428     30.9645
   296.0000      8.0276      2.5095      0.0696      8.5160    134.8062     31.1298
   296.1000      8.0276      2.5131      0.0918      8.2991    132.7702     31.4053
   296.2000      8.0276      2.5215      0.0628      7.7851    125.3344     31.6305
   296.3000      8.0260      2.5230      0.0405      7.6990    117.9691     31.3253
   296.4000      8.0260      2.5104      0.0617      8.4628    114.0709     30.4480
   296.5000      8.0280      2.4930      0.0230      9.5177    114.0305     29.7421
   296.6000      8.0280      2.4909      0.0222      9.6445    115.3284     29.4687
   296.7000      8.0280      2.5101     -0.0162      8.4791    113.9589     29.3351
   296.8000      8.0272      2.5391      0.0267      6.7234    111.6606     29.1600
   296.9000      8.0272      2.5579      0.0594      5.5848    112.4067     28.8736
   297.0000      8.0250      2.5511      0.0650      5.9925    115.5788     28.2829
   297.1000      8.0250      2.5223      0.0206      7.7388    119.7645     27.0900
