~Version Information
VERS.                      2.0: CWLS Log ASCII Standard - VERSION 2.0
WRAP.                       NO: One line per depth step
~Well Information Block
STRT.FT                 0.0000: 
STOP.FT              2473.5000: 
STEP.FT                 0.2500: 
NULL.                -999.2500: 
COMP.          Petrogulf Corporation: COMPANY
WELL.          Montoya 18-11V-B: WELL
FLD.           Purgatorie River: FIELD
LOC.           848' FNL & 619' FWL: LOCATION
PROV.                 Colorado: PROVINCE
CNTY.               Las Animas: COUNTRY
SRVC.                Patterson: SERVICE COMPANY
DATE.          Wed Nov 09 10:15:13 2005: LOG DATE
UWI.                          : UNIQUE WELL ID
~Curve Information Block
DEPT.FT            0 000 00 00: Depth
CCL.                          : Casing Collar Locator
TT3.usec                      : CBL 3' Travel Time
AMP3.mV                       : CBL 3' Amplitude
GR.GAPI                       : Gamma Ray
~Parameter Information Block
~A  Depth       CCL         TT3         AMP3         GR     
# ...
  1641.5000      0.0000    688.8144      6.6876     63.9129
  1641.7500      0.0000    688.5294      6.6817     65.0351
  1642.0000      0.0000    701.1599      6.7886     65.7428
  1642.2500      0.0000    717.8298      6.9706     67.7058
  1642.5000      0.0000    725.4366      7.1600     71.6943
  1642.7500      0.0000    721.7837      7.2834     76.7423
  1643.0000      0.0000    714.8093      7.3148     81.1451
  1643.2500      0.0000    714.1692      7.2950     84.1379
  1643.5000      0.0000    722.3416      7.2795     86.3574
  1643.7500      0.0000    732.7594      7.2845     88.8040
  1644.0000      0.0000    739.2347      7.2847     91.7915
  1644.2500      0.0000    741.8002      7.2630     95.0006
  1644.5000      0.0000    742.8870      7.2359     98.1651
  1644.7500      0.0000    743.6663      7.2224    101.4347
  1645.0000      0.0000    744.2311      7.2159    105.2430
  1645.2500      0.0000    744.5948      7.1767    109.8481
  1645.5000      0.0000    744.7305      7.0633    114.7416
  1645.7500      0.0000    744.0245      6.8842    118.5051
  1646.0000      0.0000    741.4351      6.6874    119.7370
  1646.2500      0.0000    737.3219      6.5122    118.5033
  1646.5000      0.0000    734.2942      6.3656    116.6658
  1646.7500      0.0000    733.5970      6.2384    116.3562
  1647.0000      0.0000    733.3602      6.1372    118.0356
  1647.2500      0.0000    732.7212      6.0891    120.2318
  1647.5000      0.0000    731.3710      6.1119    121.2348
  1647.7500      0.0000    725.7701      6.1881    120.8932
  1648.0000      0.0000    712.4261      6.2471    120.5458
  1648.2500      0.0000    692.0195      6.1628    121.3627
  1648.5000      0.0000    669.6429      5.8627    123.1852
  1648.7500      0.0000    654.0162      5.5126    124.9825
  1649.0000      0.0000    651.4615      5.3911    125.9427
  1649.2500      0.0000    660.6177      5.4670    125.9665
  1649.5000      0.0000    678.5134      5.4769    125.5120
  1649.7500      0.0000    702.1314      5.3841    125.2167
  1650.0000      0.0000    721.5643      5.2952    125.6407
  1650.2500     -2.0000    729.2767      5.1972    127.2741
  1650.5000      0.0000    729.5526      5.0427    130.5947
  1650.7500      2.0000    727.9627      4.8522    135.7576
  1651.0000      0.0000    730.1218      4.6686    141.9494
  1651.2500      0.0000    745.4828      4.5290    147.1908
  1651.5000      0.0000    769.7338      4.4883    149.1761
  1651.7500      0.0000    782.2078      4.5444    146.6370
  1652.0000      0.0000    771.3221      4.5302    140.1599
  1652.2500      0.0000    743.2112      4.2908    131.9442
  1652.5000      0.0000    713.8051      3.8993    124.6725
  1652.7500      0.0000    699.9684      3.5150    120.0839
  1653.0000      0.0000    705.7648      3.2138    118.1676
  1653.2500      0.0000    719.5709      3.0069    117.6073
  1653.5000      0.0000    728.0449      2.8675    116.9417
  1653.7500      0.0000    727.2838      2.7470    115.4380
  1654.0000      0.0000    720.8346      2.6238    113.4395
  1654.2500      0.0000    711.9894      2.5332    112.2549
  1654.5000      0.0000    701.9664      2.5297    113.3526
  1654.7500      0.0000    694.0469      2.6163    117.2092
  1655.0000      0.0000    692.0334      2.7314    122.9148
  1655.2500      0.0000    693.4176      2.8267    128.9128
  1655.5000      0.0000    691.2496      2.9123    133.9043
  1655.7500      0.0000    684.5255      3.0061    136.9146
  1656.0000      0.0000    681.6151      3.1002    137.0153
  1656.2500      0.0000    692.0009      3.1790    133.8835
  1656.5000      0.0000    713.7413      3.2302    128.7323
  1656.7500      0.0000    732.1718      3.2580    124.0209
  1657.0000      0.0000    737.4459      3.2800    122.0143
  1657.2500      0.0000    735.3642      3.2931    123.7594
  1657.5000      0.0000    735.5659      3.2820    129.0729
  1657.7500      0.0000    742.3833      3.2658    136.5941
  1658.0000      0.0000    756.9715      3.2758    143.7147
  1658.2500      0.0000    775.2867      3.3068    147.3538
  1658.5000      0.0000    785.5802      3.3425    145.8398
  1658.7500      0.0000    777.7306      3.3998    140.5394
  1659.0000      0.0000    756.3151      3.5191    135.3961
  1659.2500      0.0000    737.2443      3.7236    134.1368
  1659.5000      0.0000    729.5366      3.9914    137.4610
  1659.7500      0.0000    727.8614      4.2656    142.9341
  1660.0000      0.0000    723.5440      4.5048    147.4999
  1660.2500      0.0000    714.8042      4.7272    149.8769
  1660.5000      0.0000    705.0078      4.9804    150.9525
  1660.7500      0.0000    697.1955      5.2606    152.5387
  1661.0000      0.0000    692.2509      5.5008    155.6360
  1661.2500      0.0000    686.3982      5.6377    159.4537
  1661.5000      0.0000    670.7138      5.6438    162.0135
  1661.7500      0.0000    641.4254      5.5221    161.5934
  1662.0000      0.0000    609.1511      5.3023    157.7740
  1662.2500      0.0000    590.0094      5.0255    151.6835
  1662.5000      0.0000    591.4767      4.7503    145.3505
  1662.7500      0.0000    614.5112      4.5419    140.3759
  1663.0000      0.0000    657.9601      4.4098    137.1978
  1663.2500      0.0000    708.4189      4.3101    135.6082
  1663.5000      0.0000    739.9791      4.2125    135.3651
  1663.7500      0.0000    735.0260      4.1230    135.9102
  1664.0000      0.0000    698.0792      4.0598    135.9800
  1664.2500      0.0000    653.0432      4.0235    134.2286
  1664.5000      0.0000    627.7220      3.9937    130.2922
  1664.7500      0.0000    629.9190      3.9533    124.8055
  1665.0000      0.0000    643.3372      3.8937    118.4997
  1665.2500      0.0000    650.7794      3.8110    111.9911
  1665.5000      0.0000    649.8968      3.7138    106.5596
  1665.7500      0.0000    647.9897      3.6196    104.2781
  1666.0000      0.0000    651.3279      3.5511    106.5987
  1666.2500      0.0000    661.1339      3.5361    112.7629
  1666.5000      0.0000    676.8295      3.5756    119.8963
  1666.7500      0.0000    696.6377      3.6272    124.7613
  1667.0000      0.0000    715.3000      3.6495    125.5311
  1667.2500      0.0000    727.5282      3.6395    122.2500
  1667.5000      0.0000    732.9787      3.6131    116.0598
  1667.7500      0.0000    735.2887      3.5852    108.3310
  1668.0000      0.0000    738.7193      3.5670    100.5093
  1668.2500      0.0000    745.8273      3.5596     94.1068
  1668.5000      0.0000    755.1257      3.5610     90.1575
  1668.7500      0.0000    761.2079      3.5942     88.6056
  1669.0000      0.0000    758.9535      3.7014     88.2576
  1669.2500      0.0000    747.6774      3.8939     87.2898
  1669.5000      0.0000    731.3704      4.1436     84.1990
  1669.7500      0.0000    716.3870      4.4214     78.8959
  1670.0000      0.0000    709.8741      4.7165     72.9321
  1670.2500      0.0000    718.3303      5.0252     68.2456
  1670.5000      0.0000    743.2930      5.3332     65.6575
  1670.7500      0.0000    775.8060      5.5783     64.7768
  1671.0000      0.0000    800.8998      5.6532     65.1551
  1671.2500      0.0000    810.7982      5.5233     67.1165
  1671.5000      0.0000    808.5397      5.2806     71.4933
  1671.7500      0.0000    801.1936      5.0214     78.9023
  1672.0000      0.0000    793.4016      4.7652     89.1579
  1672.2500      0.0000    785.7885      4.5117    100.7964
  1672.5000      0.0000    778.1521      4.2767    111.1867
  1672.7500      0.0000    767.3965      4.0709    117.8491
  1673.0000      0.0000    745.4225      3.9012    120.0222
  1673.2500      0.0000    713.2711      3.7876    118.8163
  1673.5000      0.0000    688.7683      3.7507    116.1503
  1673.7500      0.0000    689.8785      3.7866    113.8577
  1674.0000      0.0000    718.9550      3.8677    113.1276
  1674.2500      0.0000    760.6559      3.9544    113.9945
  1674.5000      0.0000    792.2366      4.0065    115.4335
  1674.7500      0.0000    800.4621      4.0240    116.1257
