~Version Information
VERS.                      2.0: CWLS Log ASCII Standard - VERSION 2.0
WRAP.                       NO: One line per depth step
~Well Information Block
STRT.FT                -8.7500: 
STOP.FT              1035.7500: 
STEP.FT                 0.2500: 
NULL.                -999.2500: 
COMP.          Pioneer Natural Resources: COMPANY
WELL.                Mac 22-36: WELL
FLD.           Purgatorie River: FIELD
LOC.           2545' FNL & 1398' FWL--: LOCATION
PROV.                       CO: PROVINCE
CNTY.               Las Animas: COUNTRY
SRVC.          Patterson Wireline: SERVICE COMPANY
DATE.          Thu Dec 08 13:20:05 2005: LOG DATE
UWI.           08 071 08594 00: UNIQUE WELL ID
~Curve Information Block
DEPT.FT            0 000 00 00: Depth
CCL.                          : Casing Collar Locator
TT3.usec                      : CBL 3' Travel Time
AMP3.mV                       : CBL 3' Amplitude
GR.GAPI                       : Gamma Ray
~Parameter Information Block
~A  Depth       CCL         TT3         AMP3         GR     
# ...
   661.2500      0.0000    484.4032     13.0627    147.7437
   661.5000      0.0000    508.7274     12.6255    144.6205
   661.7500      0.0000    542.5292     11.9857    141.6737
   662.0000      0.0000    582.1175     11.2511    140.0561
   662.2500      0.0000    627.7623     10.5566    139.1307
   662.5000      0.0000    684.4708      9.9888    137.7013
   662.7500      0.0000    750.7195      9.6093    136.3099
   663.0000      0.0000    810.7427      9.4903    137.2657
   663.2500      0.0000    846.3196      9.6522    141.6300
   663.5000      0.0000    854.6327     10.0074    146.9100
   663.7500     -2.0000    848.4368     10.4250    148.9847
   664.0000      0.0000    841.8104     10.8218    146.2596
   664.2500      0.0000    840.9532     11.1748    140.9035
   664.5000      0.0000    844.5293     11.4883    136.0664
   664.7500      0.0000    846.9916     11.7714    132.9885
   665.0000      0.0000    842.4876     12.0128    131.1326
   665.2500      0.0000    828.3890     12.1800    130.1755
   665.5000      0.0000    806.2806     12.2746    130.7380
   665.7500      0.0000    780.6633     12.3645    132.9446
   666.0000      0.0000    756.7490     12.5176    135.2595
   666.2500      0.0000    738.4281     12.7213    135.6960
   666.5000      0.0000    727.4609     12.8963    134.0365
   666.7500      0.0000    723.8546     12.9727    132.0964
   667.0000      0.0000    726.3030     12.9398    131.6900
   667.2500      0.0000    732.2850     12.8417    132.8450
   667.5000      0.0000    738.8824     12.7454    134.2414
   667.7500      0.0000    744.1135     12.7148    135.0179
   668.0000      0.0000    747.6292     12.7916    135.6954
   668.2500      0.0000    750.3796     12.9766    137.2022
   668.5000      0.0000    753.8027     13.2207    139.3097
   668.7500      0.0000    758.9097     13.4493    140.6203
   669.0000      0.0000    765.2976     13.6071    140.2521
   669.2500      0.0000    770.7766     13.6810    139.0335
   669.5000      0.0000    772.4803     13.6864    138.7145
   669.7500      0.0000    768.9423     13.6446    140.0837
   670.0000      0.0000    761.2462     13.5718    142.1012
   670.2500      0.0000    752.2460     13.4814    142.9858
   670.5000      0.0000    744.8089     13.3915    141.9424
   670.7500      0.0000    740.4161     13.3275    139.5256
   671.0000      0.0000    738.3254     13.3105    136.5455
   671.2500      0.0000    735.2881     13.3382    133.1160
   671.5000      0.0000    726.0657     13.3832    128.8385
   671.7500      0.0000    704.9478     13.4132    123.6382
   672.0000      0.0000    668.5185     13.4112    118.3415
   672.2500      0.0000    619.1023     13.3767    114.3791
   672.5000      0.0000    565.8052     13.3172    112.7363
   672.7500      0.0000    520.2440     13.2395    113.2829
   673.0000      0.0000    489.8971     13.1517    115.2023
   673.2500      0.0000    475.8371     13.0688    117.6391
   673.5000      0.0000    476.7584     13.0114    119.7113
   673.7500      0.0000    493.8554     12.9922    120.5409
   674.0000      0.0000    530.3514     13.0049    120.0336
   674.2500      0.0000    585.3899     13.0316    119.2807
   674.5000      0.0000    648.9729     13.0570    119.4051
   674.7500      0.0000    705.0620     13.0744    120.1637
   675.0000      0.0000    740.8704     13.0812    120.2553
   675.2500      0.0000    753.0472     13.0711    118.7504
   675.5000      0.0000    745.9036     13.0321    115.6832
   675.7500      0.0000    726.5095     12.9589    111.5171
   676.0000      0.0000    702.8453     12.8689    106.5399
   676.2500      0.0000    684.3514     12.7991    100.7110
   676.5000      0.0000    679.5430     12.7775     93.9605
   676.7500      0.0000    690.2303     12.8019     86.8064
   677.0000      0.0000    709.5052     12.8514     80.6692
   677.2500      0.0000    727.2598     12.9094     77.4129
   677.5000      0.0000    736.7488     12.9708     78.5484
   677.7500      0.0000    735.1602     13.0348     84.5223
   678.0000      0.0000    720.6663     13.0993     94.0614
   678.2500      0.0000    692.9997     13.1578    104.0147
   678.5000      0.0000    658.3294     13.1983    110.5816
   678.7500      0.0000    630.5918     13.2057    111.6025
   679.0000      0.0000    623.0264     13.1652    108.0274
   679.2500      0.0000    637.0036     13.0646    103.0690
   679.5000      0.0000    661.3994     12.8985     99.6446
   679.7500      0.0000    683.1558     12.6737     98.3783
   680.0000      0.0000    696.3826     12.4127     97.8501
   680.2500      0.0000    702.4055     12.1524     96.4946
   680.5000      0.0000    705.0565     11.9328     93.9687
   680.7500      0.0000    707.4017     11.7769     90.6436
   681.0000      0.0000    710.9633     11.6798     86.3893
   681.2500      0.0000    715.8423     11.6110     80.7164
   681.5000      0.0000    721.0233     11.5240     74.0921
   681.7500      0.0000    724.8744     11.3699     68.1558
   682.0000      0.0000    725.8121     11.1201     64.2211
   682.2500      0.0000    723.1373     10.7879     62.1843
   682.5000      0.0000    717.7021     10.4226     61.1019
   682.7500      0.0000    711.5765     10.0737     60.2202
   683.0000      0.0000    706.6762      9.7627     59.2843
   683.2500      0.0000    703.6867      9.4914     58.3225
   683.5000      0.0000    702.1970      9.2667     57.3308
   683.7500      0.0000    701.4711      9.1057     56.0712
   684.0000      0.0000    700.9716      9.0180     54.2056
   684.2500      0.0000    700.4570      8.9986     51.6321
   684.5000      0.0000    699.9223      9.0426     48.5872
   684.7500      0.0000    699.5398      9.1614     45.4775
   685.0000      0.0000    699.6403      9.3778     42.7662
   685.2500      0.0000    700.7570      9.7083     40.8530
   685.5000      0.0000    703.5958     10.1495     39.7644
   685.7500      0.0000    708.6240     10.6789     39.0486
   686.0000      0.0000    715.2355     11.2688     38.2034
   686.2500      0.0000    721.3524     11.9046     37.1401
   686.5000      0.0000    724.5067     12.5853     36.1192
   686.7500      0.0000    723.9586     13.3022     35.3736
   687.0000      0.0000    721.7190     14.0150     34.9709
   687.2500      0.0000    721.1083     14.6563     35.0250
   687.5000      0.0000    723.9550     15.1618     35.8146
   687.7500      0.0000    728.7587     15.5035     37.4912
   688.0000      0.0000    730.5580     15.7055     39.8195
   688.2500      0.0000    721.7510     15.8323     42.5619
   688.5000      0.0000    694.7177     15.9493     46.1398
   688.7500      0.0000    647.7078     16.0736     51.5466
   689.0000      0.0000    589.9147     16.1579     59.4122
   689.2500      0.0000    537.4933     16.1352     69.1833
   689.5000      0.0000    501.7135     15.9846     79.2029
   689.7500      0.0000    482.4219     15.7474     87.5481
   690.0000      0.0000    473.4093     15.4818     92.9602
   690.2500      0.0000    470.4173     15.2187     95.3582
   690.5000      0.0000    472.3150     14.9715     95.7049
   690.7500      0.0000    478.4208     14.7719     95.0153
   691.0000      0.0000    487.6149     14.6689     93.1599
   691.2500      0.0000    498.1861     14.6888     89.0691
   691.5000      0.0000    507.6253     14.8045     82.5630
   691.7500      0.0000    515.8353     14.9519     75.4797
   692.0000      0.0000    529.2417     15.0772     70.4028
   692.2500      0.0000    556.7413     15.1744     68.5121
   692.5000      0.0000    599.0159     15.2792     69.1125
   692.7500      0.0000    645.5021     15.4259     70.8607
   693.0000      0.0000    683.7072     15.6041     72.7988
   693.2500      0.0000    708.5528     15.7603     74.4068
   693.5000      0.0000    722.1970     15.8371     75.3383
   693.7500      0.0000    728.4224     15.8124     75.1856
   694.0000      0.0000    729.3062     15.7068     73.3885
   694.2500      0.0000    725.9272     15.5689     69.7165
   694.5000      0.0000    720.0195     15.4558     64.9721
