~Version Information
VERS.                      2.0: CWLS Log ASCII Standard - VERSION 2.0
WRAP.                       NO: One line per depth step
~Well Information Block
STRT.FT               525.0000: 
STOP.FT              2377.2000: 
STEP.FT                 0.1000: 
NULL.                -999.2500: 
COMP.          Pioneer Natural Resources: COMPANY
WELL.          Sparrowhawk 22-12: WELL
FLD.           Purgatoire River: FIELD
LOC.           2049' FNL & 2060' FWL--: LOCATION
CNTY.               Las Animas: COUNTY
SRVC.                Patterson: SERVICE COMPANY
DATE.          Thu Mar 23 13:24:48 2006: LOG DATE
UWI.           05 071 08484 00: UNIQUE WELL ID
STAT.                 Colorado: STATE
~Curve Information Block
DEPT.FT            0 000 00 00: Depth
DCAL.in                       : CDL Caliper
RHOB.g/cc                     : CDL Bulk Density
RHOC.g/cc                     : CDL Density Correction
DPOR.pu                       : CDL Density Porosity
NPOR.pu                       : Neutron Porosity
GR.GAPI                       : Gamma Ray
~Parameter Information Block
~A  Depth       DCAL        RHOB        RHOC        DPOR        NPOR         GR     
# ...
  1129.8000      8.2129      2.6422      0.0948      0.4735     28.2444    116.6305
  1129.9000      8.2129      2.6170      0.0093      2.0015     28.1485    117.1625
  1130.0000      8.2095      2.6084      0.0805      2.5237     28.2416    120.1870
  1130.1000      8.2095      2.5989      0.0446      3.0952     28.3768    123.0474
  1130.2000      8.2095      2.5687      0.0228      4.9290     28.4162    123.5616
  1130.3000      8.2040      2.5228     -0.0433      7.7119     28.0481    121.7895
  1130.4000      8.2040      2.4940     -0.0426      9.4564     27.0526    119.2971
  1130.5000      8.1971      2.4916      0.0220      9.6028     25.8320    120.2865
  1130.6000      8.1971      2.4800      0.0446     10.3025     24.9892    126.1473
  1130.7000      8.1971      2.4333      0.0559     13.1336     24.7187    133.6995
  1130.8000      8.1937      2.3601      0.0287     17.5687     24.5743    137.8513
  1130.9000      8.1937      2.2854     -0.0066     22.0973     24.2600    133.3318
  1131.0000      8.1937      2.2316     -0.0507     25.3569     23.8762    123.0202
  1131.1000      8.1937      2.2037      0.0092     27.0491     23.2540    115.2658
  1131.2000      8.1937      2.1941      0.0058     27.6325     22.4037    111.7344
  1131.3000      8.1986      2.2046      0.0294     26.9911     21.5580    110.0063
  1131.4000      8.1986      2.2399      0.0823     24.8547     20.7516    109.6493
  1131.5000      8.2135      2.2952      0.0873     21.5056     20.1963    111.0054
  1131.6000      8.2135      2.3590      0.1939     17.6345     20.1302    114.5655
  1131.7000      8.2135      2.4273      0.1735     13.4997     20.5026    120.0784
  1131.8000      8.2372      2.5043      0.2235      8.8298     21.1787    126.4667
  1131.9000      8.2372      2.5635      0.2355      5.2423     21.9217    131.1231
  1132.0000      8.2631      2.5621      0.1247      5.3285     22.5722    130.6448
  1132.1000      8.2631      2.4926      0.0924      9.5367     23.0727    127.4976
  1132.2000      8.2631      2.3779     -0.0008     16.4939     23.1397    124.5850
  1132.3000      8.2805      2.2451     -0.0271     24.5375     22.6019    121.7159
  1132.4000      8.2805      2.1124     -0.0880     32.5831     21.7310    118.6043
  1132.5000      8.2867      1.9856     -0.1039     40.2686     20.7745    110.4177
  1132.6000      8.2867      1.8615     -0.1201     47.7863     19.3464     97.7443
  1132.7000      8.2867      1.7299     -0.1306     55.7609     17.1372     90.7558
  1132.8000      8.2859      1.5849     -0.1590     64.5525     14.7459     94.0009
  1132.9000      8.2859      1.4483     -0.1565     72.8305     12.8879     98.1593
  1133.0000      8.2838      1.3762     -0.1755     77.2007     11.4774     92.9778
  1133.1000      8.2838      1.4125      0.0185     75.0022     10.2850     83.0155
  1133.2000      8.2838      1.5324      0.2693     67.7337      9.6325     80.0959
  1133.3000      8.2856      1.6787      0.3367     58.8653      9.6609     85.9927
  1133.4000      8.2856      1.8314      0.3676     49.6148     10.0203     93.3094
  1133.5000      8.2758      1.9929      0.4169     39.8251     10.5640     99.2532
  1133.6000      8.2758      2.1490      0.4362     30.3647     11.1880    103.9259
  1133.7000      8.2758      2.2801      0.4359     22.4196     11.7990    104.2513
  1133.8000      8.2423      2.3802      0.4140     16.3497     12.7830    102.8827
  1133.9000      8.2423      2.4481      0.4208     12.2383     14.5613    105.9107
  1134.0000      8.2137      2.4778      0.3742     10.4358     16.7961    111.5254
  1134.1000      8.2137      2.4765      0.2166     10.5161     18.7029    115.3262
  1134.2000      8.2137      2.4634      0.1899     11.3071     19.9975    118.0079
  1134.3000      8.2034      2.4466      0.1461     12.3297     20.9897    123.1269
  1134.4000      8.2034      2.4302      0.1191     13.3241     21.8765    131.9229
  1134.5000      8.2062      2.4209      0.0675     13.8849     22.4812    140.9537
  1134.6000      8.2062      2.4076      0.0953     14.6939     22.7634    145.1161
  1134.7000      8.2062      2.3669      0.0630     17.1563     22.8882    142.5950
  1134.8000      8.2144      2.3041     -0.0081     20.9663     22.7999    136.6225
  1134.9000      8.2144      2.2547     -0.0722     23.9571     22.2257    132.4959
  1135.0000      8.2187      2.2404      0.0171     24.8262     21.2353    133.7746
  1135.1000      8.2187      2.2476      0.0157     24.3896     20.4248    138.9868
  1135.2000      8.2187      2.2577      0.0135     23.7775     20.3040    142.3930
  1135.3000      8.2185      2.2700      0.0379     23.0324     20.7029    142.1671
  1135.4000      8.2185      2.2941      0.0316     21.5714     21.0718    143.4030
  1135.5000      8.2163      2.3266      0.1197     19.5972     21.0778    148.9590
  1135.6000      8.2163      2.3483      0.1822     18.2830     20.6686    152.8932
  1135.7000      8.2163      2.3548      0.2189     17.8928     19.9825    151.2690
  1135.8000      8.2121      2.3656      0.2146     17.2392     19.4667    146.8514
  1135.9000      8.2121      2.3937      0.2815     15.5310     19.3317    140.3560
  1136.0000      8.2063      2.4242      0.3146     13.6844     19.4337    132.4142
  1136.1000      8.2063      2.4381      0.2305     12.8435     19.7732    126.9222
  1136.2000      8.2063      2.4309      0.2221     13.2801     20.1782    126.5674
  1136.3000      8.2019      2.4025      0.1974     14.9984     20.3786    130.0436
  1136.4000      8.2019      2.3597      0.1595     17.5943     20.3371    132.7575
  1136.5000      8.2006      2.3201      0.1505     19.9922     19.9865    130.5034
  1136.6000      8.2006      2.2981      0.1951     21.3253     19.4590    124.3934
  1136.7000      8.2006      2.2773      0.2615     22.5893     19.1109    120.9154
  1136.8000      8.1995      2.2321      0.1800     25.3280     18.7026    122.9337
  1136.9000      8.1995      2.1830      0.0896     28.3046     17.7366    124.6251
  1137.0000      8.1990      2.1623      0.1391     29.5562     16.5163    123.4797
  1137.1000      8.1990      2.1637      0.0982     29.4719     15.6024    122.5841
  1137.2000      8.1990      2.1794      0.0676     28.5234     15.0739    119.4171
  1137.3000      8.2006      2.2171      0.0820     26.2353     14.6398    113.6676
  1137.4000      8.2006      2.2669      0.1431     23.2197     14.2308    112.2315
  1137.5000      8.2080      2.3075      0.1528     20.7547     14.1171    115.8634
  1137.6000      8.2080      2.3447      0.1201     18.5058     14.3010    119.3419
  1137.7000      8.2080      2.4007      0.1555     15.1108     14.6278    122.6006
  1137.8000      8.2129      2.4705      0.1692     10.8791     15.3335    124.9214
  1137.9000      8.2129      2.5257      0.1637      7.5307     16.5920    121.3635
  1138.0000      8.2036      2.5515      0.1262      5.9726     18.0859    115.3574
  1138.1000      8.2036      2.5570      0.0477      5.6375     19.5040    113.5278
  1138.2000      8.2036      2.5559      0.0399      5.7006     20.6290    116.5420
  1138.3000      8.1944      2.5518      0.0237      5.9520     21.3442    121.1092
  1138.4000      8.1944      2.5479      0.0561      6.1862     21.9386    122.7109
  1138.5000      8.1916      2.5491      0.0025      6.1149     22.7345    120.5104
  1138.6000      8.1916      2.5578      0.0624      5.5877     23.6344    119.2850
  1138.7000      8.1916      2.5755      0.0607      4.5161     24.3174    121.4647
  1138.8000      8.1915      2.6010      0.0324      2.9690     24.7426    123.7632
  1138.9000      8.1915      2.6204      0.1114      1.7940     25.0333    124.5685
  1139.0000      8.1923      2.6229      0.0739      1.6409     25.1885    125.4930
  1139.1000      8.1923      2.6260      0.0458      1.4530     25.2770    124.0855
  1139.2000      8.1923      2.6414      0.1002      0.5218     25.3213    119.2700
  1139.3000      8.1936      2.6481      0.0945      0.1153     25.1036    114.5686
