~Version Information
VERS.                      2.0: CWLS Log ASCII Standard - VERSION 2.0
WRAP.                       NO: One line per depth step
~Well Information Block
STRT.FT               -10.2500: 
STOP.FT              2437.2500: 
STEP.FT                 0.2500: 
NULL.                -999.2500: 
COMP.          Pioneer Natural Resources: COMPANY
WELL.          Hellzonfire 32-31: WELL
FLD.           Purgatorie River: FIELD
LOC.           1993' FNL & 2265' FEL------: LOCATION
STAT.                       CO: State
CNTY.               Las Animas: COUNTY
CTRY. USA : Country
SECT. 31 : Section
TOWN. 32S : Township
RANG. 66W : Range
SRVC.          Patterson Wireline: SERVICE COMPANY
DATE.          Thu Sep 08 11:10:17 2005: LOG DATE
API.           05 071 08483 00: UNIQUE WELL ID
~Curve Information Block
DEPT.FT            0 000 00 00: Depth
CCL.                          : Casing Collar Locator
TT3.usec                      : CBL 3' Travel Time
AMP3.mV                       : CBL 3' Amplitude
GR.GAPI                       : Gamma Ray
~Parameter Information Block
~A  Depth       CCL         TT3         AMP3         GR     
# ...
  1932.7500      0.0000    730.5480      5.0253     38.7371
  1933.0000      0.0000    716.1143      5.0973     41.2937
  1933.2500      0.0000    697.7460      5.1565     45.3688
  1933.5000      0.0000    679.7016      5.2034     49.5059
  1933.7500      0.0000    666.3311      5.2495     52.1821
  1934.0000      0.0000    659.1312      5.3223     52.3974
  1934.2500      0.0000    657.2518      5.4713     50.2916
  1934.5000      0.0000    659.8290      5.7442     47.2468
  1934.7500      0.0000    667.1199      6.1477     45.2279
  1935.0000      0.0000    679.4904      6.6439     45.7012
  1935.2500      0.0000    695.4280      7.1915     48.7603
  1935.5000      0.0000    711.1217      7.7780     53.2420
  1935.7500      0.0000    722.9055      8.4048     57.9233
  1936.0000      0.0000    730.2331      9.0554     62.4834
  1936.2500      0.0000    735.7097      9.6892     67.1105
  1936.5000      0.0000    742.1862     10.2583     71.6278
  1936.7500      0.0000    749.8051     10.7190     75.5477
  1937.0000      0.0000    755.3369     11.0383     78.8068
  1937.2500      0.0000    754.2552     11.2022     82.0891
  1937.5000      0.0000    744.1858     11.2229     86.3747
  1937.7500      0.0000    727.1216     11.1296     92.0285
  1938.0000      0.0000    708.6384     10.9543     98.1757
  1938.2500      0.0000    694.9193     10.7241    103.3522
  1938.5000      0.0000    689.5991     10.4635    106.9754
  1938.7500      0.0000    691.7632     10.1965    109.6676
  1939.0000      0.0000    696.3125      9.9503    111.9325
  1939.2500      0.0000    697.5809      9.7509    113.2261
  1939.5000      0.0000    694.0016      9.6052    112.7945
  1939.7500      0.0000    689.0399      9.4812    110.9152
  1940.0000      0.0000    687.2735      9.3171    108.8620
  1940.2500      0.0000    690.4258      9.0596    107.7885
  1940.5000      0.0000    697.5016      8.6970    107.7123
  1940.7500      0.0000    707.1599      8.2581    107.3383
  1941.0000      0.0000    718.4305      7.7879    105.0811
  1941.2500      0.0000    729.6392      7.3292    100.7402
  1941.5000      0.0000    738.4616      6.9191     96.0767
  1941.7500      0.0000    743.7316      6.5889     93.4918
  1942.0000      0.0000    746.2282      6.3539     94.2834
  1942.2500      0.0000    747.0797      6.1989     98.1386
  1942.5000      0.0000    746.1075      6.0781    103.7442
  1942.7500      0.0000    742.1296      5.9395    109.5465
  1943.0000      0.0000    733.8267      5.7578    114.0632
  1943.2500      0.0000    719.8462      5.5442    116.0394
  1943.5000      0.0000    699.6204      5.3281    114.9309
  1943.7500      0.0000    675.9105      5.1364    111.4206
  1944.0000      0.0000    656.0729      4.9879    107.2145
  1944.2500      0.0000    648.4036      4.8953    104.2412
  1944.5000      0.0000    655.4475      4.8615    103.9371
  1944.7500      0.0000    671.0593      4.8758    106.6568
  1945.0000      0.0000    684.9101      4.9156    111.3375
  1945.2500      0.0000    690.0452      4.9557    116.1749
  1945.5000      0.0000    686.3500      4.9805    120.1111
  1945.7500      0.0000    678.1895      4.9914    123.4584
  1946.0000      0.0000    670.1440      5.0010    126.8292
  1946.2500      0.0000    664.5904      5.0213    129.7216
  1946.5000      0.0000    661.7216      5.0549    130.4705
  1946.7500      0.0000    660.7126      5.0989    127.6936
  1947.0000      0.0000    660.7152      5.1508    121.8182
  1947.2500      0.0000    661.2405      5.2087    115.0296
  1947.5000      0.0000    662.1487      5.2662    109.6099
  1947.7500      0.0000    663.6078      5.3134    106.6002
  1948.0000      0.0000    665.9301      5.3440    105.9680
  1948.2500      0.0000    668.8728      5.3600    107.2359
  1948.5000      0.0000    670.5570      5.3683    109.4561
  1948.7500      0.0000    667.3857      5.3747    111.2977
  1949.0000      0.0000    656.4042      5.3793    112.1124
  1949.2500      0.0000    638.6029      5.3769    112.7150
  1949.5000      0.0000    619.1385      5.3643    114.3692
  1949.7500      0.0000    603.4460      5.3474    117.0743
  1950.0000      0.0000    594.0242      5.3381    119.4986
  1950.2500      0.0000    591.5944      5.3450    120.8066
  1950.5000      0.0000    596.8307      5.3688    121.9197
  1950.7500      0.0000    608.0999      5.4059    124.3342
  1951.0000      0.0000    618.9088      5.4516    128.0201
  1951.2500      0.0000    621.1982      5.4991    131.1867
  1951.5000      0.0000    611.8624      5.5406    132.0712
  1951.7500      0.0000    594.5671      5.5701    130.4323
  1952.0000      0.0000    575.7172      5.5887    127.3454
  1952.2500      0.0000    560.4263      5.6004    124.0789
  1952.5000      0.0000    551.6988      5.5981    121.1729
  1952.7500      0.0000    550.7089      5.5531    118.3381
  1953.0000      0.0000    556.3287      5.4288    115.2304
  1953.2500      0.0000    565.4249      5.2171    112.1978
  1953.5000      0.0000    575.7280      4.9677    110.1737
  1953.7500      0.0000    588.6125      4.7667    110.0014
  1954.0000      0.0000    607.1198      4.6692    111.7071
  1954.2500      0.0000    630.8640      4.6594    113.9115
  1954.5000     -2.0000    655.1036      4.6822    114.1687
  1954.7500      2.0000    675.1400      4.7006    110.8097
  1955.0000      0.0000    689.3657      4.7105    104.7133
  1955.2500      0.0000    697.9375      4.7168     98.7984
  1955.5000      0.0000    701.1101      4.7251     95.4669
  1955.7500      0.0000    699.8953      4.7596     94.5318
  1956.0000      0.0000    696.8472      4.8683     93.7016
  1956.2500      0.0000    694.8608      5.0898     91.0554
  1956.5000      0.0000    695.1907      5.4069     86.9294
  1956.7500      0.0000    696.9052      5.7394     83.5894
  1957.0000      0.0000    698.0225      5.9961     83.2741
  1957.2500      0.0000    696.9623      6.1316     86.3355
  1957.5000      0.0000    693.3578      6.1551     90.8620
  1957.7500      0.0000    688.0464      6.1046     93.9921
  1958.0000      0.0000    682.0741      6.0261     93.8387
  1958.2500      0.0000    675.3934      5.9653     90.5176
  1958.5000      0.0000    667.1116      5.9568     85.7121
  1958.7500      0.0000    657.3227      6.0087     81.4094
  1959.0000      0.0000    647.8657      6.1015     78.8250
  1959.2500      0.0000    640.7863      6.2056     78.1307
  1959.5000      0.0000    636.6917      6.2997     78.8738
  1959.7500      0.0000    634.8514      6.3737     80.5336
  1960.0000      0.0000    634.2524      6.4216     82.7748
  1960.2500      0.0000    634.2773      6.4391     85.5028
  1960.5000      0.0000    634.8853      6.4281     88.9276
  1960.7500      0.0000    636.7131      6.4027     93.3210
  1961.0000      0.0000    640.9805      6.3876     98.2915
  1961.2500      0.0000    648.5245      6.4060    102.3527
  1961.5000      0.0000    657.8182      6.4662    103.5578
  1961.7500      0.0000    663.2160      6.5591    100.8636
  1962.0000      0.0000    655.9980      6.6657     94.9028
  1962.2500      0.0000    629.8264      6.7652     87.2892
  1962.5000      0.0000    588.4202      6.8398     79.3250
  1962.7500      0.0000    548.2646      6.8781     71.7066
  1963.0000      0.0000    530.0369      6.8770     65.1907
  1963.2500      0.0000    543.4395      6.8419     60.7594
  1963.5000      0.0000    579.9929      6.7826     58.8285
  1963.7500      0.0000    621.1785      6.7092     58.6754
  1964.0000      0.0000    652.4734      6.6286     58.9452
  1964.2500      0.0000    669.7990      6.5403     58.7350
  1964.5000      0.0000    676.5791      6.4354     58.2057
  1964.7500      0.0000    678.2309      6.3055     58.1796
  1965.0000      0.0000    678.6617      6.1546     59.1773
  1965.2500      0.0000    679.2039      6.0042     60.8533
  1965.5000      0.0000    679.3580      5.8829     62.5173
  1965.7500      0.0000    678.2014      5.8110     64.3233
  1966.0000      0.0000    675.3969      5.7891     67.7697
