~Version Information
VERS.                      2.0: CWLS Log ASCII Standard - VERSION 2.0
WRAP.                       NO: One line per depth step
~Well Information Block
STRT.FT               335.0000: 
STOP.FT              1013.5000: 
STEP.FT                 0.1000: 
NULL.                -999.2500: 
COMP.          Pioneer Natural Resources: COMPANY
WELL.             Giggle 21-22: WELL
FLD.           Purgatoire River: FIELD
LOC.           950' FNL & 2094' FWL: LOCATION
CNTY.               Las Animas: COUNTY
SRVC.                Patterson: SERVICE COMPANY
DATE.          Thu Apr 13 09:31:38 2006: LOG DATE
UWI.           05 071 08726 00: UNIQUE WELL ID
STAT.                 Colorado: STATE
~Curve Information Block
DEPT.FT            0 000 00 00: Depth
DCAL.in                       : CDL Caliper
RHOB.g/cc                     : CDL Bulk Density
RHOC.g/cc                     : CDL Density Correction
DPOR.pu                       : CDL Density Porosity
GR.GAPI                       : Gamma Ray
NPOR.pu                       : Neutron Porosity
~Parameter Information Block
~A  Depth       DCAL        RHOB        RHOC        DPOR         GR         NPOR    
# ...
   863.0000      7.9123      2.6295      0.0993      1.2409     93.0649     23.4027
   863.1000      7.9123      2.5811      0.0331      4.1746     94.7078     22.9675
   863.2000      7.9123      2.5570      0.0317      5.6365     99.2487     22.4961
   863.3000      7.9334      2.5623      0.1086      5.3180    102.9996     22.2762
   863.4000      7.9334      2.5786      0.1228      4.3252    105.7146     22.3950
   863.5000      7.9659      2.5931      0.1122      3.4502    107.7302     22.5191
   863.6000      7.9659      2.6037      0.0906      2.8044    107.6973     22.3475
   863.7000      7.9659      2.6078      0.1487      2.5554    105.3092     21.9736
   863.8000      7.9633      2.5939      0.1411      3.4005    100.7308     21.8637
   863.9000      7.9633      2.5591      0.0736      5.5117     96.7056     22.3981
   864.0000      7.9720      2.5283      0.0063      7.3764     97.3936     23.1737
   864.1000      7.9720      2.5281      0.0344      7.3885    100.3258     23.3553
   864.2000      7.9720      2.5383      0.0917      6.7690     99.2485     23.2327
   864.3000      7.9921      2.5282      0.0303      7.3789     95.4094     23.3610
   864.4000      7.9921      2.5149     -0.0324      8.1869     96.1072     23.4902
   864.5000      7.9938      2.5234      0.0209      7.6707    100.9509     23.5090
   864.6000      7.9938      2.5467      0.0581      6.2580    103.8033     23.5120
   864.7000      7.9938      2.5695      0.0663      4.8777    104.5513     23.6624
   864.8000      7.9889      2.5805      0.0626      4.2118    105.6538     24.2742
   864.9000      7.9889      2.5652      0.0804      5.1423    107.0394     24.8680
   865.0000      7.9716      2.5246      0.0110      7.5991    110.6000     24.4188
   865.1000      7.9716      2.4867     -0.0252      9.8979    117.6142     23.0420
   865.2000      7.9716      2.4703      0.0172     10.8926    123.9722     21.7740
   865.3000      7.9983      2.4614      0.0686     11.4279    125.9116     21.2084
   865.4000      7.9983      2.4446      0.0071     12.4504    124.2735     21.0906
   865.5000      7.9980      2.4223      0.0315     13.8029    119.5893     20.7091
   865.6000      7.9980      2.3988      0.0008     15.2267    114.3703     19.6343
   865.7000      7.9980      2.3791     -0.0549     16.4210    112.8097     18.2433
   865.8000      8.0218      2.3558      0.0372     17.8306    117.0675     17.2626
   865.9000      8.0218      2.3005      0.0294     21.1842    123.9157     16.8900
   866.0000      8.0141      2.2046     -0.0215     26.9960    122.4157     16.5975
   866.1000      8.0141      2.0872      0.0054     34.1077    109.9616     15.6929
   866.2000      8.0141      1.9610     -0.0101     41.7578     98.7713     14.0587
   866.3000      8.0236      1.8272     -0.0618     49.8685     93.9741     12.2403
   866.4000      8.0236      1.6913     -0.0420     58.1039     87.5128     10.6983
   866.5000      8.0333      1.5574     -0.0897     66.2196     77.1238      9.7070
   866.6000      8.0333      1.4265     -0.1198     74.1503     69.7198      9.3209
   866.7000      8.0333      1.3150     -0.1858     80.9119     69.6715      9.2775
   866.8000      8.0381      1.2536     -0.1143     84.6295     72.7821      9.3996
   866.9000      8.0381      1.2535     -0.0479     84.6385     72.7665      9.7539
   867.0000      8.0365      1.2904      0.0534     82.4026     70.4251     10.2561
   867.1000      8.0365      1.3269      0.1259     80.1851     69.9459     10.6211
   867.2000      8.0365      1.3413      0.1471     79.3154     69.8633     10.8326
   867.3000      8.0349      1.3362      0.1640     79.6264     68.3002     10.9806
   867.4000      8.0349      1.3279      0.1466     80.1296     66.2964     10.9811
   867.5000      8.0335      1.3299      0.1153     80.0060     62.9039     10.8486
   867.6000      8.0335      1.3394      0.1164     79.4329     57.4991     10.8666
   867.7000      8.0335      1.3421      0.1069     79.2654     51.7899     11.0017
   867.8000      8.0326      1.3337      0.0909     79.7753     46.1205     10.8091
   867.9000      8.0326      1.3196      0.0965     80.6329     40.9385     10.2904
   868.0000      8.0171      1.3038      0.0958     81.5850     38.2311      9.9519
   868.1000      8.0171      1.2900      0.0859     82.4233     36.9196      9.9301
   868.2000      8.0171      1.2806      0.0916     82.9913     35.3514      9.8753
   868.3000      8.0189      1.2713      0.0885     83.5588     34.1651      9.7482
   868.4000      8.0189      1.2492      0.1142     84.8985     32.7883      9.8900
   868.5000      8.0485      1.2091      0.1057     87.3270     30.7712     10.2960
   868.6000      8.0485      1.1708      0.0000     89.6475     31.1097     10.5000
   868.7000      8.0485      1.1559      0.0622     90.5545     35.0177     10.2858
   868.8000      8.0456      1.1610      0.0447     90.2425     37.8952      9.9836
   868.9000      8.0456      1.1762      0.0542     89.3197     35.9069      9.7429
   869.0000      8.0860      1.1949      0.1342     88.1858     32.5307      9.4934
   869.1000      8.0860      1.2076      0.1383     87.4152     33.3346      9.4095
   869.2000      8.0860      1.2109      0.1210     87.2210     38.7001      9.5703
   869.3000      8.0985      1.2182      0.0686     86.7767     44.8972      9.6320
   869.4000      8.0985      1.2456      0.1130     85.1159     48.8331      9.3121
   869.5000      8.1115      1.2887      0.1817     82.5001     50.6403      9.0159
   869.6000      8.1115      1.3390      0.1543     79.4555     52.6188      9.2151
   869.7000      8.1115      1.4047      0.1312     75.4726     56.5646      9.9537
   869.8000      8.1137      1.5003      0.1114     69.6797     62.5059     11.1129
   869.9000      8.1137      1.6273      0.1652     61.9793     69.6308     12.4208
   870.0000      8.1141      1.7730      0.2045     53.1534     77.3412     13.7010
   870.1000      8.1141      1.9220      0.2740     44.1211     83.9879     15.0734
   870.2000      8.1141      2.0607      0.3234     35.7134     89.4828     16.5638
   870.3000      8.1097      2.1821      0.2937     28.3599     95.5875     18.3497
   870.4000      8.1097      2.2869      0.2756     22.0034    101.3857     20.3401
   870.5000      8.0562      2.3779      0.1762     16.4917    104.0146     21.8821
   870.6000      8.0562      2.4437      0.2071     12.5008    102.2155     23.0030
   870.7000      8.0562      2.4738      0.1152     10.6805     97.9984     24.1056
   870.8000      7.9972      2.4908      0.0929      9.6468     95.3409     25.0499
   870.9000      7.9972      2.5106      0.1540      8.4501     98.8159     25.7469
   871.0000      7.9921      2.5145      0.1584      8.2099    107.8638     26.2207
   871.1000      7.9921      2.4984      0.1057      9.1850    119.8996     26.1002
   871.2000      7.9921      2.4805      0.0669     10.2743    133.3892     25.4699
   871.3000      7.9839      2.4655      0.1071     11.1800    139.7099     24.9599
   871.4000      7.9839      2.4452      0.0897     12.4131    133.3105     24.8916
   871.5000      7.9816      2.4259      0.0635     13.5844    120.8942     25.2531
   871.6000      7.9816      2.4176      0.0692     14.0818    107.2646     25.3734
   871.7000      7.9816      2.4120      0.0482     14.4250     94.2885     24.7195
   871.8000      7.9809      2.4069      0.0557     14.7342     86.8925     23.9998
   871.9000      7.9809      2.4162      0.0495     14.1696     85.0398     23.9635
   872.0000      7.9790      2.4432      0.0696     12.5350     82.6609     24.4112
   872.1000      7.9790      2.4639      0.1557     11.2768     77.4691     24.9477
   872.2000      7.9790      2.4643      0.0934     11.2564     71.6669     25.0356
   872.3000      7.9782      2.4717      0.1147     10.8037     68.2566     24.2222
   872.4000      7.9782      2.5096      0.1446      8.5119     70.7070     23.1332
   872.5000      7.9804      2.5574      0.1633      5.6119     76.3344     22.4611
