~Version Information
VERS.                      2.0: CWLS Log ASCII Standard - VERSION 2.0
WRAP.                       NO: One line per depth step
~Well Information Block
STRT.FT               460.0000: 
STOP.FT              2824.0000: 
STEP.FT                 0.2500: 
NULL.                -999.2500: 
COMP.          Pioneer Natural Resources: COMPANY
WELL.           Dolzanie 34-12: WELL
FLD.           Purgatoire River: FIELD
LOC.           1001' FSL & 1750' FEL--: LOCATION
PROV.                 Colorado: PROVINCE
CNTY.               Las Animas: COUNTRY
SRVC.                Patterson: SERVICE COMPANY
DATE.          Wed Jul 20 07:51:58 2005: LOG DATE
UWI.           05 071 08439 00: UNIQUE WELL ID
~Curve Information Block
DEPT.FT            0 000 00 00: Depth
DIR.Ohm-m                     : IEL Induction Resistivity
SN.Ohm-m                      : IEL Short Normal
SP.mV                         : IEL Spontaneous Potential
GR.GAPI                       : Gamma Ray
~Parameter Information Block
~A  Depth       DIR          SN          SP          GR     
# ...
  1096.5000     14.2687   2000.0000   2000.0000    111.0305
  1096.7500     14.2435   2000.0000   2000.0000    117.6999
  1097.0000     14.1075   2000.0000   2000.0000    126.3865
  1097.2500     13.8605   2000.0000   2000.0000    130.7013
  1097.5000     13.5334   2000.0000   2000.0000    134.8806
  1097.7500     13.1780   2000.0000   2000.0000    136.5224
  1098.0000     12.8463   2000.0000   2000.0000    137.8757
  1098.2500     12.5734   2000.0000   2000.0000    137.9134
  1098.5000     12.3721   2000.0000   2000.0000    136.0054
  1098.7500     12.2369   2000.0000   2000.0000    133.4536
  1099.0000     12.1517   2000.0000   2000.0000    128.9772
  1099.2500     12.0970   2000.0000   2000.0000    126.5335
  1099.5000     12.0550   2000.0000   2000.0000    124.6337
  1099.7500     12.0145   2000.0000   2000.0000    124.5578
  1100.0000     11.9731   2000.0000   2000.0000    125.6646
  1100.2500     11.9368   2000.0000   2000.0000    126.7148
  1100.5000     11.9162   2000.0000   2000.0000    127.9394
  1100.7500     11.9219   2000.0000   2000.0000    128.2686
  1101.0000     11.9595   2000.0000   2000.0000    127.9322
  1101.2500     12.0272   2000.0000   2000.0000    127.1027
  1101.5000     12.1162   2000.0000   2000.0000    125.0521
  1101.7500     12.2151   2000.0000   2000.0000    123.5644
  1102.0000     12.3152   2000.0000   2000.0000    122.0897
  1102.2500     12.4142   2000.0000   2000.0000    121.7947
  1102.5000     12.5162   2000.0000   2000.0000    122.0576
  1102.7500     12.6283   2000.0000   2000.0000    122.5455
  1103.0000     12.7563   2000.0000   2000.0000    123.6431
  1103.2500     12.9018   2000.0000   2000.0000    124.3683
  1103.5000     13.0620   2000.0000   2000.0000    124.8280
  1103.7500     13.2312   2000.0000   2000.0000    124.7162
  1104.0000     13.4031   2000.0000   2000.0000    124.7302
  1104.2500     13.5723   2000.0000   2000.0000    125.2305
  1104.5000     13.7371   2000.0000   2000.0000    126.2372
  1104.7500     13.9019   2000.0000   2000.0000    126.3484
  1105.0000     14.0785   2000.0000   2000.0000    124.8853
  1105.2500     14.2865   2000.0000   2000.0000    123.0753
  1105.5000     14.5521   2000.0000   2000.0000    120.4531
  1105.7500     14.9068   2000.0000   2000.0000    119.4869
  1106.0000     15.3833   2000.0000   2000.0000    119.4213
  1106.2500     16.0075   2000.0000   2000.0000    119.7713
  1106.5000     16.7856   2000.0000   2000.0000    119.3659
  1106.7500     17.6979   2000.0000   2000.0000    117.5445
  1107.0000     18.7062   2000.0000   2000.0000    111.4940
  1107.2500     19.7765   2000.0000   2000.0000    105.4574
  1107.5000     20.9005   2000.0000   2000.0000     95.3034
  1107.7500     22.0976   2000.0000   2000.0000     89.2822
  1108.0000     23.3954   2000.0000   2000.0000     82.9752
  1108.2500     24.8058   2000.0000   2000.0000     80.4873
  1108.5000     26.3088   2000.0000   2000.0000     77.7985
  1108.7500     27.8510   2000.0000   2000.0000     75.7580
  1109.0000     29.3545   2000.0000   2000.0000     71.8847
  1109.2500     30.7391   2000.0000   2000.0000     69.2381
  1109.5000     31.9500   2000.0000   2000.0000     66.1349
  1109.7500     32.9785   2000.0000   2000.0000     64.7253
  1110.0000     33.8557   2000.0000   2000.0000     62.9871
  1110.2500     34.6235   2000.0000   2000.0000     61.7545
  1110.5000     35.3097   2000.0000   2000.0000     59.7877
  1110.7500     35.9258   2000.0000   2000.0000     58.5473
  1111.0000     36.4825   2000.0000   2000.0000     56.8236
  1111.2500     36.9969   2000.0000   2000.0000     55.6829
  1111.5000     37.4840   2000.0000   2000.0000     54.1064
  1111.7500     37.9379   2000.0000   2000.0000     53.4655
  1112.0000     38.3221   2000.0000   2000.0000     53.8021
  1112.2500     38.5799   2000.0000   2000.0000     55.1278
  1112.5000     38.6594   2000.0000   2000.0000     58.4994
  1112.7500     38.5376   2000.0000   2000.0000     61.0683
  1113.0000     38.2279   2000.0000   2000.0000     64.1404
  1113.2500     37.7689   2000.0000   2000.0000     65.3455
  1113.5000     37.2081   2000.0000   2000.0000     66.6144
  1113.7500     36.5901   2000.0000   2000.0000     67.9320
  1114.0000     35.9544   2000.0000   2000.0000     71.4011
  1114.2500     35.3332   2000.0000   2000.0000     74.4173
  1114.5000     34.7496   2000.0000   2000.0000     78.8269
  1114.7500     34.2205   2000.0000   2000.0000     81.2463
  1115.0000     33.7638   2000.0000   2000.0000     84.1406
  1115.2500     33.4067   2000.0000   2000.0000     85.7477
  1115.5000     33.1831   2000.0000   2000.0000     87.5406
  1115.7500     33.1212   2000.0000   2000.0000     88.0555
  1116.0000     33.2253   2000.0000   2000.0000     87.6244
  1116.2500     33.4651   2000.0000   2000.0000     86.7074
  1116.5000     33.7772   2000.0000   2000.0000     84.7280
  1116.7500     34.0806   2000.0000   2000.0000     82.9447
  1117.0000     34.3042   2000.0000   2000.0000     79.1224
  1117.2500     34.4137   2000.0000   2000.0000     75.7256
  1117.5000     34.4238   2000.0000   2000.0000     70.0468
  1117.7500     34.3799   2000.0000   2000.0000     66.6039
  1118.0000     34.3217   2000.0000   2000.0000     63.0649
  1118.2500     34.2537   2000.0000   2000.0000     62.1469
  1118.5000     34.1453   2000.0000   2000.0000     62.9986
  1118.7500     33.9530   2000.0000   2000.0000     64.7061
  1119.0000     33.6431   2000.0000   2000.0000     67.7952
  1119.2500     33.1978   2000.0000   2000.0000     69.5021
  1119.5000     32.6113   2000.0000   2000.0000     71.0182
  1119.7500     31.8858   2000.0000   2000.0000     71.4786
  1120.0000     31.0284   2000.0000   2000.0000     71.8378
  1120.2500     30.0439   2000.0000   2000.0000     72.0306
  1120.5000     28.9327   2000.0000   2000.0000     72.3573
  1120.7500     27.6983   2000.0000   2000.0000     72.8126
  1121.0000     26.3628   2000.0000   2000.0000     74.8677
  1121.2500     24.9722   2000.0000   2000.0000     77.8484
  1121.5000     23.5856   2000.0000   2000.0000     84.8141
  1121.7500     22.2549   2000.0000   2000.0000     90.1950
  1122.0000     21.0105   2000.0000   2000.0000     97.1449
  1122.2500     19.8592   2000.0000   2000.0000    100.1879
  1122.5000     18.7926   2000.0000   2000.0000    102.3494
  1122.7500     17.8009   2000.0000   2000.0000    102.8072
  1123.0000     16.8823   2000.0000   2000.0000    103.3946
  1123.2500     16.0445   2000.0000   2000.0000    104.3718
  1123.5000     15.2976   2000.0000   2000.0000    107.3134
  1123.7500     14.6471   2000.0000   2000.0000    110.2603
  1124.0000     14.0909   2000.0000   2000.0000    115.4987
  1124.2500     13.6213   2000.0000   2000.0000    118.8779
  1124.5000     13.2275   2000.0000   2000.0000    122.7833
  1124.7500     12.8957   2000.0000   2000.0000    124.3914
  1125.0000     12.6087   2000.0000   2000.0000    125.5711
  1125.2500     12.3486   2000.0000   2000.0000    125.8622
  1125.5000     12.1019   2000.0000   2000.0000    126.0099
  1125.7500     11.8640   2000.0000   2000.0000    126.0210
  1126.0000     11.6367   2000.0000   2000.0000    125.8952
  1126.2500     11.4221   2000.0000   2000.0000    125.6880
  1126.5000     11.2194   2000.0000   2000.0000    125.2129
  1126.7500     11.0266   2000.0000   2000.0000    124.8976
  1127.0000     10.8452   2000.0000   2000.0000    124.9166
  1127.2500     10.6810   2000.0000   2000.0000    125.5930
  1127.5000     10.5417   2000.0000   2000.0000    127.6841
  1127.7500     10.4321   2000.0000   2000.0000    129.3577
  1128.0000     10.3511   2000.0000   2000.0000    131.0948
  1128.2500     10.2926   2000.0000   2000.0000    131.2398
  1128.5000     10.2482   2000.0000   2000.0000    130.0441
  1128.7500     10.2106   2000.0000   2000.0000    128.9322
  1129.0000     10.1760   2000.0000   2000.0000    128.2266
  1129.2500     10.1442   2000.0000   2000.0000    128.9058
  1129.5000     10.1168   2000.0000   2000.0000    131.2165
  1129.7500     10.0957   2000.0000   2000.0000    132.7188
