~Version Information
VERS.                      2.0: CWLS Log ASCII Standard - VERSION 2.0
WRAP.                       NO: One line per depth step
~Well Information Block
STRT.FT               570.0000: 
STOP.FT              1954.5000: 
STEP.FT                 0.1000: 
NULL.                -999.2500: 
COMP.          Petrogulf Corporation: COMPANY
WELL.            Montoya 7-14R: WELL
FLD.           Purgatorie River: FIELD
LOC.           628' FSL & 454' FWL: LOCATION
PROV.                 Colorado: PROVINCE
CNTY.               Las Animas: COUNTRY
SRVC.                Patterson: SERVICE COMPANY
DATE.          Mon Oct 10 07:31:15 2005: LOG DATE
UWI.                          : UNIQUE WELL ID
~Curve Information Block
DEPT.FT            0 000 00 00: Depth
DCAL.in                       : CDL Caliper
RHOB.g/cc                     : CDL Bulk Density
RHOC.g/cc                     : CDL Density Correction
DPOR.pu                       : CDL Density Porosity
GR.GAPI                       : Gamma Ray
NPOR.pu                       : Neutron Porosity
~Parameter Information Block
~A  Depth       DCAL        RHOB        RHOC        DPOR         GR         NPOR    
# ...
  1760.4000      7.9470      2.4192      0.0787     13.9884    141.6626     27.0470
  1760.5000      7.9250      2.4149      0.0395     14.2479    138.8133     26.9300
  1760.6000      7.9250      2.4283      0.0578     13.4385    139.4483     27.1933
  1760.7000      7.9250      2.4462      0.0782     12.3500    143.4992     27.3331
  1760.8000      7.9049      2.4698      0.0762     10.9209    145.8837     26.8163
  1760.9000      7.9049      2.5082      0.0995      8.5954    145.3276     25.9949
  1761.0000      7.8449      2.5474      0.1689      6.2190    142.3558     25.4403
  1761.1000      7.8449      2.5662      0.1494      5.0769    140.0043     25.3114
  1761.2000      7.8449      2.5673      0.1175      5.0102    140.6010     25.5149
  1761.3000      7.8293      2.5611      0.1203      5.3856    141.3038     25.8377
  1761.4000      7.8293      2.5515      0.0898      5.9669    139.6027     25.9741
  1761.5000      7.8210      2.5349      0.1251      6.9739    137.2428     25.7012
  1761.6000      7.8210      2.5021      0.0399      8.9624    135.7059     25.0800
  1761.7000      7.8210      2.4535      0.0372     11.9112    132.6598     24.5363
  1761.8000      7.8568      2.3944      0.0239     15.4879    130.0646     24.4801
  1761.9000      7.8568      2.3356     -0.0295     19.0530    132.6211     24.7584
  1762.0000      7.9237      2.2908     -0.0133     21.7699    139.5064     25.0106
  1762.1000      7.9237      2.2576      0.0094     23.7807    145.3350     25.3172
  1762.2000      7.9237      2.2270     -0.0065     25.6360    146.5328     25.9981
  1762.3000      7.9397      2.2049     -0.0047     26.9757    145.8143     26.9278
  1762.4000      7.9397      2.2086     -0.0214     26.7511    147.8469     27.5984
  1762.5000      7.9517      2.2447      0.0601     24.5622    153.9727     27.8322
  1762.6000      7.9517      2.3010      0.1397     21.1512    161.2660     27.9304
  1762.7000      7.9517      2.3655      0.1512     17.2418    164.1770     28.0617
  1762.8000      7.9596      2.4278      0.1730     13.4670    161.1221     28.0633
  1762.9000      7.9596      2.4727      0.1647     10.7483    157.9660     27.9930
  1763.0000      7.9572      2.4997      0.1115      9.1065    161.3217     28.0846
  1763.1000      7.9572      2.5219      0.1031      7.7638    169.5949     28.3184
  1763.2000      7.9572      2.5388      0.1187      6.7407    176.4515     28.5860
  1763.3000      7.9173      2.5351      0.1157      6.9642    179.8816     28.8829
  1763.4000      7.9173      2.5114     -0.0147      8.4027    180.4007     29.0920
  1763.5000      7.9079      2.4883      0.0243      9.7989    178.9127     28.9865
  1763.6000      7.9079      2.4745      0.0291     10.6341    176.8623     28.5652
  1763.7000      7.9079      2.4688      0.0460     10.9847    175.2682     28.1813
  1763.8000      7.9243      2.4708      0.0695     10.8632    174.6129     28.1492
  1763.9000      7.9243      2.4728      0.1479     10.7416    173.7311     28.2768
  1764.0000      7.9386      2.4713      0.0740     10.8321    171.2401     28.2700
  1764.1000      7.9386      2.4838      0.0633     10.0717    170.6046     28.1482
  1764.2000      7.9386      2.5222      0.1076      7.7479    173.3643     27.9992
  1764.3000      7.9377      2.5668      0.1543      5.0427    176.0371     28.0039
  1764.4000      7.9377      2.5928      0.1432      3.4685    177.9716     28.1841
  1764.5000      7.9252      2.5983      0.1495      3.1323    178.4505     28.2732
  1764.6000      7.9252      2.5882      0.1568      3.7436    176.7306     28.2637
  1764.7000      7.9252      2.5682      0.1206      4.9580    175.5621     28.2416
  1764.8000      7.9172      2.5564      0.1490      5.6697    174.0994     28.0043
  1764.9000      7.9172      2.5637      0.1089      5.2287    167.8646     27.6068
  1765.0000      7.9202      2.5806      0.1456      4.2086    156.3672     27.2859
  1765.1000      7.9202      2.5927      0.0519      3.4718    145.2799     26.8955
  1765.2000      7.9202      2.5925      0.0730      3.4871    140.4447     26.3929
  1765.3000      7.9114      2.5824     -0.0021      4.0947    143.7135     25.9203
  1765.4000      7.9114      2.5803      0.0358      4.2259    151.7503     25.2749
  1765.5000      7.9025      2.5926      0.0505      3.4796    157.2649     24.4047
  1765.6000      7.9025      2.6065      0.1004      2.6392    158.3048     23.8362
  1765.7000      7.9025      2.6081      0.0723      2.5401    157.9544     23.9251
  1765.8000      7.9140      2.5958      0.0374      3.2824    157.7653     24.5429
  1765.9000      7.9140      2.5806      0.0450      4.2031    159.4150     25.2309
  1766.0000      7.9251      2.5714      0.0349      4.7613    162.1984     25.5918
  1766.1000      7.9251      2.5688      0.0091      4.9187    162.9338     25.7759
  1766.2000      7.9251      2.5638      0.0681      5.2251    160.4764     25.9280
  1766.3000      7.9194      2.5526      0.0261      5.9002    155.6580     25.9338
  1766.4000      7.9194      2.5463      0.0715      6.2830    148.8889     25.9186
  1766.5000      7.9121      2.5497      0.0413      6.0807    142.0541     26.0353
  1766.6000      7.9121      2.5596      0.0503      5.4776    138.1543     26.1770
  1766.7000      7.9121      2.5709      0.0760      4.7930    138.1622     26.1089
  1766.8000      7.9097      2.5806      0.0831      4.2053    141.8432     25.6664
  1766.9000      7.9097      2.5873      0.0804      3.7997    146.6629     24.9829
  1767.0000      7.9146      2.5870      0.0377      3.8199    148.7421     24.5443
  1767.1000      7.9146      2.5850      0.0172      3.9415    148.0780     24.5841
  1767.2000      7.9146      2.5905      0.0328      3.6038    147.6311     24.8092
  1767.3000      7.9220      2.5987      0.0869      3.1062    149.9435     24.7639
  1767.4000      7.9220      2.5980      0.0360      3.1517    153.0823     24.4089
  1767.5000      7.9204      2.5829      0.0677      4.0661    151.6024     24.2140
  1767.6000      7.9204      2.5598      0.0317      5.4660    146.1694     24.4321
  1767.7000      7.9204      2.5499      0.0017      6.0658    142.0377     24.6329
  1767.8000      7.9240      2.5623      0.0724      5.3152    142.5137     24.3852
  1767.9000      7.9240      2.5744      0.0698      4.5799    145.5654     23.9921
  1768.0000      7.9231      2.5629      0.0640      5.2800    147.6294     23.7713
  1768.1000      7.9231      2.5353     -0.0319      6.9527    148.7964     23.4880
  1768.2000      7.9231      2.5205      0.0150      7.8455    150.9492     23.0580
  1768.3000      7.9203      2.5272      0.0143      7.4402    153.0610     22.8564
  1768.4000      7.9203      2.5405      0.0227      6.6342    151.5644     22.9940
  1768.5000      7.9235      2.5487      0.0449      6.1371    145.9452     23.0580
  1768.6000      7.9235      2.5483      0.0348      6.1657    139.4883     22.8354
  1768.7000      7.9235      2.5415      0.0379      6.5766    134.6110     22.5671
  1768.8000      7.9283      2.5413      0.0026      6.5891    133.0926     22.4078
  1768.9000      7.9283      2.5575      0.0164      5.6063    136.3862     22.1648
  1769.0000      7.9276      2.5754      0.0762      4.5234    139.8042     21.8205
  1769.1000      7.9276      2.5783      0.0271      4.3480    140.7243     21.7086
  1769.2000      7.9276      2.5756      0.0065      4.5118    143.4004     21.7433
  1769.3000      7.8987      2.5770      0.0269      4.4261    146.8720     21.4829
  1769.4000      7.8987      2.5754      0.0372      4.5186    145.6667     20.9518
  1769.5000      7.8627      2.5744     -0.0104      4.5811    140.7191     20.4706
  1769.6000      7.8627      2.5836      0.0403      4.0246    135.2074     20.1900
  1769.7000      7.8627      2.5872      0.0332      3.8056    128.5450     20.0765
  1769.8000      7.8546      2.5692      0.0010      4.8987    122.7251     19.8868
  1769.9000      7.8546      2.5456     -0.0313      6.3277    121.4002     19.4433
