~Version Information
VERS.                      2.0: CWLS Log ASCII Standard - VERSION 2.0
WRAP.                       NO: One line per depth step
~Well Information Block
STRT.FT                -7.7500: 
STOP.FT              1793.5000: 
STEP.FT                 0.2500: 
NULL.                -999.2500: 
COMP.          Pioneer Natural Resources: COMPANY
WELL.           Loews 41-32 Tr: WELL
FLD.           Purgatorie River: FIELD
LOC.           706' FNL & 224' FEL--: LOCATION
CNTY.               Las Animas: COUNTY
SRVC.          Patterson Wireline: SERVICE COMPANY
DATE.          Fri Feb 24 11:31:48 2006: LOG DATE
UWI.           05 071 08690 00: UNIQUE WELL ID
STAT.                       CO: STATE
~Curve Information Block
DEPT.FT            0 000 00 00: Depth
CCL.                          : Casing Collar Locator
TT3.usec                      : CBL 3' Travel Time
AMP3.mV                       : CBL 3' Amplitude
GR.GAPI                       : Gamma Ray
~Parameter Information Block
~A  Depth       CCL         TT3         AMP3         GR     
# ...
  1533.2500      0.0000    717.2924      8.3537    103.1181
  1533.5000      0.0000    724.8308      7.5830     90.8041
  1533.7500      0.0000    738.0372      6.7896     77.2524
  1534.0000      0.0000    753.6046      6.0390     64.0725
  1534.2500      0.0000    768.5325      5.3888     53.6318
  1534.5000      0.0000    782.1234      4.8777     48.0363
  1534.7500      0.0000    794.9785      4.5234     47.8122
  1535.0000      0.0000    806.6913      4.3256     51.6119
  1535.2500      0.0000    815.3727      4.2731     57.0557
  1535.5000      0.0000    819.4922      4.3553     62.0061
  1535.7500      0.0000    819.3699      4.5735     65.5398
  1536.0000      0.0000    816.1849      4.9478     68.0382
  1536.2500      0.0000    809.7356      5.5116     70.3963
  1536.5000      0.0000    797.4719      6.2987     73.1680
  1536.7500      0.0000    774.8384      7.3247     76.3902
  1537.0000      0.0000    735.9658      8.5720     79.9773
  1537.2500      0.0000    676.2442      9.9846     84.0666
  1537.5000      0.0000    597.8085     11.4753     88.8738
  1537.7500      0.0000    512.9777     12.9386     94.1913
  1538.0000      0.0000    439.1541     14.2613     99.0246
  1538.2500      0.0000    388.1247     15.3300    101.8511
  1538.5000      0.0000    360.3659     16.0524    101.5100
  1538.7500      0.0000    348.6751     16.3946     97.9722
  1539.0000      0.0000    345.1046     16.4051     92.3140
  1539.2500      0.0000    344.6208     16.1939     86.1451
  1539.5000      0.0000    344.9436     15.8808     81.0668
  1539.7500      0.0000    345.2421     15.5527     78.3331
  1540.0000      0.0000    345.3164     15.2510     78.6221
  1540.2500      0.0000    345.4290     14.9842     81.9286
  1540.5000      0.0000    346.5874     14.7482     87.5564
  1540.7500      0.0000    351.0598     14.5380     94.2311
  1541.0000      0.0000    362.4229     14.3454    100.4525
  1541.2500      0.0000    383.7478     14.1534    105.0954
  1541.5000      0.0000    413.8751     13.9456    107.8533
  1541.7500      0.0000    444.9889     13.7259    109.0831
  1542.0000      0.0000    465.4408     13.5245    109.2116
  1542.2500      0.0000    467.3495     13.3778    108.3800
  1542.5000      0.0000    453.4860     13.2976    106.6867
  1542.7500      0.0000    438.1906     13.2593    104.6489
  1543.0000      0.0000    440.7494     13.2217    103.2082
  1543.2500      0.0000    473.8598     13.1614    103.0924
  1543.5000      0.0000    533.4255     13.0841    104.1914
  1543.7500      0.0000    597.8889     13.0046    105.7589
  1544.0000      0.0000    641.7648     12.9206    107.1520
  1544.2500      0.0000    655.3776     12.8134    108.3607
  1544.5000      0.0000    651.9738     12.6773    110.0300
  1544.7500      0.0000    653.4845     12.5427    112.9195
  1545.0000      0.0000    670.4111     12.4639    116.9763
  1545.2500      0.0000    697.1428     12.4786    121.2068
  1545.5000      0.0000    722.8580     12.5773    124.9005
  1545.7500      0.0000    741.6016     12.7133    128.4780
  1546.0000      0.0000    753.1304     12.8394    132.4565
  1546.2500      0.0000    759.4536     12.9359    136.2041
  1546.5000      0.0000    762.5540     13.0099    138.6534
  1546.7500      0.0000    763.7486     13.0769    139.8304
  1547.0000      0.0000    763.3184     13.1452    140.7034
  1547.2500      0.0000    759.8662     13.2144    141.7012
  1547.5000      0.0000    749.2070     13.2847    142.1741
  1547.7500      0.0000    724.0182     13.3632    141.2820
  1548.0000      0.0000    677.0149     13.4639    138.9257
  1548.2500      0.0000    607.8680     13.6023    135.8067
  1548.5000      0.0000    527.6691     13.7877    132.8692
  1548.7500      0.0000    454.0500     14.0143    130.7244
  1549.0000      0.0000    400.1776     14.2588    129.5045
  1549.2500      0.0000    368.4497     14.4895    129.1750
  1549.5000      0.0000    353.4006     14.6787    129.6866
  1549.7500      0.0000    348.3812     14.8012    130.6477
  1550.0000      0.0000    349.9133     14.8160    131.2185
  1550.2500      0.0000    358.5572     14.6560    130.7673
  1550.5000      0.0000    377.4742     14.2583    129.4619
  1550.7500      0.0000    410.1067     13.6277    127.9141
  1551.0000      0.0000    458.4450     12.8735    126.2874
  1551.2500      0.0000    522.0004     12.1656    123.9535
  1551.5000      0.0000    595.9003     11.6380    119.9581
  1551.7500      0.0000    669.2648     11.3252    113.5787
  1552.0000      0.0000    727.9661     11.1776    104.5602
  1552.2500      0.0000    760.9984     11.1149     93.3025
  1552.5000      0.0000    764.3718     11.0610     81.1102
  1552.7500      0.0000    741.3105     10.9458     70.1496
  1553.0000      0.0000    702.2850     10.7055     63.0041
  1553.2500      0.0000    662.5612     10.3177     61.9105
  1553.5000      0.0000    633.0942      9.8632     67.7335
  1553.7500      0.0000    613.4010      9.5183     79.1086
  1554.0000      0.0000    598.7511      9.4062     92.6036
  1554.2500      0.0000    593.0909      9.4481    104.2360
  1554.5000      0.0000    606.7836      9.4370    111.3558
  1554.7500      0.0000    640.7009      9.2797    113.4306
  1555.0000      0.0000    679.4968      9.0884    111.4222
  1555.2500      0.0000    702.7619      9.0130    106.7206
  1555.5000      0.0000    700.5023      9.0697    100.7171
  1555.7500     -2.0000    679.1081      9.1712     95.1206
  1556.0000      0.0000    655.1404      9.2563     92.1264
  1556.2500      0.0000    641.9823      9.3570     93.5921
  1556.5000      0.0000    640.6862      9.5814     99.7620
  1556.7500      0.0000    643.1368     10.0407    108.9641
  1557.0000      0.0000    640.9752     10.7577    118.6092
  1557.2500      0.0000    628.3669     11.6516    126.4849
  1557.5000      0.0000    599.3351     12.6416    131.5034
  1557.7500      0.0000    549.7907     13.7248    133.9025
  1558.0000      0.0000    484.6340     14.9060    134.9746
  1558.2500      0.0000    418.5168     16.0919    136.2570
  1558.5000      0.0000    366.2742     17.1123    138.4474
  1558.7500      0.0000    333.6741     17.8331    140.6318
  1559.0000      0.0000    317.3787     18.2248    140.4963
  1559.2500      0.0000    310.8044     18.3393    135.9243
  1559.5000      0.0000    308.8008     18.2531    127.0644
  1559.7500      0.0000    308.7677     18.0442    116.7741
  1560.0000      0.0000    309.9971     17.7946    108.7580
  1560.2500      0.0000    312.7249     17.5838    105.0538
  1560.5000      0.0000    317.3285     17.4597    104.9236
  1560.7500      0.0000    323.5957     17.4161    105.7316
  1561.0000      0.0000    330.4188     17.4048    104.9783
  1561.2500      0.0000    336.4109     17.3715    102.0146
  1561.5000      0.0000    340.9951     17.2866     98.1812
  1561.7500      0.0000    345.1615     17.1519     95.3639
  1562.0000      0.0000    351.5972     16.9886     94.3665
  1562.2500      0.0000    364.3297     16.8236     94.6372
  1562.5000      0.0000    387.0508     16.6778     95.4066
  1562.7500      0.0000    419.1171     16.5576     96.7478
  1563.0000      0.0000    451.6101     16.4548     99.2467
  1563.2500      0.0000    469.7216     16.3577    102.8960
  1563.5000      0.0000    463.2829     16.2637    106.8940
  1563.7500      0.0000    435.8457     16.1791    110.4025
  1564.0000      0.0000    401.6473     16.1086    112.8861
  1564.2500      0.0000    374.0733     16.0452    113.8662
  1564.5000      0.0000    358.3508     15.9702    113.2258
  1564.7500      0.0000    353.3770     15.8606    111.7986
  1565.0000      0.0000    356.8247     15.6976    110.9393
  1565.2500      0.0000    367.0952     15.4779    111.3082
  1565.5000      0.0000    381.5283     15.2224    112.4885
  1565.7500      0.0000    394.7332     14.9701    113.8221
  1566.0000      0.0000    400.4144     14.7618    115.2585
  1566.2500      0.0000    395.7094     14.6261    117.3056
  1566.5000      0.0000    383.3910     14.5765    120.3430
