~Version Information
VERS.                      2.0: CWLS Log ASCII Standard - VERSION 2.0
WRAP.                       NO: One line per depth step
~Well Information Block
STRT.FT               555.0000: 
STOP.FT              2283.0000: 
STEP.FT                 0.2500: 
NULL.                -999.2500: 
COMP.          Pioneer Natural Resources: COMPANY
WELL.          Roadster 41-33 Kv: WELL
FLD.           Purgatoire River: FIELD
LOC.           903' FNL & 248' FEL: LOCATION
PROV.                 Colorado: PROVINCE
CNTY.               Las Animas: COUNTRY
SRVC.                Patterson: SERVICE COMPANY
DATE.          Wed Dec 14 23:52:42 2005: LOG DATE
UWI.           05 071 08615 00: UNIQUE WELL ID
~Curve Information Block
DEPT.FT            0 000 00 00: Depth
SN.Ohm-m                      : IEL Short Normal
SP.mV                         : IEL Spontaneous Potential
DIR.Ohm-m                     : IEL Induction Resistivity
GR.GAPI                       : Gamma Ray
~Parameter Information Block
~A  Depth        SN          SP         DIR          GR     
# ...
   655.5000   2000.0000   2000.0000     12.7811    137.8770
   655.7500   2000.0000   2000.0000     13.2923    134.6008
   656.0000   2000.0000   2000.0000     13.9032    129.0369
   656.2500   2000.0000   2000.0000     14.6177    125.0135
   656.5000   2000.0000   2000.0000     15.4339    118.4397
   656.7500   2000.0000   2000.0000     16.3472    113.1926
   657.0000   2000.0000   2000.0000     17.3530    103.1208
   657.2500   2000.0000   2000.0000     18.4463     95.3323
   657.5000   2000.0000   2000.0000     19.6203     84.8119
   657.7500   2000.0000   2000.0000     20.8668     80.4520
   658.0000   2000.0000   2000.0000     22.1809     79.2409
   658.2500   2000.0000   2000.0000     23.5649     81.3879
   658.5000   2000.0000   2000.0000     25.0256     87.0913
   658.7500   2000.0000   2000.0000     26.5586     91.6903
   659.0000   2000.0000   2000.0000     28.1271     98.8851
   659.2500   2000.0000   2000.0000     29.6507    103.2981
   659.5000   2000.0000   2000.0000     31.0198    108.0957
   659.7500   2000.0000   2000.0000     32.1387    109.5266
   660.0000   2000.0000   2000.0000     32.9716    109.1469
   660.2500   2000.0000   2000.0000     33.5549    108.1119
   660.5000   2000.0000   2000.0000     33.9654    107.7157
   660.7500   2000.0000   2000.0000     34.2758    109.1562
   661.0000   2000.0000   2000.0000     34.5340    113.3058
   661.2500   2000.0000   2000.0000     34.7631    115.8159
   661.5000   2000.0000   2000.0000     34.9561    115.9350
   661.7500   2000.0000   2000.0000     35.0645    112.5094
   662.0000   2000.0000   2000.0000     35.0154    102.8198
   662.2500   2000.0000   2000.0000     34.7782     94.8540
   662.5000   2000.0000   2000.0000     34.4232     83.4904
   662.7500   2000.0000   2000.0000     34.0905     77.4557
   663.0000   2000.0000   2000.0000     33.8786     71.6520
   663.2500   2000.0000   2000.0000     33.7581     70.0620
   663.5000   2000.0000   2000.0000     33.5854     70.8501
   663.7500   2000.0000   2000.0000     33.2026     73.2028
   664.0000   2000.0000   2000.0000     32.5402     78.9576
   664.2500   2000.0000   2000.0000     31.6375     84.0411
   664.5000   2000.0000   2000.0000     30.5884     93.1489
   664.7500   2000.0000   2000.0000     29.4785     99.8511
   665.0000   2000.0000   2000.0000     28.3646    110.0295
   665.2500   2000.0000   2000.0000     27.2851    116.4825
   665.5000   2000.0000   2000.0000     26.2776    125.2608
   665.7500   2000.0000   2000.0000     25.3867    130.3544
   666.0000   2000.0000   2000.0000     24.6576    136.4403
   666.2500   2000.0000   2000.0000     24.1163    139.1998
   666.5000   2000.0000   2000.0000     23.7507    141.3864
   666.7500   2000.0000   2000.0000     23.5069    141.8823
   667.0000   2000.0000   2000.0000     23.3121    141.8319
   667.2500   2000.0000   2000.0000     23.1104    141.3570
   667.5000   2000.0000   2000.0000     22.8808    139.6680
   667.7500   2000.0000   2000.0000     22.6218    137.7012
   668.0000   2000.0000   2000.0000     22.3219    133.5162
   668.2500   2000.0000   2000.0000     21.9497    130.1033
   668.5000   2000.0000   2000.0000     21.4707    124.3304
   668.7500   2000.0000   2000.0000     20.8701    120.0177
   669.0000   2000.0000   2000.0000     20.1621    112.8251
   669.2500   2000.0000   2000.0000     19.3826    107.9885
   669.5000   2000.0000   2000.0000     18.5758    102.4952
   669.7500   2000.0000   2000.0000     17.7821    101.2967
   670.0000   2000.0000   2000.0000     17.0314    104.6491
   670.2500   2000.0000   2000.0000     16.3378    110.3343
   670.5000   2000.0000   2000.0000     15.7014    122.4842
   670.7500   2000.0000   2000.0000     15.1129    131.3889
   671.0000   2000.0000   2000.0000     14.5609    143.1428
   671.2500   2000.0000   2000.0000     14.0373    149.0664
   671.5000   2000.0000   2000.0000     13.5392    155.4569
   671.7500   2000.0000   2000.0000     13.0687    158.6319
   672.0000   2000.0000   2000.0000     12.6331    161.7413
   672.2500   2000.0000   2000.0000     12.2442    162.0794
   672.5000   2000.0000   2000.0000     11.9173    159.3565
   672.7500   2000.0000   2000.0000     11.6668    155.9642
   673.0000   2000.0000   2000.0000     11.5006    150.8042
   673.2500   2000.0000   2000.0000     11.4118    148.6151
   673.5000   2000.0000   2000.0000     11.3751    148.0410
   673.7500   2000.0000   2000.0000     11.3518    149.0544
   674.0000   2000.0000   2000.0000     11.3082    151.3820
   674.2500   2000.0000   2000.0000     11.2346    152.8980
   674.5000   2000.0000   2000.0000     11.1474    154.5833
   674.7500   2000.0000   2000.0000     11.0705    155.0741
   675.0000   2000.0000   2000.0000     11.0153    154.4481
   675.2500   2000.0000   2000.0000     10.9766    153.0825
   675.5000   2000.0000   2000.0000     10.9422    150.3236
   675.7500   2000.0000   2000.0000     10.9046    148.7455
   676.0000   2000.0000   2000.0000     10.8656    147.7020
   676.2500   2000.0000   2000.0000     10.8326    147.8799
   676.5000   2000.0000   2000.0000     10.8125    148.6218
   676.7500   2000.0000   2000.0000     10.8089    148.9267
   677.0000   2000.0000   2000.0000     10.8231    149.1178
   677.2500   2000.0000   2000.0000     10.8566    149.6111
   677.5000   2000.0000   2000.0000     10.9125    151.5213
   677.7500   2000.0000   2000.0000     10.9943    153.1668
   678.0000   2000.0000   2000.0000     11.1017    154.6487
   678.2500   2000.0000   2000.0000     11.2273    154.3642
   678.5000   2000.0000   2000.0000     11.3559    152.2409
   678.7500   2000.0000   2000.0000     11.4696    150.2528
   679.0000   2000.0000   2000.0000     11.5586    147.0269
   679.2500   2000.0000   2000.0000     11.6304    144.7302
   679.5000   2000.0000   2000.0000     11.7058    141.4321
   679.7500   2000.0000   2000.0000     11.8044    140.1054
   680.0000   2000.0000   2000.0000     11.9319    140.6503
   680.2500   2000.0000   2000.0000     12.0798    142.4424
   680.5000   2000.0000   2000.0000     12.2353    145.1914
   680.7500   2000.0000   2000.0000     12.3892    145.9447
   681.0000   2000.0000   2000.0000     12.5378    145.2191
   681.2500   2000.0000   2000.0000     12.6797    144.1235
   681.5000   2000.0000   2000.0000     12.8145    142.5094
   681.7500   2000.0000   2000.0000     12.9428    141.5253
   682.0000   2000.0000   2000.0000     13.0658    139.8169
   682.2500   2000.0000   2000.0000     13.1829    138.4422
   682.5000   2000.0000   2000.0000     13.2907    136.6133
   682.7500   2000.0000   2000.0000     13.3842    136.1869
   683.0000   2000.0000   2000.0000     13.4588    137.3687
   683.2500   2000.0000   2000.0000     13.5133    139.0001
   683.5000   2000.0000   2000.0000     13.5508    141.0590
   683.7500   2000.0000   2000.0000     13.5776    141.3678
   684.0000   2000.0000   2000.0000     13.5996    140.3198
   684.2500   2000.0000   2000.0000     13.6208    139.3727
   684.5000   2000.0000   2000.0000     13.6427    138.7716
   684.7500   2000.0000   2000.0000     13.6663    139.0906
   685.0000   2000.0000   2000.0000     13.6937    140.2872
   685.2500   2000.0000   2000.0000     13.7275    141.2712
   685.5000   2000.0000   2000.0000     13.7704    142.7080
   685.7500   2000.0000   2000.0000     13.8291    143.6236
   686.0000   2000.0000   2000.0000     13.9204    145.1121
   686.2500   2000.0000   2000.0000     14.0741    146.2238
   686.5000   2000.0000   2000.0000     14.3239    147.8043
   686.7500   2000.0000   2000.0000     14.6916    148.4607
   687.0000   2000.0000   2000.0000     15.1742    148.2245
   687.2500   2000.0000   2000.0000     15.7423    147.0045
   687.5000   2000.0000   2000.0000     16.3492    143.4232
   687.7500   2000.0000   2000.0000     16.9435    139.9235
   688.0000   2000.0000   2000.0000     17.4786    133.4320
   688.2500   2000.0000   2000.0000     17.9188    128.7091
   688.5000   2000.0000   2000.0000     18.2427    121.7723
   688.7500   2000.0000   2000.0000     18.4490    117.5770
