~Version Information
VERS.                      2.0: CWLS Log ASCII Standard - VERSION 2.0
WRAP.                       NO: One line per depth step
~Well Information Block
STRT.FT                -8.0000: 
STOP.FT              1661.0000: 
STEP.FT                 0.2500: 
NULL.                -999.2500: 
COMP.          Pioneer Natural Resources: COMPANY
WELL.          Rollerball 34-30: WELL
FLD.           Purgatorie River: FIELD
LOC.           893' FSL & 2408' FEL----: LOCATION
CNTY.               Las Animas: COUNTY
SRVC.          Patterson Wireline: SERVICE COMPANY
DATE.          Mon Feb 20 08:34:38 2006: LOG DATE
UWI.           05 071 08581 00: UNIQUE WELL ID
STAT.                       CO: STATE
~Curve Information Block
DEPT.FT            0 000 00 00: Depth
CCL.                          : Casing Collar Locator
TT3.usec                      : CBL 3' Travel Time
AMP3.mV                       : CBL 3' Amplitude
GR.GAPI                       : Gamma Ray
~Parameter Information Block
~A  Depth       CCL         TT3         AMP3         GR     
# ...
   662.0000      0.0000    718.0879      5.6286     62.9556
   662.2500      0.0000    717.0782      5.5706     61.2957
   662.5000      0.0000    715.1358      5.5186     59.7045
   662.7500      0.0000    711.6065      5.4825     58.7830
   663.0000      0.0000    706.4491      5.4690     59.3947
   663.2500      0.0000    700.6096      5.4804     61.5642
   663.5000      0.0000    695.7612      5.5171     64.1744
   663.7500      0.0000    693.6944      5.5786     65.8376
   664.0000      0.0000    695.9221      5.6618     65.9421
   664.2500      0.0000    703.3173      5.7597     64.8965
   664.5000      0.0000    715.3054      5.8617     63.5926
   664.7500      0.0000    729.3920      5.9561     62.8125
   665.0000      0.0000    742.3176      6.0327     63.2315
   665.2500      0.0000    752.2773      6.0851     65.6579
   665.5000      0.0000    759.9811      6.1105     70.4219
   665.7500      0.0000    767.5040      6.1071     76.2002
   666.0000      0.0000    776.2101      6.0761     80.2866
   666.2500      0.0000    785.7394      6.0242     80.8431
   666.5000      0.0000    794.9495      5.9612     78.5250
   666.7500      0.0000    803.7153      5.8938     75.4312
   667.0000      0.0000    813.5159      5.8227     73.0634
   667.2500      0.0000    825.8527      5.7441     71.8257
   667.5000      0.0000    839.7394      5.6562     71.7585
   667.7500      0.0000    850.8394      5.5637     72.7576
   668.0000      0.0000    853.8555      5.4763     74.1653
   668.2500      0.0000    846.5265      5.4014     74.9924
   668.5000      0.0000    830.9503      5.3392     74.9537
   668.7500      0.0000    810.6211      5.2862     74.9647
   669.0000      0.0000    787.2332      5.2439     76.1876
   669.2500      0.0000    761.4555      5.2220     78.7719
   669.5000      0.0000    735.7330      5.2308     82.1471
   669.7500      0.0000    714.3782      5.2711     86.3217
   670.0000      0.0000    700.8105      5.3336     91.8254
   670.2500      0.0000    696.0195      5.4073     98.1594
   670.5000      0.0000    699.9035      5.4841    103.1459
   670.7500      0.0000    712.7233      5.5534    104.2549
   671.0000      0.0000    734.1348      5.5975    100.3432
   671.2500      0.0000    761.0980      5.6002     92.3734
   671.5000      0.0000    787.8477      5.5626     83.2058
   671.7500      0.0000    808.6358      5.5085     76.6495
   672.0000      0.0000    820.5013      5.4715     75.7795
   672.2500      0.0000    823.5989      5.4706     81.4972
   672.5000      0.0000    819.7634      5.4963     92.3957
   672.7500      0.0000    811.2957      5.5210    105.7560
   673.0000      0.0000    800.5622      5.5230    118.7980
   673.2500      0.0000    789.9293      5.5019    129.6068
   673.5000      0.0000    781.7469      5.4755    137.4230
   673.7500      0.0000    777.6411      5.4625    142.3721
   674.0000      0.0000    776.9279      5.4671    145.0012
   674.2500      0.0000    776.5692      5.4754    145.8048
   674.5000      0.0000    774.2905      5.4647    144.9061
   674.7500      0.0000    771.3958      5.4171    142.2678
   675.0000      0.0000    771.1666      5.3301    138.2537
   675.2500      0.0000    774.8645      5.2138    133.8198
   675.5000      0.0000    780.4951      5.0796    130.1846
   675.7500      0.0000    785.2643      4.9343    128.3872
   676.0000      0.0000    788.0529      4.7842    128.7059
   676.2500      0.0000    789.4310      4.6417    130.0362
   676.5000      0.0000    790.3797      4.5209    130.2225
   676.7500      0.0000    791.3070      4.4272    127.7742
   677.0000      0.0000    791.3365      4.3494    123.4436
   677.2500      0.0000    788.1185      4.2711    119.8237
   677.5000      0.0000    779.7130      4.2040    119.1966
   677.7500      0.0000    767.8953      4.1971    121.7674
   678.0000      0.0000    759.2450      4.2812    125.7937
   678.2500      0.0000    761.3674      4.4085    129.0089
   678.5000      0.0000    776.6617      4.4893    129.7185
   678.7500      0.0000    799.6903      4.4892    127.0524
   679.0000      0.0000    821.4847      4.4530    121.1369
   679.2500      0.0000    837.2173      4.4426    113.4966
   679.5000      0.0000    849.1711      4.4867    106.8216
   679.7500      2.0000    861.4080      4.5883    103.5199
   680.0000      0.0000    872.4155      4.7515    104.1313
   680.2500      0.0000    874.3782      4.9903    107.2940
   680.5000      0.0000    860.1578      5.3012    111.2630
   680.7500      0.0000    830.6491      5.6203    115.1349
   681.0000      0.0000    794.7318      5.8393    118.8190
   681.2500      0.0000    762.6069      5.9017    122.5189
   681.5000      0.0000    740.0829      5.8615    126.2566
   681.7500      0.0000    727.9673      5.8174    129.5198
   682.0000      0.0000    724.6068      5.8184    131.5759
   682.2500      0.0000    728.1501      5.8527    132.3969
   682.5000      0.0000    737.0485      5.8942    132.8178
   682.7500      0.0000    749.3049      5.9305    133.3663
   683.0000      0.0000    761.8764      5.9601    133.3378
   683.2500      0.0000    771.4974      5.9855    131.5566
   683.5000      0.0000    776.5198      6.0109    127.9841
   683.7500      0.0000    777.8560      6.0414    124.0816
   684.0000      0.0000    777.6981      6.0798    121.5634
   684.2500      0.0000    777.2625      6.1248    121.1491
   684.5000      0.0000    776.0913      6.1725    122.3525
   684.7500      0.0000    773.3256      6.2165    123.8102
   685.0000      0.0000    769.1036      6.2479    123.9304
   685.2500      0.0000    764.6282      6.2583    121.9101
   685.5000      0.0000    761.1653      6.2452    118.2427
   685.7500      0.0000    759.2365      6.2126    114.0998
   686.0000      0.0000    758.7146      6.1676    110.6005
   686.2500      0.0000    759.4032      6.1156    108.9305
   686.5000      0.0000    761.2579      6.0597    110.3128
   686.7500      0.0000    763.9750      6.0044    114.8263
   687.0000      0.0000    766.5065      5.9607    120.3659
   687.2500      0.0000    767.4072      5.9439    123.5931
   687.5000      0.0000    765.9941      5.9625    122.4335
   687.7500      0.0000    763.0215      6.0087    117.6958
   688.0000      0.0000    759.9727      6.0616    112.1898
   688.2500      0.0000    757.8711      6.1019    108.2894
   688.5000      0.0000    756.8686      6.1253    106.3981
   688.7500      0.0000    756.6017      6.1428    105.3538
   689.0000      0.0000    756.6188      6.1697    103.7196
   689.2500      0.0000    756.5292      6.2130    100.6645
   689.5000      0.0000    755.9193      6.2669     96.2563
   689.7500      0.0000    754.1028      6.3186     91.4182
   690.0000      0.0000    749.9892      6.3587     87.4513
   690.2500      0.0000    742.5704      6.3828     85.1457
   690.5000      0.0000    731.9960      6.3874     84.2627
   690.7500      0.0000    720.2274      6.3668     84.0925
   691.0000      0.0000    710.4274      6.3173     84.4974
   691.2500      0.0000    705.5822      6.2429     86.1307
   691.5000      0.0000    707.1844      6.1569     89.5721
   691.7500      0.0000    714.2349      6.0769     94.4785
   692.0000      0.0000    723.3223      6.0192     99.5138
   692.2500      0.0000    730.6933      5.9932    102.9087
   692.5000      0.0000    734.9283      5.9972    103.3239
   692.7500      0.0000    737.3309      6.0180    100.5953
   693.0000      0.0000    739.7402      6.0396     95.7462
   693.2500      0.0000    742.6414      6.0527     90.2574
   693.5000      0.0000    745.5059      6.0566     85.2744
   693.7500      0.0000    748.0341      6.0498     81.3696
   694.0000      0.0000    750.3148      6.0222     78.8587
   694.2500      0.0000    752.1000      5.9568     78.0562
   694.5000      0.0000    752.5671      5.8420     78.9338
   694.7500      0.0000    750.8677      5.6801     80.6579
   695.0000      0.0000    746.9246      5.4822     82.0044
   695.2500      0.0000    741.8015      5.2626     82.4465
