~Version Information
VERS.                      2.0: CWLS Log ASCII Standard - VERSION 2.0
WRAP.                       NO: One line per depth step
~Well Information Block
STRT.FT               370.0000: 
STOP.FT              1259.0000: 
STEP.FT                 0.1000: 
NULL.                -999.2500: 
COMP.          Pioneer Natural Resources: COMPANY
WELL.           Tennis 7-12 Tr: WELL
FLD.           Purgatoire River: FIELD
LOC.           1794' FNL & 1563' FEL: LOCATION
PROV.                 Colorado: PROVINCE
CNTY.               Las Animas: COUNTRY
SRVC.                Patterson: SERVICE COMPANY
DATE.          Tue Dec 20 13:35:40 2005: LOG DATE
UWI.           05 071 08635 00: UNIQUE WELL ID
~Curve Information Block
DEPT.FT            0 000 00 00: Depth
DCAL.in                       : CDL Caliper
RHOB.g/cc                     : CDL Bulk Density
RHOC.g/cc                     : CDL Density Correction
DPOR.pu                       : CDL Density Porosity
GR.GAPI                       : Gamma Ray
~Parameter Information Block
~A  Depth       DCAL        RHOB        RHOC        DPOR         GR     
   370.0000      2.8478      2.3805     -0.4365     16.3341     68.7354
   370.1000      2.8478      2.3711     -0.4937     16.9035     71.2480
   370.2000      2.8478      2.3876     -0.3414     15.9007     73.2608
   370.3000      2.8477      2.3993     -0.4019     15.1927     74.6506
   370.4000      2.8477      2.3966     -0.3594     15.3593     73.8078
   370.5000      2.8474      2.3796     -0.3731     16.3905     71.6490
   370.6000      2.8474      2.3595     -0.4330     17.6090     73.1868
   370.7000      2.8474      2.3566     -0.4576     17.7800     77.9783
   370.8000      2.8472      2.3646     -0.3844     17.2983     80.9501
   370.9000      2.8472      2.3601     -0.4393     17.5705     78.5717
   371.0000      2.8452      2.3423     -0.3881     18.6472     72.2709
   371.1000      2.8452      2.3320     -0.5053     19.2723     68.1627
   371.2000      2.8452      2.3433     -0.3893     18.5891     71.3118
   371.3000      2.8431      2.3584     -0.4028     17.6714     77.3896
   371.4000      2.8431      2.3535     -0.4260     17.9699     74.9887
   371.5000      2.8447      2.3240     -0.4433     19.7572     64.8813
   371.6000      2.8447      2.2909     -0.5128     21.7664     60.2455
   371.7000      2.8447      2.2918     -0.4742     21.7096     64.4407
   371.8000      2.8469      2.3403     -0.4463     18.7707     67.6553
   371.9000      2.8469      2.4034     -0.3726     14.9465     64.4168
   372.0000      2.8478      2.4273     -0.3631     13.4970     60.2548
   372.1000      2.8478      2.3957     -0.4435     15.4151     60.2904
   372.2000      2.8478      2.3459     -0.4931     18.4318     61.0420
   372.3000      2.8491      2.3247     -0.4709     19.7165     56.6901
   372.4000      2.8491      2.3481     -0.4892     18.2976     49.3815
   372.5000      2.8507      2.3881     -0.3695     15.8717     46.8281
   372.6000      2.8507      2.3986     -0.3646     15.2338     51.0862
   372.7000      2.8507      2.3734     -0.4216     16.7634     56.8507
   372.8000      2.8508      2.3459     -0.4874     18.4305     59.5249
   372.9000      2.8508      2.3388     -0.4093     18.8592     58.3129
   373.0000      2.8503      2.3507     -0.5016     18.1405     55.6587
   373.1000      2.8503      2.3738     -0.4323     16.7374     53.9273
   373.2000      2.8503      2.3982     -0.4024     15.2624     52.7442
   373.3000      2.8502      2.4198     -0.3703     13.9508     52.4188
   373.4000      2.8502      2.4304     -0.3563     13.3113     54.5038
   373.5000      2.8497      2.4220     -0.3831     13.8185     55.8376
   373.6000      2.8497      2.4165     -0.4674     14.1498     52.3853
   373.7000      2.8497      2.4275     -0.3363     13.4878     47.3209
   373.8000      2.8492      2.4330     -0.3299     13.1498     43.9792
   373.9000      2.8492      2.4315     -0.4269     13.2400     43.1758
   374.0000      2.8496      2.4323     -0.3644     13.1958     48.2815
   374.1000      2.8496      2.4085     -0.3181     14.6341     56.4348
   374.2000      2.8496      2.3488     -0.4207     18.2544     61.7967
   374.3000      2.8492      2.2915     -0.4701     21.7275     63.6763
   374.4000      2.8492      2.2640     -0.4528     23.3959     64.1957
   374.5000      2.8486      2.2552     -0.4267     23.9296     64.9320
   374.6000      2.8486      2.2512     -0.4318     24.1709     65.0926
   374.7000      2.8486      2.2543     -0.4441     23.9795     65.0117
   374.8000      2.8489      2.2599     -0.4131     23.6431     66.0851
   374.9000      2.8489      2.2587     -0.4863     23.7133     69.1869
   375.0000      2.8490      2.2689     -0.5106     23.0976     71.8350
   375.1000      2.8490      2.2964     -0.4500     21.4279     68.4670
   375.2000      2.8490      2.3197     -0.3904     20.0173     61.1519
   375.3000      2.8494      2.3410     -0.4642     18.7279     54.9886
   375.4000      2.8494      2.3679     -0.3252     17.0962     51.1633
   375.5000      2.8495      2.3727     -0.3751     16.8049     50.2567
   375.6000      2.8495      2.3412     -0.4132     18.7181     50.2073
   375.7000      2.8495      2.2995     -0.4489     21.2438     47.9860
   375.8000      2.8466      2.2885     -0.5066     21.9077     47.0165
   375.9000      2.8466      2.3267     -0.5116     19.5953     50.4730
   376.0000      2.8436      2.3776     -0.3749     16.5078     54.6523
   376.1000      2.8436      2.3957     -0.3935     15.4133     57.2683
   376.2000      2.8436      2.3898     -0.4067     15.7668     60.6329
   376.3000      2.8452      2.3829     -0.3323     16.1909     65.8209
   376.4000      2.8452      2.3634     -0.3887     17.3706     70.3735
   376.5000      2.8471      2.3269     -0.4262     19.5826     72.7863
   376.6000      2.8471      2.2982     -0.4710     21.3234     73.3001
   376.7000      2.8471      2.2869     -0.4065     22.0061     71.8431
   376.8000      2.8476      2.2824     -0.4855     22.2771     68.6515
   376.9000      2.8476      2.2831     -0.4240     22.2344     65.3039
   377.0000      2.8483      2.2817     -0.4698     22.3233     62.4348
   377.1000      2.8483      2.2760     -0.5303     22.6650     59.9561
   377.2000      2.8483      2.2783     -0.4723     22.5296     59.8813
   377.3000      2.8479      2.2890     -0.4592     21.8806     60.4612
   377.4000      2.8479      2.3034     -0.4880     21.0059     59.0987
   377.5000      2.8467      2.3201     -0.4721     19.9950     57.2467
   377.6000      2.8467      2.3359     -0.4214     19.0338     58.2945
   377.7000      2.8467      2.3451     -0.4350     18.4812     64.2126
   377.8000      2.8471      2.3418     -0.4971     18.6788     68.8703
   377.9000      2.8471      2.3276     -0.4544     19.5378     63.7194
   378.0000      2.8481      2.3233     -0.4790     19.7984     50.6037
   378.1000      2.8481      2.3537     -0.4954     17.9550     39.5209
   378.2000      2.8481      2.4011     -0.3601     15.0876     37.6020
   378.3000      2.8483      2.4222     -0.3643     13.8063     42.8297
   378.4000      2.8483      2.4127     -0.3999     14.3809     49.3308
   378.5000      2.8475      2.3978     -0.4242     15.2844     54.4743
   378.6000      2.8475      2.3946     -0.4474     15.4799     58.1903
   378.7000      2.8475      2.4086     -0.4317     14.6309     61.6671
   378.8000      2.8469      2.4255     -0.4025     13.6068     64.7218
   378.9000      2.8469      2.4219     -0.4030     13.8259     63.2750
   379.0000      2.8471      2.3986     -0.4414     15.2367     57.4509
   379.1000      2.8471      2.3829     -0.4928     16.1860     54.1450
   379.2000      2.8471      2.3979     -0.4305     15.2787     54.9735
   379.3000      2.8479      2.4372     -0.4290     12.8953     55.5042
   379.4000      2.8479      2.4566     -0.3523     11.7190     53.5289
   379.5000      2.8486      2.4146     -0.4250     14.2654     51.4151
   379.6000      2.8486      2.3415     -0.5202     18.6966     52.9159
   379.7000      2.8486      2.3045     -0.5086     20.9398     58.8882
   379.8000      2.8489      2.3158     -0.4692     20.2564     66.8934
   379.9000      2.8489      2.3312     -0.4883     19.3218     75.2674
   380.0000      2.8490      2.3229     -0.4409     19.8255     81.8808
   380.1000      2.8490      2.3071     -0.4728     20.7800     82.9482
   380.2000      2.8490      2.3085     -0.4749     20.6997     79.3836
   380.3000      2.8490      2.3285     -0.4593     19.4820     76.1681
   380.4000      2.8490      2.3562     -0.4668     17.8080     73.2603
   380.5000      2.8496      2.3728     -0.3326     16.8022     67.0773
   380.6000      2.8496      2.3607     -0.3988     17.5328     57.4356
   380.7000      2.8496      2.3347     -0.4569     19.1077     46.9603
   380.8000      2.8501      2.3258     -0.4684     19.6490     40.5129
   380.9000      2.8501      2.3297     -0.4173     19.4128     42.1545
   381.0000      2.8500      2.3271     -0.4737     19.5682     50.2892
   381.1000      2.8500      2.3329     -0.4552     19.2154     59.8769
