~Version Information
 VERS.                                  2.0 : CWLS LAS VERSION
 WRAP.                                   NO : WRAPING MODE
 SWARE .                 MController 2.5.0N : SOFTWARE VERSION
~Well Information
 WELL.                    Hanginstone 21-27 : WELL
 COMP.   Pioneer Natural Resources USA, Inc : COMPANY
 FLD.                      Purgatoire River : FIELD
 LOC.                NE/NW Sec 27 T32S R67W : LOCATION
 DATE.                         1/05-07/2006 : DATE(S) LOGGED
 SRVC.       BLANCO Geological Services LLC : SERVICE COMPANY
 STAT.                                   CO : STATE
 CNTY.                           Las Animas : COUNTY
 CTRY.                                  USA : COUNTRY
 API.                       05-071-08632-00 : API NUMBER
 STRT.FT                             907.00 : START DEPTH
 STOP.FT                            2970.00 : STOP DEPTH
 STEP.FT                               1.00 : DEPTH INCREMENT
 NULL.                                -9999 : NULL VALUE
~Curve information
 DEPTH.FT                                   :
 ROP.MIN/FT                                 :
 GAS.UNITS                                  :
~ASCII Log data
# ...
      1507.0         0.77          4.2 
      1508.0         0.37          3.8 
      1509.0         0.17          3.6 
      1510.0         0.13          3.8 
      1511.0         7.63          3.7 
      1512.0         0.27          2.9 
      1513.0         0.38          2.9 
      1514.0         0.37          3.2 
      1515.0         0.30          3.2 
      1516.0         0.40          3.3 
      1517.0         0.50          3.1 
      1518.0         0.63          3.8 
      1519.0         0.60          4.1 
      1520.0         0.62          3.4 
      1521.0         0.63          3.5 
      1522.0         0.67          3.8 
      1523.0         0.63          3.6 
      1524.0         0.63          3.6 
      1525.0         0.68          3.7 
      1526.0         0.63          3.3 
      1527.0         0.33          3.5 
      1528.0         0.37          3.2 
      1529.0         0.50          3.2 
      1530.0         0.57          3.4 
      1531.0         0.43          3.5 
      1532.0         0.55          3.4 
      1533.0         0.63          3.3 
      1534.0         0.63          3.9 
      1535.0         0.53          6.4 
      1536.0         0.50          6.8 
      1537.0         0.53          6.6 
      1538.0         0.62          6.4 
      1539.0         0.27          5.9 
      1540.0         0.10          5.6 
      1541.0         7.77         14.4 
      1542.0         0.80          4.4 
      1543.0         0.85          4.3 
      1544.0         0.83          4.5 
      1545.0         0.70          4.6 
      1546.0         0.70          4.4 
      1547.0         0.77          4.1 
      1548.0         0.62          3.6 
      1549.0         0.67          3.4 
      1550.0         0.77          3.5 
      1551.0         0.67          3.9 
      1552.0         0.40          3.3 
      1553.0         0.33          3.0 
      1554.0         0.45          3.0 
      1555.0         0.80          2.8 
      1556.0         0.63          2.5 
      1557.0         0.60          2.3 
      1558.0         0.47          2.3 
      1559.0         0.43          2.2 
      1560.0         0.62          2.3 
      1561.0         0.60          2.9 
      1562.0         0.63          2.9 
      1563.0         0.77          2.8 
      1564.0         0.82          2.9 
      1565.0         0.27          2.1 
      1566.0         0.30          2.1 
      1567.0         0.27          2.1 
      1568.0         0.30          2.1 
      1569.0         0.17          2.0 
      1570.0         0.10          1.8 
      1571.0         7.90          7.5 
      1572.0         0.37          6.1 
      1573.0         0.68          5.9 
      1574.0         0.83          6.1 
      1575.0         1.43          8.1 
      1576.0         0.92          2.9 
      1577.0         0.67          2.7 
      1578.0         0.17          2.3 
      1579.0         0.10          2.1 
      1580.0         0.20          2.2 
      1581.0         0.30          2.2 
      1582.0         0.57          2.1 
      1583.0         0.57          1.8 
      1584.0         0.62          2.1 
      1585.0         0.60          1.8 
      1586.0         0.43          2.0 
      1587.0         0.63          1.9 
      1588.0         0.47          1.8 
      1589.0         0.33          2.0 
      1590.0         0.33          1.9 
      1591.0         0.47          2.3 
      1592.0         0.65          2.4 
      1593.0         0.57          2.4 
      1594.0         0.47          2.3 
      1595.0         0.57          3.0 
      1596.0         0.40          3.5 
      1597.0         0.33          3.8 
      1598.0         0.45          4.8 
      1599.0         0.53          5.3 
      1600.0         0.67          5.2 
      1601.0        10.18          5.2 
      1602.0         1.98          3.1 
      1603.0         0.50          3.0 
      1604.0         0.57          2.3 
      1605.0         0.63          1.9 
      1606.0         0.13          1.6 
      1607.0         0.20          1.8 
      1608.0         0.10          1.8 
      1609.0         0.57          2.3 
      1610.0         1.15          3.6 
      1611.0         0.77          5.1 
      1612.0         0.30          4.8 
      1613.0         0.33          4.6 
      1614.0         0.27          4.4 
      1615.0         0.30          4.7 
      1616.0         0.30          5.0 
      1617.0         0.17          5.4 
      1618.0         0.38          6.6 
      1619.0         0.63          7.2 
      1620.0         0.47          6.9 
      1621.0         0.37          7.1 
      1622.0         0.50          6.7 
      1623.0         0.60          5.0 
      1624.0         0.47          4.6 
      1625.0         0.48          7.7 
      1626.0         0.50         14.2 
      1627.0         0.63         27.4 
      1628.0         0.57         37.3 
      1629.0         0.17         39.5 
      1630.0         0.10         40.9 
      1631.0         4.80        945.5 
      1632.0         0.70        986.0 
      1633.0         0.43       1058.7 
      1634.0         0.47       1056.1 
      1635.0         0.43       2540.5 
      1636.0         0.40       2404.4 
      1637.0         0.47       1472.1 
      1638.0         0.52        829.0 
      1639.0         0.47        440.0 
      1640.0         0.17        139.2 
      1641.0         0.13        118.4 
      1642.0         0.10        102.5 
      1643.0         0.10         84.6 
      1644.0         0.10         76.1 
      1645.0         0.10         65.5 
      1646.0         0.10         60.4 
      1647.0         0.10         52.8 
      1648.0         0.53         46.9 
      1649.0         0.47         26.4 
      1650.0         0.33         17.9 
      1651.0         0.45         19.1 
      1652.0         0.30         12.9 
      1653.0         0.37         11.9 
      1654.0         0.33         14.8 
      1655.0         0.37         17.6 
      1656.0         0.33         20.3 
      1657.0         0.43         29.8 
      1658.0         0.33         38.9 
      1659.0         0.33         38.0 
      1660.0         0.35         32.3 
      1661.0         5.08         37.1 
      1662.0         1.03         25.1 
      1663.0         0.17         23.4 
      1664.0         0.17         22.9 
      1665.0         5.77        397.5 
      1666.0         2.82         12.3 
      1667.0         0.07          9.1 
      1668.0         0.10         10.3 
      1669.0         0.47         15.1 
      1670.0         0.23         19.3 
      1671.0         0.27         29.9 
      1672.0         0.20         32.5 
      1673.0         0.27         34.4 
      1674.0         0.25         37.8 
      1675.0         0.17         43.3 
      1676.0         0.13         46.5 
      1677.0         0.17         53.3 
      1678.0         0.20         62.1 
      1679.0         0.17         67.0 
      1680.0         0.17         70.0 
      1681.0         0.27         85.8 
      1682.0         0.33         87.1 
      1683.0         0.40         81.7 
      1684.0         0.63         83.3 
      1685.0         0.62         81.0 
      1686.0         0.57         74.3 
      1687.0         0.43         53.5 
      1688.0         0.83         38.9 
      1689.0         0.20         15.4 
      1690.0         0.27         11.3 
      1691.0         9.72        114.9 
      1692.0         5.10       1158.8 
      1693.0         0.53         44.5 
      1694.0         0.57         21.3 
      1695.0         0.70         12.9 
      1696.0         0.10          6.4 
      1697.0         0.20          6.1 
      1698.0         0.07          6.0 
      1699.0         0.20          9.3 
      1700.0         0.65          9.2 
      1701.0         0.87         11.1 
      1702.0         0.37         12.1 
      1703.0         0.13         13.0 
      1704.0         0.10         13.8 
      1705.0         0.13         15.3 
      1706.0         0.27         18.6 
