~Version Information
 VERS.                                  2.0 : CWLS LAS VERSION
 WRAP.                                   NO : WRAPING MODE
 SWARE .                 MController 2.5.0N : SOFTWARE VERSION
~Well Information
 WELL.                    Hellzonfire 32-31 : WELL
 COMP.    Pioneer Natural Resources USA Inc : COMPANY
 FLD.                      Purgatoire River : FIELD
 LOC.                 SW/NE SEC31 T32S R66W : LOCATION
 DATE.                             09/01/05 : DATE(S) LOGGED
 SRVC.       Blanco Geological Services LLC : SERVICE COMPANY
 STAT.                             Colorado : STATE
 CNTY.                           Las Animas : COUNTY
 CTRY.                                  USA : COUNTRY
 API.                       05-071-08483-00 : API NUMBER
 STRT.FT                             356.00 : START DEPTH
 STOP.FT                            2480.00 : STOP DEPTH
 STEP.FT                               1.00 : DEPTH INCREMENT
 NULL.                                -9999 : NULL VALUE
~Curve information
 DEPTH.FT                                   :
 ROP.MIN/FT                                 :
 GAS.UNITS                                  :
~ASCII Log data
# ...
      2356.0         0.30       1548.3 
      2357.0         0.33       1547.4 
      2358.0         0.30       1524.5 
      2359.0         0.23       1518.0 
      2360.0         0.27       1511.6 
      2361.0         0.30       1500.0 
      2362.0         0.27       1549.6 
      2363.0         0.30       1578.0 
      2364.0         0.32       1582.8 
      2365.0         0.30       1566.0 
      2366.0         3.48       1807.1 
      2367.0         0.23       1811.9 
      2368.0         0.37       1967.3 
      2369.0         0.47       1986.0 
      2370.0         0.40       1975.6 
      2371.0         0.40       1891.5 
      2372.0         0.37       1702.4 
      2373.0         0.32       1618.3 
      2374.0         0.33       1545.1 
      2375.0         0.33       1534.5 
      2376.0         0.33       1534.8 
      2377.0         0.33       1528.7 
      2378.0         0.37       1518.7 
      2379.0         0.57       1476.5 
      2380.0         0.40       1425.5 
      2381.0         0.30       1397.5 
      2382.0         0.30       1408.5 
      2383.0         0.35       1411.4 
      2384.0         0.30       1421.0 
      2385.0         0.33       1421.3 
      2386.0         0.30       1421.0 
      2387.0         0.33       1416.5 
      2388.0         0.33       1407.8 
      2389.0         0.33       1403.0 
      2390.0         0.30       1375.6 
      2391.0         0.33       1373.7 
      2392.0         0.30       1386.2 
      2393.0         0.32       1394.0 
      2394.0         0.33       1392.3 
      2395.0         0.33       1372.4 
      2396.0         3.95       1775.8 
      2397.0         0.47       1815.2 
      2398.0         0.83       1844.2 
      2399.0         0.60       1660.5 
      2400.0         0.78       1426.8 
      2401.0         0.70       1383.0 
      2402.0         0.80       1379.8 
      2403.0         0.53       1326.0 
      2404.0         0.78       1269.9 
      2405.0         0.70       1235.1 
      2406.0         0.70       1220.6 
      2407.0         0.70       1201.9 
      2408.0         0.57       1215.7 
      2409.0         0.40       1237.3 
      2410.0         0.48       1253.8 
      2411.0         0.40       1250.9 
      2412.0         0.40       1259.6 
      2413.0         0.50       1259.2 
      2414.0         0.50       1259.2 
      2415.0         0.57       1260.2 
      2416.0         0.43       1247.3 
      2417.0         0.38       1219.3 
      2418.0         0.40       1192.5 
      2419.0         0.40       1162.2 
      2420.0         0.33       1148.4 
      2421.0         0.40       1145.2 
      2422.0         0.47       1214.1 
      2423.0         0.40       1240.9 
      2424.0         0.43       1237.0 
      2425.0         0.38       1179.3 
      2426.0         3.07       1515.4 
      2427.0         0.62       1737.2 
      2428.0         0.70       1821.6 
      2429.0         0.60       1753.9 
      2430.0         0.47       1579.9 
      2431.0         0.47       1475.8 
      2432.0         0.47       1308.6 
      2433.0         0.45       1255.7 
      2434.0         0.40       1255.7 
      2435.0         0.33       1249.6 
      2436.0         0.27       1229.9 
      2437.0         0.33       1215.1 
      2438.0         0.33       1189.3 
      2439.0         0.27       1182.2 
      2440.0         0.30       1164.5 
      2441.0         0.27       1138.7 
      2442.0         0.30       1146.5 
      2443.0         0.32       1154.8 
      2444.0         0.33       1169.3 
      2445.0         0.33       1166.1 
      2446.0         0.33       1165.5 
      2447.0         0.33       1157.1 
      2448.0         0.37       1185.4 
      2449.0         0.33       1195.4 
      2450.0         0.37       1198.0 
      2451.0         0.33       1209.9 
      2452.0         0.37       1209.3 
      2453.0         0.38       1191.2 
      2454.0         0.40       1188.7 
      2455.0         0.37       1137.1 
      2456.0         1.70       1045.6 
      2457.0         0.23       1010.8 
      2458.0         0.17       1091.7 
      2459.0         0.17       1210.3 
      2460.0         0.15       1356.9 
      2461.0         0.50       1460.3 
      2462.0         0.53       1592.1 
      2463.0         0.30       1597.9 
      2464.0         0.50       1564.1 
      2465.0         0.37       1459.1 
      2466.0         0.37       1356.9 
      2467.0         0.33       1267.9 
      2468.0         0.30       1227.3 
      2469.0         0.35       1217.0 
      2470.0         0.30       1214.8 
      2471.0         0.27       1225.1 
      2472.0         0.30       1223.5 
      2473.0         0.27       1213.8 
      2474.0         0.33       1196.7 
      2475.0         0.23       1164.2 
      2476.0         0.27       1157.1 
      2477.0         0.43       1150.6 
      2478.0         0.23       1143.9 
      2479.0         0.30       1140.3 
      2480.0         0.28       1137.4 
