~Version Information
VERS.                      2.0: CWLS Log ASCII Standard - VERSION 2.0
WRAP.                       NO: One line per depth step
~Well Information Block
STRT.FT               245.0000: 
STOP.FT              1273.7000: 
STEP.FT                 0.1000: 
NULL.                -999.2500: 
COMP.          Pioneer Natural Resources: COMPANY
WELL.                 Ray 34-6: WELL
FLD.           Purgatoire River: FIELD
LOC.           684' FSL & 2254' FEL--: LOCATION
CNTY.               Las Animas: COUNTY
SRVC.                Patterson: SERVICE COMPANY
DATE.          Fri May 26 09:17:30 2006: LOG DATE
UWI.           05 071 08695 00: UNIQUE WELL ID
STAT.                 Colorado: STATE
~Curve Information Block
DEPT.FT            0 000 00 00: Depth
DCAL.in                       : CDL Caliper
RHOB.g/cc                     : CDL Bulk Density
RHOC.g/cc                     : CDL Density Correction
DPOR.pu                       : CDL Density Porosity
NPOR.pu                       : Neutron Porosity
GR.GAPI                       : Gamma Ray
~Parameter Information Block
~A  Depth       DCAL        RHOB        RHOC        DPOR        NPOR         GR     
# ...
   907.4000      7.9559      2.5432      0.0599      6.4716     20.6628     80.4322
   907.5000      7.9555      2.5463      0.0595      6.2867     20.3880     82.5292
   907.6000      7.9555      2.5349      0.0341      6.9737     20.2189     82.9967
   907.7000      7.9555      2.5330      0.0331      7.0901     20.1646     83.1952
   907.8000      7.9543      2.5412      0.0623      6.5936     20.2173     86.1132
   907.9000      7.9543      2.5419      0.0468      6.5543     20.5144     91.4075
   908.0000      7.9514      2.5300      0.0532      7.2728     20.9215     94.9819
   908.1000      7.9514      2.5167      0.0359      8.0788     21.1420     95.3685
   908.2000      7.9514      2.5163      0.0273      8.1018     21.1005     94.7016
   908.3000      7.9471      2.5314      0.0572      7.1907     21.0093     92.9510
   908.4000      7.9471      2.5516      0.0244      5.9623     21.0131     89.1803
   908.5000      7.9450      2.5667      0.0662      5.0470     20.9860     86.0079
   908.6000      7.9450      2.5719      0.0798      4.7306     20.8494     84.8737
   908.7000      7.9450      2.5801     -0.0145      4.2351     20.6739     83.6784
   908.8000      7.9472      2.6014      0.0821      2.9479     20.5596     81.1812
   908.9000      7.9472      2.6143      0.0902      2.1611     20.5739     77.9401
   909.0000      7.9483      2.6020      0.0885      2.9100     20.7500     75.1308
   909.1000      7.9483      2.5761      0.0531      4.4793     21.0145     75.4308
   909.2000      7.9483      2.5547      0.0468      5.7787     21.4005     77.7008
   909.3000      7.9454      2.5418      0.0310      6.5573     21.9906     77.3140
   909.4000      7.9454      2.5288      0.0388      7.3477     22.4306     75.0817
   909.5000      7.9408      2.5137     -0.0154      8.2590     22.2839     75.0604
   909.6000      7.9408      2.5086      0.0001      8.5704     21.8307     77.1650
   909.7000      7.9408      2.5154      0.0324      8.1574     21.6686     77.7753
   909.8000      7.9361      2.5196      0.0248      7.9008     21.7529     74.2219
   909.9000      7.9361      2.5157      0.0102      8.1392     21.7766     66.5781
   910.0000      7.9338      2.5076      0.0347      8.6324     21.8136     58.1890
   910.1000      7.9338      2.4933      0.0112      9.4970     21.9767     52.9255
   910.2000      7.9338      2.4777     -0.0126     10.4422     22.0544     51.6770
   910.3000      7.9338      2.4692      0.0193     10.9589     21.7792     53.3557
   910.4000      7.9338      2.4682     -0.0288     11.0200     21.1795     57.2066
   910.5000      7.9350      2.4792      0.0333     10.3517     20.6583     62.1519
   910.6000      7.9350      2.4992      0.0576      9.1374     20.5921     65.1166
   910.7000      7.9350      2.5131      0.1017      8.2955     20.9247     64.4516
   910.8000      7.9362      2.5170      0.0678      8.0591     21.1423     63.8461
   910.9000      7.9362      2.5186      0.0681      7.9651     20.9326     66.0383
   911.0000      7.9355      2.5209      0.0888      7.8237     20.5314     66.6835
   911.1000      7.9355      2.5224      0.1023      7.7341     20.1083     62.9342
   911.2000      7.9355      2.5166      0.1124      8.0878     19.7336     60.0148
   911.3000      7.9362      2.5040      0.0542      8.8488     19.5775     61.2833
   911.4000      7.9362      2.5011      0.0758      9.0241     19.5962     63.1873
   911.5000      7.9384      2.5081      0.1303      8.6001     19.5835     62.9975
   911.6000      7.9384      2.5015      0.1319      9.0011     19.3853     60.2582
   911.7000      7.9384      2.4763      0.0366     10.5287     18.8550     55.3934
   911.8000      7.9386      2.4557      0.0146     11.7744     18.3007     51.2005
   911.9000      7.9386      2.4533      0.0587     11.9195     18.1562     49.9195
   912.0000      7.9367      2.4550      0.0790     11.8203     18.2810     51.2767
   912.1000      7.9367      2.4444      0.0729     12.4616     18.4504     54.2406
   912.2000      7.9367      2.4337      0.0043     13.1118     18.5701     56.7003
   912.3000      7.9363      2.4459      0.0356     12.3699     18.6385     56.7286
   912.4000      7.9363      2.4787      0.0475     10.3827     18.7732     55.6172
   912.5000      7.9400      2.5108      0.1096      8.4380     18.9268     57.1364
   912.6000      7.9400      2.5235      0.0737      7.6683     18.8750     62.6885
   912.7000      7.9400      2.5144      0.0632      8.2210     18.5354     67.4315
   912.8000      7.9440      2.4955      0.0396      9.3652     18.0906     68.2749
   912.9000      7.9440      2.4794      0.0599     10.3393     17.8472     68.1691
   913.0000      7.9473      2.4738      0.0153     10.6796     17.9508     67.4893
   913.1000      7.9473      2.4794      0.0604     10.3408     18.1395     64.8002
   913.2000      7.9473      2.4916      0.0432      9.6003     18.0915     62.6635
   913.3000      7.9501      2.5101      0.0643      8.4782     17.8176     61.1262
   913.4000      7.9501      2.5279      0.1027      7.3989     17.4950     58.5125
   913.5000      7.9500      2.5292      0.0899      7.3239     17.3549     58.0706
   913.6000      7.9500      2.5115      0.0743      8.3931     17.5671     59.4851
   913.7000      7.9500      2.4875      0.0322      9.8489     17.9798     57.2476
   913.8000      7.9485      2.4708      0.0269     10.8626     18.2900     52.4768
   913.9000      7.9485      2.4687      0.0190     10.9895     18.3984     51.2218
   914.0000      7.9480      2.4707      0.0556     10.8637     18.2061     54.5636
   914.1000      7.9480      2.4583      0.0500     11.6174     17.5764     58.4872
   914.2000      7.9480      2.4349      0.0237     13.0370     16.7781     59.6061
   914.3000      7.9460      2.4172      0.0084     14.1093     16.4283     57.0840
   914.4000      7.9460      2.4081      0.0314     14.6608     16.7383     53.2383
   914.5000      7.9408      2.3994      0.0462     15.1876     17.1942     52.6002
   914.6000      7.9408      2.3888      0.0268     15.8324     17.2588     56.0637
   914.7000      7.9408      2.3819     -0.0043     16.2480     16.9734     60.3488
   914.8000      7.9373      2.3851      0.0358     16.0540     16.6791     62.8969
   914.9000      7.9373      2.4008      0.0225     15.1055     16.5654     61.7831
   915.0000      7.9363      2.4262      0.0575     13.5608     16.6680     56.4752
   915.1000      7.9363      2.4478      0.1086     12.2538     16.8746     50.2529
   915.2000      7.9363      2.4538      0.0812     11.8936     16.9911     47.5688
   915.3000      7.9360      2.4483      0.0947     12.2264     17.0169     49.3063
   915.4000      7.9360      2.4384      0.0580     12.8257     17.0391     51.6098
   915.5000      7.9366      2.4320      0.0523     13.2094     17.0018     50.6530
   915.6000      7.9366      2.4334      0.0983     13.1289     16.8733     48.0460
   915.7000      7.9366      2.4387      0.0851     12.8069     16.8293     46.7298
   915.8000      7.9365      2.4439      0.0862     12.4894     16.9176     47.4868
   915.9000      7.9365      2.4485      0.0983     12.2121     17.0799     50.7537
   916.0000      7.9365      2.4570      0.1080     11.6978     17.3168     54.8567
   916.1000      7.9365      2.4680      0.0941     11.0333     17.5056     56.5278
   916.2000      7.9365      2.4700      0.1034     10.9103     17.6028     57.6223
   916.3000      7.9383      2.4624      0.0833     11.3697     17.6489     62.2343
   916.4000      7.9383      2.4628      0.0599     11.3442     17.5558     67.7291
   916.5000      7.9378      2.4725      0.1342     10.7573     17.4228     71.5130
   916.6000      7.9378      2.4731      0.0728     10.7241     17.5094     74.0809
   916.7000      7.9378      2.4675      0.0604     11.0624     17.7957     74.3802
   916.8000      7.9341      2.4752      0.0564     10.5917     17.9865     72.7772
   916.9000      7.9341      2.5035      0.1062      8.8764     17.9364     71.2065
