~Version Information
VERS.                      2.0: CWLS Log ASCII Standard - VERSION 2.0
WRAP.                       NO: One line per depth step
~Well Information Block
STRT.FT                14.0000: 
STOP.FT              1631.0000: 
STEP.FT                 0.1000: 
NULL.                -999.2500: 
COMP.          Pioneer Natural Resources: COMPANY
WELL.            Bluesky 44-17: WELL
FLD.           Purgatorie River: FIELD
LOC.           39' FSL & 288' FEL: LOCATION
STAT.                 Colorado: State
CNTY.               Las Animas: COUNTY
CTRY. USA : Country
SECT. 17 : Section
TOWN. 33S : Township
RANG. 66W : Range
SRVC.                Patterson: SERVICE COMPANY
DATE.          Thu Sep 08 07:30:20 2005: LOG DATE
API. 05-071-08511                         : UNIQUE WELL ID
~Curve Information Block
DEPT.FT            0 000 00 00: Depth
DCAL.in                       : CDL Caliper
RHOB.g/cc                     : CDL Bulk Density
RHOC.g/cc                     : CDL Density Correction
DPOR.pu                       : CDL Density Porosity
GR.GAPI                       : Gamma Ray
NPOR.pu                       : Neutron Porosity
~Parameter Information Block
~A  Depth       DCAL        RHOB        RHOC        DPOR         GR         NPOR    
# ...
   225.2000     18.2043      2.0968      2.0000     -0.0111     91.6206     17.9144
   225.3000     18.2022      2.0614      2.0000     -0.0118     87.4493     18.3763
   225.4000     18.2022      2.0588      2.0000     -0.0118     85.0406     19.1316
   225.5000     18.1989      2.0982      2.0000     -0.0110     84.3568     19.6335
   225.6000     18.1989      2.1506      2.0000     -0.0100     86.3811     19.8837
   225.7000     18.1989      2.1721      2.0000     -0.0096     90.7411     20.1504
   225.8000     18.1989      2.1389      2.0000     -0.0102     93.8058     20.3601
   225.9000     18.1989      2.0385      2.0000     -0.0122     94.1907     20.5418
   226.0000     18.2018      1.8614      2.0000     -0.0158     94.8146     20.7098
   226.1000     18.2018      1.6240      2.0000     -0.0205     97.0978     20.7793
   226.2000     18.2018      1.3805      2.0000     -0.0254     97.2285     20.7040
   226.3000     18.2005      1.1839      2.0000     -0.0293     94.9621     20.4501
   226.4000     18.2005      1.0670      2.0000     -0.0317     95.6252     20.2339
   226.5000     18.1955      1.0581      2.0000     -0.0319    100.0178     20.4023
   226.6000     18.1955      1.1543      2.0000     -0.0299    102.6542     20.7613
   226.7000     18.1955      1.2958      2.0000     -0.0271    100.6074     20.9764
   226.8000     18.1970      1.4080      2.0000     -0.0249     97.5995     21.3194
   226.9000     18.1970      1.4514      2.0000     -0.0240     96.0401     21.7551
   227.0000     18.1990      1.4301      2.0000     -0.0244     94.4319     21.5878
   227.1000     18.1990      1.3695      2.0000     -0.0256     92.4366     20.8986
   227.2000     18.1990      1.2957      2.0000     -0.0271     91.1078     20.4092
   227.3000     18.2042      1.2259      2.0000     -0.0285     90.9784     20.0895
   227.4000     18.2042      1.1661      2.0000     -0.0297     91.8911     19.6923
   227.5000     18.2038      1.1222      2.0000     -0.0306     93.3299     19.4027
   227.6000     18.2038      1.0979      2.0000     -0.0311     94.2357     19.2522
   227.7000     18.2038      1.0861      2.0000     -0.0313     92.9700     19.2612
   227.8000     18.2043      1.0809      2.0000     -0.0314     88.8740     19.4094
   227.9000     18.2043      1.0887      2.0000     -0.0312     86.1098     19.5208
   228.0000     18.2087      1.1198      2.0000     -0.0306     89.9099     19.7022
   228.1000     18.2087      1.1695      2.0000     -0.0296     96.0591     19.9880
   228.2000     18.2087      1.2172      2.0000     -0.0287     96.1938     20.2689
   228.3000     18.2112      1.2550      2.0000     -0.0279     91.7403     20.5325
   228.4000     18.2112      1.2968      2.0000     -0.0271     89.8661     20.6910
   228.5000     18.2101      1.3483      2.0000     -0.0260     91.5094     20.5007
   228.6000     18.2101      1.4045      2.0000     -0.0249     92.3263     20.0099
   228.7000     18.2101      1.4661      2.0000     -0.0237     90.3985     19.8165
   228.8000     18.2078      1.5346      2.0000     -0.0223     87.0789     20.2583
   228.9000     18.2078      1.6032      2.0000     -0.0209     84.5977     20.8328
   229.0000     18.2073      1.6639      2.0000     -0.0197     83.6860     20.9187
   229.1000     18.2073      1.7173      2.0000     -0.0187     84.0290     20.4965
   229.2000     18.2073      1.7679      2.0000     -0.0177     86.2377     20.1477
   229.3000     18.2123      1.8093      2.0000     -0.0168     90.3772     20.0688
   229.4000     18.2123      1.8381      2.0000     -0.0162     95.3177     19.8409
   229.5000     18.2045      1.8672      2.0000     -0.0157     96.5877     19.4660
   229.6000     18.2045      1.9036      2.0000     -0.0149     93.3188     19.3052
   229.7000     18.2045      1.9404      2.0000     -0.0142     91.4394     19.3412
   229.8000     18.2015      1.9726      2.0000     -0.0136     91.2189     19.1762
   229.9000     18.2015      2.0025      2.0000     -0.0130     90.5417     18.6677
   230.0000     18.2028      2.0342      2.0000     -0.0123     91.4326     18.3319
   230.1000     18.2028      2.0713      2.0000     -0.0116     93.0002     18.4661
   230.2000     18.2028      2.1110      2.0000     -0.0108     92.0151     18.9349
   230.3000     18.2072      2.1432      2.0000     -0.0101     88.3581     19.6293
   230.4000     18.2072      2.1648      2.0000     -0.0097     84.2830     19.9668
   230.5000     18.2085      2.1810      2.0000     -0.0094     80.2060     19.3840
   230.6000     18.2085      2.1922      2.0000     -0.0092     76.0386     18.4689
   230.7000     18.2085      2.2013      2.0000     -0.0090     74.7056     18.3242
   230.8000     18.2072      2.2148      2.0000     -0.0087     77.3484     19.2233
   230.9000     18.2072      2.2292      2.0000     -0.0084     79.2827     20.1018
   231.0000     18.2107      2.2376      2.0000     -0.0083     76.7761     20.0598
   231.1000     18.2107      2.2357      2.0000     -0.0083     71.8014     19.4735
   231.2000     18.2107      2.2270      2.0000     -0.0085     68.6333     18.9357
   231.3000     18.2092      2.2240      2.0000     -0.0085     70.2187     18.6807
   231.4000     18.2092      2.2319      2.0000     -0.0084     74.5525     18.8060
   231.5000     18.2088      2.2405      2.0000     -0.0082     77.0090     19.1081
   231.6000     18.2088      2.2398      2.0000     -0.0082     77.5380     19.0771
   231.7000     18.2088      2.2312      2.0000     -0.0084     79.2137     18.7683
   231.8000     18.2088      2.2227      2.0000     -0.0086     82.7829     18.9001
   231.9000     18.2088      2.2210      2.0000     -0.0086     86.1240     19.5690
   232.0000     18.2147      2.2223      2.0000     -0.0086     87.0439     20.1245
   232.1000     18.2147      2.2193      2.0000     -0.0086     86.9126     20.3831
   232.2000     18.2147      2.2196      2.0000     -0.0086     89.1499     20.7089
   232.3000     18.2079      2.2348      2.0000     -0.0083     95.0679     21.3129
   232.4000     18.2079      2.2569      2.0000     -0.0079    103.5616     22.1877
   232.5000     18.2096      2.2678      2.0000     -0.0076    110.3471     23.1710
   232.6000     18.2096      2.2656      2.0000     -0.0077    110.7067     23.8129
   232.7000     18.2096      2.2659      2.0000     -0.0077    106.7263     23.6833
   232.8000     18.2081      2.2757      2.0000     -0.0075    102.7076     23.1310
   232.9000     18.2081      2.2839      2.0000     -0.0073    100.3776     23.0875
   233.0000     18.2091      2.2863      2.0000     -0.0073    101.6957     23.7858
   233.1000     18.2091      2.2919      2.0000     -0.0072    107.1476     24.4341
   233.2000     18.2091      2.3004      2.0000     -0.0070    113.2723     24.6045
   233.3000     18.2117      2.3020      2.0000     -0.0070    116.5828     24.7349
   233.4000     18.2117      2.2980      2.0000     -0.0070    118.1021     24.8048
   233.5000     18.2148      2.3016      2.0000     -0.0070    120.8135     24.5511
   233.6000     18.2148      2.3211      2.0000     -0.0066    124.2456     24.3722
   233.7000     18.2148      2.3470      2.0000     -0.0061    124.9008     24.5109
   233.8000     18.2129      2.3610      2.0000     -0.0058    121.3051     24.8574
   233.9000     18.2129      2.3541      2.0000     -0.0059    118.7498     25.1671
   234.0000     18.2107      2.3366      2.0000     -0.0063    120.9048     25.0789
   234.1000     18.2107      2.3317      2.0000     -0.0064    122.8849     24.5900
   234.2000     18.2107      2.3477      2.0000     -0.0060    120.8595     24.1169
   234.3000     18.2122      2.3687      2.0000     -0.0056    117.1120     24.1293
   234.4000     18.2122      2.3820      2.0000     -0.0054    116.0851     24.4941
   234.5000     18.2168      2.3898      2.0000     -0.0052    120.3134     24.8214
   234.6000     18.2168      2.3897      2.0000     -0.0052    126.0102     25.1550
   234.7000     18.2168      2.3756      2.0000     -0.0055    128.2280     25.4449
