~Version Information
VERS.                      2.0: CWLS Log ASCII Standard - VERSION 2.0
WRAP.                       NO: One line per depth step
~Well Information Block
STRT.FT                -7.5000: 
STOP.FT              1517.5000: 
STEP.FT                 0.2500: 
NULL.                -999.2500: 
COMP.          Pioneer Natural Resources: COMPANY
WELL.          McClaren 13-34 Tr: WELL
FLD.           Purgatorie River: FIELD
LOC.           1934' FSL & 826' WL--: LOCATION
PROV.                       CO: PROVINCE
CNTY.               Las Animas: COUNTRY
SRVC.          Patterson Wireline: SERVICE COMPANY
DATE.          Fri Jul 15 13:10:35 2005: LOG DATE
UWI.           05 071 08437 00: UNIQUE WELL ID
~Curve Information Block
DEPT.FT            0 000 00 00: Depth
CCL.                          : Casing Collar Locator
TT3.usec                      : CBL 3' Travel Time
AMP3.mV                       : CBL 3' Amplitude
GR.GAPI                       : Gamma Ray
~Parameter Information Block
~A  Depth       CCL         TT3         AMP3         GR     
# ...
  1399.5000      0.0000    700.6548     10.6854    169.4522
  1399.7500      0.0000    718.3321     10.7320    172.3255
  1400.0000      0.0000    739.4912     10.7478    177.4795
  1400.2500      0.0000    754.3227     10.7542    185.2810
  1400.5000      0.0000    759.2697     10.7478    194.0012
  1400.7500      0.0000    755.8035     10.6808    200.4403
  1401.0000      0.0000    748.1705     10.4660    201.1984
  1401.2500      0.0000    741.5833     10.0347    194.5160
  1401.5000      0.0000    739.6108      9.4140    181.6598
  1401.7500      0.0000    742.3976      8.7373    166.2468
  1402.0000      0.0000    748.2059      8.1611    152.0006
  1402.2500      0.0000    755.9813      7.7771    141.1437
  1402.5000      2.0000    765.4235      7.5924    134.3073
  1402.7500      1.6785    775.3854      7.5536    131.2873
  1403.0000      0.0000    783.5800      7.5849    131.7034
  1403.2500      0.0000    787.7429      7.6580    134.8503
  1403.5000      0.0000    786.8406      7.8567    139.0720
  1403.7500      0.0000    781.8590      8.3177    142.0524
  1404.0000      0.0000    775.6996      9.0466    142.2401
  1404.2500      0.0000    771.4913      9.8340    139.7124
  1404.5000      0.0000    770.5021     10.4159    135.6730
  1404.7500      0.0000    771.8666     10.6861    131.6893
  1405.0000      0.0000    774.0106     10.7188    129.1712
  1405.2500      0.0000    775.8532     10.6463    128.5726
  1405.5000      0.0000    776.9733     10.5733    129.1181
  1405.7500      0.0000    777.3494     10.5639    130.1068
  1406.0000      0.0000    777.1799     10.6350    132.2382
  1406.2500      0.0000    776.7387     10.7451    136.7890
  1406.5000      0.0000    776.2310     10.8129    143.3905
  1406.7500      0.0000    775.7422     10.7648    149.2915
  1407.0000      0.0000    775.2836     10.5793    151.3121
  1407.2500      0.0000    774.8662     10.3042    148.5856
  1407.5000      0.0000    774.5264     10.0349    143.2636
  1407.7500      0.0000    774.3310      9.8676    138.7145
  1408.0000      0.0000    774.4336      9.8502    137.2707
  1408.2500      0.0000    775.1889      9.9660    139.3868
  1408.5000      0.0000    777.1342     10.1497    144.1038
  1408.7500      0.0000    780.5328     10.3203    149.7522
  1409.0000      0.0000    784.6190     10.4108    154.4323
  1409.2500      0.0000    787.5052     10.3901    156.5646
  1409.5000      0.0000    787.5090     10.2752    155.5834
  1409.7500      0.0000    784.9423     10.1276    152.3610
  1410.0000      0.0000    782.3899     10.0262    148.8194
  1410.2500      0.0000    782.9974     10.0195    146.6515
  1410.5000      0.0000    788.4147     10.0939    146.0093
  1410.7500      0.0000    798.1381     10.1922    145.4788
  1411.0000      0.0000    810.3133     10.2660    143.5308
  1411.2500      0.0000    822.6725     10.3106    140.0132
  1411.5000      0.0000    832.8363     10.3578    136.1388
  1411.7500      0.0000    838.7928     10.4476    133.1603
  1412.0000      0.0000    840.0314     10.5966    131.2224
  1412.2500      0.0000    837.8891     10.7755    129.4301
  1412.5000      0.0000    834.0650     10.9160    126.8472
  1412.7500      0.0000    828.8359     10.9532    123.3478
  1413.0000      0.0000    821.1514     10.8664    119.5653
  1413.2500      0.0000    810.2586     10.6881    116.2414
  1413.5000      0.0000    796.7704     10.4902    113.6891
  1413.7500      0.0000    782.2023     10.3586    111.7005
  1414.0000      0.0000    767.9182     10.3519    109.6914
  1414.2500      0.0000    754.7903     10.4606    106.8746
  1414.5000      0.0000    743.4165     10.6081    102.6765
  1414.7500      0.0000    733.9730     10.7078     97.4045
  1415.0000      0.0000    725.9965     10.7300     92.3841
  1415.2500      0.0000    718.8600     10.7185     89.0018
  1415.5000      0.0000    712.4681     10.7399     87.4571
  1415.7500      0.0000    707.2981     10.8148     86.6256
  1416.0000      0.0000    703.8927     10.8929     85.2656
  1416.2500      0.0000    702.4025     10.8966     83.1922
  1416.5000      0.0000    702.7081     10.7970     81.1138
  1416.7500      0.0000    705.0297     10.6492     79.6986
  1417.0000      0.0000    710.1455     10.5486     79.2718
  1417.2500      0.0000    718.4703     10.5455     79.8917
  1417.5000      0.0000    728.6742     10.6004     80.8159
  1417.7500      0.0000    737.1091     10.6202     80.2958
  1418.0000      0.0000    739.2946     10.5456     76.9706
  1418.2500      0.0000    733.3964     10.4152     71.5506
  1418.5000      0.0000    722.2839     10.3437     66.6320
  1418.7500      0.0000    710.9662     10.4204     64.7747
  1419.0000      0.0000    701.9135     10.6164     66.8077
  1419.2500      0.0000    693.1454     10.7946     71.6322
  1419.5000      0.0000    679.8639     10.8240     77.3733
  1419.7500      0.0000    657.9618     10.6975     82.6877
  1420.0000      0.0000    627.6321     10.5454     87.0658
  1420.2500      0.0000    593.4413     10.5246     90.3431
  1420.5000      0.0000    559.2024     10.6839     92.4516
  1420.7500      0.0000    524.5063     10.9382     93.5650
  1421.0000      0.0000    489.5757     11.1636     94.1026
  1421.2500      0.0000    462.0087     11.2970     94.6518
  1421.5000      0.0000    454.6440     11.3460     96.1355
  1421.7500      0.0000    475.9707     11.3329     99.5915
  1422.0000      0.0000    522.8755     11.2555    105.1328
  1422.2500      0.0000    580.6637     11.1017    111.3321
  1422.5000      0.0000    630.2368     10.8879    116.0386
  1422.7500      0.0000    659.3226     10.6740    117.6200
  1423.0000      0.0000    669.5640     10.5274    115.3901
  1423.2500      0.0000    672.1995     10.4645    109.3973
  1423.5000      0.0000    676.2729     10.4365    100.3449
  1423.7500      0.0000    681.7954     10.3828     89.6958
  1424.0000      0.0000    683.1089     10.2949     79.5185
  1424.2500      0.0000    675.9317     10.2145     71.9837
  1424.5000      0.0000    661.3478     10.1783     68.8015
  1424.7500      0.0000    646.2591     10.1816     70.6068
  1425.0000      0.0000    639.5874     10.1983     76.2148
  1425.2500      0.0000    644.2226     10.2149     82.5812
  1425.5000      0.0000    651.9623     10.2349     86.3916
  1425.7500      0.0000    648.5853     10.2647     86.2885
  1426.0000      0.0000    625.3295     10.3072     83.5311
  1426.2500      0.0000    586.6837     10.3607     80.4817
  1426.5000      0.0000    548.6953     10.4156     78.5636
  1426.7500      0.0000    528.8365     10.4600     77.6000
  1427.0000      0.0000    535.3297     10.4913     76.7857
  1427.2500      0.0000    564.0093     10.5148     75.8369
  1427.5000      0.0000    602.0940     10.5354     75.0465
  1427.7500      0.0000    633.8962     10.5546     74.7269
  1428.0000      0.0000    646.5923     10.5631     75.1727
  1428.2500      0.0000    634.9171     10.5334     76.9034
  1428.5000      0.0000    602.2485     10.4387     80.1435
  1428.7500      0.0000    557.8564     10.2970     83.9188
  1429.0000      0.0000    512.0817     10.1773     86.2220
  1429.2500      0.0000    471.8802     10.1438     85.4039
  1429.5000      0.0000    439.1670     10.2006     81.3508
  1429.7500      0.0000    412.5166     10.3085     75.4477
  1430.0000      0.0000    390.3660     10.4347     69.6414
  1430.2500      0.0000    372.7725     10.5575     65.4238
  1430.5000      0.0000    360.5755     10.6455     63.3445
  1430.7500      0.0000    353.6465     10.6712     63.2451
  1431.0000      0.0000    350.5499     10.6458     64.8124
  1431.2500      0.0000    349.5248     10.6107     67.7589
  1431.5000      0.0000    349.3263     10.5899     71.4102
  1431.7500      0.0000    349.3375     10.5753     74.3987
  1432.0000      0.0000    349.3380     10.5607     75.2861
  1432.2500      0.0000    349.3020     10.5611     73.7098
  1432.5000      0.0000    349.2766     10.5838     70.7125
  1432.7500      0.0000    349.3954     10.6103     67.7906
