~Version Information
VERS.                      2.0: CWLS Log ASCII Standard - VERSION 2.0
WRAP.                       NO: One line per depth step
~Well Information Block
STRT.FT               550.0000: 
STOP.FT              1979.0000: 
STEP.FT                 0.1000: 
NULL.                -999.2500: 
COMP.          Pioneer Natural Resources: COMPANY
WELL.          Flying Horse 12-11 Tr: WELL
FLD.           Purgatoire River: FIELD
LOC.           2459' FNL & 410' FWL: LOCATION
STAT.                 Colorado: PROVINCE
CNTY.               Las Animas: COUNTY
CTRY. USA : Country
SECT. 11 : Section
TOWN. 32S : Township
RANG. 66W : Range
SRVC.                Patterson: SERVICE COMPANY
DATE.          Tue Sep 06 07:09:24 2005: LOG DATE
API.           05 071 08485 00: UNIQUE WELL ID
~Curve Information Block
DEPT.FT            0 000 00 00: Depth
DCAL.in                       : CDL Caliper
RHOB.g/cc                     : CDL Bulk Density
RHOC.g/cc                     : CDL Density Correction
DPOR.pu                       : CDL Density Porosity
GR.GAPI                       : Gamma Ray
NPOR.pu                       : Neutron Porosity
~Parameter Information Block
~A  Depth       DCAL        RHOB        RHOC        DPOR         GR         NPOR    
# ...
  1116.4000      8.0614      2.6085      0.0936      2.5132     59.7316     16.5459
  1116.5000      8.1285      2.6041      0.0251      2.7792     52.8877     14.2837
  1116.6000      8.1285      2.5935      0.0482      3.4232     45.0191     13.3031
  1116.7000      8.1285      2.5761      0.0271      4.4758     42.9298     14.4125
  1116.8000      8.1825      2.5406      0.0251      6.6327     45.8002     16.1365
  1116.9000      8.1825      2.4950     -0.0919      9.3948     47.2474     16.9449
  1117.0000      8.1948      2.4623     -0.0621     11.3745     46.3768     18.2367
  1117.1000      8.1948      2.4514      0.0043     12.0380     47.5773     20.5690
  1117.2000      8.1948      2.4591     -0.0255     11.5686     52.7463     22.1283
  1117.3000      8.2061      2.4795     -0.0217     10.3344     60.2491     21.3003
  1117.4000      8.2061      2.4946      0.0067      9.4211     66.0679     18.2351
  1117.5000      8.1886      2.4926      0.0324      9.5372     66.5797     15.5665
  1117.6000      8.1886      2.4970     -0.0480      9.2712     62.5932     15.4953
  1117.7000      8.1886      2.5202      0.0208      7.8650     58.8063     17.9748
  1117.8000      8.1717      2.5364      0.0437      6.8845     58.7348     20.5897
  1117.9000      8.1717      2.5382      0.0114      6.7754     62.4354     21.5583
  1118.0000      8.1388      2.5469      0.0207      6.2495     67.0220     22.1365
  1118.1000      8.1388      2.5619      0.0194      5.3403     67.4348     22.5263
  1118.2000      8.1388      2.5591      0.0566      5.5108     62.3240     21.4084
  1118.3000      8.1309      2.5340      0.0339      7.0284     57.3166     13.7813
  1118.4000      8.1309      2.5158     -0.0298      8.1345     56.6160      9.4828
  1118.5000      8.1066      2.5246      0.0004      7.5990     56.6782      6.9251
  1118.6000      8.1066      2.5345      0.0793      6.9992     54.0267      7.4622
  1118.7000      8.1066      2.5200     -0.0000      7.8758     53.0648      9.9729
  1118.8000      8.0975      2.5015     -0.0059      9.0001     55.1111     12.5175
  1118.9000      8.0975      2.5000      0.0096      9.0921     57.0951     14.6013
  1119.0000      8.1169      2.5113     -0.0123      8.4088     60.3093     16.5879
  1119.1000      8.1169      2.5302     -0.0131      7.2577     63.4296     17.8893
  1119.2000      8.1169      2.5502      0.0448      6.0500     62.3767     18.2736
  1119.3000      8.0884      2.5533      0.0231      5.8598     58.8175     18.2617
  1119.4000      8.0884      2.5366      0.0111      6.8712     56.7319     17.4549
  1119.5000      8.1009      2.5162      0.0243      8.1086     57.0536     15.8432
  1119.6000      8.1009      2.5113     -0.0300      8.4040     58.9555     14.9860
  1119.7000      8.1009      2.5272      0.0565      7.4447     62.6863     15.8017
  1119.8000      8.1089      2.5378      0.0798      6.8001     67.1635     16.6344
  1119.9000      8.1089      2.5278      0.0457      7.4051     69.8712     14.8161
  1120.0000      8.1336      2.5183     -0.0177      7.9829     70.4097     11.8020
  1120.1000      8.1336      2.5233      0.0356      7.6802     67.0627     10.9378
  1120.2000      8.1336      2.5385     -0.0007      6.7549     60.2496     13.1432
  1120.3000      8.1094      2.5631      0.0077      5.2663     57.1055     16.7160
  1120.4000      8.1094      2.5837      0.0697      4.0178     61.8996     18.1822
  1120.5000      8.1010      2.5832      0.0756      4.0500     69.6228     17.3189
  1120.6000      8.1010      2.5720      0.0161      4.7252     73.9343     15.3085
  1120.7000      8.1010      2.5650      0.0649      5.1489     73.6471     12.7685
  1120.8000      8.1078      2.5558      0.0387      5.7116     71.0962     11.3975
  1120.9000      8.1078      2.5417      0.0474      6.5620     70.3967     12.3502
  1121.0000      8.0903      2.5326      0.0421      7.1182     70.6327     14.2252
  1121.1000      8.0903      2.5249      0.0918      7.5831     68.3592     14.9353
  1121.2000      8.0903      2.5053      0.0656      8.7697     67.1361     15.8124
  1121.3000      8.0916      2.4831     -0.0050     10.1133     70.2778     17.4583
  1121.4000      8.0916      2.4786      0.0365     10.3850     74.2549     17.2415
  1121.5000      8.0693      2.4950      0.0280      9.3923     75.3030     14.0088
  1121.6000      8.0693      2.5247      0.0504      7.5964     75.7437     10.9551
  1121.7000      8.0693      2.5551      0.1175      5.7497     79.7330     10.6018
  1121.8000      8.0099      2.5780      0.1086      4.3608     84.6601     13.2874
  1121.9000      8.0099      2.5957      0.1565      3.2906     85.2105     17.5073
  1122.0000      7.9752      2.6092      0.1418      2.4715     80.8252     20.4685
  1122.1000      7.9752      2.6074      0.1838      2.5846     72.6418     21.5269
  1122.2000      7.9752      2.5779      0.0660      4.3698     64.1461     21.4748
  1122.3000      8.0053      2.5413      0.0401      6.5875     62.7619     20.5735
  1122.4000      8.0053      2.5264      0.0428      7.4896     70.5673     18.7285
  1122.5000      8.0793      2.5277      0.0002      7.4114     78.4511     17.0118
  1122.6000      8.0793      2.5258      0.0149      7.5275     80.8651     17.1683
  1122.7000      8.0793      2.5173     -0.0333      8.0429     84.9407     19.3398
  1122.8000      8.1249      2.5170      0.0007      8.0604     93.9505     20.6239
  1122.9000      8.1249      2.5260      0.0055      7.5165    101.8934     19.8567
  1123.0000      8.1617      2.5259      0.0072      7.5201    103.7746     19.6027
  1123.1000      8.1617      2.5082     -0.0012      8.5921    100.5185     20.1707
  1123.2000      8.1617      2.4804      0.0018     10.2799     96.2182     20.3901
  1123.3000      8.1980      2.4562      0.0199     11.7447     94.4797     20.7078
  1123.4000      8.1980      2.4497      0.0173     12.1369     97.6448     21.9896
  1123.5000      8.1932      2.4684      0.0100     11.0088    108.5777     23.6068
  1123.6000      8.1932      2.5065      0.0340      8.6944    123.3737     23.4866
  1123.7000      8.1932      2.5433      0.0442      6.4662    128.9333     20.2733
  1123.8000      8.2392      2.5530      0.0889      5.8808    125.6328     16.7086
  1123.9000      8.2392      2.5358      0.0512      6.9240    125.4179     16.1394
  1124.0000      8.2242      2.5173      0.0478      8.0432    130.0890     18.6068
  1124.1000      8.2242      2.5056      0.0832      8.7543    134.1942     21.0661
  1124.2000      8.2242      2.4935      0.0412      9.4844    135.4410     22.0128
  1124.3000      8.2164      2.4870      0.0244      9.8796    134.1894     23.6498
  1124.4000      8.2164      2.4910      0.0167      9.6343    131.9262     25.9702
  1124.5000      8.1990      2.5022      0.0137      8.9606    132.3574     26.2835
  1124.6000      8.1990      2.5180     -0.0227      8.0017    135.4251     23.7404
  1124.7000      8.1990      2.5340      0.0488      7.0325    136.3113     21.3131
  1124.8000      8.1817      2.5508      0.0311      6.0127    134.5427     21.1043
  1124.9000      8.1817      2.5815      0.0983      4.1507    133.1350     22.3586
  1125.0000      8.1731      2.6205      0.1729      1.7901    133.1584     24.1586
  1125.1000      8.1731      2.6412      0.1938      0.5356    133.9313     25.2427
  1125.2000      8.1731      2.6329      0.1807      1.0356    135.0652     23.3891
  1125.3000      8.1214      2.6079      0.1421      2.5490    136.1685     20.0780
  1125.4000      8.1214      2.5886      0.1468      3.7234    135.5365     18.6760
  1125.5000      7.9984      2.5971      0.0959      3.2048    135.2232     18.9908
  1125.6000      7.9984      2.6359      0.1701      0.8560    138.6685     19.3283
  1125.7000      7.9984      2.6748      0.1726     -1.5009    144.0456     20.2122
  1125.8000      8.0492      2.6888      0.1677     -2.3511    145.7249     22.2415
  1125.9000      8.0492      2.6818      0.1685     -1.9279    140.0568     23.1085
