~Version Information
VERS.                      2.0: CWLS Log ASCII Standard - VERSION 2.0
WRAP.                       NO: One line per depth step
~Well Information Block
STRT.FT               615.0000: 
STOP.FT              1609.0000: 
STEP.FT                 0.2500: 
NULL.                -999.2500: 
COMP.          Pioneer Natural Resources: COMPANY
WELL.          Galloway 32-13 Tr: WELL
FLD.           Purgatoire River: FIELD
LOC.           1910' FNL & 2002' FEL: LOCATION
PROV.                 Colorado: PROVINCE
CNTY.               Las Animas: COUNTRY
SRVC.                Patterson: SERVICE COMPANY
DATE.          Sat Nov 12 20:19:28 2005: LOG DATE
UWI.           05 071 08608 00: UNIQUE WELL ID
~Curve Information Block
DEPT.FT            0 000 00 00: Depth
SN.Ohm-m                      : IEL Short Normal
SP.mV                         : IEL Spontaneous Potential
DIR.Ohm-m                     : IEL Induction Resistivity
GR.GAPI                       : Gamma Ray
~Parameter Information Block
~A  Depth        SN          SP         DIR          GR     
# ...
  1251.5000     25.2148     45.7152     24.8507     76.5566
  1251.7500     25.3906     45.5861     25.0938     77.3026
  1252.0000     25.6304     45.5160     25.2696     78.4044
  1252.2500     25.8811     45.5322     25.3795     79.2636
  1252.5000     25.9700     45.6626     25.4175     81.1738
  1252.7500     25.7513     45.9351     25.3755     83.0580
  1253.0000     25.2265     46.3720     25.2543     86.9189
  1253.2500     24.5632     46.9773     25.0677     90.1520
  1253.5000     24.0200     47.7229     24.8413     95.8258
  1253.7500     23.8445     48.5462     24.6116     99.9795
  1254.0000     24.1594     49.3639     24.4257    106.2065
  1254.2500     24.8632     50.0948     24.3283    109.8589
  1254.5000     25.6293     50.6839     24.3398    113.6847
  1254.7500     26.0752     51.1142     24.4383    114.8340
  1255.0000     26.0166     51.4058     24.5627    114.6803
  1255.2500     25.5459     51.5989     24.6329    113.8370
  1255.5000     24.8863     51.7340     24.5745    112.5930
  1255.7500     24.2595     51.8387     24.3421    112.3211
  1256.0000     23.8141     51.9270     23.9408    113.1739
  1256.2500     23.5554     52.0046     23.4360    114.5747
  1256.5000     23.3984     52.0724     22.9337    117.7956
  1256.7500     23.2880     52.1261     22.5380    120.5659
  1257.0000     23.1765     52.1576     22.3125    124.9697
  1257.2500     22.9973     52.1593     22.2641    127.3347
  1257.5000     22.7889     52.1286     22.3489    128.8093
  1257.7500     22.6854     52.0705     22.4930    128.1285
  1258.0000     22.7058     51.9955     22.6226    124.9462
  1258.2500     22.7234     51.9158     22.6955    121.8511
  1258.5000     22.6717     51.8411     22.7166    116.7551
  1258.7500     22.6404     51.7744     22.7264    113.6527
  1259.0000     22.7377     51.7109     22.7718    110.1883
  1259.2500     22.9388     51.6418     22.8775    108.9351
  1259.5000     23.1186     51.5627     23.0326    109.0346
  1259.7500     23.1787     51.4804     23.1952    110.5106
  1260.0000     23.0995     51.4113     23.3084    114.1170
  1260.2500     22.9723     51.3719     23.3234    116.4728
  1260.5000     22.9712     51.3686     23.2196    117.9761
  1260.7500     23.1739     51.3950     23.0241    116.6528
  1261.0000     23.4738     51.4362     22.8178    110.3360
  1261.2500     23.6882     51.4745     22.7103    103.6825
  1261.5000     23.7050     51.4956     22.7807     92.7340
  1261.7500     23.6217     51.4937     23.0130     86.7832
  1262.0000     23.7120     51.4751     23.2765     81.8824
  1262.2500     24.1238     51.4551     23.3888     81.1623
  1262.5000     24.6778     51.4467     23.2370     82.4374
  1262.7500     25.0467     51.4500     22.8465     84.1480
  1263.0000     25.0589     51.4536     22.3298     87.6592
  1263.2500     24.7457     51.4454     21.7841     90.7367
  1263.5000     24.1762     51.4206     21.2424     96.7088
  1263.7500     23.4373     51.3789     20.6891    101.6512
  1264.0000     22.6818     51.3168     20.0975    109.9806
  1264.2500     22.0119     51.2278     19.4543    115.2127
  1264.5000     21.4029     51.1076     18.7682    120.5095
  1264.7500     20.7713     50.9607     18.0658    121.7984
  1265.0000     20.0936     50.7994     17.3805    121.7250
  1265.2500     19.5181     50.6403     16.7418    121.9958
  1265.5000     19.2347     50.4992     16.1691    125.0795
  1265.7500     19.1889     50.3858     15.6735    129.0696
  1266.0000     19.1032     50.2999     15.2626    136.5200
  1266.2500     18.7410     50.2315     14.9455    141.3397
  1266.5000     18.0450     50.1672     14.7365    147.1567
  1266.7500     17.1037     50.1008     14.6550    150.0471
  1267.0000     16.1155     50.0400     14.7215    153.3130
  1267.2500     15.3650     50.0036     14.9476    154.7304
  1267.5000     15.0813     50.0098     15.3266    154.5548
  1267.7500     15.3391     50.0603     15.8320    151.7712
  1268.0000     16.2038     50.1328     16.4284    141.8662
  1268.2500     17.8565     50.1961     17.0913    131.1633
  1268.5000     20.4802     50.2393     17.8211    110.4341
  1268.7500     24.1886     50.2869     18.6409     95.3740
  1269.0000     29.1817     50.3836     19.5827     74.7071
  1269.2500     35.6914     50.5685     20.6751     63.9203
  1269.5000     43.4003     50.8622     21.9384     53.2200
  1269.7500     51.0950     51.2681     23.3838     49.1421
  1270.0000     57.3889     51.7756     25.0145     45.5496
  1270.2500     61.8121     52.3628     26.8235     43.8071
  1270.5000     64.8230     53.0005     28.7812     41.6516
  1270.7500     66.7533     53.6591     30.8091     40.9662
  1271.0000     67.2472     54.3174     32.7554     42.4186
  1271.2500     65.8297     54.9668     34.4090     45.5842
  1271.5000     62.5684     55.6073     35.5661     53.3827
  1271.7500     58.0879     56.2378     36.1149     59.8673
  1272.0000     53.1935     56.8483     36.0732     69.9392
  1272.2500     48.5444     57.4192     35.5609     76.0330
  1272.5000     44.5693     57.9272     34.7479     83.0229
  1272.7500     41.4509     58.3538     33.8119     85.8879
  1273.0000     39.0945     58.6904     32.9137     87.9105
  1273.2500     37.3221     58.9404     32.1819     88.3805
  1273.5000     36.1336     59.1181     31.6968     88.4906
  1273.7500     35.5880     59.2452     31.4799     88.1335
  1274.0000     35.5402     59.3450     31.4886     86.7263
  1274.2500     35.7618     59.4365     31.6332     85.3505
  1274.5000     36.1897     59.5310     31.8207     83.1760
  1274.7500     36.8188     59.6326     32.0067     81.7763
  1275.0000     37.5018     59.7415     32.2121     79.3693
  1275.2500     38.0696     59.8560     32.4826     77.3015
  1275.5000     38.5064     59.9739     32.8261     73.8957
  1275.7500     38.8906     60.0935     33.1860     72.2133
  1276.0000     39.3559     60.2144     33.4728     71.8194
  1276.2500     40.0624     60.3372     33.6177     72.9578
  1276.5000     40.9942     60.4608     33.5967     75.4811
  1276.7500     41.8722     60.5820     33.4085     76.9033
  1277.0000     42.3531     60.6953     33.0408     78.1030
  1277.2500     42.2510     60.7929     32.4662     78.3921
  1277.5000     41.6128     60.8656     31.6659     78.6236
  1277.7500     40.6366     60.9088     30.6565     79.1502
  1278.0000     39.4506     60.9314     29.4970     81.5154
  1278.2500     38.0150     60.9565     28.2786     84.5417
  1278.5000     36.2523     61.0047     27.1043     91.2424
  1278.7500     34.1647     61.0761     26.0633     96.8284
  1279.0000     31.8964     61.1539     25.2096    106.2565
  1279.2500     29.7102     61.2230     24.5532    112.9065
  1279.5000     27.8179     61.2778     24.0677    122.5981
  1279.7500     26.2605     61.3137     23.7095    128.1237
  1280.0000     24.9717     61.3213     23.4372    133.5720
  1280.2500     23.9382     61.2895     23.2203    134.6635
  1280.5000     23.2646     61.2131     23.0391    132.2274
  1280.7500     23.0261     61.0986     22.8841    128.4759
  1281.0000     23.1314     60.9645     22.7581    121.7028
  1281.2500     23.4350     60.8336     22.6787    117.5086
  1281.5000     23.8854     60.7253     22.6725    112.1122
  1281.7500     24.4756     60.6504     22.7663    108.6296
  1282.0000     25.2110     60.6128     22.9765    102.8535
  1282.2500     26.1298     60.6120     23.3020     98.7767
  1282.5000     27.1614     60.6429     23.7192     93.3057
  1282.7500     28.0681     60.6960     24.1840     90.6529
  1283.0000     28.6877     60.7602     24.6444     88.5031
  1283.2500     29.0434     60.8274     25.0588     88.1028
  1283.5000     29.1572     60.8940     25.4036     88.5340
  1283.7500     29.0438     60.9609     25.6577     89.3105
  1284.0000     28.8348     61.0301     25.7809     90.9061
  1284.2500     28.6286     61.1005     25.7141     91.9329
  1284.5000     28.2979     61.1634     25.4136     92.8424
  1284.7500     27.6590     61.2026     24.8908     93.0056
