~Version Information
VERS.                      2.0: CWLS Log ASCII Standard - VERSION 2.0
WRAP.                       NO: One line per depth step
~Well Information Block
STRT.FT                -6.5000: 
STOP.FT              1773.5000: 
STEP.FT                 0.2500: 
NULL.                -999.2500: 
COMP.          Pioneer Natural Resources: COMPANY
WELL.           Lynch 43-30 Tr: WELL
FLD.           Purgatorie River: FIELD
LOC.           1431' FSL & 296' FEL--: LOCATION
PROV.                       CO: PROVINCE
CNTY.               Las Animas: COUNTRY
SRVC.          Patterson Wireline: SERVICE COMPANY
DATE.          Tue Aug 02 09:28:21 2005: LOG DATE
UWI.           05 071 08447 00: UNIQUE WELL ID
~Curve Information Block
DEPT.FT            0 000 00 00: Depth
CCL.                          : Casing Collar Locator
TT3.usec                      : CBL 3' Travel Time
AMP3.mV                       : CBL 3' Amplitude
GR.GAPI                       : Gamma Ray
~Parameter Information Block
MINAMPL.mV              1.0000: Minimum Amplitude
~A  Depth       CCL         TT3         AMP3         GR     
# ...
   697.0000      0.0000    837.3281     16.0146    137.6199
   697.2500      0.0000    834.7418     16.0251    139.4825
   697.5000      0.0000    835.3729     16.0037    141.9638
   697.7500      0.0000    839.5087     15.9357    143.0148
   698.0000      0.0000    845.7149     15.8324    141.2147
   698.2500      0.0000    852.0018     15.7282    137.2240
   698.5000      0.0000    857.3005     15.6566    132.7358
   698.7500      0.0000    861.9175     15.6299    128.8005
   699.0000      0.0000    866.7601     15.6394    125.5514
   699.2500      0.0000    872.2818     15.6714    122.8149
   699.5000      0.0000    878.1630     15.7184    120.3604
   699.7500      0.0000    883.6536     15.7720    118.0303
   700.0000      0.0000    887.9333     15.8121    116.2040
   700.2500      0.0000    890.5094     15.8153    115.7079
   700.5000      0.0000    891.8542     15.7803    116.5951
   700.7500      0.0000    893.4489     15.7353    117.3260
   701.0000      0.0000    896.5347     15.7160    115.9447
   701.2500      0.0000    900.6635     15.7412    112.1083
   701.5000      0.0000    903.7708     15.8130    107.4433
   701.7500      0.0000    903.9464     15.9284    103.8924
   702.0000      0.0000    901.2942     16.0801    102.0113
   702.2500      0.0000    897.8564     16.2468    100.8877
   702.5000      0.0000    895.4343     16.3883     99.4331
   702.7500      0.0000    893.7935     16.4551     97.6074
   703.0000      0.0000    891.4514     16.4110     96.4324
   703.2500      0.0000    887.8886     16.2553     96.8968
   703.5000      0.0000    884.2727     16.0265     98.8765
   703.7500      0.0000    881.8052     15.7803    101.2187
   704.0000      0.0000    879.9667     15.5588    103.0109
   704.2500      0.0000    877.1617     15.3723    104.6247
   704.5000      0.0000    872.9956     15.2060    107.2299
   704.7500      0.0000    869.2142     15.0375    111.4550
   705.0000      0.0000    868.3316     14.8536    116.8970
   705.2500      0.0000    871.7610     14.6596    122.6955
   705.5000      0.0000    879.0574     14.4807    127.8848
   705.7500      0.0000    888.3811     14.3481    131.1370
   706.0000      0.0000    897.6148     14.2778    130.9850
   706.2500      0.0000    905.2480     14.2593    127.1739
   706.5000      0.0000    910.3932     14.2697    121.9874
   706.7500      0.0000    912.4970     14.2955    119.6156
   707.0000      0.0000    911.5858     14.3385    123.0269
   707.2500      0.0000    908.5248     14.4027    130.7678
   707.5000      0.0000    904.5347     14.4816    137.3434
   707.7500      0.0000    900.6209     14.5628    137.6432
   708.0000      0.0000    897.6390     14.6400    131.3113
   708.2500      0.0000    896.3111     14.7133    122.7831
   708.5000      0.0000    896.5098     14.7719    117.2715
   708.7500      0.0000    896.7862     14.7870    116.6014
   709.0000      0.0000    895.1978     14.7293    118.2654
   709.2500      0.0000    890.5975     14.5948    118.1761
   709.5000      0.0000    882.9904     14.4091    114.6456
   709.7500      0.0000    873.1841     14.2143    109.9775
   710.0000      0.0000    862.7509     14.0545    108.3197
   710.2500      0.0000    854.0035     13.9671    112.0764
   710.5000      0.0000    849.0616     13.9788    120.2118
   710.7500      0.0000    848.5102     14.1026    129.3617
   711.0000      0.0000    851.0083     14.3304    136.1101
   711.2500      0.0000    854.1357     14.6273    138.6414
   711.5000      0.0000    855.7855     14.9378    137.1766
   711.7500      0.0000    855.2839     15.2047    133.4024
   712.0000      0.0000    853.6379     15.3885    129.3746
   712.2500      0.0000    852.6442     15.4846    126.5716
   712.5000      0.0000    853.3841     15.5327    125.5971
   712.7500      0.0000    855.4362     15.6011    126.3438
   713.0000      0.0000    857.5724     15.7414    128.2981
   713.2500      0.0000    858.6989     15.9521    130.8091
   713.5000      0.0000    857.5690     16.1758    133.1367
   713.7500      0.0000    851.4879     16.3252    134.5415
   714.0000      0.0000    836.7014     16.2997    134.7662
   714.2500      0.0000    813.7717     16.0065    134.3257
   714.5000      0.0000    795.1697     15.4281    133.9606
   714.7500      0.0000    802.8615     14.6864    133.8361
   715.0000      0.0000    849.4233     13.9794    133.5329
   715.2500      0.0000    920.5252     13.4224    132.8028
   715.5000      0.0000    983.4338     13.0055    132.0898
   715.7500      0.0000   1015.2875     12.6981    132.2301
   716.0000      0.0000   1018.7085     12.5027    133.6208
   716.2500      0.0000   1009.8610     12.4054    135.6840
   716.5000      0.0000    998.2497     12.3604    137.4090
   716.7500     -2.0000    982.1751     12.3429    138.5975
   717.0000      0.0000    958.9093     12.3997    140.2288
   717.2500      0.0000    931.7719     12.6456    143.1688
   717.5000      0.0000    906.8837     13.1824    146.8340
   717.7500      0.0000    887.4625     13.9700    149.7574
   718.0000      0.0000    872.8672     14.7860    151.2709
   718.2500      0.0000    861.3608     15.3729    151.8579
   718.5000      0.0000    852.3248     15.6138    151.9187
   718.7500      0.0000    845.8671     15.5491    151.0067
   719.0000      0.0000    841.3962     15.2844    148.4421
   719.2500      0.0000    837.7923     14.9310    144.1649
   719.5000      0.0000    834.9269     14.5867    138.9003
   719.7500      0.0000    833.8641     14.3157    133.7955
   720.0000      0.0000    834.9959     14.1402    129.9626
   720.2500      0.0000    836.6951     14.0639    128.1832
   720.5000      0.0000    836.5563     14.1022    128.9050
   720.7500      0.0000    833.7521     14.2772    132.1922
   721.0000      0.0000    829.6495     14.5834    137.3176
   721.2500      0.0000    826.2994     14.9659    142.5068
   721.5000      0.0000    824.9910     15.3377    145.6031
   721.7500      0.0000    826.1010     15.6218    145.2982
   722.0000      0.0000    829.3411     15.7834    141.7369
   722.2500      0.0000    833.5671     15.8379    136.0124
   722.5000      0.0000    836.5919     15.8338    129.2472
   722.7500      0.0000    835.8181     15.8262    122.1532
   723.0000      0.0000    828.9429     15.8583    115.1656
   723.2500      0.0000    814.7362     15.9526    108.7325
   723.5000      0.0000    795.8892     16.1028    103.4579
   723.7500      0.0000    782.4146     16.2725     99.9790
   724.0000      0.0000    787.7876     16.4092     98.7168
   724.2500      0.0000    816.4400     16.4660     99.7348
   724.5000      0.0000    856.5608     16.4157    102.8909
   724.7500      0.0000    888.8545     16.2556    108.2557
   725.0000      0.0000    901.2666     16.0068    116.2877
   725.2500      0.0000    894.7780     15.7062    127.0504
   725.5000      0.0000    879.6431     15.3975    139.0119
   725.7500      0.0000    868.6611     15.1227    149.0770
   726.0000      0.0000    870.2182     14.9119    154.3575
   726.2500      0.0000    883.2935     14.7716    154.1574
   726.5000      0.0000    898.7725     14.6872    150.2375
   726.7500      0.0000    907.0972     14.6387    145.1758
   727.0000      0.0000    905.1209     14.6129    140.6604
   727.2500      0.0000    896.4055     14.6000    137.1899
   727.5000      0.0000    886.7108     14.5874    134.5605
   727.7500      0.0000    880.3669     14.5618    132.1646
   728.0000      0.0000    879.3050     14.5160    129.2797
   728.2500      0.0000    882.4985     14.4521    125.6409
   728.5000      0.0000    885.9822     14.3797    121.7899
   728.7500      0.0000    885.5482     14.3140    118.6121
   729.0000      0.0000    880.0518     14.2702    116.3521
   729.2500      0.0000    870.9229     14.2584    114.3377
   729.5000      0.0000    858.8508     14.2816    111.9174
   729.7500      0.0000    843.3304     14.3361    109.2298
   730.0000      0.0000    826.3596     14.4090    106.4260
   730.2500      0.0000    814.7993     14.4803    102.5347
