~Version Information
VERS.                      2.0: CWLS Log ASCII Standard - VERSION 2.0
WRAP.                       NO: One line per depth step
~Well Information Block
STRT.FT                -9.0000: 
STOP.FT              1841.0000: 
STEP.FT                 0.2500: 
NULL.                -999.2500: 
COMP.          Pioneer Natural Resources: COMPANY
WELL.          Cooper 11-13 Tr: WELL
FLD.           Purgatorie River: FIELD
LOC.           476' FNL & 738' FWL: LOCATION
STAT.                       CO: State
CNTY.               Las Animas: COUNTY
CTRY. USA : Country
SECT. 13 : Section
TOWN. 32S : Township
RANG. 67W : Range
SRVC.          Patterson Wireline: SERVICE COMPANY
DATE.          Thu Sep 29 08:59:13 2005: LOG DATE
API.           05 071 08525 00: UNIQUE WELL ID
~Curve Information Block
DEPT.FT            0 000 00 00: Depth
CCL.                          : Casing Collar Locator
TT3.usec                      : CBL 3' Travel Time
AMP3.mV                       : CBL 3' Amplitude
GR.GAPI                       : Gamma Ray
~Parameter Information Block
~A  Depth       CCL         TT3         AMP3         GR     
# ...
   594.0000      0.0000    749.7576     13.3217     64.6463
   594.2500      0.0000    747.9531     13.2591     65.8976
   594.5000      0.0000    743.8111     13.2444     65.7902
   594.7500      0.0000    732.1721     13.2774     64.3277
   595.0000      0.0000    704.6887     13.3926     62.0626
   595.2500      0.0000    653.4913     13.6422     59.8640
   595.5000      0.0000    578.9600     14.0472     58.6382
   595.7500      0.0000    494.3461     14.5676     58.7881
   596.0000      0.0000    419.4736     15.1181     59.7625
   596.2500      0.0000    367.8290     15.6071     60.4236
   596.5000      0.0000    340.0453     15.9703     60.0978
   596.7500      0.0000    328.3745     16.1899     59.1332
   597.0000      0.0000    324.5397     16.2994     58.3502
   597.2500      0.0000    323.5515     16.3665     58.1401
   597.5000      0.0000    323.3495     16.4542     58.2694
   597.7500      0.0000    323.3141     16.5835     58.4473
   598.0000      0.0000    323.3177     16.7235     58.8384
   598.2500      0.0000    323.3507     16.8163     59.8927
   598.5000      0.0000    323.4341     16.8191     61.7697
   598.7500      0.0000    323.5741     16.7310     64.1000
   599.0000      0.0000    323.7625     16.5815     66.3910
   599.2500      0.0000    323.9885     16.4016     68.3902
   599.5000      0.0000    324.2357     16.2164     69.8802
   599.7500      0.0000    324.4617     16.0606     70.4892
   600.0000      0.0000    324.6023     15.9740     70.0991
   600.2500      0.0000    324.6215     15.9663     69.2260
   600.5000      0.0000    324.5595     15.9958     68.6906
   600.7500      0.0000    324.5096     16.0029     69.0566
   601.0000      0.0000    324.5358     15.9678     70.4702
   601.2500      0.0000    324.6181     15.9228     72.7047
   601.5000      0.0000    324.6775     15.9161     75.0999
   601.7500      0.0000    324.6469     15.9751     76.7145
   602.0000      0.0000    324.5171     16.0977     76.9679
   602.2500      0.0000    324.3266     16.2662     76.1901
   602.5000      0.0000    324.1194     16.4696     75.2778
   602.7500      0.0000    323.9185     16.7061     74.7521
   603.0000      0.0000    323.7365     16.9568     74.3100
   603.2500      0.0000    323.5938     17.1693     73.2733
   603.5000      0.0000    323.5104     17.2963     71.3253
   603.7500      0.0000    323.4816     17.3537     68.8565
   604.0000      0.0000    323.4738     17.4199     66.7255
   604.2500      0.0000    323.4521     17.5621     65.6482
   604.5000      0.0000    323.4121     17.7705     65.6922
   604.7500      0.0000    323.3811     17.9654     66.3984
   605.0000      0.0000    323.3868     18.0660     67.4073
   605.2500      0.0000    323.4282     18.0568     68.8168
   605.5000      0.0000    323.4745     17.9958     70.8111
   605.7500      0.0000    323.4916     17.9609     73.0105
   606.0000      0.0000    323.4728     17.9790     74.3811
   606.2500      0.0000    323.4455     18.0038     74.0781
   606.5000      0.0000    323.4466     17.9655     72.4881
   606.7500      0.0000    323.4893     17.8403     71.1615
   607.0000      0.0000    323.5615     17.6630     71.4923
   607.2500      0.0000    323.6603     17.4686     73.5962
   607.5000      0.0000    323.8223     17.2367     76.3610
   607.7500      0.0000    324.0966     16.9144     78.1601
   608.0000      0.0000    324.4754     16.4943     77.7804
   608.2500      0.0000    324.8610     16.0544     75.5784
   608.5000      0.0000    325.1246     15.7086     73.7262
   608.7500      0.0000    325.2066     15.5247     74.5170
   609.0000      0.0000    325.1848     15.4865     78.1816
   609.2500      0.0000    325.2663     15.5171     82.5863
   609.5000      0.0000    325.9984     15.5384     85.0113
   609.7500      0.0000    328.8368     15.5199     84.2290
   610.0000      0.0000    336.8019     15.4762     81.1984
   610.2500      0.0000    353.8102     15.4180     77.9965
   610.5000      0.0000    381.4775     15.3229     76.0577
   610.7500      0.0000    416.4734     15.1625     75.2962
   611.0000      0.0000    454.1212     14.9418     74.7027
   611.2500      0.0000    495.5555     14.6938     73.6198
   611.5000      0.0000    546.0790     14.4492     72.4374
   611.7500      0.0000    603.2051     14.2341     72.0621
   612.0000      0.0000    650.6187     14.0896     72.8072
   612.2500      0.0000    667.7147     14.0653     74.0052
   612.5000      0.0000    644.7903     14.1803     74.6666
   612.7500      0.0000    592.0372     14.3964     74.3242
   613.0000      0.0000    537.4945     14.6282     73.2909
   613.2500      0.0000    511.8911     14.7870     72.2887
   613.5000      0.0000    526.7034     14.8351     71.8676
   613.7500      0.0000    564.7902     14.8105     72.1932
   614.0000      0.0000    595.6221     14.7899     73.3827
   614.2500      0.0000    601.0959     14.8247     75.8622
   614.5000      0.0000    586.1703     14.9142     80.2310
   614.7500      0.0000    568.1395     15.0295     86.7477
   615.0000      0.0000    561.5992     15.1331     94.8890
   615.2500      0.0000    573.2985     15.1727    103.2027
   615.5000      0.0000    603.3242     15.0827    109.5668
   615.7500      0.0000    645.3453     14.8181    112.0796
   616.0000      0.0000    687.9384     14.3967    110.5089
   616.2500      0.0000    720.6098     13.9025    107.0714
   616.5000      0.0000    739.6589     13.4475    105.0714
   616.7500      0.0000    747.9003     13.1224    106.1420
   617.0000      0.0000    749.8642     12.9657    109.0197
   617.2500      0.0000    748.0259     12.9598    111.2620
   617.5000      0.0000    741.5732     13.0531    111.6033
   617.7500      0.0000    727.3179     13.1951    110.1284
   618.0000      0.0000    702.3929     13.3564    107.0261
   618.2500      0.0000    667.9697     13.5168    102.5105
   618.5000      0.0000    630.6680     13.6363     97.7715
   618.7500      0.0000    599.5591     13.6607     94.7924
   619.0000      0.0000    581.5358     13.5723     94.9028
   619.2500      0.0000    580.0887     13.4095     97.8916
   619.5000      0.0000    597.8298     13.2140    102.4346
   619.7500      0.0000    636.4105     12.9994    106.9742
   620.0000      0.0000    690.8029     12.8034    110.2770
   620.2500      0.0000    746.8079     12.7053    111.6135
   620.5000      0.0000    789.6708     12.7431    110.6483
   620.7500      2.0000    815.2737     12.8560    107.1922
   621.0000      0.0000    830.6206     12.9389    101.3327
   621.2500      0.0000    843.4773     12.9224     94.0170
   621.5000      0.0000    851.1833     12.8046     87.0661
   621.7500      0.0000    839.0867     12.6601     82.0237
   622.0000      0.0000    793.6068     12.6322     78.9114
   622.2500      0.0000    721.6024     12.8382     76.3060
   622.5000      0.0000    653.9957     13.2252     72.7624
   622.7500      0.0000    623.0944     13.5754     68.1290
   623.0000      0.0000    635.6003     13.7082     63.2712
   623.2500      0.0000    671.1469     13.6317     58.7407
   623.5000      0.0000    704.5581     13.4707     54.3688
   623.7500      0.0000    724.3380     13.3165     50.1824
   624.0000      0.0000    732.4628     13.1895     47.0963
   624.2500      0.0000    734.5229     13.0945     46.3649
   624.5000      0.0000    733.5864     13.0524     48.2728
   624.7500      0.0000    730.6306     13.0734     51.3216
   625.0000      0.0000    726.8185     13.1297     53.1006
   625.2500      0.0000    723.8244     13.1758     52.4724
   625.5000      0.0000    722.8576     13.1944     50.8487
   625.7500      0.0000    724.3726     13.2098     51.1612
   626.0000      0.0000    728.3220     13.2576     55.7408
   626.2500      0.0000    733.9398     13.3462     65.0921
   626.5000      0.0000    739.6982     13.4435     77.9900
   626.7500      0.0000    744.1636     13.4938     92.2164
   627.0000      0.0000    746.8508     13.4553    105.4082
   627.2500      0.0000    748.1464     13.3363    115.7625
