~Version Information
VERS.                      2.0: CWLS Log ASCII Standard - VERSION 2.0
WRAP.                       NO: One line per depth step
~Well Information Block
STRT.FT                 0.0000: 
STOP.FT               968.2500: 
STEP.FT                 0.2500: 
NULL.                -999.2500: 
COMP.          Pioneer Natural Resources: COMPANY
WELL.              Atlas 32-18: WELL
FLD.           Purgatorie River: FIELD
LOC.           1892' FNL & 1456' FEL: LOCATION
PROV.                 Colorado: PROVINCE
CNTY.               Las Animas: COUNTRY
SRVC.                Patterson: SERVICE COMPANY
DATE.          Fri Dec 02 11:37:22 2005: LOG DATE
UWI.                          : UNIQUE WELL ID
~Curve Information Block
DEPT.FT            0 000 00 00: Depth
CCL.                          : Casing Collar Locator
TT3.usec                      : CBL 3' Travel Time
AMP3.mV                       : CBL 3' Amplitude
GR.GAPI                       : Gamma Ray
~Parameter Information Block
~A  Depth       CCL         TT3         AMP3         GR     
# ...
   804.0000      0.0000    704.5538      9.7714     67.3379
   804.2500      0.0000    707.5361      9.9017     67.5961
   804.5000      0.0000    710.9966      9.9578     66.7967
   804.7500      0.0000    711.2333     10.0037     66.3028
   805.0000      0.0000    708.4197     10.1240     66.7052
   805.2500      0.0000    706.8820     10.3141     67.1890
   805.5000      0.0000    709.4877     10.4953     66.5565
   805.7500      0.0000    714.0076     10.6164     64.6328
   806.0000      0.0000    717.1291     10.7075     62.4349
   806.2500      0.0000    718.4103     10.8302     61.2004
   806.5000      0.0000    718.8324     11.0001     61.4758
   806.7500      0.0000    718.4886     11.1738     62.8731
   807.0000      0.0000    715.0313     11.3017     64.3861
   807.2500      0.0000    700.9638     11.3758     65.0836
   807.5000      0.0000    664.9765     11.4424     64.8475
   807.7500      0.0000    608.6771     11.5579     64.5143
   808.0000      0.0000    563.3784     11.6741     65.1355
   808.2500      0.0000    564.2437     11.5846     66.9986
   808.5000      0.0000    604.9257     11.0690     69.3077
   808.7500      0.0000    651.4803     10.1632     70.6892
   809.0000      0.0000    691.9147      9.1783     70.1473
   809.2500      0.0000    734.8441      8.2767     67.8903
   809.5000      0.0000    776.4464      7.4398     65.3339
   809.7500      0.0000    799.6277      6.8963     64.1650
   810.0000      0.0000    795.4965      6.8426     65.2695
   810.2500     -2.0000    775.6544      7.0594     68.3343
   810.5000     -2.0000    759.1368      7.2784     72.2115
   810.7500      0.0000    743.4506      7.4496     75.6398
   811.0000      0.0000    715.3770      7.5840     77.7265
   811.2500      0.0000    690.6970      7.8067     78.0123
   811.5000      0.0000    695.0501      8.5128     76.5472
   811.7500      0.0000    718.8879      9.8575     74.1526
   812.0000      0.0000    734.7190     11.1523     72.1928
   812.2500      0.0000    734.7504     11.6051     71.5580
   812.5000      0.0000    728.5085     11.3340     71.9230
   812.7500      0.0000    723.6388     10.8697     72.3707
   813.0000      0.0000    720.2251     10.3690     72.6052
   813.2500      0.0000    715.0306      9.7531     72.9977
   813.5000      0.0000    706.9862      9.0597     73.5223
   813.7500      0.0000    701.3351      8.4353     73.3589
   814.0000      0.0000    705.6703      7.9647     71.7638
   814.2500      0.0000    719.3751      7.6198     68.8558
   814.5000      0.0000    733.5930      7.3337     65.4745
   814.7500      0.0000    742.9917      7.0762     62.7611
   815.0000      0.0000    750.5186      6.8613     61.9234
   815.2500      0.0000    760.3206      6.7135     63.8777
   815.5000      0.0000    770.5121      6.6676     68.5309
   815.7500      0.0000    775.4279      6.7827     74.1587
   816.0000      0.0000    773.7949      7.0927     77.7631
   816.2500      0.0000    770.2927      7.5350     76.7693
   816.5000      0.0000    768.3646      7.9762     70.8056
   816.7500      0.0000    764.1656      8.2905     61.7337
   817.0000      0.0000    752.4359      8.3800     52.0487
   817.2500      0.0000    738.2656      8.1931     43.5803
   817.5000      0.0000    730.7097      7.7965     37.4528
   817.7500      0.0000    727.8461      7.3813     34.4168
   818.0000      0.0000    725.4331      7.1547     34.7118
   818.2500      0.0000    728.3496      7.2065     37.6968
   818.5000      0.0000    738.2097      7.4615     41.8976
   818.7500      0.0000    746.8579      7.7852     45.5956
   819.0000      0.0000    749.5063      8.1343     47.5949
   819.2500      0.0000    749.2560      8.5555     47.7662
   819.5000      0.0000    748.1836      9.0696     46.9832
   819.7500      0.0000    744.2945      9.6391     46.4059
   820.0000      0.0000    735.5587     10.2534     46.7326
   820.2500      0.0000    721.7988     10.9964     48.0473
   820.5000      0.0000    702.5323     11.9757     50.0344
   820.7500      0.0000    672.9512     13.1626     52.0995
   821.0000      0.0000    633.7924     14.3376     53.5396
   821.2500      0.0000    609.0081     15.2070     53.8354
   821.5000      0.0000    623.1996     15.5802     52.7871
   821.7500      0.0000    663.2581     15.4845     50.5128
   822.0000      0.0000    696.5554     15.0866     47.5520
   822.2500      0.0000    709.7823     14.5094     44.8993
   822.5000      0.0000    710.0141     13.8038     43.5701
   822.7500      0.0000    708.1352     13.0481     43.8315
   823.0000      0.0000    708.8455     12.3471     44.8948
   823.2500      0.0000    708.8613     11.7448     45.6472
   823.5000      0.0000    704.2159     11.2061     45.7812
   823.7500      0.0000    697.6768     10.6914     46.0044
   824.0000      0.0000    695.5455     10.2296     47.0526
   824.2500      0.0000    700.0573      9.9066     48.8406
   824.5000      0.0000    708.9456      9.7808     50.7625
   824.7500      0.0000    718.5042      9.8151     52.3995
   825.0000      0.0000    725.8759      9.8902     53.6778
   825.2500      0.0000    732.0880      9.8828     54.5980
   825.5000      0.0000    740.7251      9.7497     54.9713
   825.7500      0.0000    753.3346      9.5453     54.3338
   826.0000      0.0000    766.6735      9.3513     52.2188
   826.2500      0.0000    775.2717      9.2037     48.7399
   826.5000      0.0000    778.0857      9.1073     44.8147
   826.7500      0.0000    777.2880      9.0958     41.6128
   827.0000      0.0000    773.8555      9.2064     39.8057
   827.2500      0.0000    770.5703      9.3918     39.3204
   827.5000      0.0000    770.5551      9.5328     39.5774
   827.7500      0.0000    772.5479      9.5477     39.9425
   828.0000      0.0000    775.2102      9.4472     40.1170
   828.2500      0.0000    779.3257      9.3132     40.1996
   828.5000      0.0000    782.0772      9.2358     40.5114
   828.7500      0.0000    775.9626      9.2282     41.4211
   829.0000      0.0000    757.3978      9.2447     43.0777
   829.2500      0.0000    733.9152      9.3093     45.0593
   829.5000      0.0000    716.4784      9.5271     46.5689
   829.7500      0.0000    707.9372      9.9177     47.2873
   830.0000      0.0000    705.9155     10.3365     47.7163
   830.2500      0.0000    707.6617     10.6441     48.4229
   830.5000      0.0000    707.9182     10.8346     49.2939
   830.7500      0.0000    702.0383     10.9266     49.7771
   831.0000      0.0000    692.1599     10.8879     49.4959
   831.2500      0.0000    685.8809     10.7199     48.3326
   831.5000      0.0000    690.6356     10.4844     46.1591
   831.7500      0.0000    709.8965     10.2438     42.9450
   832.0000      0.0000    739.5239     10.0409     39.3134
   832.2500      0.0000    767.9569      9.8971     36.7492
   832.5000      0.0000    784.9806      9.7882     36.7937
   832.7500      0.0000    788.2991      9.6498     39.7372
   833.0000      0.0000    780.8858      9.4430     44.2830
   833.2500      0.0000    768.0179      9.1987     48.8522
   833.5000      0.0000    756.2371      8.9787     53.2292
   833.7500      0.0000    748.8414      8.8210     58.4735
   834.0000      0.0000    743.1935      8.7313     65.0545
   834.2500      0.0000    734.6953      8.6979     71.6158
   834.5000      0.0000    722.9904      8.7124     76.0570
   834.7500      0.0000    713.9019      8.7845     77.5016
   835.0000      0.0000    712.0794      8.9129     76.6396
   835.2500      0.0000    714.9031      9.0439     74.4864
   835.5000      0.0000    717.6378      9.1162     71.5667
   835.7500      0.0000    718.9106      9.1371     68.1857
   836.0000      0.0000    719.3990      9.1462     64.7627
   836.2500      0.0000    719.6014      9.1398     61.7955
   836.5000      0.0000    719.6496      9.1138     59.8759
   836.7500      0.0000    719.6243      9.1234     59.7085
   837.0000      0.0000    719.5786      9.2111     61.7490
   837.2500      0.0000    719.5004      9.3347     65.7322
