~Version Information
VERS.                      2.0: CWLS Log ASCII Standard - VERSION 2.0
WRAP.                       NO: One line per depth step
~Well Information Block
STRT.FT               615.0000: 
STOP.FT              1609.0000: 
STEP.FT                 0.2500: 
NULL.                -999.2500: 
COMP.          Pioneer Natural Resources: COMPANY
WELL.          Galloway 32-13 Tr: WELL
FLD.           Purgatoire River: FIELD
LOC.           1910' FNL & 2002' FEL: LOCATION
PROV.                 Colorado: PROVINCE
CNTY.               Las Animas: COUNTRY
SRVC.                Patterson: SERVICE COMPANY
DATE.          Sat Nov 12 20:19:28 2005: LOG DATE
UWI.           05 071 08608 00: UNIQUE WELL ID
~Curve Information Block
DEPT.FT            0 000 00 00: Depth
SN.Ohm-m                      : IEL Short Normal
SP.mV                         : IEL Spontaneous Potential
DIR.Ohm-m                     : IEL Induction Resistivity
GR.GAPI                       : Gamma Ray
~Parameter Information Block
~A  Depth        SN          SP         DIR          GR     
# ...
  1519.5000     26.6183     66.1937     17.7691     70.0823
  1519.7500     28.9918     66.1920     19.2488     67.4960
  1520.0000     31.0571     66.1908     20.9652     64.8954
  1520.2500     32.7877     66.1903     22.8500     64.1795
  1520.5000     34.2011     66.1990     24.7243     64.6969
  1520.7500     35.2620     66.2246     26.3192     66.0286
  1521.0000     35.8845     66.2678     27.3804     68.9572
  1521.2500     36.1127     66.3213     27.7884     70.9033
  1521.5000     36.1390     66.3728     27.5829     72.7342
  1521.7500     36.0221     66.4113     26.8905     73.0875
  1522.0000     35.5493     66.4345     25.8545     73.3802
  1522.2500     34.4805     66.4514     24.6141     74.5938
  1522.5000     32.7748     66.4767     23.2963     79.8700
  1522.7500     30.5643     66.5215     22.0025     86.1442
  1523.0000     28.0870     66.5883     20.7995     98.7137
  1523.2500     25.6049     66.6756     19.7233    107.8502
  1523.5000     23.3487     66.7798     18.7872    120.3772
  1523.7500     21.5063     66.8903     17.9894    127.1232
  1524.0000     20.1347     66.9846     17.3157    134.1510
  1524.2500     19.1496     67.0341     16.7460    136.5607
  1524.5000     18.4705     67.0197     16.2598    137.1276
  1524.7500     18.0545     66.9424     15.8438    136.3370
  1525.0000     17.7736     66.8210     15.4964    135.0570
  1525.2500     17.4884     66.6802     15.2252    134.4127
  1525.5000     17.2360     66.5388     15.0402    132.9376
  1525.7500     17.1260     66.4034     14.9483    131.1563
  1526.0000     17.1793     66.2674     14.9541    127.6704
  1526.2500     17.3792     66.1161     15.0625    125.4883
  1526.5000     17.7527     65.9353     15.2792    123.1326
  1526.7500     18.3375     65.7194     15.6061    121.9474
  1527.0000     19.0904     65.4752     16.0410    119.8658
  1527.2500     19.9083     65.2164     16.5833    118.0937
  1527.5000     20.7425     64.9560     17.2371    115.4883
  1527.7500     21.5975     64.6999     18.0072    114.2969
  1528.0000     22.4466     64.4443     18.8900    113.4789
  1528.2500     23.2699     64.1768     19.8711    113.0922
  1528.5000     24.1586     63.8815     20.9325    111.3735
  1528.7500     25.2719     63.5478     22.0640    108.7935
  1529.0000     26.7023     63.1756     23.2708    102.5658
  1529.2500     28.4615     62.7741     24.5688     97.4191
  1529.5000     30.5602     62.3573     25.9714     89.9423
  1529.7500     33.0510     61.9416     27.4760     86.0018
  1530.0000     36.0077     61.5453     29.0600     81.8046
  1530.2500     39.4349     61.1858     30.6905     79.2403
  1530.5000     43.1379     60.8773     32.3399     73.4906
  1530.7500     46.7587     60.6284     33.9971     67.6032
  1531.0000     50.0600     60.4432     35.6614     56.2392
  1531.2500     52.9833     60.3256     37.3212     48.1675
  1531.5000     55.4428     60.2833     38.9288     37.5717
  1531.7500     57.3818     60.3282     40.4017     32.3177
  1532.0000     58.9320     60.4690     41.6637     27.2536
  1532.2500     60.2240     60.7018     42.6949     25.3563
  1532.5000     61.1173     61.0048     43.5353     24.0048
  1532.7500     61.4426     61.3447     44.2330     23.7850
  1533.0000     61.3323     61.6890     44.7994     24.0347
  1533.2500     60.9212     62.0158     45.2165     24.4335
  1533.5000     60.1141     62.3163     45.4799     25.3733
  1533.7500     58.9309     62.5910     45.6256     26.2319
  1534.0000     57.6395     62.8450     45.7230     27.7381
  1534.2500     56.4662     63.0834     45.8441     28.8709
  1534.5000     55.4525     63.3103     46.0277     30.9199
  1534.7500     54.5749     63.5293     46.2351     32.4797
  1535.0000     53.8402     63.7440     46.3238     34.5615
  1535.2500     53.2575     63.9578     46.0727     35.4203
  1535.5000     52.7979     64.1714     45.2654     35.8658
  1535.7500     52.4039     64.3838     43.7859     35.9186
  1536.0000     52.0059     64.5946     41.6597     36.2601
  1536.2500     51.4594     64.8072     39.0276     36.8636
  1536.5000     50.5068     65.0293     36.0914     38.5297
  1536.7500     48.9236     65.2712     33.0666     40.3957
  1537.0000     46.6275     65.5416     30.1447     45.0796
  1537.2500     43.6162     65.8462     27.4612     49.8984
  1537.5000     39.9576     66.1882     25.0799     60.0265
  1537.7500     35.8774     66.5697     23.0011     68.5720
  1538.0000     31.7443     66.9880     21.1856     83.1445
  1538.2500     27.9144     67.4294     19.5824     93.0948
  1538.5000     24.5849     67.8684     18.1478    106.5283
  1538.7500     21.7562     68.2739     16.8536    113.6923
  1539.0000     19.3367     68.6191     15.6879    121.3541
  1539.2500     17.3027     68.8904     14.6501    124.6348
  1539.5000     15.6946     69.0874     13.7429    127.4713
  1539.7500     14.5057     69.2189     12.9643    128.3050
  1540.0000     13.6759     69.2985     12.3055    128.2872
  1540.2500     13.1355     69.3439     11.7545    127.5215
  1540.5000     12.7764     69.3740     11.3017    125.7046
  1540.7500     12.4512     69.4024     10.9407    124.6949
  1541.0000     12.1093     69.4335     10.6670    124.8388
  1541.2500     11.8609     69.4642     10.4751    126.3789
  1541.5000     11.7702     69.4896     10.3594    129.7838
  1541.7500     11.7485     69.5084     10.3150    131.4436
  1542.0000     11.7513     69.5244     10.3374    131.3644
  1542.2500     11.8586     69.5445     10.4204    129.8103
  1542.5000     12.0911     69.5744     10.5554    126.9219
  1542.7500     12.3507     69.6175     10.7330    125.3454
  1543.0000     12.5610     69.6761     10.9462    123.6183
  1543.2500     12.7126     69.7540     11.1909    122.8424
  1543.5000     12.8365     69.8558     11.4642    122.5809
  1543.7500     13.0011     69.9849     11.7616    123.0551
  1544.0000     13.2298     70.1422     12.0743    123.9848
  1544.2500     13.4560     70.3258     12.3895    124.2246
  1544.5000     13.6420     70.5329     12.6930    123.8627
  1544.7500     13.8413     70.7622     12.9710    123.4020
  1545.0000     14.1142     71.0147     13.2123    122.8231
  1545.2500     14.4545     71.2921     13.4107    122.6411
  1545.5000     14.7656     71.5937     13.5675    122.5363
  1545.7500     14.9186     71.9129     13.6930    122.2394
  1546.0000     14.9092     72.2370     13.8020    120.9031
  1546.2500     14.8869     72.5486     13.9074    119.5211
  1546.5000     14.9550     72.8298     14.0152    117.5144
  1546.7500     15.0559     73.0649     14.1235    116.5269
  1547.0000     15.1108     73.2443     14.2249    115.3137
  1547.2500     15.1505     73.3665     14.3099    114.4098
  1547.5000     15.2315     73.4399     14.3708    112.8654
  1547.7500     15.2992     73.4779     14.4032    111.8352
  1548.0000     15.2609     73.4927     14.4030    110.2596
  1548.2500     15.1368     73.4881     14.3614    108.8967
  1548.5000     15.0147     73.4587     14.2666    105.6486
  1548.7500     14.9248     73.3957     14.1145    102.5544
  1549.0000     14.8544     73.3001     13.9221     97.6510
  1549.2500     14.8227     73.1895     13.7263     95.4807
  1549.5000     14.8547     73.0873     13.5681     95.5992
  1549.7500     14.9225     73.0059     13.4720     97.9996
  1550.0000     14.9847     72.9456     13.4361    103.7896
  1550.2500     15.0571     72.9067     13.4353    108.1783
  1550.5000     15.1843     72.8923     13.4349    114.5945
  1550.7500     15.3464     72.8952     13.4056    118.5385
  1551.0000     15.4334     72.8900     13.3312    123.5772
  1551.2500     15.3100     72.8424     13.2085    126.0948
  1551.5000     14.9132     72.7278     13.0418    128.6024
  1551.7500     14.3158     72.5406     12.8402    129.7069
  1552.0000     13.6703     72.2914     12.6163    130.7304
  1552.2500     13.0957     71.9987     12.3859    130.7433
  1552.5000     12.6583     71.6811     12.1652    129.3222
  1552.7500     12.4210     71.3533     11.9675    127.4951
