~Version Information
VERS.                      2.0: CWLS Log ASCII Standard - VERSION 2.0
WRAP.                       NO: One line per depth step
~Well Information Block
STRT.FT                 6.0000: 
STOP.FT              1577.7500: 
STEP.FT                 0.2500: 
NULL.                -999.2500: 
COMP.          Pioneer Natural Resources: COMPANY
WELL.           Kermit 32-7 Tr: WELL
FLD.           Purgatoire River: FIELD
LOC.           2009' FNL & 2196' FEL: LOCATION
PROV.                 Colorado: PROVINCE
CNTY.               Las Animas: COUNTRY
SRVC.                Patterson: SERVICE COMPANY
DATE.          Wed Jan 18 14:19:39 2006: LOG DATE
UWI.           05 071 08664 00: UNIQUE WELL ID
~Curve Information Block
DEPT.FT            0 000 00 00: Depth
GR.GAPI                       : Gamma Ray
CCL.                          : Casing Collar Locator
TT3.usec                      : CBL 3' Travel Time
AMP3.mV                       : CBL 3' Amplitude
~Parameter Information Block
~A  Depth        GR         CCL         TT3         AMP3    
# ...
   843.5000    114.6241      0.0000    738.2848      9.0640
   843.7500    117.8551      0.0000    737.0071      9.2874
   844.0000    116.1772      0.0000    733.4368      9.6200
   844.2500    109.5361      0.0000    725.4636     10.0351
   844.5000    100.5047      0.0000    712.6635     10.4559
   844.7500     92.3826      0.0000    699.9981     10.7878
   845.0000     87.0443      0.0000    695.2152     10.9681
   845.2500     84.3819      0.0000    701.2474     10.9953
   845.5000     83.6767      0.0000    713.0740     10.9183
   845.7500     85.1012      0.0000    723.4631     10.7980
   846.0000     89.4427      0.0000    729.9339     10.6740
   846.2500     96.6734      0.0000    734.7610     10.5552
   846.5000    105.5518      0.0000    740.0853     10.4350
   846.7500    114.5864      0.0000    745.0638     10.3107
   847.0000    122.8057      0.0000    747.2487     10.1903
   847.2500    129.7350      0.0000    745.4748     10.0857
   847.5000    135.1864      0.0000    741.3795     10.0033
   847.7500    139.0081      0.0000    738.6108      9.9464
   848.0000    140.8824      0.0000    740.0676      9.9212
   848.2500    140.8355      0.0000    745.1183      9.9362
   848.5000    140.0607      0.0000    749.5657      9.9944
   848.7500    140.4872      0.0000    749.1004     10.0916
   849.0000    142.9677      0.0000    743.0429     10.2191
   849.2500    146.1653      0.0000    734.3978     10.3636
   849.5000    147.6270      0.0000    726.5427     10.5064
   849.7500    146.0577      0.0000    720.6838     10.6333
   850.0000    142.4394      0.0000    716.3619     10.7427
   850.2500    138.7803      0.0000    713.3258     10.8422
   850.5000    135.9293      0.0000    712.1083     10.9427
   850.7500    132.9829      0.0000    712.9974     11.0618
   851.0000    128.8526      0.0000    715.2047     11.2279
   851.2500    123.9675      0.0000    717.4131     11.4653
   851.5000    120.2274      0.0000    718.8403     11.7623
   851.7500    119.4521      0.0000    719.5283     12.0549
   852.0000    121.9012      0.0000    719.8724     12.2559
   852.2500    126.0640      0.0000    720.1459     12.3070
   852.5000    129.6184      0.0000    720.3880     12.2029
   852.7500    130.6518      0.0000    720.5306     11.9666
   853.0000    128.5712      0.0000    720.5289     11.6180
   853.2500    124.5008      0.0000    720.4009     11.1752
   853.5000    120.6594      0.0000    720.2041     10.6824
   853.7500    118.7242      0.0000    720.0728     10.2187
   854.0000    118.5840      0.0000    720.3127      9.8695
   854.2500    118.6125      0.0000    721.4823      9.6858
   854.5000    116.9194      0.0000    724.1954      9.6680
   854.7500    112.6286      0.0000    728.4561      9.7793
   855.0000    106.6524      0.0000    733.0475      9.9671
   855.2500    101.2357      0.0000    736.1971     10.1749
   855.5000     98.2828      0.0000    737.3310     10.3543
   855.7500     98.0339      0.0000    737.5224     10.4856
   856.0000     99.3581      0.0000    737.6302     10.5910
   856.2500    100.8512      0.0000    736.9203     10.7122
   856.5000    101.5089      0.0000    734.4554     10.8575
   856.7500    100.9822      0.0000    730.9798     10.9611
   857.0000     99.7438      0.0000    728.3361     10.9059
   857.2500     98.9572      0.0000    727.4949     10.6081
   857.5000     99.8031      0.0000    728.1064     10.0927
   857.7500    102.5016      0.0000    729.6827      9.4881
   858.0000    105.8259      0.0000    732.1376      8.9528
   858.2500    107.7439      0.0000    735.0200      8.6046
   858.5000    106.6556      0.0000    737.3901      8.4935
   858.7500    102.0507      0.0000    739.2328      8.6024
   859.0000     94.4212      0.0000    741.8759      8.8558
   859.2500     85.1240      0.0000    745.7354      9.1419
   859.5000     76.1280      0.0000    748.3840      9.3558
   859.7500     69.0614      0.0000    746.4554      9.4477
   860.0000     64.2026      0.0000    739.4060      9.4483
   860.2500     60.7124      0.0000    730.2816      9.4472
   860.5000     57.9258      0.0000    722.8408      9.5413
   860.7500     56.2484      0.0000    718.7911      9.7870
   861.0000     56.8505      0.0000    717.6113     10.1788
   861.2500     60.7767      0.0000    717.9700     10.6522
   861.5000     68.4384      0.0000    718.9739     11.1018
   861.7500     79.5629      0.0000    720.6196     11.4120
   862.0000     93.0094      0.0000    723.4697     11.5005
   862.2500    106.4954      0.0000    727.6317     11.3573
   862.5000    117.0073      0.0000    731.7808     11.0518
   862.7500    122.1435      0.0000    733.6212     10.6941
   863.0000    121.4371      0.0000    731.8754     10.3753
   863.2500    116.4959      0.0000    727.5513     10.1253
   863.5000    109.8592      0.0000    722.7674      9.9108
   863.7500    103.6102      0.0000    718.6160      9.6682
   864.0000     98.9055      0.0000    714.5198      9.3555
   864.2500     96.4031      0.0000    709.4475      8.9899
   864.5000     96.5388      0.0000    703.5012      8.6421
   864.7500     99.1984      0.0000    698.3198      8.3938
   865.0000    103.5472      0.0000    695.9019      8.2932
   865.2500    108.4801      0.0000    697.0747      8.3387
   865.5000    113.0664      0.0000    701.0887      8.4963
   865.7500    116.5991      0.0000    706.2926      8.7282
   866.0000    118.7815      0.0000    710.9279      9.0040
   866.2500    120.0345      0.0000    713.6813      9.2897
   866.5000    121.0283      0.0000    714.0457      9.5477
   866.7500    121.6829      0.0000    712.4917      9.7573
   867.0000    121.1769      0.0000    710.4003      9.9303
   867.2500    119.1243      0.0000    709.4552     10.0970
   867.5000    116.1951      0.0000    710.5112     10.2762
   867.7500    113.3072      0.0000    712.9709     10.4581
   868.0000    110.6836      0.0000    715.4678     10.6125
   868.2500    108.0782      0.0000    717.0241     10.7076
   868.5000    105.5903      0.0000    717.3683     10.7265
   868.7500    103.7504      0.0000    716.3777     10.6739
   869.0000    102.8701      0.0000    713.5405     10.5733
   869.2500    102.6083      0.0000    708.1754     10.4560
   869.5000    102.2791      0.0000    700.3380     10.3463
   869.7500    101.3874      0.0000    691.4320     10.2533
   870.0000     99.7158      0.0000    683.5855     10.1746
   870.2500     97.0420      0.0000    678.2651     10.1066
   870.5000     93.1631      0.0000    675.6258     10.0538
   870.7500     88.3739      0.0000    675.1633     10.0274
   871.0000     83.7439      0.0000    676.8716     10.0355
   871.2500     80.6308      0.0000    681.9478     10.0737
   871.5000     79.7609      0.0000    692.4501     10.1262
   871.7500     80.7773      0.0000    709.6668     10.1807
   872.0000     82.6899      0.0000    732.1174     10.2365
   872.2500     84.7272      0.0000    755.3340     10.2976
   872.5000     86.7492      0.0000    774.3408     10.3613
   872.7500     88.9816      0.0000    786.6414     10.4191
   873.0000     91.5555      0.0000    792.8630     10.4665
   873.2500     94.3531      0.0000    795.0223     10.5076
   873.5000     97.1187      0.0000    794.5688     10.5452
   873.7500     99.5247      0.0000    791.6445     10.5701
   874.0000    101.2031      0.0000    785.5159     10.5622
   874.2500    101.9461      0.0000    775.4800     10.5067
   874.5000    101.9425      0.0000    761.4708     10.4067
   874.7500    101.6790      0.0000    744.1410     10.2789
   875.0000    101.5124      0.0000    724.9235     10.1416
   875.2500    101.4480      0.0000    706.2283     10.0120
   875.5000    101.5408      0.0000    690.9155      9.9024
   875.7500    102.4367      0.0000    681.3994      9.7860
   876.0000    104.9673      0.0000    679.7761      9.5459
   876.2500    108.8459      0.0000    688.5482      8.9960
   876.5000    112.1515      0.0000    709.3450      8.0415
   876.7500    112.7351      0.0000    739.8672      6.8549
