~Version Information
VERS.                      2.0: CWLS Log ASCII Standard - VERSION 2.0
WRAP.                       NO: One line per depth step
~Well Information Block
STRT.FT               673.2000: 
STOP.FT              1510.5000: 
STEP.FT                 0.1000: 
NULL.                -999.2500: 
COMP.          Pioneer Natural Resources: COMPANY
WELL.          Hammerhead 24-24 Tr: WELL
FLD.           Purgatoire River: FIELD
LOC.           953' FSL & 1922' FWL: LOCATION
PROV.                 Colorado: PROVINCE
CNTY.               Las Animas: COUNTRY
SRVC.                Patterson: SERVICE COMPANY
DATE.          Mon Jan 30 07:27:57 2006: LOG DATE
UWI.           05 071 08669 00: UNIQUE WELL ID
~Curve Information Block
DEPT.FT            0 000 00 00: Depth
DCAL.in                       : CDL Caliper
RHOB.g/cc                     : CDL Bulk Density
RHOC.g/cc                     : CDL Density Correction
DPOR.pu                       : CDL Density Porosity
GR.GAPI                       : Gamma Ray
~Parameter Information Block
~A  Depth       DCAL        RHOB        RHOC        DPOR         GR     
# ...
   897.2000      7.8906      2.5343     -0.0004      7.0101    163.8246
   897.3000      7.8905      2.5259     -0.0371      7.5188    160.5314
   897.4000      7.8905      2.5216     -0.0189      7.7799    159.4280
   897.5000      7.8906      2.5102     -0.0216      8.4705    159.8081
   897.6000      7.8906      2.4779     -0.0056     10.4292    158.9852
   897.7000      7.8906      2.4359     -0.1098     12.9734    158.2443
   897.8000      7.8908      2.4137     -0.0341     14.3198    159.2515
   897.9000      7.8908      2.4190     -0.0278     14.0003    159.7426
   898.0000      7.8908      2.4346     -0.0033     13.0525    156.2494
   898.1000      7.8908      2.4409      0.0245     12.6703    148.2302
   898.2000      7.8908      2.4354     -0.0116     13.0056    140.7696
   898.3000      7.8906      2.4369      0.0101     12.9166    135.9555
   898.4000      7.8906      2.4597      0.0295     11.5304    132.9709
   898.5000      7.8905      2.4934      0.0825      9.4921    134.2492
   898.6000      7.8905      2.5114      0.1256      8.3983    138.1041
   898.7000      7.8905      2.5035      0.0966      8.8765    141.8349
   898.8000      7.8900      2.4849      0.1004     10.0057    146.5057
   898.9000      7.8900      2.4702      0.0925     10.8994    149.9855
   899.0000      7.8893      2.4634      0.0745     11.3076    152.3190
   899.1000      7.8893      2.4625      0.1129     11.3633    157.2706
   899.2000      7.8893      2.4652      0.0771     11.1977    163.1748
   899.3000      7.8898      2.4774      0.0822     10.4576    165.0856
   899.4000      7.8898      2.4976      0.0986      9.2380    159.2407
   899.5000      7.8909      2.5059      0.1495      8.7326    146.3569
   899.6000      7.8909      2.4906      0.0534      9.6597    132.6565
   899.7000      7.8909      2.4679      0.0789     11.0335    125.2164
   899.8000      7.8913      2.4559      0.0883     11.7617    127.9848
   899.9000      7.8913      2.4555      0.0953     11.7896    135.5332
   900.0000      7.8916      2.4587      0.1148     11.5940    140.3704
   900.1000      7.8916      2.4594      0.0809     11.5531    143.2044
   900.2000      7.8916      2.4611      0.0525     11.4493    144.3160
   900.3000      7.8919      2.4736      0.0561     10.6914    141.2891
   900.4000      7.8919      2.4961      0.1168      9.3280    137.3915
   900.5000      7.8914      2.5149      0.1262      8.1859    137.2449
   900.6000      7.8914      2.5236      0.1448      7.6595    139.7453
   900.7000      7.8914      2.5279      0.1272      7.4002    141.7402
   900.8000      7.8909      2.5324      0.1207      7.1269    142.2959
   900.9000      7.8909      2.5364      0.1132      6.8856    141.0670
   901.0000      7.8908      2.5486      0.0580      6.1481    137.2021
   901.1000      7.8908      2.5861      0.0484      3.8699    133.5742
   901.2000      7.8908      2.6474      0.1054      0.1595    132.2909
   901.3000      7.8903      2.7068      0.1336     -3.4445    131.0723
   901.4000      7.8903      2.7377      0.1790     -5.3130    130.0143
   901.5000      7.8900      2.7275      0.1639     -4.6960    134.5206
   901.6000      7.8900      2.6899      0.0826     -2.4153    144.1358
   901.7000      7.8900      2.6516      0.0229     -0.0995    147.8065
   901.8000      7.8903      2.6226      0.0173      1.6611    142.2346
   901.9000      7.8903      2.5959     -0.0249      3.2772    136.2819
   902.0000      7.8905      2.5759     -0.0655      4.4929    133.5222
   902.1000      7.8905      2.5716     -0.0134      4.7499    134.7028
   902.2000      7.8905      2.5748     -0.0135      4.5580    140.7223
   902.3000      7.8904      2.5726      0.0072      4.6880    147.6889
   902.4000      7.8904      2.5653     -0.0136      5.1354    151.6001
   902.5000      7.8903      2.5547      0.0251      5.7777    152.4353
   902.6000      7.8903      2.5349      0.0178      6.9783    151.6479
   902.7000      7.8903      2.5127      0.0154      8.3208    149.2867
   902.8000      7.8893      2.5113     -0.0426      8.4057    146.8685
   902.9000      7.8893      2.5330     -0.0017      7.0927    147.5851
   903.0000      7.8886      2.5459      0.0034      6.3063    151.7516
   903.1000      7.8886      2.5284     -0.0098      7.3691    154.8508
   903.2000      7.8886      2.4944     -0.0056      9.4298    153.0217
   903.3000      7.8890      2.4722     -0.0510     10.7745    151.1019
   903.4000      7.8890      2.4755     -0.0254     10.5767    155.0073
   903.5000      7.8897      2.4927     -0.0158      9.5323    156.1979
   903.6000      7.8897      2.5059     -0.0025      8.7304    145.1511
   903.7000      7.8897      2.5097     -0.0096      8.5012    134.2939
   903.8000      7.8906      2.5088     -0.0044      8.5597    138.3240
   903.9000      7.8906      2.5106     -0.0142      8.4499    152.0362
   904.0000      7.8911      2.5221      0.0200      7.7502    164.4182
   904.1000      7.8911      2.5377      0.0263      6.8053    170.9382
   904.2000      7.8911      2.5431      0.0442      6.4761    168.6957
   904.3000      7.8901      2.5355      0.0486      6.9375    159.6705
   904.4000      7.8901      2.5221      0.0455      7.7490    152.4306
   904.5000      7.8896      2.5130      0.0325      8.3033    151.1666
   904.6000      7.8896      2.5189      0.0175      7.9465    155.6226
   904.7000      7.8896      2.5364      0.0893      6.8852    165.1232
   904.8000      7.8904      2.5492      0.0893      6.1070    177.3392
   904.9000      7.8904      2.5532      0.0861      5.8660    186.4849
   905.0000      7.8909      2.5554      0.0934      5.7308    184.7336
   905.1000      7.8909      2.5605      0.0828      5.4238    177.7610
   905.2000      7.8909      2.5688      0.0603      4.9234    175.4312
   905.3000      7.8909      2.5722      0.0975      4.7151    172.9692
   905.4000      7.8909      2.5624      0.0822      5.3073    165.9055
   905.5000      7.8906      2.5456      0.0319      6.3295    157.4149
   905.6000      7.8906      2.5249      0.0954      7.5816    150.3522
   905.7000      7.8906      2.5001      0.0000      9.0824    145.7505
   905.8000      7.8902      2.4871      0.0013      9.8744    143.6953
   905.9000      7.8902      2.4923      0.0061      9.5574    143.0963
   906.0000      7.8905      2.5052      0.0123      8.7735    142.3117
   906.1000      7.8905      2.5131      0.0500      8.2985    139.4909
   906.2000      7.8905      2.5004      0.0513      9.0679    134.1991
   906.3000      7.8913      2.4687     -0.0044     10.9889    129.2776
   906.4000      7.8913      2.4432     -0.0424     12.5320    126.8905
   906.5000      7.8910      2.4376     -0.0301     12.8750    127.7411
   906.6000      7.8910      2.4435     -0.0033     12.5136    131.0418
   906.7000      7.8910      2.4572     -0.0267     11.6846    131.8876
   906.8000      7.8907      2.4874     -0.0688      9.8531    126.6324
   906.9000      7.8907      2.5244      0.0218      7.6132    120.7207
   907.0000      7.8907      2.5415      0.0104      6.5787    119.9230
   907.1000      7.8907      2.5422      0.0191      6.5344    124.2129
   907.2000      7.8907      2.5491      0.0261      6.1140    132.0931
   907.3000      7.8906      2.5613      0.0409      5.3781    139.5062
   907.4000      7.8906      2.5620      0.0245      5.3340    144.2108
   907.5000      7.8898      2.5517      0.0036      5.9556    145.0545
   907.6000      7.8898      2.5485     -0.0338      6.1543    137.8168
   907.7000      7.8898      2.5533      0.0302      5.8580    124.4929
   907.8000      7.8880      2.5464     -0.0103      6.2779    115.8501
   907.9000      7.8880      2.5271     -0.0201      7.4459    114.9366
   908.0000      7.8865      2.5174     -0.0345      8.0341    116.0064
   908.1000      7.8865      2.5281     -0.0098      7.3897    114.6737
   908.2000      7.8865      2.5424      0.0343      6.5217    111.5345
   908.3000      7.8876      2.5490     -0.0031      6.1192    110.6816
