~Version Information
VERS.                      2.0: CWLS Log ASCII Standard - VERSION 2.0
WRAP.                       NO: One line per depth step
~Well Information Block
STRT.FT                10.0000: 
STOP.FT              1360.0000: 
STEP.FT                 0.1000: 
NULL.                -999.2500: 
COMP.          Pioneer Natural Resources: COMPANY
WELL.              Geyser 41-2: WELL
FLD.           Purgatorie River: FIELD
LOC.           506' FNL & 1127' FEL: LOCATION
PROV.                 Colorado: PROVINCE
CNTY.               Las Animas: COUNTRY
SRVC.                Patterson: SERVICE COMPANY
DATE.          Thu Dec 01 07:38:14 2005: LOG DATE
UWI.                          : UNIQUE WELL ID
~Curve Information Block
DEPT.FT            0 000 00 00: Depth
DCAL.in                       : CDL Caliper
RHOB.g/cc                     : CDL Bulk Density
RHOC.g/cc                     : CDL Density Correction
DPOR.pu                       : CDL Density Porosity
GR.GAPI                       : Gamma Ray
NPOR.pu                       : Neutron Porosity
~Parameter Information Block
~A  Depth       DCAL        RHOB        RHOC        DPOR         GR         NPOR    
# ...
   365.2000      7.9764      2.5352      0.0705      6.9565    127.8449     24.6420
   365.3000      7.9722      2.5514      0.0778      5.9742    132.4464     24.4423
   365.4000      7.9722      2.5843      0.0692      3.9848    134.0472     24.8117
   365.5000      7.9668      2.6237      0.1617      1.5943    131.3831     25.3040
   365.6000      7.9668      2.6498      0.1423      0.0113    124.4138     25.6544
   365.7000      7.9668      2.6525      0.1667     -0.1531    118.5879     25.8992
   365.8000      7.9634      2.6322      0.1204      1.0809    116.6936     26.0816
   365.9000      7.9634      2.5979      0.0826      3.1603    115.7643     26.0438
   366.0000      7.9804      2.5590      0.0620      5.5158    113.1384     25.6433
   366.1000      7.9804      2.5215      0.0219      7.7874    109.9226     25.0729
   366.2000      7.9804      2.4967     -0.0166      9.2932    109.2658     24.5412
   366.3000      7.9751      2.4919     -0.0101      9.5799    111.8161     24.0874
   366.4000      7.9751      2.4983      0.0115      9.1917    116.1677     23.6275
   366.5000      7.9702      2.5048      0.0198      8.7984    120.8341     23.2559
   366.6000      7.9702      2.5136      0.0840      8.2680    124.0794     23.0961
   366.7000      7.9702      2.5272      0.1186      7.4434    123.8504     23.0674
   366.8000      7.9720      2.5401      0.0995      6.6587    121.6194     23.1933
   366.9000      7.9720      2.5436      0.1734      6.4501    121.7132     23.3746
   367.0000      7.9748      2.5368      0.1303      6.8591    123.4733     23.4476
   367.1000      7.9748      2.5389      0.1138      6.7310    123.9399     23.4236
   367.2000      7.9748      2.5616      0.1736      5.3550    123.6638     23.4427
   367.3000      7.9779      2.5904      0.1926      3.6149    123.1089     23.7071
   367.4000      7.9779      2.6006      0.2266      2.9956    121.3109     24.0588
   367.5000      7.9750      2.5795      0.1646      4.2734    118.1414     24.3286
   367.6000      7.9750      2.5497      0.0491      6.0805    114.3802     24.7131
   367.7000      7.9750      2.5513      0.0879      5.9815    111.7207     25.1819
   367.8000      7.9662      2.5914      0.1483      3.5520    110.7806     25.4784
   367.9000      7.9662      2.6497      0.1388      0.0166    108.7217     25.7144
   368.0000      7.9701      2.7111      0.2057     -3.7060    104.9471     26.2121
   368.1000      7.9701      2.7577      0.2436     -6.5264    101.3443     26.7497
   368.2000      7.9701      2.7778      0.2226     -7.7440     97.2567     26.9790
   368.3000      7.9615      2.7891      0.2002     -8.4287     92.6978     27.1303
   368.4000      7.9615      2.8130      0.1869     -9.8802     89.7255     27.4988
   368.5000      7.9524      2.8391      0.2225    -11.4603     88.6965     28.0367
   368.6000      7.9524      2.8421      0.1618    -11.6396     87.3070     28.4118
   368.7000      7.9524      2.8213      0.1242    -10.3794     85.4711     28.4387
   368.8000      7.9524      2.7899      0.0876     -8.4784     85.4409     28.2536
   368.9000      7.9524      2.7543      0.0557     -6.3182     86.9273     27.7457
   369.0000      7.9451      2.7285      0.0138     -4.7582     87.3590     26.7244
   369.1000      7.9451      2.7333     -0.0002     -5.0491     87.1340     25.7151
   369.2000      7.9451      2.7571      0.0907     -6.4935     88.6468     25.4183
   369.3000      7.9428      2.7636      0.0454     -6.8855     90.3380     25.7497
   369.4000      7.9428      2.7484      0.0313     -5.9647     90.1793     25.8827
   369.5000      7.9474      2.7363      0.0354     -5.2273     89.1747     25.2248
   369.6000      7.9474      2.7318      0.0678     -4.9558     87.5692     24.2480
   369.7000      7.9474      2.7192      0.0524     -4.1914     84.3540     23.7143
   369.8000      7.9476      2.6931      0.0261     -2.6125     81.4673     23.5429
   369.9000      7.9476      2.6632      0.0471     -0.7998     82.4352     23.1280
   370.0000      7.9640      2.6409      0.0382      0.5514     87.2489     22.4379
   370.1000      7.9640      2.6298      0.0048      1.2250     93.5504     21.8891
   370.2000      7.9640      2.6239     -0.0176      1.5830     99.9037     21.4747
   370.3000      8.0083      2.6125      0.0392      2.2732    106.0383     21.0364
   370.4000      8.0083      2.5896     -0.0413      3.6588    111.1301     20.7837
   370.5000      8.0406      2.5658     -0.0351      5.1017    112.6288     20.9741
   370.6000      8.0406      2.5590     -0.0175      5.5174    108.6156     21.3841
   370.7000      8.0406      2.5664      0.0413      5.0638    102.4214     21.5537
   370.8000      8.0468      2.5624      0.0489      5.3061     99.8615     21.4931
   370.9000      8.0468      2.5394     -0.0051      6.7036    101.9316     21.4330
   371.0000      8.0049      2.5203     -0.0273      7.8624    105.4235     21.3167
   371.1000      8.0049      2.5173      0.0296      8.0400    108.9201     21.2236
   371.2000      8.0049      2.5191     -0.0244      7.9350    112.8261     21.5506
   371.3000      7.9855      2.5169      0.0074      8.0640    114.9414     22.2528
   371.4000      7.9855      2.5161     -0.0131      8.1139    113.1324     22.7822
   371.5000      7.9733      2.5236      0.0256      7.6608    109.8473     22.9605
   371.6000      7.9733      2.5372      0.0313      6.8346    108.3473     23.0598
   371.7000      7.9733      2.5578      0.0265      5.5885    108.4306     23.1516
   371.8000      7.9713      2.5858      0.0516      3.8917    109.6864     22.9970
   371.9000      7.9713      2.6066      0.0471      2.6333    112.2844     22.5991
   372.0000      7.9756      2.6073      0.0505      2.5897    112.7922     22.3149
   372.1000      7.9756      2.5949      0.0370      3.3366    109.5598     22.3825
   372.2000      7.9756      2.5874      0.0152      3.7953    107.2458     22.6400
   372.3000      7.9868      2.5848      0.0484      3.9504    108.8580     22.7869
   372.4000      7.9868      2.5729      0.0271      4.6731    111.4722     22.8166
   372.5000      7.9922      2.5582      0.0176      5.5667    111.4889     22.8378
   372.6000      7.9922      2.5555      0.0468      5.7249    110.0245     22.7574
   372.7000      7.9922      2.5616      0.0511      5.3593    109.9742     22.5048
   372.8000      7.9992      2.5628      0.0756      5.2853    110.3887     22.2302
   372.9000      7.9992      2.5529      0.0746      5.8859    110.4150     22.0988
   373.0000      8.0026      2.5420      0.0275      6.5434    110.9398     22.2676
   373.1000      8.0026      2.5453      0.0405      6.3433    112.1183     22.7527
   373.2000      8.0026      2.5593      0.0658      5.4941    112.9829     23.1459
   373.3000      7.9989      2.5754      0.0490      4.5210    112.5703     23.0051
   373.4000      7.9989      2.5971      0.0631      3.2060    111.1645     22.5615
   373.5000      7.9994      2.6206      0.0932      1.7800    109.5088     22.2854
   373.6000      7.9994      2.6312      0.1256      1.1405    108.6318     22.2513
   373.7000      7.9994      2.6249      0.0851      1.5197    109.4655     22.4063
   373.8000      8.0069      2.6110      0.0918      2.3637    111.2588     22.8238
   373.9000      8.0069      2.5945      0.0327      3.3666    112.0808     23.3745
   374.0000      8.0022      2.5740      0.0583      4.6080    111.9582     23.7761
   374.1000      8.0022      2.5527     -0.0200      5.8965    112.3103     23.9371
   374.2000      8.0022      2.5436      0.0143      6.4455    111.9322     23.8981
   374.3000      8.0048      2.5583     -0.0162      5.5606    110.3883     23.8256
   374.4000      8.0048      2.5948      0.0527      3.3485    108.6204     23.7021
   374.5000      8.0081      2.6373      0.1050      0.7720    105.7526     23.3407
   374.6000      8.0081      2.6748      0.0870     -1.5046    102.9441     23.0249
   374.7000      8.0081      2.6996      0.1337     -3.0054    101.8118     23.1452
