~Version Information
VERS.                      2.0: CWLS Log ASCII Standard - VERSION 2.0
WRAP.                       NO: One line per depth step
~Well Information Block
STRT.FT               264.2500: 
STOP.FT              1134.7500: 
STEP.FT                 0.2500: 
NULL.                -999.2500: 
COMP.          Pioneer Natural Resources: COMPANY
WELL.          Black Cat 13-32 Tr: WELL
FLD.           Purgatoire River: FIELD
LOC.           1679' FSL & 1150' FWL--: LOCATION
CNTY.               Las Animas: COUNTY
SRVC.                Patterson: SERVICE COMPANY
DATE.          Tue Mar 07 10:58:06 2006: LOG DATE
UWI.           05 071 08721 00: UNIQUE WELL ID
STAT.                 Colorado: STATE
~Curve Information Block
DEPT.FT            0 000 00 00: Depth
SN.Ohm-m                      : IEL Short Normal
SP.mV                         : IEL Spontaneous Potential
DIR.Ohm-m                     : IEL Induction Resistivity
GR.GAPI                       : Gamma Ray
~Parameter Information Block
~A  Depth        SN          SP         DIR          GR     
# ...
   900.7500    596.4615   -478.4413     52.1146     62.0860
   901.0000    596.4615   -478.3499     51.8372     61.8122
   901.2500    596.4615   -478.7215     51.6770     61.7894
   901.5000    596.4615   -479.5452     51.7314     62.4743
   901.7500    596.4615   -480.7421     52.0526     63.4030
   902.0000    596.4615   -482.1786     52.5791     65.5774
   902.2500    596.4615   -483.6919     53.1361     67.7272
   902.5000    596.4615   -485.1205     53.5161     71.9775
   902.7500    596.4615   -486.3332     53.5807     75.0573
   903.0000    596.4615   -487.2495     53.3033     78.8909
   903.2500    596.4615   -487.8444     52.7262     80.3963
   903.5000    596.4615   -488.1438     51.8980     80.9821
   903.7500    596.4615   -488.2083     50.8594     80.7066
   904.0000    596.4615   -488.1146     49.6742     80.4468
   904.2500    596.4615   -487.9374     48.4480     80.8417
   904.5000    596.4615   -487.7360     47.2925     82.2080
   904.7500    596.4615   -487.5426     46.2609     83.1874
   905.0000    596.4615   -487.3582     45.3102     84.0798
   905.2500    596.4615   -487.1511     44.3213     84.2799
   905.5000    596.4615   -486.8612     43.1598     84.4468
   905.7500    596.4615   -486.4092     41.7328     84.6143
   906.0000    596.4615   -485.7100     40.0181     84.6465
   906.2500    596.4615   -484.6879     38.0655     84.3318
   906.5000    596.4615   -483.2923     35.9846     83.9648
   906.7500    596.4615   -481.5038     33.9144     84.7955
   907.0000    596.4615   -479.3382     31.9755     89.4474
   907.2500    596.4615   -476.8430     30.2283     95.0540
   907.5000    596.4615   -474.0919     28.6573    105.5436
   907.7500    596.4615   -471.1798     27.1891    112.2434
   908.0000    596.4603   -468.2208     25.7343    119.4351
   908.2500    596.4442   -465.3472     24.2340    121.6224
   908.5000    596.3594   -462.7073     22.6909    120.7038
   908.7500    595.9858   -460.4576     21.1640    117.5837
   909.0000    594.7107   -458.7467     19.7368    110.8642
   909.2500    591.3772   -457.6926     18.4823    106.6671
   909.5000    584.8275   -457.3580     17.4419    103.4808
   909.7500    575.5118   -457.7325     16.6194    104.1786
   910.0000    566.8088   -458.7240     15.9847    108.7284
   910.2500    563.5027   -460.1686     15.4846    112.7027
   910.5000    567.7156   -461.8536     15.0619    117.4189
   910.7500    576.7974   -463.5492     14.6766    118.9817
   911.0000    585.9133   -465.0417     14.3207    119.6505
   911.2500    592.0241   -466.1591     14.0147    119.9246
   911.5000    594.9970   -466.7862     13.7943    120.9718
   911.7500    596.0821   -466.8623     13.6947    121.8493
   912.0000    596.3843   -466.3687     13.7421    122.3318
   912.2500    596.4478   -465.3061     13.9489    121.5717
   912.5000    596.4518   -463.6699     14.3119    118.6017
   912.7500    596.4141   -461.4377     14.8106    115.6553
   913.0000    596.2740   -458.5665     15.4092    110.6236
   913.2500    595.8840   -455.0068     16.0635    107.4205
   913.5000    595.0761   -450.7364     16.7313    103.4972
   913.7500    593.8732   -445.8051     17.3832    101.4876
   914.0000    592.6956   -440.3844     18.0078     98.9797
   914.2500    592.1941   -434.8018     18.6109     97.5262
   914.5000    592.6935   -429.5441     19.2095     96.0349
   914.7500    593.8596   -425.2127     19.8221     95.7499
   915.0000    595.0067   -422.4357     20.4579     96.0598
   915.2500    595.6071   -421.7387     21.1059     96.1678
   915.5000    595.4124   -423.4178     21.7294     95.3566
   915.7500    594.3199   -427.4482     22.2731     94.0830
   916.0000    592.4741   -433.4651     22.6865     91.3834
   916.2500    590.5497   -440.8283     22.9548     89.3472
   916.5000    589.5861   -448.7548     23.1135     86.6026
   916.7500    590.1921   -456.4790     23.2340     85.4173
   917.0000    591.9745   -463.3928     23.3883     84.9359
   917.2500    593.9374   -469.1286     23.6159     85.1504
   917.5000    595.3438   -473.5716     23.9050     85.1998
   917.7500    596.0713   -476.8124     24.1897     84.8041
   918.0000    596.3540   -479.0676     24.3648     84.3932
   918.2500    596.4381   -480.6017     24.3170     84.8748
   918.5000    596.4575   -481.6625     23.9677     86.7557
   918.7500    596.4612   -482.4514     23.3020     88.2666
   919.0000    596.4615   -483.1141     22.3697     90.3559
   919.2500    596.4615   -483.7499     21.2607     91.8523
   919.5000    596.4615   -484.4250     20.0778     95.1926
   919.7500    596.4615   -485.1797     18.9165     98.6039
   920.0000    596.4615   -486.0354     17.8518    105.5193
   920.2500    596.4615   -486.9906     16.9306    110.7688
   920.5000    596.4615   -488.0156     16.1708    117.8913
   920.7500    596.4615   -489.0483     15.5693    121.0975
   921.0000    596.4615   -489.9923     15.1118    122.6067
   921.2500    596.4615   -490.7291     14.7813    121.5218
   921.5000    596.4615   -491.1415     14.5628    117.8625
   921.7500    596.4615   -491.1461     14.4442    114.9028
   922.0000    596.4538   -490.7296     14.4160    110.8976
   922.2500    596.4111   -489.9740     14.4689    109.0545
   922.5000    596.2057   -489.0614     14.5900    108.2176
   922.7500    595.4432   -488.2463     14.7592    109.0205
   923.0000    593.3027   -487.8026     14.9486    111.4392
   923.2500    588.7701   -487.9550     15.1277    113.0831
   923.5000    581.6422   -488.8190     15.2707    114.8455
   923.7500    573.5137   -490.3687     15.3621    115.6370
   924.0000    567.1339   -492.4431     15.3979    116.5151
   924.2500    564.3693   -494.7902     15.3809    116.6652
   924.5000    565.3684   -497.1316     15.3148    115.3847
   924.7500    569.5789   -499.2264     15.2001    113.3072
   925.0000    576.2187   -500.9162     15.0345    109.1087
   925.2500    583.6790   -502.1403     14.8185    106.4592
   925.5000    589.9052   -502.9246     14.5586    103.9705
   925.7500    593.7847   -503.3534     14.2676    103.6083
   926.0000    595.6011   -503.5365     13.9581    104.9512
   926.2500    596.2459   -503.5821     13.6371    106.8962
   926.5000    596.4191   -503.5800     13.3030    110.8089
   926.7500    596.4550   -503.5946     12.9488    113.5460
   927.0000    596.4615   -503.6646     12.5671    116.6911
   927.2500    596.4615   -503.8065     12.1548    117.6698
   927.5000    596.4615   -504.0186     11.7154    117.7591
   927.7500    596.4615   -504.2864     11.2592    117.7765
   928.0000    596.4615   -504.5894     10.8022    119.4317
   928.2500    596.4615   -504.9025     10.3641    121.9490
   928.5000    596.4615   -505.2021      9.9654    126.7302
   928.7500    596.4615   -505.4691      9.6247    129.4580
   929.0000    596.4615   -505.6873      9.3557    131.7553
   929.2500    596.4615   -505.8454      9.1664    132.3652
   929.5000    596.4615   -505.9364      9.0598    133.2026
   929.7500    596.4615   -505.9573      9.0364    134.2075
   930.0000    596.4615   -505.9097      9.0971    136.0934
   930.2500    596.4615   -505.7990      9.2452    136.9184
   930.5000    596.4615   -505.6333      9.4842    136.1934
   930.7500    596.4615   -505.4194      9.8140    133.8516
   931.0000    596.4615   -505.1594     10.2264    127.1892
   931.2500    596.4615   -504.8470     10.7024    120.8745
   931.5000    596.4615   -504.4661     11.2133    110.0472
   931.7500    596.4615   -503.9917     11.7252    103.4056
   932.0000    596.4615   -503.3937     12.2074     97.1880
   932.2500    596.4615   -502.6418     12.6382     96.7029
   932.5000    596.4615   -501.7112     13.0049    101.4237
   932.7500    596.4615   -500.5882     13.2994    106.9186
   933.0000    596.4615   -499.2750     13.5131    115.4121
   933.2500    596.4615   -497.7935     13.6362    119.6576
   933.5000    596.4615   -496.1875     13.6617    122.9747
   933.7500    596.4615   -494.5208     13.5917    123.5813
   934.0000    596.4615   -492.8713     13.4409    123.3752
