~Version Information
VERS.                      2.0: CWLS Log ASCII Standard - VERSION 2.0
WRAP.                       NO: One line per depth step
~Well Information Block
STRT.FT               547.0000: 
STOP.FT              1685.5000: 
STEP.FT                 0.2500: 
NULL.                -999.2500: 
COMP.          Pioneer Natural Resources: COMPANY
WELL.           Pedri 42-33 Tr: WELL
FLD.           Purgatorie River: FIELD
LOC.           1933' FNL & 662' FEL: LOCATION
PROV.                 Colorado: PROVINCE
CNTY.               Las Animas: COUNTRY
SRVC.                Patterson: SERVICE COMPANY
DATE.          Mon Dec 19 10:09:44 2005: LOG DATE
UWI.                          : UNIQUE WELL ID
~Curve Information Block
DEPT.FT            0 000 00 00: Depth
DIR.Ohm-m                     : IEL Induction Resistivity
GR.GAPI                       : Gamma Ray
~Parameter Information Block
~A  Depth       DIR          GR     
# ...
   881.5000     73.0490     57.2246
   881.7500     70.8337     58.0498
   882.0000     68.0638     58.7606
   882.2500     64.5147     58.7132
   882.5000     60.1313     57.8417
   882.7500     55.1125     56.8261
   883.0000     49.8333     55.3947
   883.2500     44.6729     55.3025
   883.5000     39.8984     57.6146
   883.7500     35.6524     60.8733
   884.0000     31.9875     67.6447
   884.2500     28.8929     72.9222
   884.5000     26.3113     81.3587
   884.7500     24.1597     87.1014
   885.0000     22.3560     95.6479
   885.2500     20.8384    101.1189
   885.5000     19.5688    108.4933
   885.7500     18.5234    112.6313
   886.0000     17.6817    117.7869
   886.2500     17.0210    120.8549
   886.5000     16.5178    125.5851
   886.7500     16.1525    129.1017
   887.0000     15.9143    134.7367
   887.2500     15.8007    137.9948
   887.5000     15.8136    140.2010
   887.7500     15.9527    139.2226
   888.0000     16.2086    134.9507
   888.2500     16.5582    131.5426
   888.5000     16.9617    127.3115
   888.7500     17.3649    125.1027
   889.0000     17.7097    121.1379
   889.2500     17.9517    116.7985
   889.5000     18.0744    106.6756
   889.7500     18.0899     98.1629
   890.0000     18.0247     85.3839
   890.2500     17.9033     78.3222
   890.5000     17.7376     71.5551
   890.7500     17.5258     70.4187
   891.0000     17.2573     75.0366
   891.2500     16.9215     82.1382
   891.5000     16.5146     95.8024
   891.7500     16.0455    104.4219
   892.0000     15.5348    114.0891
   892.2500     15.0106    118.6256
   892.5000     14.5018    124.5279
   892.7500     14.0337    128.6166
   893.0000     13.6248    134.8196
   893.2500     13.2848    138.6332
   893.5000     13.0135    143.8343
   893.7500     12.8013    147.0263
   894.0000     12.6336    150.6849
   894.2500     12.4965    151.7225
   894.5000     12.3818    151.2186
   894.7500     12.2886    150.3326
   895.0000     12.2220    149.2840
   895.2500     12.1905    148.5380
   895.5000     12.2027    146.2468
   895.7500     12.2641    143.7589
   896.0000     12.3741    139.3608
   896.2500     12.5246    136.4567
   896.5000     12.7022    132.1412
   896.7500     12.8933    129.0735
   897.0000     13.0915    124.6264
   897.2500     13.3017    122.6612
   897.5000     13.5388    122.5670
   897.7500     13.8216    124.1687
   898.0000     14.1646    126.8790
   898.2500     14.5735    127.6549
   898.5000     15.0449    127.1115
   898.7500     15.5691    126.5881
   899.0000     16.1357    127.2982
   899.2500     16.7372    128.9442
   899.5000     17.3706    131.7961
   899.7500     18.0356    132.7952
   900.0000     18.7323    131.8943
   900.2500     19.4606    130.0747
   900.5000     20.2222    127.3089
   900.7500     21.0215    126.3542
   901.0000     21.8629    126.4660
   901.2500     22.7455    127.0804
   901.5000     23.6607    128.0867
   901.7500     24.5973    128.6600
   902.0000     25.5532    128.8564
   902.2500     26.5448    127.9797
   902.5000     27.6042    124.7635
   902.7500     28.7627    122.0074
   903.0000     30.0337    119.0069
   903.2500     31.4099    118.4410
   903.5000     32.8771    118.6409
   903.7500     34.4354    117.9858
   904.0000     36.1096    114.2991
   904.2500     37.9457    110.6195
   904.5000     40.0002    105.8518
   904.7500     42.3339    104.2311
   905.0000     45.0108    103.4737
   905.2500     48.0877    102.6044
   905.5000     51.5792     98.6473
   905.7500     55.4035     94.2428
   906.0000     59.3422     87.0738
   906.2500     63.0615     83.4444
   906.5000     66.2141     80.7697
   906.7500     68.5772     80.1133
   907.0000     70.1428     78.7828
   907.2500     71.1099     77.1080
   907.5000     71.7964     73.8749
   907.7500     72.5326     71.7076
   908.0000     73.5800     68.8512
   908.2500     75.0868     67.3266
   908.5000     77.0596     65.8353
   908.7500     79.3373     65.4240
   909.0000     81.5910     65.4945
   909.2500     83.4016     65.8869
   909.5000     84.4010     66.9615
   909.7500     84.3620     67.8781
   910.0000     83.1618     68.7409
   910.2500     80.7145     68.3002
   910.5000     77.0158     65.4461
   910.7500     72.2596     62.3017
   911.0000     66.8602     57.0558
   911.2500     61.3160     54.1851
   911.5000     56.0370     52.0497
   911.7500     51.2601     52.3099
   912.0000     47.0657     54.9806
   912.2500     43.4394     57.9690
   912.5000     40.3303     63.6509
   912.7500     37.6869     67.8453
   913.0000     35.4643     74.0941
   913.2500     33.6092     78.0257
   913.5000     32.0423     83.9320
   913.7500     30.6568     88.4239
   914.0000     29.3444     96.4814
   914.2500     28.0317    102.3149
   914.5000     26.7029    110.5541
   914.7500     25.3900    115.3496
   915.0000     24.1419    121.2306
   915.2500     22.9963    123.7983
   915.5000     21.9678    124.5381
   915.7500     21.0538    122.7837
   916.0000     20.2481    117.5359
   916.2500     19.5532    113.0884
   916.5000     18.9825    106.6509
   916.7500     18.5534    103.3715
   917.0000     18.2765    100.5165
   917.2500     18.1461     99.8978
   917.5000     18.1392    101.0881
   917.7500     18.2209    103.6477
   918.0000     18.3550    109.8992
   918.2500     18.5142    114.7588
   918.5000     18.6849    121.3514
   918.7500     18.8659    124.8325
   919.0000     19.0637    128.4004
   919.2500     19.2891    129.1915
   919.5000     19.5568    126.8920
   919.7500     19.8868    122.9912
   920.0000     20.3031    115.1244
   920.2500     20.8275    109.8222
   920.5000     21.4670    103.2136
   920.7500     22.2036     99.8764
   921.0000     22.9908     96.2416
   921.2500     23.7629     94.5692
   921.5000     24.4522     92.9151
   921.7500     25.0068     92.3874
   922.0000     25.3998     93.2297
   922.2500     25.6285     95.6019
   922.5000     25.7076    102.4205
   922.7500     25.6596    108.5746
   923.0000     25.5085    117.7754
   923.2500     25.2814    122.0988
   923.5000     25.0108    123.7306
   923.7500     24.7320    121.6994
   924.0000     24.4714    116.7611
   924.2500     24.2356    114.3984
   924.5000     24.0102    114.1773
   924.7500     23.7688    115.4270
   925.0000     23.4867    115.9249
   925.2500     23.1515    113.7397
   925.5000     22.7686    106.8098
   925.7500     22.3587    101.4036
   926.0000     21.9475     95.6934
   926.2500     21.5530     94.7179
   926.5000     21.1756     97.2019
   926.7500     20.7971    100.5844
   927.0000     20.3888    107.2691
   927.2500     19.9235    112.5904
   927.5000     19.3867    120.7160
   927.7500     18.7831    124.8760
   928.0000     18.1367    127.4365
   928.2500     17.4855    126.9161
   928.5000     16.8717    124.9034
   928.7500     16.3308    123.8964
   929.0000     15.8853    123.5587
   929.2500     15.5445    123.8584
   929.5000     15.3085    124.1311
   929.7500     15.1737    123.6403
   930.0000     15.1369    121.4978
   930.2500     15.1973    119.3217
   930.5000     15.3544    115.8145
   930.7500     15.6055    114.0938
   931.0000     15.9437    113.9018
   931.2500     16.3603    115.8690
   931.5000     16.8500    121.7141
   931.7500     17.4155    126.8556
   932.0000     18.0676    134.4358
   932.2500     18.8205    137.7489
   932.5000     19.6852    137.4942
   932.7500     20.6643    133.4880
   933.0000     21.7541    123.8446
   933.2500     22.9515    116.9789
   933.5000     24.2601    108.5361
   933.7500     25.6854    104.5572
   934.0000     27.2189    100.1847
   934.2500     28.8158     97.2999
   934.5000     30.3795     91.6326
   934.7500     31.7692     87.1445
   935.0000     32.8401     81.4352
   935.2500     33.5034     79.6601
   935.5000     33.7609     80.8402
   935.7500     33.6870     83.6279
   936.0000     33.3770     89.1000
   936.2500     32.9091     92.8100
   936.5000     32.3445     97.9295
   936.7500     31.7514    101.1041
   937.0000     31.2163    105.7693
