~Version Information
VERS.                      2.0: CWLS Log ASCII Standard - VERSION 2.0
WRAP.                       NO: One line per depth step
~Well Information Block
STRT.FT               -11.5000: 
STOP.FT              1961.7500: 
STEP.FT                 0.2500: 
NULL.                -999.2500: 
COMP.          Petrogulf Corporation: COMPANY
WELL.           State 16-23R-X: WELL
FLD.           Purgatorie River: FIELD
LOC.           2381' FSL & 2072' FWL--: LOCATION
PROV.                       CO: PROVINCE
CNTY.               Las Animas: COUNTRY
SRVC.          Patterson Wireline: SERVICE COMPANY
DATE.          Fri Sep 09 14:32:42 2005: LOG DATE
UWI.           05 071 08324 00: UNIQUE WELL ID
~Curve Information Block
DEPT.FT            0 000 00 00: Depth
CCL.                          : Casing Collar Locator
TT3.usec                      : CBL 3' Travel Time
AMP3.mV                       : CBL 3' Amplitude
GR.GAPI                       : Gamma Ray
~Parameter Information Block
~A  Depth       CCL         TT3         AMP3         GR     
# ...
  1027.0000      0.0000    290.8261     41.2208    102.4504
  1027.2500      0.0000    278.9201     47.0711    101.7778
  1027.5000      0.0000    270.2973     52.3450    101.8356
  1027.7500      0.0000    264.8672     56.6051    102.2286
  1028.0000      0.0000    262.0313     59.5731    102.4779
  1028.2500      0.0000    260.8494     61.1232    102.4893
  1028.5000      0.0000    260.5039     61.2920    102.5915
  1028.7500      0.0000    260.5657     60.2727    102.9904
  1029.0000      0.0000    261.0154     58.3439    103.2099
  1029.2500      0.0000    262.2254     55.7808    102.5916
  1029.5000      0.0000    264.8776     52.8172    101.6149
  1029.7500      0.0000    269.5829     49.6558    102.0261
  1030.0000      0.0000    276.2328     46.4781    104.9569
  1030.2500      0.0000    283.7041     43.4334    109.3049
  1030.5000      0.0000    290.5158     40.6063    112.6701
  1030.7500      0.0000    295.9991     37.9742    113.7036
  1031.0000      0.0000    300.8329     35.4024    112.9860
  1031.2500      0.0000    306.4121     32.7351    111.9251
  1031.5000      0.0000    313.6991     29.9382    111.4641
  1031.7500      0.0000    322.5728     27.1580    111.6975
  1032.0000      0.0000    332.1070     24.6299    112.1090
  1032.2500      0.0000    341.3252     22.5392    111.9919
  1032.5000      0.0000    349.7191     20.9637    110.7368
  1032.7500      0.0000    357.2242     19.9045    107.8927
  1033.0000      0.0000    363.7598     19.3349    103.3660
  1033.2500      0.0000    368.8086     19.2262     97.8570
  1033.5000      0.0000    371.4791     19.5561     92.9224
  1033.7500      0.0000    370.8784     20.3184     90.3268
  1034.0000      0.0000    366.4474     21.5412     91.1411
  1034.2500      0.0000    358.3000     23.2920     94.9688
  1034.5000      0.0000    347.4357     25.6364     99.7243
  1034.7500      0.0000    335.4316     28.5471    102.7260
  1035.0000      0.0000    323.8267     31.8353    102.7216
  1035.2500      0.0000    313.8133     35.1774    100.9745
  1035.5000      0.0000    306.1719     38.2150    100.2152
  1035.7500      0.0000    301.0562     40.6597    102.4807
  1036.0000      0.0000    297.8458     42.3869    107.6796
  1036.2500      0.0000    295.4922     43.4857    113.6916
  1036.5000      0.0000    293.2667     44.1731    117.6187
  1036.7500      0.0000    291.3229     44.6019    117.4776
  1037.0000      0.0000    290.4454     44.7724    113.4747
  1037.2500      0.0000    291.0903     44.6550    107.9474
  1037.5000      0.0000    292.7721     44.3514    103.7115
  1037.7500      0.0000    294.5058     44.0784    101.9252
  1038.0000      0.0000    295.6100     44.0169    101.4565
  1038.2500      0.0000    295.8759     44.2285    100.4921
  1038.5000      0.0000    295.1300     44.7222     98.6386
  1038.7500      0.0000    292.8849     45.5586     97.3447
  1039.0000      0.0000    288.5682     46.8509     98.5441
  1039.2500      0.0000    282.2286     48.6382    103.2278
  1039.5000      0.0000    274.9866     50.7592    111.1387
  1039.7500      0.0000    268.5342     52.9003    121.0566
  1040.0000      0.0000    264.0363     54.8111    130.7911
  1040.2500      0.0000    261.5663     56.4622    137.5822
  1040.5000      0.0000    260.4788     57.9714    139.5825
  1040.7500      0.0000    260.0812     59.3835    136.9916
  1041.0000      0.0000    259.9698     60.5306    131.3851
  1041.2500      0.0000    260.0336     61.0996    124.2101
  1041.5000      0.0000    260.4084     60.8125    116.1303
  1041.7500      0.0000    261.5240     59.5333    107.5514
  1042.0000      0.0000    264.1058     57.2470     99.6605
  1042.2500      0.0000    268.8419     54.0308     94.8377
  1042.5000      0.0000    275.6997     50.0973     95.4556
  1042.7500      0.0000    283.5616     45.8155    101.8135
  1043.0000      0.0000    290.8643     41.5957    111.5047
  1043.2500      0.0000    296.8697     37.7062    121.2250
  1043.5000      0.0000    302.3313     34.2078    129.0977
  1043.7500      0.0000    308.9472     31.0479    134.9680
  1044.0000      0.0000    318.1268     28.1743    138.8352
  1044.2500      0.0000    329.9806     25.5661    140.0162
  1044.5000      0.0000    343.0713     23.2405    138.1557
  1044.7500      0.0000    354.9810     21.2926    134.1477
  1045.0000      0.0000    363.3210     19.9094    129.1656
  1045.2500      0.0000    366.6075     19.2969    123.1059
  1045.5000      0.0000    364.6302     19.5528    115.0156
  1045.7500      0.0000    358.4323     20.5758    105.4129
  1046.0000      0.0000    349.9568     22.0930     97.4792
  1046.2500      0.0000    341.2144     23.7976     95.1758
  1046.5000      0.0000    333.3564     25.5021    100.0836
  1046.7500      0.0000    326.4512     27.2043    110.2781
  1047.0000      0.0000    319.9535     29.0634    122.0507
  1047.2500      0.0000    313.1525     31.3366    132.3621
  1047.5000      0.0000    305.3936     34.2832    140.0279
  1047.7500      0.0000    296.3794     38.0196    145.2860
  1048.0000      0.0000    286.5443     42.3759    148.4327
  1048.2500      0.0000    277.1082     46.8903    148.9529
  1048.5000      0.0000    269.5023     51.0024    146.2498
  1048.7500      0.0000    264.4998     54.3172    140.9878
  1049.0000      0.0000    261.8561     56.7382    135.0473
  1049.2500      0.0000    260.7362     58.4060    130.1840
  1049.5000      0.0000    260.3513     59.5418    127.1316
  1049.7500      0.0000    260.2469     60.3322    125.6487
  1050.0000      0.0000    260.2364     60.9061    124.9211
  1050.2500      0.0000    260.2558     61.3497    124.1681
  1050.5000      0.0000    260.2773     61.7046    123.1279
  1050.7500      0.0000    260.2852     61.9693    121.8636
  1051.0000      0.0000    260.2749     62.1388    120.2979
  1051.2500      0.0000    260.2479     62.2487    118.2828
  1051.5000      0.0000    260.2066     62.3676    116.0379
  1051.7500      0.0000    260.1535     62.5432    114.3943
  1052.0000      0.0000    260.0917     62.7508    114.6396
  1052.2500      0.0000    260.0270     62.8806    117.7467
  1052.5000      0.0000    259.9679     62.7808    123.3304
  1052.7500      0.0000    259.9261     62.3396    129.7355
  1053.0000      0.0000    259.9210     61.5353    135.3285
  1053.2500      0.0000    260.0113     60.3907    139.1105
  1053.5000      0.0000    260.3819     58.8678    140.2255
  1053.7500      0.0000    261.4793     56.8143    138.1061
  1054.0000      0.0000    264.0456     54.0401    133.5807
  1054.2500      0.0000    268.7847     50.4876    129.0595
  1054.5000      0.0000    275.6953     46.3590    127.0757
  1054.7500      0.0000    283.7230     42.0721    128.7236
  1055.0000      0.0000    291.3661     38.0645    133.4285
  1055.2500      0.0000    297.7103     34.6266    139.7345
  1055.5000      0.0000    302.6749     31.8798    145.9248
  1055.7500      0.0000    306.3694     29.8464    150.1246
  1056.0000      0.0000    308.7734     28.4950    150.5706
  1056.2500      0.0000    310.2250     27.7512    146.4041
  1056.5000      0.0000    311.5533     27.5404    138.2924
  1056.7500      0.0000    313.0947     27.8739    128.3396
  1057.0000      0.0000    313.8666     28.8847    119.4354
  1057.2500      0.0000    312.3380     30.7350    114.0718
  1057.5000      0.0000    307.9149     33.4470    112.9036
  1057.7500      0.0000    301.2187     36.7937    114.2944
  1058.0000      0.0000    293.1682     40.3450    115.6353
  1058.2500      0.0000    284.5028     43.6377    115.3067
  1058.5000      0.0000    276.1654     46.3432    113.5062
  1058.7500      0.0000    269.4104     48.3037    111.6194
  1059.0000      0.0000    265.2232     49.4472    111.0067
  1059.2500      0.0000    263.9450     49.7322    111.9726
  1059.5000      0.0000    265.5644     49.1942    113.6678
  1059.7500      0.0000    269.9693     47.9917    115.2553
  1060.0000      0.0000    276.6069     46.3560    116.9305
  1060.2500      0.0000    284.1255     44.5032    119.0820
