~Version Information
 VERS.                                  2.0 : CWLS LAS VERSION
 WRAP.                                   NO : WRAPING MODE
 SWARE .                  MController 2.5.1 : SOFTWARE VERSION
~Well Information
 WELL.                     Lucky Lady 42-29 : WELL
 COMP.  Pioneer Natural Resources USA, Inc. : COMPANY
 FLD.                      Purgatoire River : FIELD
 LOC.             SE/NE Sec. 29, T34S, R65W : LOCATION
 DATE.                03/09/2006-03/09/2006 : DATE(S) LOGGED
 SRVC.                  Entrada GeoSciences : SERVICE COMPANY
 STAT.                             Colorado : STATE
 CNTY.                           Las Animas : COUNTY
 CTRY.                        United States : COUNTRY
 API.                                   N/A : API NUMBER
 STRT.FT                             250.00 : START DEPTH
 STOP.FT                            1215.00 : STOP DEPTH
 STEP.FT                               1.00 : DEPTH INCREMENT
 NULL.                                -9999 : NULL VALUE
~Curve information
 DEPTH.FT                                   :
 ROP.MIN/FT                                 :
 GAS.UNITS                                  :
~ASCII Log data
# ...
      850.00         0.17         61.4 
      851.00         0.23         60.6 
      852.00         0.23         59.8 
      853.00         0.28         58.8 
      854.00         0.27         57.8 
      855.00         0.27         57.7 
      856.00         0.20        149.9 
      857.00         0.27        149.9 
      858.00         0.27        323.2 
      859.00         0.27        340.0 
      860.00         0.23        328.6 
      861.00         0.23        248.8 
      862.00         0.23        207.5 
      863.00         0.23        155.3 
      864.00         0.23        125.8 
      865.00         0.30        105.9 
      866.00         0.28         85.4 
      867.00         0.27         75.3 
      868.00         0.33         64.0 
      869.00         0.33         57.5 
      870.00         0.30         50.8 
      871.00         0.30         50.6 
      872.00         0.22         41.3 
      873.00         0.13         40.6 
      874.00         0.20         36.2 
      875.00         0.23         34.0 
      876.00         0.20         34.0 
      877.00         0.20         32.0 
      878.00         0.23         31.7 
      879.00         0.27         27.8 
      880.00         0.27         27.3 
      881.00         0.30         25.6 
      882.00         0.23         25.6 
      883.00         0.27         25.0 
      884.00         0.23         25.3 
      885.00         0.28         25.2 
      886.00         0.27         22.9 
      887.00         0.23         26.6 
      888.00         0.20         30.8 
      889.00         0.23         39.2 
      890.00         0.23         58.2 
      891.00         0.23         63.4 
      892.00         0.27         64.8 
      893.00         0.20         66.4 
      894.00         0.17         66.6 
      895.00         0.17         66.3 
      896.00         0.33         65.1 
      897.00         0.23         59.7 
      898.00         0.27         57.7 
      899.00         0.20         53.7 
      900.00         0.20         51.7 
      901.00         0.30         51.5 
      902.00         0.28         48.3 
      903.00         0.23         46.1 
      904.00         0.23         41.5 
      905.00         0.17         37.5 
      906.00         0.13         36.9 
      907.00         0.17         34.7 
      908.00         0.20         34.6 
      909.00         0.17         33.8 
      910.00         0.17         33.3 
      911.00         0.17         32.8 
      912.00         0.20         65.3 
      913.00         0.23         65.3 
      914.00         0.20         93.5 
      915.00         0.20         93.5 
      916.00         0.17        135.0 
      917.00         0.17        151.7 
      918.00         0.18        195.4 
      919.00         0.20        210.9 
      920.00         0.13        220.5 
      921.00         0.17        228.2 
      922.00         0.13        236.5 
      923.00         0.10        236.5 
      924.00         0.10        240.0 
      925.00         0.13        240.0 
      926.00         0.27        241.7 
      927.00         0.43        241.8 
      928.00         0.37        237.9 
      929.00         0.33        232.0 
      930.00         0.33        220.5 
      931.00         0.33        211.9 
      932.00         0.43        184.6 
      933.00         0.37        159.4 
      934.00         0.35        146.8 
      935.00         0.40        145.9 
      936.00         0.43        143.7 
      937.00         0.40        142.2 
      938.00         0.37        138.4 
      939.00         0.33        136.7 
      940.00         0.37        136.5 
      941.00         0.37        136.0 
      942.00         0.37        134.0 
      943.00         0.38        135.5 
      944.00         0.40        138.4 
      945.00         0.30        138.9 
      946.00         0.30        125.0 
      947.00         0.23        131.9 
      948.00         0.27        141.9 
      949.00         0.20        149.4 
      950.00         0.27        192.2 
      951.00         0.17        192.2 
      952.00         0.17        262.8 
      953.00         0.17        280.4 
      954.00         0.13        312.5 
      955.00         0.20        332.7 
      956.00         0.27        341.9 
      957.00         0.10        341.9 
      958.00         0.13        342.3 
      959.00         0.10        343.9 
      960.00         0.30        343.5 
      961.00         0.23        340.4 
      962.00         0.27        338.4 
      963.00         0.23        338.5 
      964.00         0.30        337.1 
      965.00         0.25        332.5 
      966.00         0.27        331.7 
      967.00         0.27        307.2 
      968.00         0.30        295.6 
      969.00         0.23        269.9 
      970.00         0.23        234.3 
      971.00         0.27        227.8 
      972.00         0.27        220.5 
      973.00         0.27        219.7 
      974.00         0.27        317.3 
      975.00         0.30        317.3 
      976.00         0.27        475.0 
      977.00         0.27       1090.3 
      978.00         0.25       1104.9 
      979.00         0.10       1104.9 
      980.00         0.13       1104.9 
      981.00         0.17       1121.3 
      982.00         0.17       1121.3 
      983.00         0.20       1139.8 
      984.00         0.20       1139.8 
      985.00         0.17       1136.9 
      986.00         0.33       1122.5 
      987.00         0.33       1094.4 
      988.00         0.37       1007.4 
      989.00         0.30        895.5 
      990.00         0.33        807.0 
      991.00         0.38        722.0 
      992.00         0.30        665.8 
      993.00         0.27        608.1 
      994.00         0.27        606.3 
      995.00         0.33        577.6 
      996.00         0.23        569.4 
      997.00         0.33        544.8 
      998.00         0.30        538.9 
      999.00         0.20        522.8 
     1000.00         0.20        522.2 
     1001.00         0.17        517.5 
     1002.00         0.17        514.6 
     1003.00         0.20        517.2 
     1004.00         0.32        516.4 
     1005.00         0.23        515.5 
     1006.00         0.20        510.8 
     1007.00         0.27        575.8 
     1008.00         0.27        687.7 
     1009.00         0.17        740.8 
     1010.00         0.20        753.4 
     1011.00         0.20        753.4 
     1012.00         0.17        758.9 
     1013.00         0.20        780.0 
     1014.00         0.20        778.9 
     1015.00         0.27        778.6 
     1016.00         0.27        782.1 
     1017.00         0.20        771.5 
     1018.00         0.17        771.5 
     1019.00         0.17        769.2 
     1020.00         0.20        751.9 
     1021.00         0.23        750.7 
     1022.00         0.20        734.9 
     1023.00         0.23        730.8 
     1024.00         0.25        701.2 
     1025.00         0.27        671.0 
     1026.00         0.23        635.9 
     1027.00         0.23        614.2 
     1028.00         0.27        603.1 
     1029.00         0.30        585.5 
     1030.00         0.23        567.0 
     1031.00         0.30        543.9 
     1032.00         0.33        546.2 
     1033.00         0.30        543.6 
     1034.00         0.27        536.0 
     1035.00         0.33        501.1 
     1036.00         0.22        501.4 
     1037.00         0.23        517.5 
     1038.00         0.10        530.4 
     1039.00         0.10        530.4 
     1040.00         0.10        577.6 
     1041.00         0.17        577.6 
     1042.00         0.20        652.9 
     1043.00         0.23        802.6 
     1044.00         0.20        821.6 
     1045.00         0.30        882.6 
     1046.00         0.27        884.9 
     1047.00         0.20        884.9 
     1048.00         0.27        885.5 
     1049.00         0.20        887.0 
