~Version Information
 VERS.                                  2.0 : CWLS LAS VERSION
 WRAP.                                   NO : WRAPING MODE
 SWARE .                 MController 2.5.0N : SOFTWARE VERSION
~Well Information
 WELL.                       BaaBaa 34-1 TR : WELL
 COMP.       Pioneer Natural Resources, USA : COMPANY
 FLD.                       Purgatory River : FIELD
 LOC.                 SW/SE Sec1 T33S R67W  : LOCATION
 DATE.                             03/02/06 : DATE(S) LOGGED
 SRVC.      Blanco Geological Services, LLC : SERVICE COMPANY
 STAT.                             Colorado : STATE
 CNTY.                           Las Animas : COUNTY
 CTRY.                                  USA : COUNTRY
 API.                       05-071-08710-00 : API NUMBER
 STRT.FT                             380.00 : START DEPTH
 STOP.FT                            1410.00 : STOP DEPTH
 STEP.FT                               1.00 : DEPTH INCREMENT
 NULL.                                -9999 : NULL VALUE
~Curve information
 DEPTH.FT                                   :
 ROP.MIN/FT                                 :
 GAS.UNITS                                  :
~ASCII Log data
# ...
      1180.0         0.20         68.2 
      1181.0         0.20         66.1 
      1182.0         0.27         65.2 
      1183.0         0.25         62.6 
      1184.0         0.17         59.4 
      1185.0         0.20         57.6 
      1186.0         0.17         56.2 
      1187.0         0.17         54.2 
      1188.0         0.20         53.3 
      1189.0         0.20         48.5 
      1190.0         0.23         43.7 
      1191.0         3.68        159.1 
      1192.0         0.27        105.2 
      1193.0         0.30         79.4 
      1194.0         0.27         75.0 
      1195.0         0.30         77.0 
      1196.0         0.30         74.2 
      1197.0         0.38         64.7 
      1198.0         0.37         58.5 
      1199.0         0.30         55.4 
      1200.0         0.27         55.4 
      1201.0         0.27         53.8 
      1202.0         0.33         53.0 
      1203.0         0.20         51.0 
      1204.0         0.23         49.5 
      1205.0         0.23         47.8 
      1206.0         0.23         48.0 
      1207.0         0.37         47.9 
      1208.0         0.27         48.1 
      1209.0         0.25         47.5 
      1210.0         0.23         47.2 
      1211.0         0.23         46.3 
      1212.0         0.27         42.8 
      1213.0         0.20         40.0 
      1214.0         0.23         39.3 
      1215.0         0.23         39.0 
      1216.0         0.20         39.4 
      1217.0         0.23         40.2 
      1218.0         0.27         40.5 
      1219.0         0.33         42.1 
      1220.0         0.47         45.7 
      1221.0         2.95        165.3 
      1222.0         0.40        175.1 
      1223.0         0.52        128.7 
      1224.0         0.33         81.6 
      1225.0         0.43         82.8 
      1226.0         0.33         76.9 
      1227.0         0.37         66.4 
      1228.0         0.27         58.6 
      1229.0         0.30         54.7 
      1230.0         0.27         50.8 
      1231.0         0.33         50.3 
      1232.0         0.33         53.3 
      1233.0         0.45         53.2 
      1234.0         0.37         52.5 
      1235.0         0.40         50.3 
      1236.0         0.33         48.3 
      1237.0         0.37         46.7 
      1238.0         0.37         45.4 
      1239.0         0.43         45.9 
      1240.0         0.40         46.1 
      1241.0         0.28         47.1 
      1242.0         0.27         47.3 
      1243.0         0.27         46.9 
      1244.0         0.23         45.7 
      1245.0         0.37         45.9 
      1246.0         0.27         43.9 
      1247.0         0.27         45.0 
      1248.0         0.30         47.8 
      1249.0         0.27         50.1 
      1250.0         0.27         50.1 
      1251.0         3.75        166.4 
      1252.0         0.52        120.5 
      1253.0         0.43         69.2 
      1254.0         0.43         70.8 
      1255.0         0.47         67.4 
      1256.0         0.37         60.4 
      1257.0         0.33         56.0 
      1258.0         0.33         52.6 
      1259.0         0.33         49.6 
      1260.0         0.33         48.5 
      1261.0         0.35         48.1 
      1262.0         0.37         45.2 
      1263.0         0.37         50.4 
      1264.0         0.30         53.8 
      1265.0         0.23         53.7 
      1266.0         0.23         53.0 
      1267.0         0.27         50.3 
      1268.0         0.30         48.9 
      1269.0         0.30         48.1 
      1270.0         0.30         46.5 
      1271.0         0.30         48.0 
      1272.0         0.32         47.4 
      1273.0         0.27         45.7 
      1274.0         0.27         44.7 
      1275.0         0.23         44.6 
      1276.0         0.30         44.0 
      1277.0         0.27         42.3 
      1278.0         0.23         43.2 
      1279.0         0.30         47.2 
      1280.0         0.27         47.9 
      1281.0         4.50        223.6 
      1282.0         0.37        111.4 
      1283.0         0.33         84.7 
      1284.0         0.30         82.2 
      1285.0         0.50         75.2 
      1286.0         0.43         55.8 
      1287.0         0.43         55.0 
      1288.0         0.40         54.6 
      1289.0         0.33         51.2 
      1290.0         0.28         46.6 
      1291.0         0.20         44.3 
      1292.0         0.23         42.6 
      1293.0         0.23         41.7 
      1294.0         0.20         42.5 
      1295.0         0.23         43.3 
      1296.0         0.23         45.2 
      1297.0         0.23         45.4 
      1298.0         0.27         44.7 
      1299.0         0.23         43.4 
      1300.0         0.20         44.3 
      1301.0         0.20         45.3 
      1302.0         0.17         46.3 
      1303.0         0.17         46.0 
      1304.0         0.17         45.0 
      1305.0         0.20         43.4 
      1306.0         0.18         42.3 
      1307.0         0.20         41.8 
      1308.0         0.17         42.0 
      1309.0         0.20         42.0 
      1310.0         0.20         44.8 
      1311.0         3.55         98.4 
      1312.0         0.43         76.3 
      1313.0         0.50         78.2 
      1314.0         0.47         76.2 
      1315.0         0.37         65.0 
      1316.0         0.27         54.4 
      1317.0         0.27         50.0 
      1318.0         0.38         49.5 
      1319.0         0.33         48.8 
      1320.0         0.40         48.1 
      1321.0         0.43         47.7 
      1322.0         0.27         43.9 
      1323.0         0.30         41.9 
      1324.0         0.33         40.9 
      1325.0         0.33         39.6 
      1326.0         0.40         39.3 
      1327.0         0.42         41.5 
      1328.0         0.50         43.1 
      1329.0         0.47         43.0 
      1330.0         0.43         41.9 
      1331.0         0.47         41.4 
      1332.0         0.40         41.5 
      1333.0         0.33         41.3 
      1334.0         0.37         40.6 
      1335.0         0.45         40.2 
      1336.0         0.40         40.3 
      1337.0         0.43         41.8 
      1338.0         0.47         41.5 
      1339.0         0.27         40.6 
      1340.0         0.30         42.4 
      1341.0         2.82         95.7 
      1342.0         0.53         95.2 
      1343.0         0.43         75.9 
      1344.0         0.40         79.9 
      1345.0         0.42         78.1 
      1346.0         0.33         65.2 
      1347.0         0.27         54.3 
      1348.0         0.33         51.0 
      1349.0         0.40         50.0 
      1350.0         0.53         46.6 
      1351.0         0.30         45.1 
      1352.0         0.40         45.1 
      1353.0         0.40         43.3 
      1354.0         0.42         43.1 
      1355.0         0.30         42.4 
      1356.0         0.30         41.8 
      1357.0         0.30         40.8 
      1358.0         0.30         40.4 
      1359.0         0.30         40.1 
      1360.0         0.27         40.0 
      1361.0         0.27         40.2 
      1362.0         0.30         39.9 
      1363.0         0.27         42.6 
      1364.0         0.30         45.7 
      1365.0         0.28         46.9 
      1366.0         0.30         46.7 
      1367.0         0.30         45.1 
      1368.0         0.30         44.1 
      1369.0         0.30         44.4 
      1370.0         0.30         44.1 
      1371.0         2.62         63.1 
      1372.0         0.27        102.8 
      1373.0         0.33        118.7 
      1374.0         0.37        108.6 
      1375.0         0.40         84.0 
      1376.0         0.43         75.9 
      1377.0         0.43         75.3 
      1378.0         0.42         64.2 
      1379.0         0.40         51.3 
