~Version Information
VERS.                      2.0: CWLS Log ASCII Standard - VERSION 2.0
WRAP.                       NO: One line per depth step
~Well Information Block
STRT.FT               520.0000: 
STOP.FT              2555.2500: 
STEP.FT                 0.2500: 
NULL.                -999.2500: 
COMP.          Pioneer Natural Resources: COMPANY
WELL.          Horsefeathers 24-34: WELL
FLD.           Purgatoire River: FIELD
LOC.           183' FSL & 1570' FWL--: LOCATION
CNTY.               Las Animas: COUNTY
SRVC.                Patterson: SERVICE COMPANY
DATE.          Sun Feb 05 17:35:59 2006: LOG DATE
UWI.           05 071 08675 00: UNIQUE WELL ID
STAT.                 Colorado: STATE
~Curve Information Block
DEPT.FT            0 000 00 00: Depth
SN.Ohm-m                      : IEL Short Normal
SP.mV                         : IEL Spontaneous Potential
DIR.Ohm-m                     : IEL Induction Resistivity
GR.GAPI                       : Gamma Ray
~Parameter Information Block
NPORSHIFT.              0.0000: NPORSHIFT
~A  Depth        SN          SP         DIR          GR     
   520.0000   2000.0000   1975.0000 100000.0000     64.3798
   520.2500   2000.0000   1975.0000 100000.0000     63.3063
   520.5000   2000.0000   1975.0000 100000.0000     60.7697
   520.7500   2000.0000   1975.0000 100000.0000     59.4458
   521.0000   2000.0000   1975.0000 100000.0000     59.6392
   521.2500   2000.0000   1975.0000 100000.0000     61.5469
   521.5000   2000.0000   1975.0000 100000.0000     66.2224
   521.7500   2000.0000   1975.0000 100000.0000     69.5790
   522.0000   2000.0000   1975.0000 100000.0000     73.5636
   522.2500   2000.0000   1975.0000 100000.0000     75.1849
   522.5000   2000.0000   1975.0000 100000.0000     76.4054
   522.7500   2000.0000   1975.0000 100000.0000     77.1081
   523.0000   2000.0000   1975.0000 100000.0000     79.7129
   523.2500   2000.0000   1975.0000 100000.0000     83.3216
   523.5000   2000.0000   1975.0000 100000.0000     91.5986
   523.7500   2000.0000   1975.0000 100000.0000     98.0194
   524.0000   2000.0000   1975.0000 100000.0000    106.3502
   524.2500   2000.0000   1975.0000 100000.0000    109.9090
   524.5000   2000.0000   1975.0000 100000.0000    112.2983
   524.7500   2000.0000   1975.0000 100000.0000    112.8953
   525.0000   2000.0000   1975.0000 100000.0000    114.0946
   525.2500   2000.0000   1975.0000 100000.0000    115.6308
   525.5000   2000.0000   1975.0000 100000.0000    118.9621
   525.7500   2000.0000   1975.0000 100000.0000    121.3859
   526.0000   2000.0000   1975.0000 100000.0000    124.0775
   526.2500   2000.0000   1975.0000 100000.0000    124.6186
   526.5000   2000.0000   1975.0000 100000.0000    123.4291
   526.7500   2000.0000   1975.0000 100000.0000    121.8428
   527.0000   2000.0000   1975.0000 100000.0000    119.6223
   527.2500   2000.0000   1975.0000 100000.0000    118.8709
   527.5000   2000.0000   1975.0000 100000.0000    119.1046
   527.7500   2000.0000   1975.0000 100000.0000    119.8112
   528.0000   2000.0000   1975.0000 100000.0000     80.5008
   528.2500   2000.0000   1975.0000 100000.0000     80.6499
   528.5000   2000.0000   1975.0000 100000.0000     80.5950
   528.7500   2000.0000   1975.0000 100000.0000     80.6229
   529.0000   2000.0000   1975.0000 100000.0000     81.0255
   529.2500   2000.0000   1975.0000 100000.0000     81.4133
   529.5000   2000.0000   1975.0000 100000.0000     81.7524
   529.7500   2000.0000   1975.0000 100000.0000     81.8419
   530.0000   2000.0000   1975.0000 100000.0000     82.5134
   530.2500   2000.0000   1975.0000 100000.0000     83.6976
   530.5000   2000.0000   1975.0000 100000.0000     85.9940
   530.7500   2000.0000   1975.0000 100000.0000     86.8105
   531.0000   2000.0000   1975.0000 100000.0000     85.3578
   531.2500   2000.0000   1975.0000 100000.0000     82.6162
   531.5000   2000.0000   1975.0000 100000.0000     77.5178
   531.7500   2000.0000   1975.0000 100000.0000     74.6915
   532.0000   2000.0000   1975.0000 100000.0000     72.6389
   532.2500   2000.0000   1975.0000 100000.0000     72.8234
   532.5000   2000.0000   1975.0000 100000.0000     74.6377
   532.7500   2000.0000   1975.0000 100000.0000     76.3046
   533.0000   2000.0000   1975.0000 100000.0000     79.3714
   533.2500   2000.0000   1975.0000 100000.0000     82.2362
   533.5000   2000.0000   1975.0000 100000.0000     88.0381
   533.7500   2000.0000   1975.0000 100000.0000     92.1509
   534.0000   2000.0000   1975.0000 100000.0000     96.4890
   534.2500   2000.0000   1975.0000 100000.0000     97.4029
   534.5000   2000.0000   1975.0000 100000.0000     96.4600
   534.7500   2000.0000   1975.0000 100000.0000     95.3096
   535.0000   2000.0000   1975.0000     10.3764     93.9529
   535.2500   2000.0000   1975.0000      4.3914     93.2675
   535.5000   2000.0000   1975.0000      3.6445     92.0133
   535.7500   2000.0000   1975.0000      4.3342     90.8685
   536.0000   2000.0000   1975.0000      7.6224     88.8448
   536.2500   2000.0000   1975.0000     43.0529     87.4703
   536.5000   2000.0000   1975.0000 100000.0000     85.7673
   536.7500   2000.0000   1975.0000 100000.0000     85.2816
   537.0000   2000.0000   1975.0000 100000.0000     86.4431
   537.2500   2000.0000   1975.0000 100000.0000     88.7443
   537.5000   2000.0000   1975.0000 100000.0000     93.8665
   537.7500   2000.0000   1975.0000 100000.0000     97.5667
   538.0000   2000.0000   1975.0000     30.9220    102.3380
   538.2500   2000.0000   1975.0000     16.1809    104.7999
   538.5000   2000.0000   1975.0000     12.8003    107.7880
   538.7500   2000.0000   1975.0000     11.9615    109.6690
   539.0000   2000.0000   1975.0000     12.1521    112.9299
   539.2500   2000.0000   1975.0000     12.8049    115.6532
   539.5000   2000.0000   1975.0000     13.5365    120.3939
   539.7500   2000.0000   1975.0000     14.0387    123.4621
   540.0000   2000.0000   1975.0000     14.1681    126.9630
   540.2500   2000.0000   1975.0000     14.0381    128.3554
   540.5000   2000.0000   1975.0000     13.9489    129.1972
   540.7500   2000.0000   1975.0000     14.2262    129.1347
   541.0000   2000.0000   1975.0000     15.1169    128.7530
   541.2500   2000.0000   1975.0000     16.7174    128.9503
   541.5000   2000.0000   1975.0000     18.8022    131.0858
   541.7500   2000.0000   1975.0000     20.6029    134.0139
   542.0000   2000.0000   1975.0000     21.1074    139.8281
   542.2500   2000.0000   1975.0000     20.0739    143.4431
   542.5000   2000.0000   1975.0000     18.2633    146.1410
   542.7500   2000.0000   1975.0000     16.5210    145.3970
   543.0000   2000.0000   1975.0000     15.2545    141.1972
   543.2500   2000.0000   1975.0000     14.5440    137.6938
   543.5000   2000.0000   1975.0000     14.3307    133.8722
   543.7500   2000.0000   1975.0000     14.4962    133.0455
   544.0000   2000.0000   1975.0000     14.8853    134.0175
   544.2500   2000.0000   1975.0000     15.3304    135.3734
   544.5000   2000.0000   1975.0000     15.6975    137.4156
   544.7500   2000.0000   1975.0000     15.9231    138.5055
   545.0000   2000.0000   1975.0000     16.0117    139.3504
   545.2500   2000.0000   1975.0000     16.0045    139.1756
   545.5000   2000.0000   1975.0000     15.9513    137.9801
   545.7500   2000.0000   1975.0000     15.8991    137.0502
   546.0000   2000.0000   1975.0000     15.8863    136.2635
   546.2500   2000.0000   1975.0000     15.9394    136.1288
   546.5000   2000.0000   1975.0000     16.0709    135.4070
   546.7500   2000.0000   1975.0000     16.2828    133.7211
   547.0000   2000.0000   1975.0000     16.5733    128.7968
   547.2500   2000.0000   1975.0000     16.9427    124.4515
   547.5000   2000.0000   1975.0000     17.3965    118.2921
   547.7500   2000.0000   1975.0000     17.9468    115.5039
   548.0000   2000.0000   1975.0000     18.6093    113.7638
   548.2500   2000.0000   1975.0000     19.3949    113.4399
   548.5000   2000.0000   1975.0000     20.2996    112.0077
   548.7500   2000.0000   1975.0000     21.2940    109.5918
   549.0000   2000.0000   1975.0000     22.3237    104.0354
   549.2500   2000.0000   1975.0000     23.3230     99.9092
   549.5000   2000.0000   1975.0000     24.2411     94.8751
   549.7500   2000.0000   1975.0000     25.0658     93.2465
   550.0000   2000.0000   1975.0000     25.8272     94.5074
   550.2500   2000.0000   1975.0000     26.5781     97.7745
   550.5000   2000.0000   1975.0000     27.3673    104.7135
   550.7500   2000.0000   1975.0000     28.2198    109.2890
   551.0000   2000.0000   1975.0000     29.1306    114.0976
   551.2500   2000.0000   1975.0000     30.0757    115.3639
   551.5000   2000.0000   1975.0000     31.0377    114.3168
   551.7500   2000.0000   1975.0000     32.0305    112.0968
   552.0000   2000.0000   1975.0000     33.1041    107.8699
   552.2500   2000.0000   1975.0000     34.3237    105.3041
   552.5000   2000.0000   1975.0000     35.7478    102.3458
   552.7500   2000.0000   1975.0000     37.4270    100.4474
   553.0000   2000.0000   1975.0000     39.4121     96.2669
   553.2500   2000.0000   1975.0000     41.7451     92.2551
