~Version Information
VERS.                      2.0: CWLS Log ASCII Standard - VERSION 2.0
WRAP.                       NO: One line per depth step
~Well Information Block
STRT.FT               370.0000: 
STOP.FT              1282.5000: 
STEP.FT                 0.1000: 
NULL.                -999.2500: 
COMP.          Pioneer Natural Resources: COMPANY
WELL.          Irish Eyes 33-21: WELL
FLD.           Purgatoire River: FIELD
LOC.           1379' FSL & 2544' FEL: LOCATION
PROV.                 Colorado: PROVINCE
CNTY.               Las Animas: COUNTRY
SRVC.                Patterson: SERVICE COMPANY
DATE.          Mon Jan 16 13:31:01 2006: LOG DATE
UWI.           05 071 08658 00: UNIQUE WELL ID
~Curve Information Block
DEPT.FT            0 000 00 00: Depth
DCAL.in                       : CDL Caliper
RHOB.g/cc                     : CDL Bulk Density
RHOC.g/cc                     : CDL Density Correction
DPOR.pu                       : CDL Density Porosity
GR.GAPI                       : Gamma Ray
NPOR.pu                       : Neutron Porosity
~Parameter Information Block
~A  Depth       DCAL        RHOB        RHOC        DPOR         GR         NPOR    
# ...
   610.0000      8.0009      2.3918      0.0588     15.6500     52.9902     19.5805
   610.1000      8.0009      2.3890      0.0667     15.8182     49.0590     19.7824
   610.2000      8.0009      2.3855      0.0221     16.0301     46.5196      5.2409
   610.3000      8.0079      2.3906      0.0703     15.7198     48.0056     -9.1415
   610.4000      8.0079      2.4065      0.1180     14.7553     51.3125      4.2145
   610.5000      8.0199      2.4359      0.0859     12.9737     54.1507     24.8219
   610.6000      8.0199      2.4858      0.1566      9.9494     57.5622     32.4131
   610.7000      8.0199      2.5458      0.1736      6.3171     58.8920     31.6787
   610.8000      8.0249      2.5879      0.2029      3.7611     55.5640     25.6362
   610.9000      8.0249      2.5977      0.1573      3.1687     53.0956     21.5827
   611.0000      8.0285      2.5897      0.1152      3.6549     53.4791     25.9492
   611.1000      8.0285      2.5829      0.0968      4.0674     52.5408     30.7395
   611.2000      8.0285      2.5831      0.0482      4.0565     50.5750     31.2156
   611.3000      8.0262      2.5887      0.0497      3.7134     47.5219     28.4001
   611.4000      8.0262      2.5911      0.0804      3.5727     41.0575     26.0151
   611.5000      8.0275      2.5821      0.0508      4.1164     35.0451     25.3022
   611.6000      8.0275      2.5700      0.0470      4.8457     34.1247     23.2454
   611.7000      8.0275      2.5695      0.0236      4.8813     36.2952     16.4086
   611.8000      8.0200      2.5757      0.0582      4.5029     37.8916     -1.5271
   611.9000      8.0200      2.5741      0.0338      4.5978     38.4678    -25.9368
   612.0000      7.9876      2.5617      0.0387      5.3539     39.5065    -27.7174
   612.1000      7.9876      2.5319      0.0616      7.1579     40.5776     -2.0545
   612.2000      7.9876      2.4879      0.0207      9.8257     40.2749     19.6267
   612.3000      7.9812      2.4598     -0.0255     11.5289     39.6344     24.2845
   612.4000      7.9812      2.4666      0.0090     11.1159     39.1011     13.2279
   612.5000      7.9897      2.4894      0.0358      9.7309     38.5450    -10.3554
   612.6000      7.9897      2.5015     -0.0213      8.9984     39.9494    -12.0756
   612.7000      7.9897      2.4932      0.0397      9.5025     42.2213     11.5701
   612.8000      8.0083      2.4707     -0.0170     10.8638     40.9759     26.9897
   612.9000      8.0083      2.4563     -0.0399     11.7392     37.1907     31.8989
   613.0000      8.0150      2.4566      0.0286     11.7193     35.8120     31.6175
   613.1000      8.0150      2.4484      0.0256     12.2174     38.0928     25.3480
   613.2000      8.0150      2.4237     -0.0214     13.7168     41.6496      8.6187
   613.3000      8.0294      2.4082     -0.0739     14.6566     44.9628     -5.3460
   613.4000      8.0294      2.4179      0.0301     14.0654     47.0664      7.1523
   613.5000      8.0619      2.4356     -0.0022     12.9950     45.9920     25.3689
   613.6000      8.0619      2.4425      0.0600     12.5760     42.3543     32.7126
   613.7000      8.0619      2.4351      0.0314     13.0217     41.9053     33.3568
   613.8000      8.0159      2.4212      0.0298     13.8678     46.1615     28.6760
   613.9000      8.0159      2.4177     -0.0175     14.0801     49.0097     20.4804
   614.0000      7.9968      2.4357      0.0457     12.9882     48.8562     22.1158
   614.1000      7.9968      2.4656      0.0286     11.1747     49.3196     29.9591
   614.2000      7.9968      2.4916      0.1106      9.6000     52.0635     32.9874
   614.3000      7.9933      2.5046      0.0566      8.8121     55.6457     32.2326
   614.4000      7.9933      2.5005      0.0734      9.0626     58.8170     29.6078
   614.5000      8.0049      2.4723      0.0600     10.7715     63.6436     24.4145
   614.6000      8.0049      2.4294     -0.0028     13.3701     72.5767     14.7063
   614.7000      8.0049      2.3930      0.0161     15.5753     84.9080      7.6486
   614.8000      8.0050      2.3676      0.0551     17.1124     97.9388     17.9282
   614.9000      8.0050      2.3547     -0.0444     17.8977    109.0845     32.0687
   615.0000      8.0101      2.3663     -0.0241     17.1966    117.5105     38.0453
   615.1000      8.0101      2.4106     -0.0067     14.5097    124.4487     39.9062
   615.2000      8.0101      2.4856      0.0906      9.9657    133.2817     38.2808
   615.3000      8.0221      2.5687      0.1436      4.9246    142.8618     34.7722
   615.4000      8.0221      2.6216      0.2098      1.7207    145.8428     32.0521
   615.5000      8.0931      2.6213      0.3237      1.7396    142.8061     32.9333
   615.6000      8.0931      2.5858      0.2362      3.8906    140.4841     34.6057
   615.7000      8.0931      2.5544      0.2361      5.7967    142.1805     34.7701
   615.8000      8.1883      2.5348      0.2415      6.9822    145.7398     33.8713
   615.9000      8.1883      2.5113      0.1075      8.4087    147.5043     33.6255
   616.0000      8.1395      2.4787      0.0857     10.3842    149.8340     35.2093
   616.1000      8.1395      2.4379      0.0900     12.8570    153.1149     36.2425
   616.2000      8.1395      2.4055      0.0175     14.8199    152.2435     34.1784
   616.3000      8.1378      2.4055      0.1346     14.8210    148.5914     30.0485
   616.4000      8.1378      2.4257      0.1764     13.5954    144.9534     30.9589
   616.5000      8.0780      2.4376      0.1819     12.8705    139.4298     35.6833
   616.6000      8.0780      2.4320      0.1958     13.2145    133.2567     37.7283
   616.7000      8.0780      2.4164      0.1687     14.1596    128.2308     36.6528
   616.8000      8.0116      2.4070      0.1348     14.7274    121.9756     34.9402
   616.9000      8.0116      2.4141      0.0947     14.2962    115.7467     33.3833
   617.0000      8.0158      2.4358      0.0995     12.9810    113.6638     30.2788
   617.1000      8.0158      2.4619      0.1169     11.4000    114.9912     27.9387
   617.2000      8.0158      2.4757      0.1174     10.5656    114.5361     30.6553
   617.3000      8.0514      2.4742      0.0449     10.6569    111.7400     34.0584
   617.4000      8.0514      2.4827      0.0058     10.1411    112.4971     33.9595
   617.5000      8.0438      2.5138      0.0438      8.2573    116.4434     29.3958
   617.6000      8.0438      2.5382      0.0804      6.7768    117.8896     23.3953
   617.7000      8.0438      2.5356      0.0473      6.9310    118.3400     25.4259
   617.8000      8.0155      2.5264      0.0068      7.4918    118.9390     32.2618
   617.9000      8.0155      2.5300      0.0737      7.2739    117.2958     35.9529
   618.0000      8.0109      2.5380      0.0881      6.7868    114.6653     36.3244
   618.1000      8.0109      2.5327      0.0938      7.1076    111.7086     34.4928
   618.2000      8.0109      2.5079      0.0823      8.6116    110.5647     31.4059
   618.3000      8.0105      2.4745      0.0300     10.6373    113.4693     28.6175
   618.4000      8.0105      2.4615     -0.0164     11.4256    117.9112     28.8283
   618.5000      8.0125      2.4873      0.0903      9.8599    123.1201     31.3027
   618.6000      8.0125      2.5294      0.1017      7.3120    129.7945     32.8369
   618.7000      8.0125      2.5604      0.1000      5.4318    136.8996     32.9754
   618.8000      8.0198      2.5846      0.0745      3.9625    145.0515     33.3950
   618.9000      8.0198      2.6080      0.1655      2.5480    151.9417     34.5569
   619.0000      8.0339      2.6226      0.1389      1.6593    151.8081     35.8625
   619.1000      8.0339      2.6317      0.1669      1.1109    144.9313     37.3508
   619.2000      8.0339      2.6381      0.2206      0.7206    137.2944     37.9431
   619.3000      8.0309      2.6340      0.1299      0.9727    133.3867     36.4817
   619.4000      8.0309      2.6167      0.1621      2.0186    132.0898     33.9994
   619.5000      8.0151      2.5869      0.1374      3.8271    130.0390     32.2979
