~Version Information
VERS.                      2.0: CWLS Log ASCII Standard - VERSION 2.0
WRAP.                       NO: One line per depth step
~Well Information Block
STRT.FT                -7.7500: 
STOP.FT              1519.0000: 
STEP.FT                 0.2500: 
NULL.                -999.2500: 
COMP.          Pioneer Natural Resources: COMPANY
WELL.          Mow 8-14-33-67 Tr: WELL
FLD.           Purgatorie River: FIELD
LOC.           2258' FNL & 929' FEL--: LOCATION
CNTY.               Las Animas: COUNTY
SRVC.          Patterson Wireline: SERVICE COMPANY
DATE.          Thu Feb 02 10:06:28 2006: LOG DATE
UWI.           05 071 08684 00: UNIQUE WELL ID
STAT.                       CO: STATE
~Curve Information Block
DEPT.FT            0 000 00 00: Depth
MINMK.                        : Magnetic Mark Ticks
CCL.                          : Casing Collar Locator
TT3.usec                      : CBL 3' Travel Time
AMP3.mV                       : CBL 3' Amplitude
GR.GAPI                       : Gamma Ray
~Parameter Information Block
~A  Depth      MINMK        CCL         TT3         AMP3         GR     
# ...
  1308.2500      0.0000      0.0000    263.0758     80.9772    109.1621
  1308.5000      0.0000      0.0000    263.0887     80.7281    112.7622
  1308.7500      0.0000      0.0000    263.1118     80.4063    118.4669
  1309.0000      0.0000      0.0000    263.1428     80.0453    122.6927
  1309.2500      0.0000      0.0000    263.1755     79.6958    123.6123
  1309.5000      0.0000      0.0000    263.2026     79.4127    122.0741
  1309.7500      0.0000      0.0000    263.2190     79.2362    120.0933
  1310.0000      0.0000      0.0000    263.2241     79.1738    118.7074
  1310.2500      0.0000      0.0000    263.2210     79.1954    117.3201
  1310.5000      0.0000      0.0000    263.2138     79.2504    114.7853
  1310.7500      0.0000      0.0000    263.2050     79.2955    110.6817
  1311.0000      0.0000      0.0000    263.1958     79.3140    105.6913
  1311.2500      0.0000      0.0000    263.1867     79.3183    101.1893
  1311.5000      0.0000      0.0000    263.1777     79.3426     98.4504
  1311.7500      0.0000      0.0000    263.1682     79.4289     97.8091
  1312.0000      0.0000      0.0000    263.1572     79.6112     98.3887
  1312.2500      0.0000      0.0000    263.1447     79.8984     98.8726
  1312.5000      0.0000      0.0000    263.1319     80.2630     98.7174
  1312.7500      0.0000      0.0000    263.1206     80.6458     98.5255
  1313.0000      0.0000      0.0000    263.1120     80.9806     99.2939
  1313.2500      0.0000      0.0000    263.1063     81.2247    101.5361
  1313.5000      0.0000      0.0000    263.1033     81.3739    104.8994
  1313.7500      0.0000      0.0000    263.1047     81.4530    108.1664
  1314.0000      0.0000      0.0000    263.1195     81.4920    109.7314
  1314.2500      0.0000      0.0000    263.1679     81.5094    108.4892
  1314.5000      0.0000      0.0000    263.2735     81.5107    104.5078
  1314.7500      0.0000      0.0000    263.4335     81.4971     99.0846
  1315.0000      0.0000      0.0000    263.5901     81.4715     94.2140
  1315.2500      0.0000      0.0000    263.6532     81.4378     91.5143
  1315.5000      0.0000      0.0000    263.5786     81.3984     91.2695
  1315.7500      0.0000      0.0000    263.4133     81.3551     92.6647
  1316.0000      0.0000      0.0000    263.2490     81.3109     94.9942
  1316.2500      0.0000      0.0000    263.1430     81.2690     98.2675
  1316.5000      0.0000      0.0000    263.0964     81.2311    102.5248
  1316.7500      0.0000      0.0000    263.0836     81.1970    107.1098
  1317.0000      0.0000      0.0000    263.0832     81.1658    111.2319
  1317.2500      0.0000      0.0000    263.0845     81.1398    115.0037
  1317.5000      0.0000      0.0000    263.0836     81.1241    118.9811
  1317.7500      0.0000      0.0000    263.0793     81.1220    122.5342
  1318.0000      0.0000      0.0000    263.0721     81.1310    123.6507
  1318.2500      0.0000      0.0000    263.0642     81.1428    120.8708
  1318.5000      0.0000      0.0000    263.0580     81.1502    114.8474
  1318.7500      0.0000      0.0000    263.0544     81.1509    107.5252
  1319.0000      0.0000      0.0000    263.0540     81.1480    100.0773
  1319.2500      0.0000      0.0000    263.0564     81.1458     92.2368
  1319.5000      0.0000      0.0000    263.0610     81.1487     83.7541
  1319.7500      0.0000      0.0000    263.0663     81.1606     75.7477
  1320.0000      0.0000      0.0000    263.0706     81.1844     69.9134
  1320.2500      0.0000      0.0000    263.0727     81.2187     66.8997
  1320.5000      0.0000      0.0000    263.0725     81.2576     66.2272
  1320.7500      0.0000      0.0000    263.0704     81.2942     67.3042
  1321.0000      0.0000      0.0000    263.0666     81.3235     69.5076
  1321.2500      0.0000      0.0000    263.0609     81.3437     71.5932
  1321.5000      0.0000      0.0000    263.0541     81.3540     72.1220
  1321.7500      0.0000      0.0000    263.0475     81.3515     70.6142
  1322.0000      0.0000      0.0000    263.0434     81.3300     67.7354
  1322.2500      0.0000      0.0000    263.0436     81.2835     64.4307
  1322.5000      0.0000      0.0000    263.0489     81.2093     61.4438
  1322.7500      0.0000      0.0000    263.0582     81.1058     59.5736
  1323.0000      0.0000      0.0000    263.0698     80.9511     59.6673
  1323.2500      0.0000      0.0000    263.0906     80.6345     62.0519
  1323.5000      0.0000      0.0000    263.1557     79.8650     66.1608
  1323.7500      0.0000      0.0000    263.3572     78.1568     70.7229
  1324.0000      0.0000      0.0000    263.8480     75.0960     74.2723
  1324.2500      0.0000      0.0000    264.7764     70.8161     75.8182
  1324.5000      0.0000      0.0000    266.1559     66.1302     75.4075
  1324.7500      0.0000      0.0000    267.7807     61.9470     73.9600
  1325.0000      0.0000      0.0000    269.3004     58.6288     72.2116
  1325.2500      0.0000      0.0000    270.4112     56.1203     69.8004
  1325.5000      0.0000      0.0000    271.0150     54.4304     65.6931
  1325.7500      0.0000      0.0000    271.2291     53.6085     59.6581
  1326.0000      0.0000      0.0000    271.2911     53.4306     53.1092
  1326.2500      0.0000     -2.0000    271.4784     53.4497     48.2365
  1326.5000      0.0000      0.0000    272.1093     53.3167     46.3057
  1326.7500      0.0000      0.0000    273.4618     53.0256     47.0061
  1327.0000      0.0000      0.0000    275.4080     52.9954     49.4335
  1327.2500      0.0000      0.0000    277.0469     53.8726     53.1966
  1327.5000      0.0000      0.0000    277.0653     56.0369     58.1716
  1327.7500      0.0000      0.0000    274.8734     59.3267     63.5714
  1328.0000      0.0000      0.0000    271.2723     63.3788     67.9004
  1328.2500      0.0000      0.0000    267.7539     67.9291     69.9171
  1328.5000      0.0000      0.0000    265.3011     72.5473     69.3760
  1328.7500      0.0000      0.0000    263.9916     76.4739     66.8520
  1329.0000      0.0000      0.0000    263.4276     79.0952     63.2175
  1329.2500      0.0000      0.0000    263.2198     80.4012     59.4104
  1329.5000      0.0000      0.0000    263.1477     80.8359     56.3133
  1329.7500      0.0000      0.0000    263.1196     80.8688     54.5403
  1330.0000      0.0000      0.0000    263.1056     80.7750     54.3097
  1330.2500      0.0000      0.0000    263.0966     80.6620     55.4442
  1330.5000      0.0000      0.0000    263.0907     80.5555     57.4644
  1330.7500      0.0000      0.0000    263.0872     80.4627     59.8531
  1331.0000      0.0000      0.0000    263.0849     80.3906     62.2474
  1331.2500      0.0000      0.0000    263.0832     80.3445     64.1568
  1331.5000      1.0000      0.0000    263.0824     80.3194     64.6402
  1331.7500      0.0000      0.0000    263.0825     80.2981     62.9006
  1332.0000      0.0000      0.0000    263.0820     80.2609     59.3325
  1332.2500      0.0000      0.0000    263.0793     80.1976     55.4850
  1332.5000      0.0000      0.0000    263.0739     80.1117     52.8232
  1332.7500      0.0000      0.0000    263.0668     80.0164     51.8093
  1333.0000      0.0000      0.0000    263.0597     79.9267     52.1201
  1333.2500      0.0000      0.0000    263.0539     79.8547     53.3189
  1333.5000      0.0000      0.0000    263.0498     79.8093     55.1887
  1333.7500      0.0000      0.0000    263.0472     79.7947     57.6063
  1334.0000      0.0000      0.0000    263.0459     79.8096     60.1630
  1334.2500      0.0000      0.0000    263.0456     79.8499     62.0225
  1334.5000      0.0000      0.0000    263.0464     79.9113     62.4111
  1334.7500      0.0000      0.0000    263.0470     79.9856     61.3001
  1335.0000      0.0000      0.0000    263.0454     80.0526     59.4761
  1335.2500      0.0000      0.0000    263.0401     80.0819     57.9165
  1335.5000      0.0000      0.0000    263.0318     80.0443     57.0834
  1335.7500      0.0000      0.0000    263.0239     79.9288     56.6555
  1336.0000      0.0000      0.0000    263.0210     79.7520     55.8629
