~Version Information
VERS.                      2.0: CWLS Log ASCII Standard - VERSION 2.0
WRAP.                       NO: One line per depth step
~Well Information Block
STRT.FT               525.0000: 
STOP.FT              2377.2000: 
STEP.FT                 0.1000: 
NULL.                -999.2500: 
COMP.          Pioneer Natural Resources: COMPANY
WELL.          Sparrowhawk 22-12: WELL
FLD.           Purgatoire River: FIELD
LOC.           2049' FNL & 2060' FWL--: LOCATION
CNTY.               Las Animas: COUNTY
SRVC.                Patterson: SERVICE COMPANY
DATE.          Thu Mar 23 13:24:48 2006: LOG DATE
UWI.           05 071 08484 00: UNIQUE WELL ID
STAT.                 Colorado: STATE
~Curve Information Block
DEPT.FT            0 000 00 00: Depth
DCAL.in                       : CDL Caliper
RHOB.g/cc                     : CDL Bulk Density
RHOC.g/cc                     : CDL Density Correction
DPOR.pu                       : CDL Density Porosity
NPOR.pu                       : Neutron Porosity
GR.GAPI                       : Gamma Ray
~Parameter Information Block
~A  Depth       DCAL        RHOB        RHOC        DPOR        NPOR         GR     
# ...
  1744.2000      7.8699      2.5079      0.0990      8.6132     27.4406    126.8266
  1744.3000      7.8682      2.5146      0.1196      8.2043     27.6585    122.7676
  1744.4000      7.8682      2.5237      0.1477      7.6542     27.8137    121.6098
  1744.5000      7.8792      2.5326      0.1147      7.1160     27.3400    122.1623
  1744.6000      7.8792      2.5497      0.0983      6.0805     26.4959    123.2140
  1744.7000      7.8792      2.5773      0.1559      4.4080     25.7750    127.0006
  1744.8000      7.8972      2.5960      0.1463      3.2713     25.3946    132.4222
  1744.9000      7.8972      2.5831      0.1647      4.0540     25.3931    134.3358
  1745.0000      7.9143      2.5410      0.0680      6.6070     25.7266    134.1158
  1745.1000      7.9143      2.4931      0.0451      9.5066     26.2935    133.1701
  1745.2000      7.9143      2.4522      0.0331     11.9869     26.9618    128.8186
  1745.3000      7.9205      2.4267     -0.0201     13.5335     27.4352    121.9437
  1745.4000      7.9205      2.4272     -0.0148     13.5041     27.4853    114.7061
  1745.5000      7.9060      2.4376      0.0444     12.8708     27.3706    110.1501
  1745.6000      7.9060      2.4331      0.0020     13.1445     27.6036    111.9488
  1745.7000      7.9060      2.4200      0.0068     13.9407     27.9645    119.8192
  1745.8000      7.8814      2.4255      0.0255     13.6041     27.5352    130.4143
  1745.9000      7.8814      2.4616      0.0722     11.4198     26.2092    139.9576
  1746.0000      7.8515      2.5098      0.1248      8.4980     24.7681    145.1890
  1746.1000      7.8515      2.5460      0.1085      6.3011     23.6736    144.1091
  1746.2000      7.8515      2.5614      0.1555      5.3722     22.8668    138.8885
  1746.3000      7.8249      2.5613      0.1199      5.3741     22.3887    132.2203
  1746.4000      7.8249      2.5587      0.1225      5.5343     22.6555    124.4146
  1746.5000      7.8116      2.5615      0.1066      5.3643     23.6556    115.9039
  1746.6000      7.8116      2.5743      0.1117      4.5884     24.4154    108.5656
  1746.7000      7.8116      2.5937      0.1093      3.4102     24.0312    106.5711
  1746.8000      7.8202      2.6078      0.0902      2.5569     22.8607    108.0637
  1746.9000      7.8202      2.6072      0.0948      2.5933     21.8773    104.9008
  1747.0000      7.8602      2.5915      0.0472      3.5480     21.3173     97.0107
  1747.1000      7.8602      2.5768     -0.0034      4.4390     21.2122     91.8794
  1747.2000      7.8602      2.5795      0.0398      4.2735     21.6945     90.4121
  1747.3000      7.9131      2.5963      0.0405      3.2547     22.3836     86.9425
  1747.4000      7.9131      2.6167      0.0541      2.0163     22.5572     80.9079
  1747.5000      7.9334      2.6308      0.0688      1.1613     21.7010     79.2304
  1747.6000      7.9334      2.6270      0.0989      1.3948     20.4572     87.2006
  1747.7000      7.9334      2.6073      0.0521      2.5858     20.0473    100.4491
  1747.8000      7.9160      2.5860      0.0319      3.8776     20.5860    110.7199
  1747.9000      7.9160      2.5675      0.0452      5.0007     21.3596    117.4319
  1748.0000      7.8946      2.5582      0.0216      5.5658     21.9748    119.7191
  1748.1000      7.8946      2.5668      0.0877      5.0431     22.5583    114.2988
  1748.2000      7.8946      2.5785      0.0726      4.3308     22.9538    105.7412
  1748.3000      7.8812      2.5775      0.0732      4.3921     22.5982    101.9913
  1748.4000      7.8812      2.5661      0.0705      5.0839     21.7307    104.3927
  1748.5000      7.8702      2.5530      0.0436      5.8770     21.0866    108.4401
  1748.6000      7.8702      2.5471      0.0451      6.2366     20.8484    110.9521
  1748.7000      7.8702      2.5474      0.0747      6.2189     20.8973    110.7517
  1748.8000      7.8596      2.5542      0.0256      5.8071     21.2223    106.1191
  1748.9000      7.8596      2.5778      0.0650      4.3769     21.5777    100.8442
  1749.0000      7.8553      2.6098      0.1006      2.4354     21.8880    102.0604
  1749.1000      7.8553      2.6284      0.0724      1.3106     22.3604    106.4809
  1749.2000      7.8553      2.6309      0.0815      1.1552     22.7187    102.7570
  1749.3000      7.8597      2.6271      0.0912      1.3901     22.7269     92.8075
  1749.4000      7.8597      2.6199      0.0774      1.8263     22.3148     85.8147
  1749.5000      7.8676      2.6076      0.0753      2.5704     21.5873     82.2929
  1749.6000      7.8676      2.5970      0.0223      3.2134     20.9339     82.8557
  1749.7000      7.8676      2.6017      0.0353      2.9264     20.7135     85.6197
  1749.8000      7.8713      2.6180      0.0421      1.9376     20.9173     87.0452
  1749.9000      7.8713      2.6275      0.0450      1.3624     21.0886     90.4107
  1750.0000      7.8714      2.6230      0.0443      1.6344     21.0516     97.1948
  1750.1000      7.8714      2.6209      0.0129      1.7656     21.2984    102.4448
  1750.2000      7.8714      2.6331      0.0828      1.0235     22.0083    102.2378
  1750.3000      7.8719      2.6375      0.1249      0.7593     22.5324    100.6174
  1750.4000      7.8719      2.6150      0.0808      2.1196     22.6769    103.8616
  1750.5000      7.8750      2.5873      0.0245      3.7998     22.9388    106.1797
  1750.6000      7.8750      2.5795      0.0173      4.2729     23.4231     99.1724
  1750.7000      7.8750      2.5814      0.1003      4.1562     23.8689     89.7226
  1750.8000      7.8822      2.5659      0.0597      5.0983     24.2803     88.6850
  1750.9000      7.8822      2.5311     -0.0036      7.2055     24.9846     94.1275
  1751.0000      7.8922      2.5046     -0.0171      8.8136     25.8281     99.2407
  1751.1000      7.8922      2.5045      0.0034      8.8192     26.1601    103.6807
  1751.2000      7.8922      2.5149      0.0530      8.1897     26.0121    110.0698
  1751.3000      7.8957      2.5097      0.0335      8.5043     25.9584    116.3752
  1751.4000      7.8957      2.4859      0.0118      9.9472     26.2385    119.1561
  1751.5000      7.8902      2.4592      0.0247     11.5626     26.6518    120.9303
  1751.6000      7.8902      2.4471     -0.0084     12.2958     26.9186    126.3930
  1751.7000      7.8902      2.4544      0.0533     11.8550     27.3205    135.0509
  1751.8000      7.8805      2.4713      0.0498     10.8316     28.1055    140.8177
  1751.9000      7.8805      2.4881      0.1002      9.8137     28.6926    140.8651
  1752.0000      7.8763      2.4995      0.0926      9.1222     28.5362    138.4224
  1752.1000      7.8763      2.5074      0.0934      8.6396     27.9218    135.0830
  1752.2000      7.8763      2.5101      0.0860      8.4794     27.2677    130.0475
  1752.3000      7.8785      2.5005      0.1096      9.0600     26.6028    123.1460
  1752.4000      7.8785      2.4830      0.1040     10.1211     26.1941    117.5109
  1752.5000      7.8843      2.4685      0.0670     10.9991     26.2627    116.3722
  1752.6000      7.8843      2.4605      0.0540     11.4854     26.3429    118.1456
  1752.7000      7.8843      2.4614      0.0510     11.4322     26.0683    118.9688
  1752.8000      7.8865      2.4753      0.0616     10.5889     25.4500    120.2278
  1752.9000      7.8865      2.4940      0.0827      9.4516     24.6379    122.1627
  1753.0000      7.8800      2.5055      0.0768      8.7574     24.0589    122.1801
  1753.1000      7.8800      2.5125      0.0619      8.3333     23.7397    121.5705
  1753.2000      7.8800      2.5219      0.0730      7.7638     23.5776    119.2745
  1753.3000      7.8709      2.5278      0.0543      7.4040     23.9832    113.5587
  1753.4000      7.8709      2.5172      0.0775      8.0489     25.0856    108.9008
  1753.5000      7.8618      2.4738      0.0550     10.6798     26.3281    111.6744
  1753.6000      7.8618      2.3914      0.0342     15.6758     27.1980    121.3102
  1753.7000      7.8618      2.2838     -0.0247     22.1916     27.8034    131.6264
