~Version Information
VERS.                      2.0: CWLS Log ASCII Standard - VERSION 2.0
WRAP.                       NO: One line per depth step
~Well Information Block
STRT.FT               460.0000: 
STOP.FT              2311.7000: 
STEP.FT                 0.1000: 
NULL.                -999.2500: 
COMP.          Pioneer Natural Resources: COMPANY
WELL.          McDonald 33-31 R: WELL
FLD.           Purgatoire River: FIELD
LOC.           1386' FSL & 1926' FEL: LOCATION
STAT.                 Colorado: State
CNTY.               Las Animas: COUNTY
CTRY.                      USA: Country
SECT.                       31: Section
TOWN.                      32S: Township
RANG.                      66W: Range
SRVC.                Patterson: SERVICE COMPANY
DATE.          Sat Sep 24 09:00:13 2005: LOG DATE
API.           05 071 08533 00: API
~Curve Information Block
DEPT.FT            0 000 00 00: Depth
DCAL.in                       : CDL Caliper
RHOB.g/cc                     : CDL Bulk Density
RHOC.g/cc                     : CDL Density Correction
DPOR.pu                       : CDL Density Porosity
NPOR.pu                       : Neutron Porosity
GR.GAPI                       : Gamma Ray
~Parameter Information Block
~A  Depth       DCAL        RHOB        RHOC        DPOR        NPOR         GR     
# ...
  1554.4000      7.9842      2.5196      0.0508      7.9048     14.0796     70.0703
  1554.5000      7.9815      2.5283      0.0756      7.3775     14.5644     70.0090
  1554.6000      7.9815      2.5225      0.0618      7.7292     14.7127     73.3603
  1554.7000      7.9815      2.5078      0.0123      8.6176     14.3435     74.1882
  1554.8000      7.9744      2.4971      0.0395      9.2637     14.0040     72.9972
  1554.9000      7.9744      2.4973      0.0342      9.2519     14.0445     72.9541
  1555.0000      7.9652      2.5121      0.0555      8.3548     14.3310     73.3240
  1555.1000      7.9652      2.5335      0.0756      7.0577     14.8449     73.4206
  1555.2000      7.9652      2.5430      0.0914      6.4851     15.3395     72.9207
  1555.3000      7.9603      2.5343      0.0716      7.0138     15.0347     72.8048
  1555.4000      7.9603      2.5216      0.0584      7.7812     14.1653     73.1487
  1555.5000      7.9594      2.5161      0.0854      8.1170     13.8024     71.5583
  1555.6000      7.9594      2.5126      0.0669      8.3284     14.1057     68.6266
  1555.7000      7.9594      2.5056      0.0529      8.7510     14.4259     68.0833
  1555.8000      7.9581      2.4985      0.0571      9.1839     14.4427     70.4070
  1555.9000      7.9581      2.4972      0.0453      9.2592     14.3446     73.0880
  1556.0000      7.9576      2.5046      0.0525      8.8139     14.3285     73.1892
  1556.1000      7.9576      2.5150      0.0768      8.1845     14.2169     72.0503
  1556.2000      7.9576      2.5161      0.0525      8.1182     14.0268     75.4709
  1556.3000      7.9595      2.5103      0.0217      8.4693     14.0183     82.5731
  1556.4000      7.9595      2.5142      0.0386      8.2332     13.9464     86.7945
  1556.5000      7.9607      2.5245      0.0902      7.6056     13.5091     85.0562
  1556.6000      7.9607      2.5194      0.0537      7.9135     13.0080     78.8587
  1556.7000      7.9607      2.4971      0.0075      9.2662     12.9109     73.9381
  1556.8000      7.9603      2.4772      0.0278     10.4755     13.1307     72.9601
  1556.9000      7.9603      2.4762     -0.0257     10.5363     13.2951     72.0838
  1557.0000      7.9618      2.4929      0.0475      9.5208     13.3468     70.7538
  1557.1000      7.9618      2.5061      0.0521      8.7204     13.4278     71.7000
  1557.2000      7.9618      2.5009      0.0386      9.0356     13.5615     75.0732
  1557.3000      7.9680      2.4821      0.0172     10.1732     13.7113     78.0053
  1557.4000      7.9680      2.4623     -0.0163     11.3733     13.9090     77.3519
  1557.5000      7.9756      2.4554     -0.0063     11.7958     14.2169     73.3053
  1557.6000      7.9756      2.4663      0.0376     11.1307     14.6191     69.4503
  1557.7000      7.9756      2.4883      0.0308      9.7982     14.9705     68.5389
  1557.8000      7.9777      2.5105      0.0498      8.4552     14.9728     71.2711
  1557.9000      7.9777      2.5200      0.0636      7.8779     14.4802     74.3223
  1558.0000      7.9773      2.5155      0.0444      8.1506     13.8067     73.9030
  1558.1000      7.9773      2.5140      0.0334      8.2406     13.3633     70.2828
  1558.2000      7.9773      2.5242      0.0705      7.6219     13.1900     64.8332
  1558.3000      7.9792      2.5328      0.0735      7.1043     13.1794     60.9307
  1558.4000      7.9792      2.5320      0.0478      7.1487     13.3408     62.6841
  1558.5000      7.9833      2.5280      0.0756      7.3951     13.5986     69.1761
  1558.6000      7.9833      2.5208      0.0770      7.8296     13.8199     74.4019
  1558.7000      7.9833      2.5150      0.0335      8.1835     13.8826     73.0397
  1558.8000      7.9874      2.5255      0.0511      7.5480     13.8854     68.2181
  1558.9000      7.9874      2.5500      0.0698      6.0582     14.1114     67.7348
  1559.0000      7.9884      2.5661      0.0642      5.0838     14.4587     71.0990
  1559.1000      7.9884      2.5634      0.0557      5.2475     14.4965     73.5908
  1559.2000      7.9884      2.5550      0.0441      5.7574     14.1453     74.6945
  1559.3000      7.9869      2.5529      0.0424      5.8835     13.8851     76.2679
  1559.4000      7.9869      2.5538      0.0344      5.8293     14.1305     76.9508
  1559.5000      7.9853      2.5517      0.0250      5.9585     14.7036     73.7528
  1559.6000      7.9853      2.5417      0.0448      6.5620     15.3011     69.0892
  1559.7000      7.9853      2.5248      0.0135      7.5886     15.7793     67.8008
  1559.8000      7.9843      2.5180     -0.0007      8.0027     16.1749     70.0353
  1559.9000      7.9843      2.5332     -0.0047      7.0790     16.6210     73.5345
  1560.0000      7.9814      2.5530      0.0497      5.8775     16.9084     77.9205
  1560.1000      7.9814      2.5512      0.0391      5.9853     16.9473     80.4440
  1560.2000      7.9814      2.5265      0.0168      7.4820     17.0002     79.1864
  1560.3000      7.9750      2.4979     -0.0046      9.2178     17.0315     77.8353
  1560.4000      7.9750      2.4784      0.0014     10.4006     16.9245     80.0408
  1560.5000      7.9666      2.4668     -0.0070     11.1005     16.8661     84.2605
  1560.6000      7.9666      2.4582      0.0428     11.6229     16.8524     86.3564
  1560.7000      7.9666      2.4574      0.0076     11.6743     16.6241     84.1216
  1560.8000      7.9603      2.4742      0.0114     10.6558     16.1560     77.8692
  1560.9000      7.9603      2.4994      0.0319      9.1301     15.6055     71.1963
  1561.0000      7.9575      2.5135      0.0442      8.2740     15.0735     68.1719
  1561.1000      7.9575      2.5123      0.0434      8.3453     14.7124     67.4973
  1561.2000      7.9575      2.5051      0.0250      8.7835     14.6559     65.8352
  1561.3000      7.9573      2.5026      0.0160      8.9339     14.6469     63.1679
  1561.4000      7.9573      2.5112      0.0421      8.4122     14.4241     61.8831
  1561.5000      7.9610      2.5236      0.0744      7.6585     14.1214     63.6375
  1561.6000      7.9610      2.5220      0.0812      7.7593     13.8927     66.7604
  1561.7000      7.9610      2.5009      0.0250      9.0346     13.9168     67.8293
  1561.8000      7.9658      2.4750      0.0272     10.6058     13.9746     67.6421
  1561.9000      7.9658      2.4625      0.0086     11.3615     13.6411     66.7005
  1562.0000      7.9680      2.4713      0.0054     10.8291     13.2665     65.0873
  1562.1000      7.9680      2.4886      0.0560      9.7844     13.2466     65.6472
  1562.2000      7.9680      2.4938      0.0412      9.4677     13.4553     68.1723
  1562.3000      7.9694      2.4827      0.0409     10.1385     13.7099     69.3550
  1562.4000      7.9694      2.4692      0.0118     10.9601     13.7319     68.2934
  1562.5000      7.9709      2.4720      0.0091     10.7868     13.3425     66.6747
  1562.6000      7.9709      2.4892      0.0513      9.7465     13.0663     65.6538
  1562.7000      7.9709      2.4965      0.0541      9.3043     13.2786     64.9621
  1562.8000      7.9735      2.4891      0.0230      9.7527     13.4869     64.6511
  1562.9000      7.9735      2.4871      0.0500      9.8732     13.2670     63.1448
  1563.0000      7.9779      2.4969      0.0662      9.2788     12.9505     59.5533
  1563.1000      7.9779      2.5045      0.0456      8.8183     12.8388     56.4578
  1563.2000      7.9779      2.4999      0.0221      9.0940     12.7259     54.8190
  1563.3000      7.9804      2.4869      0.0299      9.8849     12.5782     54.1395
  1563.4000      7.9804      2.4782      0.0224     10.4113     12.5765     56.0423
  1563.5000      7.9776      2.4796      0.0188     10.3274     12.7515     59.9793
  1563.6000      7.9776      2.4786      0.0408     10.3901     13.1708     61.7156
  1563.7000      7.9776      2.4643      0.0277     11.2573     13.7491     61.6198
  1563.8000      7.9759      2.4459     -0.0409     12.3673     14.2781     63.0723
  1563.9000      7.9759      2.4357      0.0394     12.9908     14.6092     64.9571
