~Version Information
VERS.                      2.0: CWLS Log ASCII Standard - VERSION 2.0
WRAP.                       NO: One line per depth step
~Well Information Block
STRT.FT                -8.5000: 
STOP.FT              1263.2500: 
STEP.FT                 0.2500: 
NULL.                -999.2500: 
COMP.          Pioneer Natural Resources: COMPANY
WELL.          Rockfish 11-30 Tr: WELL
FLD.           Purgatoire River: FIELD
LOC.           1063' FNL & 1068' FWL--: LOCATION
STAT.                       CO: State
CNTY.               Las Animas: COUNTY
CTRY. USA : country
SECT. 30 : Section
TOWN. 32S : Township
RANG. 65W : Range
SRVC.          Patterson Wireline: SERVICE COMPANY
DATE.          Tue Nov 22 16:08:49 2005: LOG DATE
API.           05 071 08585 00: UNIQUE WELL ID
~Curve Information Block
DEPT.FT            0 000 00 00: Depth
HVOLTA.V                      : Head Voltage Apparent
CCL.                          : Casing Collar Locator
TT3.usec                      : CBL 3' Travel Time
AMP3.mV                       : CBL 3' Amplitude
GR.GAPI                       : Gamma Ray
~Parameter Information Block
PPT.usec                0.0000: Predicted Pipe Time
~A  Depth      HVOLTA       CCL         TT3         AMP3         GR     
# ...
   495.5000     96.1917      0.0000    785.6233     14.4905     55.1974
   495.7500     96.2842      0.0000    788.0048     14.5314     60.4144
   496.0000     96.2787      0.0000    789.5712     14.5521     66.5122
   496.2500     96.1678      0.0000    790.3350     14.5351     72.1545
   496.5000     96.1931      0.0000    790.7637     14.4884     75.9755
   496.7500     96.2169      0.0000    791.6638     14.4279     77.6257
   497.0000     96.3137      0.0000    794.8151     14.3563     78.0202
   497.2500     96.3334      0.0000    804.1948     14.2626     78.6744
   497.5000     96.3698      0.0000    826.3310     14.1430     80.6585
   497.7500     96.1931      0.0000    867.3612     14.0189     83.9243
   498.0000     96.2520      0.0000    926.8519     13.9320     87.3871
   498.2500     96.1987      0.0000    994.2083     13.9161     89.6600
   498.5000     96.1033      0.0000   1053.7343     13.9681     89.9516
   498.7500     96.2239      0.0000   1094.8270     14.0437     88.4941
   499.0000     96.1397      0.0000   1117.0334     14.0868     86.2190
   499.2500     96.1678      0.0000   1126.4703     14.0672     84.1649
   499.5000     96.2156      0.0000   1129.7194     13.9961     83.1427
   499.7500     96.1244      0.0000   1130.9817     13.9112     83.4317
   500.0000     96.2787      0.0000   1132.3746     13.8476     84.3223
   500.2500     96.2576      0.0000   1134.7009     13.8176     84.3430
   500.5000     96.1889      0.0000   1137.5013     13.8100     82.6305
   500.7500     96.1342      0.0000   1138.9333     13.8039     79.9177
   501.0000     96.1384      0.0000   1136.0558     13.7877     77.7639
   501.2500     96.2309      0.0000   1125.1825     13.7673     77.2678
   501.5000     96.2787      0.0000   1102.1932     13.7576     78.8274
   501.7500     96.2128      0.0000   1065.0006     13.7634     82.2710
   502.0000     96.2773      0.0000   1018.3198     13.7710     86.6165
   502.2500     96.3390      0.0000    974.7424     13.7624     90.4770
   502.5000     96.1608      0.0000    947.3949     13.7382     93.4341
   502.7500     96.2773      0.0000    941.2413     13.7242     96.6553
   503.0000     96.1342      0.0000    952.7053     13.7560    101.6660
   503.2500     96.2576      0.0000    974.5807     13.8592    108.5115
   503.5000     96.2267      0.0000    998.6036     14.0367    115.0656
   503.7500     96.1875      0.0000   1017.4759     14.2647    118.2057
   504.0000     96.1019      0.0000   1028.9626     14.5015    116.2699
   504.2500     96.1678      0.0000   1036.2618     14.7115    110.6026
   504.5000     96.3376      0.0000   1041.2322     14.8827    104.2352
   504.7500     96.1917      0.0000   1039.0199     15.0157     99.1604
   505.0000     96.3011      0.0000   1022.6125     15.0976     95.4624
   505.2500     96.3109      0.0000    992.1247     15.1012     92.5485
   505.5000     96.3993      0.0000    956.2575     15.0159     90.0118
   505.7500     96.1566      0.0000    923.8506     14.8747     87.3327
   506.0000     96.1566      0.0000    896.2009     14.7405     83.8425
   506.2500     96.2029      0.0000    868.7382     14.6598     79.5190
   506.5000     96.3081      0.0000    838.3699     14.6278     75.4244
   506.7500     96.2787      0.0000    807.5174     14.6054     72.8573
   507.0000     96.2128      0.0000    781.5196     14.5746     72.0394
   507.2500     96.3053      0.0000    763.8143     14.5686     71.9254
   507.5000     96.2759      0.0000    754.1080     14.6375     71.5983
   507.7500     96.2562      0.0000    749.9342     14.7833     71.6134
   508.0000     96.2253      0.0000    748.8427     14.9410     73.5245
   508.2500     96.2450      0.0000    749.4465     15.0310     78.0914
   508.5000     96.2211      0.0000    751.2429     15.0284     84.2678
   508.7500     96.2548      0.0000    753.9156     14.9774     90.0319
   509.0000     96.2506      0.0000    756.7635     14.9426     94.0321
   509.2500     96.3039      0.0000    759.0875     14.9532     96.3675
   509.5000     96.3320      0.0000    761.3665     14.9900     97.9406
   509.7500     96.3334      0.0000    765.8735     15.0129     99.2815
   510.0000     96.3348      0.0000    775.8994     14.9992    100.0018
   510.2500     96.2815      0.0000    794.4351     14.9595     99.2016
   510.5000     96.3081      0.0000    822.9137     14.9222     96.3517
   510.7500     96.2562      0.0000    859.5342     14.9077     91.7838
   511.0000     96.3095      0.0000    898.3102     14.9213     86.2051
   511.2500     96.3123      0.0000    931.4082     14.9633     79.9471
   511.5000     96.2829      0.0000    953.7705     15.0394     73.2296
   511.7500     96.2450      0.0000    965.2988     15.1645     67.1293
   512.0000     96.2534      0.0000    968.7446     15.3591     63.6330
   512.2500     96.3993      0.0000    966.0880     15.6302     64.1542
   512.5000     96.2436      0.0000    956.6016     15.9510     67.9702
   512.7500     96.2787      0.0000    936.6801     16.2663     72.5136
   513.0000     96.3684      0.0000    901.1581     16.5260     75.5042
   513.2500     96.2842      0.0000    846.8038     16.7071     76.7115
   513.5000     96.1903      0.0000    777.0612     16.7995     77.4533
   513.7500     96.2801      0.0000    704.2079     16.7689     78.7074
   514.0000     96.2225      0.0000    647.0051     16.5365     80.1206
   514.2500     96.2773      0.0000    625.1245     16.0184     80.5131
   514.5000     96.3137      0.0000    649.9982     15.2343     78.8991
   514.7500     96.2015      0.0000    715.4604     14.3828     75.2826
   515.0000     96.3095      0.0000    799.3984     13.7473     70.8527
   515.2500     96.2520      0.0000    878.5051     13.4877     67.3329
   515.5000     96.1987      0.0000    940.5369     13.5436     65.9214
   515.7500     96.2646      2.0000    982.8815     13.7455     66.7289
   516.0000     96.3151     -2.0000   1003.3160     13.9829     69.1592
   516.2500     96.2478      0.0000    994.3179     14.2726     72.6945
   516.5000     96.2534      0.0000    948.5710     14.7090     77.0745
   516.7500     97.3177      0.0000    872.8930     15.3522     81.7534
   517.0000     95.7290      0.0000    791.7911     16.1479     85.7292
   517.2500     96.1945      0.0000    726.8317     16.9846     88.2609
   517.5000     96.3334      0.0000    674.5455     17.8279     89.3779
   517.7500     96.3684      0.0000    616.7387     18.7039     89.4039
   518.0000     96.1776      0.0000    553.0944     19.5257     88.5586
   518.2500     96.1411      0.0000    512.0931     20.0655     87.5271
   518.5000     96.2492      0.0000    525.3990     20.1659     87.7123
   518.7500     96.2562      0.0000    595.0337     19.9001     89.9653
   519.0000     96.2309      0.0000    685.0480     19.4966     93.3871
   519.2500     96.2829      0.0000    743.1323     19.1647     96.1928
   519.5000     96.3081      0.0000    734.1546     18.9988     97.4864
   519.7500     96.2337      0.0000    660.5950     18.9881     97.4227
   520.0000     96.3993      0.0000    556.8936     19.0648     96.0493
   520.2500     96.2253      0.0000    466.0251     19.1462     93.2007
   520.5000     96.3376      0.0000    418.7431     19.1617     89.6206
   520.7500     96.2015      0.0000    428.1015     19.0744     87.1851
   521.0000     96.2870      0.0000    492.6508     18.8886     87.3890
   521.2500     96.2029      0.0000    595.8492     18.6334     89.8644
   521.5000     96.3628      0.0000    703.6167     18.3465     92.6044
   521.7500     96.3137      0.0000    773.0300     18.0732     93.4963
   522.0000     96.2520      0.0000    773.8079     17.8646     91.7598
   522.2500     96.3081      0.0000    706.6353     17.7570     88.2801
   522.5000     96.3348      0.0000    602.2744     17.7506     84.7038
   522.7500     96.2618      0.0000    501.1005     17.8081     82.1141
   523.0000     96.2912      0.0000    429.3714     17.8774     80.4345
   523.2500     96.2015      0.0000    390.6855     17.9223     78.9903
