~Version Information
VERS.                      2.0: CWLS Log ASCII Standard - VERSION 2.0
WRAP.                       NO: One line per depth step
~Well Information Block
STRT.FT               240.0000: 
STOP.FT               940.5000: 
STEP.FT                 0.1000: 
NULL.                -999.2500: 
COMP.          Pioneer Natural Resources: COMPANY
WELL.               Ernie 31-6: WELL
FLD.           Purgatoire River: FIELD
LOC.           681' FNL & 2138' FEL: LOCATION
CNTY.               Las Animas: COUNTY
SRVC.                Patterson: SERVICE COMPANY
DATE.          Tue May 30 07:05:10 2006: LOG DATE
UWI.           05 071 08716 00: UNIQUE WELL ID
STAT.                 Colorado: STATE
~Curve Information Block
DEPT.FT            0 000 00 00: Depth
DCAL.in                       : CDL Caliper
RHOB.g/cc                     : CDL Bulk Density
RHOC.g/cc                     : CDL Density Correction
DPOR.pu                       : CDL Density Porosity
GR.GAPI                       : Gamma Ray
NPOR.pu                       : Neutron Porosity
~Parameter Information Block
~A  Depth       DCAL        RHOB        RHOC        DPOR         GR         NPOR    
# ...
   700.8000      7.9173      2.6196      0.0970      1.8454     64.6136     18.5548
   700.9000      7.9173      2.5930      0.0632      3.4554     62.2191     18.5778
   701.0000      7.9133      2.5676      0.0473      4.9959     63.7980     18.5458
   701.1000      7.9133      2.5543      0.0394      5.7989     69.4382     18.8622
   701.2000      7.9133      2.5504      0.0574      6.0340     73.2472     19.5255
   701.3000      7.9140      2.5528     -0.0105      5.8933     71.3848     20.1846
   701.4000      7.9140      2.5625      0.0225      5.3055     67.3311     20.3070
   701.5000      7.9134      2.5749      0.0299      4.5535     65.4676     19.9386
   701.6000      7.9134      2.5840      0.0519      3.9990     64.9885     19.7243
   701.7000      7.9134      2.5872      0.0308      3.8070     64.9922     19.7336
   701.8000      7.9181      2.5866      0.0477      3.8444     65.1475     19.5956
   701.9000      7.9181      2.5858      0.0412      3.8896     65.3559     19.1732
   702.0000      7.9143      2.5860      0.0324      3.8759     65.5474     18.9532
   702.1000      7.9143      2.5891      0.0201      3.6903     65.2660     19.3007
   702.2000      7.9143      2.5938      0.0348      3.4063     65.6200     19.7064
   702.3000      7.9153      2.5890      0.0486      3.6955     67.7855     19.9427
   702.4000      7.9153      2.5736      0.0073      4.6319     71.8011     20.3720
   702.5000      7.9133      2.5638      0.0294      5.2235     77.5444     20.7985
   702.6000      7.9133      2.5678      0.0182      4.9830     82.5905     20.6336
   702.7000      7.9133      2.5812      0.0360      4.1709     83.4277     20.0444
   702.8000      7.9101      2.5907      0.0551      3.5910     79.2736     19.6794
   702.9000      7.9101      2.5859      0.0666      3.8837     73.2007     19.5521
   703.0000      7.9075      2.5729      0.0282      4.6716     71.4609     19.2996
   703.1000      7.9075      2.5633      0.0250      5.2552     76.1775     18.8464
   703.2000      7.9075      2.5581      0.0330      5.5701     80.9158     18.6586
   703.3000      7.9113      2.5524      0.0350      5.9138     83.1131     19.1882
   703.4000      7.9113      2.5483      0.0213      6.1665     85.7375     19.8592
   703.5000      7.9090      2.5437      0.0472      6.4449     89.6954     19.8921
   703.6000      7.9090      2.5232      0.0531      7.6870     93.1035     19.8945
   703.7000      7.9090      2.4903      0.0066      9.6813     93.8210     20.8177
   703.8000      7.9131      2.4749     -0.0319     10.6127     90.8048     21.9500
   703.9000      7.9131      2.4862      0.0198      9.9245     84.5555     22.3001
   704.0000      7.9129      2.4993      0.0378      9.1309     77.5509     22.4527
   704.1000      7.9129      2.5029      0.0165      8.9163     72.3528     22.7260
   704.2000      7.9129      2.5031      0.0582      8.9028     68.9287     22.6945
   704.3000      7.9120      2.4982      0.0328      9.1974     66.4834     22.3202
   704.4000      7.9120      2.4983      0.0111      9.1934     64.1672     21.8575
   704.5000      7.9127      2.5118      0.0632      8.3775     58.5316     21.4681
   704.6000      7.9127      2.5268      0.0606      7.4694     50.5435     21.0891
   704.7000      7.9127      2.5335      0.0907      7.0607     46.7744     20.6458
   704.8000      7.9022      2.5327      0.0574      7.1101     48.9500     20.5721
   704.9000      7.9022      2.5318      0.0228      7.1655     50.6645     21.3581
   705.0000      7.9145      2.5371      0.0297      6.8439     46.5935     22.3755
   705.1000      7.9145      2.5469      0.0654      6.2488     41.3815     22.2377
   705.2000      7.9145      2.5535      0.0549      5.8491     40.5139     21.0604
   705.3000      7.9142      2.5531      0.0783      5.8700     41.6701     20.1947
   705.4000      7.9142      2.5563      0.0290      5.6784     42.9271     19.9917
   705.5000      7.9112      2.5755      0.0460      4.5178     47.1601     19.8413
   705.6000      7.9112      2.5996      0.0935      3.0521     54.6118     19.3703
   705.7000      7.9112      2.6108      0.1049      2.3762     58.4770     18.8155
   705.8000      7.9121      2.6083      0.0661      2.5290     53.3289     18.4235
   705.9000      7.9121      2.5948      0.0723      3.3440     45.4593     18.2368
   706.0000      7.9137      2.5763      0.0076      4.4673     42.9789     18.4799
   706.1000      7.9137      2.5725      0.0391      4.6999     47.8200     19.2527
   706.2000      7.9137      2.5896      0.0814      3.6602     56.6533     19.9911
   706.3000      7.9113      2.6110      0.0827      2.3651     63.8066     19.8377
   706.4000      7.9113      2.6209      0.0787      1.7613     65.3930     18.7728
   706.5000      7.9126      2.6151      0.0808      2.1133     60.6696     17.7421
   706.6000      7.9126      2.6047      0.0417      2.7482     53.3172     17.5944
   706.7000      7.9126      2.6074      0.0827      2.5841     49.3721     18.1808
   706.8000      7.9121      2.6179      0.0929      1.9445     51.4906     18.5111
   706.9000      7.9121      2.6159      0.0985      2.0674     57.7856     18.5131
   707.0000      7.9121      2.6036      0.0509      2.8145     64.7072     18.9301
   707.1000      7.9121      2.6030      0.0534      2.8467     65.7470     19.5843
   707.2000      7.9121      2.6149      0.0627      2.1264     59.7961     19.6912
   707.3000      7.9138      2.6188      0.0615      1.8904     53.8476     19.1484
   707.4000      7.9138      2.6149      0.0190      2.1286     50.3928     18.4818
   707.5000      7.9198      2.6204      0.0461      1.7952     47.1607     17.9370
   707.6000      7.9198      2.6313      0.0908      1.1309     45.2699     17.5870
   707.7000      7.9198      2.6307      0.0785      1.1672     45.5687     17.5744
   707.8000      7.9132      2.6192      0.0444      1.8639     45.4043     17.5479
   707.9000      7.9132      2.6072      0.0512      2.5967     44.3791     17.3188
   708.0000      7.9130      2.5912      0.0804      3.5643     44.6537     17.2963
   708.1000      7.9130      2.5699     -0.0045      4.8572     46.1632     17.8400
   708.2000      7.9130      2.5580      0.0244      5.5748     47.5637     18.6754
   708.3000      7.9107      2.5575      0.0319      5.6075     48.7416     19.1062
   708.4000      7.9107      2.5506      0.0421      6.0235     49.5422     19.0084
   708.5000      7.9089      2.5323      0.0019      7.1325     49.5515     18.6467
   708.6000      7.9089      2.5177     -0.0040      8.0169     47.5785     18.3091
   708.7000      7.9089      2.5156      0.0074      8.1440     45.7363     18.1974
   708.8000      7.9114      2.5241     -0.0044      7.6313     48.0833     18.2655
   708.9000      7.9114      2.5443     -0.0032      6.4081     52.8313     18.6230
   709.0000      7.9132      2.5757      0.0329      4.5045     55.9133     19.1540
   709.1000      7.9132      2.6068      0.1115      2.6184     57.9114     19.4900
   709.2000      7.9132      2.6195      0.1465      1.8505     61.9713     19.5403
   709.3000      7.9158      2.6107      0.1190      2.3843     65.3861     19.4658
   709.4000      7.9158      2.5954      0.0867      3.3105     64.1029     19.5954
   709.5000      7.9126      2.5831      0.0840      4.0560     60.2508     19.8903
   709.6000      7.9126      2.5792      0.0481      4.2911     57.2948     19.9534
   709.7000      7.9126      2.5942      0.0776      3.3843     55.8504     19.5767
   709.8000      7.9103      2.6210      0.1328      1.7552     55.4783     18.8476
   709.9000      7.9103      2.6380      0.1317      0.7274     56.0204     18.1952
   710.0000      7.9122      2.6433      0.1113      0.4038     55.4892     18.0306
   710.1000      7.9122      2.6502      0.1206     -0.0130     53.6077     18.3314
   710.2000      7.9122      2.6554      0.1420     -0.3252     53.5802     18.9165
   710.3000      7.9130      2.6458      0.1157      0.2543     56.7832     19.5314
