~Version Information
VERS.                      2.0: CWLS Log ASCII Standard - VERSION 2.0
WRAP.                       NO: One line per depth step
~Well Information Block
STRT.FT               555.0000: 
STOP.FT              1158.0000: 
STEP.FT                 0.1000: 
NULL.                -999.2500: 
COMP.          Pioneer Natural Resources: COMPANY
WELL.              Draco 31-21: WELL
FLD.           Purgatoire River: FIELD
LOC.           491' FNL & 2446' FEL: LOCATION
CNTY.               Las Animas: COUNTY
SRVC.                Patterson: SERVICE COMPANY
DATE.          Wed Feb 01 07:01:32 2006: LOG DATE
UWI.           05 071 08672 00: UNIQUE WELL ID
STAT.                 Colorado: STATE
~Curve Information Block
DEPT.FT            0 000 00 00: Depth
DCAL.in                       : CDL Caliper
RHOB.g/cc                     : CDL Bulk Density
RHOC.g/cc                     : CDL Density Correction
DPOR.pu                       : CDL Density Porosity
GR.GAPI                       : Gamma Ray
NPOR.pu                       : Neutron Porosity
~Parameter Information Block
~A  Depth       DCAL        RHOB        RHOC        DPOR         GR         NPOR    
# ...
   948.6000      7.8623      2.5146      0.0084      8.2037     67.5688     23.7376
   948.7000      7.8623      2.5205      0.0229      7.8500     71.2077     23.1840
   948.8000      7.8596      2.5364      0.0140      6.8874     68.6402     22.2015
   948.9000      7.8596      2.5563      0.0469      5.6769     65.6426     21.6969
   949.0000      7.8595      2.5749      0.0583      4.5497     63.8040     22.0605
   949.1000      7.8595      2.5919      0.0485      3.5241     61.6648     22.5633
   949.2000      7.8595      2.6101      0.0458      2.4189     61.2322     22.3395
   949.3000      7.8514      2.6248      0.0766      1.5243     60.3681     21.8508
   949.4000      7.8514      2.6258      0.0935      1.4665     55.6190     21.9573
   949.5000      7.8617      2.6126      0.1082      2.2677     52.3130     22.6482
   949.6000      7.8617      2.5930      0.0997      3.4529     53.6882     23.4745
   949.7000      7.8617      2.5767      0.0717      4.4432     57.5132     23.9927
   949.8000      7.8602      2.5720      0.0330      4.7303     61.1798     24.0597
   949.9000      7.8602      2.5767      0.0505      4.4396     62.2535     23.7842
   950.0000      7.8619      2.5825      0.0454      4.0891     62.7367     23.2421
   950.1000      7.8619      2.5862      0.0391      3.8696     64.3014     22.9620
   950.2000      7.8619      2.5827      0.0741      4.0763     65.1639     23.3169
   950.3000      7.8618      2.5706      0.0083      4.8111     62.8423     23.6858
   950.4000      7.8618      2.5579      0.0284      5.5829     55.6893     23.2600
   950.5000      7.8613      2.5506      0.0074      6.0234     46.5611     22.2274
   950.6000      7.8613      2.5474      0.0560      6.2202     41.8743     21.5375
   950.7000      7.8613      2.5441      0.0142      6.4172     43.3626     21.4866
   950.8000      7.8604      2.5458      0.0192      6.3141     47.1707     21.5069
   950.9000      7.8604      2.5566      0.0232      5.6593     50.0674     21.6342
   951.0000      7.8609      2.5675      0.0433      5.0024     51.8617     22.1874
   951.1000      7.8609      2.5653      0.0517      5.1359     53.5909     22.7375
   951.2000      7.8609      2.5505      0.0201      6.0273     54.1391     23.0409
   951.3000      7.8595      2.5400      0.0293      6.6664     51.7015     23.3127
   951.4000      7.8595      2.5423      0.0433      6.5249     48.2666     23.6340
   951.5000      7.8500      2.5486      0.0255      6.1459     48.8984     23.5572
   951.6000      7.8500      2.5555      0.0157      5.7290     55.1261     22.6948
   951.7000      7.8500      2.5657      0.0606      5.1077     60.6890     21.7557
   951.8000      7.8604      2.5677      0.0633      4.9895     60.2803     21.6199
   951.9000      7.8604      2.5528      0.0607      5.8900     55.5004     22.0645
   952.0000      7.8611      2.5347      0.0567      6.9858     51.9855     22.4830
   952.1000      7.8611      2.5258      0.0573      7.5299     53.6387     22.8637
   952.2000      7.8611      2.5253      0.0188      7.5551     55.8118     23.2418
   952.3000      7.8608      2.5300      0.0645      7.2731     53.4266     23.0581
   952.4000      7.8608      2.5416      0.0599      6.5694     49.4783     22.4819
   952.5000      7.8599      2.5661      0.1116      5.0823     46.0706     21.9929
   952.6000      7.8599      2.5980      0.1191      3.1487     45.0075     21.6269
   952.7000      7.8599      2.6254      0.1486      1.4886     46.5734     21.7412
   952.8000      7.8640      2.6428      0.1249      0.4383     48.1622     22.2810
   952.9000      7.8640      2.6437      0.1590      0.3821     50.4357     22.7580
   953.0000      7.8798      2.6290      0.1016      1.2702     54.7477     23.2135
   953.1000      7.8798      2.6137      0.1499      2.2013     60.3112     23.4173
   953.2000      7.8798      2.5973      0.1191      3.1968     62.8075     23.3417
   953.3000      7.8639      2.5724      0.0834      4.7048     58.7228     23.8243
   953.4000      7.8639      2.5521      0.0159      5.9321     51.9043     24.4972
   953.5000      7.8596      2.5500      0.0486      6.0597     49.8063     24.6664
   953.6000      7.8596      2.5543      0.0681      5.7976     55.4646     24.8612
   953.7000      7.8596      2.5533      0.0296      5.8586     64.2714     24.9948
   953.8000      7.8616      2.5547      0.0608      5.7781     67.3638     24.2549
   953.9000      7.8616      2.5629      0.0553      5.2769     61.8739     23.0914
   954.0000      7.8627      2.5712      0.0641      4.7743     54.9009     22.3455
   954.1000      7.8627      2.5781      0.0824      4.3576     53.4819     22.0388
   954.2000      7.8627      2.5922      0.0825      3.5009     56.5872     22.2658
   954.3000      7.8618      2.6122      0.1348      2.2887     59.2721     23.2350
   954.4000      7.8618      2.6221      0.1126      1.6900     58.9557     24.2371
   954.5000      7.8605      2.6126      0.1239      2.2644     57.6546     24.4645
   954.6000      7.8605      2.5919      0.0808      3.5234     56.2516     24.3460
   954.7000      7.8605      2.5759      0.0585      4.4880     52.8156     24.0702
   954.8000      7.8607      2.5694      0.0526      4.8863     48.0041     23.2631
   954.9000      7.8607      2.5650      0.0462      5.1526     45.0409     21.8368
   955.0000      7.8595      2.5610      0.0297      5.3924     44.0527     20.1649
   955.1000      7.8595      2.5624      0.0229      5.3089     44.5125     19.1828
   955.2000      7.8595      2.5667      0.0108      5.0479     46.4677     19.4628
   955.3000      7.8613      2.5669      0.0506      5.0352     47.0101     20.3885
   955.4000      7.8613      2.5596      0.0709      5.4793     45.9261     20.9219
   955.5000      7.8624      2.5499      0.0251      6.0683     46.1448     21.1088
   955.6000      7.8624      2.5524      0.0171      5.9158     48.0509     21.4644
   955.7000      7.8624      2.5654      0.0573      5.1299     49.4262     21.5256
   955.8000      7.8619      2.5639      0.0827      5.2187     49.1797     21.3476
   955.9000      7.8619      2.5451     -0.0048      6.3578     50.6044     21.8888
   956.0000      7.8599      2.5342      0.0170      7.0153     56.2678     23.0599
   956.1000      7.8599      2.5379      0.0066      6.7948     61.9607     23.9515
   956.2000      7.8599      2.5419      0.0234      6.5532     62.4311     24.2048
   956.3000      7.8604      2.5354      0.0136      6.9454     58.2348     23.9494
   956.4000      7.8604      2.5188     -0.0006      7.9510     53.8600     23.4040
   956.5000      7.8575      2.5075     -0.0104      8.6344     51.7340     22.9667
   956.6000      7.8575      2.5140      0.0153      8.2395     51.8825     22.9804
   956.7000      7.8575      2.5284      0.0167      7.3675     52.6957     23.0662
   956.8000      7.8598      2.5369      0.0108      6.8517     54.8785     22.5172
   956.9000      7.8598      2.5413      0.0090      6.5852     58.2047     21.7422
   957.0000      7.8605      2.5514      0.0085      5.9772     55.7039     21.6127
   957.1000      7.8605      2.5683      0.0389      4.9488     46.2533     21.6459
   957.2000      7.8605      2.5855      0.0369      3.9068     39.4923     21.0844
   957.3000      7.8624      2.5987      0.0558      3.1074     40.7216     20.5392
   957.4000      7.8624      2.6041      0.0420      2.7817     43.2093     20.5435
   957.5000      7.8630      2.5996      0.0458      3.0546     41.3807     20.7097
   957.6000      7.8630      2.5910      0.0231      3.5753     39.9639     20.6352
   957.7000      7.8630      2.5811      0.0758      4.1763     43.1531     20.4488
   957.8000      7.8608      2.5627      0.0548      5.2936     47.4306     20.4776
   957.9000      7.8608      2.5384      0.0093      6.7617     49.3349     21.1749
   958.0000      7.8590      2.5254      0.0228      7.5505     51.3916     22.6449
   958.1000      7.8590      2.5342      0.0211      7.0170     53.6462     23.9848
