~Version Information
VERS.                      2.0: CWLS Log ASCII Standard - VERSION 2.0
WRAP.                       NO: One line per depth step
~Well Information Block
STRT.FT               240.0000: 
STOP.FT              1159.2500: 
STEP.FT                 0.2500: 
NULL.                -999.2500: 
COMP.          Pioneer Natural Resources: COMPANY
WELL.               Ryan 41-17: WELL
FLD.           Purgatoire River: FIELD
LOC.           822' FNL & 532' FEL--: LOCATION
CNTY.               Las Animas: COUNTY
SRVC.                Patterson: SERVICE COMPANY
DATE.          Thu Mar 16 16:50:09 2006: LOG DATE
UWI.           05 071 08719 00: UNIQUE WELL ID
STAT.                 Colorado: STATE
~Curve Information Block
DEPT.FT            0 000 00 00: Depth
SN.Ohm-m                      : IEL Short Normal
SP.mV                         : IEL Spontaneous Potential
DIR.Ohm-m                     : IEL Induction Resistivity
GR.GAPI                       : Gamma Ray
~Parameter Information Block
~A  Depth        SN          SP         DIR          GR     
# ...
   642.0000   2000.0000   2000.0000     19.5261     92.4468
   642.2500   2000.0000   2000.0000     19.5321     90.4652
   642.5000   2000.0000   2000.0000     19.4525     87.8417
   642.7500   2000.0000   2000.0000     19.2969     86.3407
   643.0000   2000.0000   2000.0000     19.0990     85.1814
   643.2500   2000.0000   2000.0000     18.8952     85.6888
   643.5000   2000.0000   2000.0000     18.7092     88.7596
   643.7500   2000.0000   2000.0000     18.5490     92.1601
   644.0000   2000.0000   2000.0000     18.4139     98.6321
   644.2500   2000.0000   2000.0000     18.3002    103.3002
   644.5000   2000.0000   2000.0000     18.2035    109.3202
   644.7500   2000.0000   2000.0000     18.1164    111.7723
   645.0000   2000.0000   2000.0000     18.0260    112.8318
   645.2500   2000.0000   2000.0000     17.9153    112.5618
   645.5000   2000.0000   2000.0000     17.7666    112.1515
   645.7500   2000.0000   2000.0000     17.5654    111.9669
   646.0000   2000.0000   2000.0000     17.2981    110.9837
   646.2500   2000.0000   2000.0000     16.9480    109.6641
   646.5000   2000.0000   2000.0000     16.4970    107.8034
   646.7500   2000.0000   2000.0000     15.9399    107.7821
   647.0000   2000.0000   2000.0000     15.2975    110.9673
   647.2500   2000.0000   2000.0000     14.6170    115.2976
   647.5000   2000.0000   2000.0000     13.9556    124.2135
   647.7500   2000.0000   2000.0000     13.3610    130.9402
   648.0000   2000.0000   2000.0000     12.8624    140.3560
   648.2500   2000.0000   2000.0000     12.4713    145.0127
   648.5000   2000.0000   2000.0000     12.1893    148.3256
   648.7500   2000.0000   2000.0000     12.0148    148.1260
   649.0000   2000.0000   2000.0000     11.9472    144.9997
   649.2500   2000.0000   2000.0000     11.9888    141.4315
   649.5000   2000.0000   2000.0000     12.1455    134.5013
   649.7500   2000.0000   2000.0000     12.4255    129.4771
   650.0000   2000.0000   2000.0000     12.8387    122.6519
   650.2500   2000.0000   2000.0000     13.3925    118.9576
   650.5000   2000.0000   2000.0000     14.0870    114.3465
   650.7500   2000.0000   2000.0000     14.9088    111.4625
   651.0000   2000.0000   2000.0000     15.8254    107.1827
   651.2500   2000.0000   2000.0000     16.7796    104.6287
   651.5000   2000.0000   2000.0000     17.6858    101.8496
   651.7500   2000.0000   2000.0000     18.4275    100.7446
   652.0000   2000.0000   2000.0000     18.8711     99.6734
   652.2500   2000.0000   2000.0000     18.9095     99.1041
   652.5000   2000.0000   2000.0000     18.5217     99.1226
   652.7500   2000.0000   2000.0000     17.7954    100.7395
   653.0000   2000.0000   2000.0000     16.8838    107.1373
   653.2500   2000.0000   2000.0000     15.9357    114.0130
   653.5000   2000.0000   2000.0000     15.0535    126.2218
   653.7500   2000.0000   2000.0000     14.2897    133.9223
   654.0000   2000.0000   2000.0000     13.6603    142.5676
   654.2500   2000.0000   2000.0000     13.1587    145.9750
   654.5000   2000.0000   2000.0000     12.7672    148.2075
   654.7500   2000.0000   2000.0000     12.4665    148.3843
   655.0000   2000.0000   2000.0000     12.2449    147.0009
   655.2500   2000.0000   2000.0000     12.1025    144.7267
   655.5000   2000.0000   2000.0000     12.0477    139.2892
   655.7500   2000.0000   2000.0000     12.0877    135.1286
   656.0000   2000.0000   2000.0000     12.2173    130.2644
   656.2500   2000.0000   2000.0000     12.4122    128.6714
   656.5000   2000.0000   2000.0000     12.6303    128.0267
   656.7500   2000.0000   2000.0000     12.8236    127.6764
   657.0000   2000.0000   2000.0000     12.9562    126.0860
   657.2500   2000.0000   2000.0000     13.0194    124.4213
   657.5000   2000.0000   2000.0000     13.0342    121.7637
   657.7500   2000.0000   2000.0000     13.0395    120.0937
   658.0000   2000.0000   2000.0000     13.0738    117.5520
   658.2500   2000.0000   2000.0000     13.1609    115.5826
   658.5000   2000.0000   2000.0000     13.3047    111.6508
   658.7500   2000.0000   2000.0000     13.4951    107.9513
   659.0000   2000.0000   2000.0000     13.7184    100.2895
   659.2500   2000.0000   2000.0000     13.9679     93.9953
   659.5000   2000.0000   2000.0000     14.2447     84.2040
   659.7500   2000.0000   2000.0000     14.5496     78.5374
   660.0000   2000.0000   2000.0000     14.8687     72.7640
   660.2500   2000.0000   2000.0000     15.1630     71.0749
   660.5000   2000.0000   2000.0000     15.3660     71.6665
   660.7500   2000.0000   2000.0000     15.3982     73.8658
   661.0000   2000.0000   2000.0000     15.1988     79.1994
   661.2500   2000.0000   2000.0000     14.7572     83.6024
   661.5000   2000.0000   2000.0000     14.1210     90.6920
   661.7500   2000.0000   2000.0000     13.3708     95.5824
   662.0000   2000.0000   2000.0000     12.5864    103.2848
   662.2500   2000.0000   2000.0000     11.8270    108.5245
   662.5000   2000.0000   2000.0000     11.1306    115.5521
   662.7500   2000.0000   2000.0000     10.5204    119.0745
   663.0000   2000.0000   2000.0000     10.0100    122.4903
   663.2500   2000.0000   2000.0000      9.6053    123.9089
   663.5000   2000.0000   2000.0000      9.3047    125.1828
   663.7500   2000.0000   2000.0000      9.0982    125.3567
   664.0000   2000.0000   2000.0000      8.9696    124.5321
   664.2500   2000.0000   2000.0000      8.8998    123.6858
   664.5000   2000.0000   2000.0000      8.8725    123.1628
   664.7500   2000.0000   2000.0000      8.8788    123.7245
   665.0000   2000.0000   2000.0000      8.9179    125.5122
   665.2500   2000.0000   2000.0000      8.9942    126.5464
   665.5000   2000.0000   2000.0000      9.1133    126.5112
   665.7500   2000.0000   2000.0000      9.2792    125.2113
   666.0000   2000.0000   2000.0000      9.4932    122.1431
   666.2500   2000.0000   2000.0000      9.7521    120.0126
   666.5000   2000.0000   2000.0000     10.0480    117.1348
   666.7500   2000.0000   2000.0000     10.3699    115.2007
   667.0000   2000.0000   2000.0000     10.7072    111.5616
   667.2500   2000.0000   2000.0000     11.0540    108.3391
   667.5000   2000.0000   2000.0000     11.4107    102.3817
   667.7500   2000.0000   2000.0000     11.7825     98.1887
   668.0000   2000.0000   2000.0000     12.1753     92.9637
   668.2500   2000.0000   2000.0000     12.5919     90.7488
   668.5000   2000.0000   2000.0000     13.0297     89.1960
   668.7500   2000.0000   2000.0000     13.4804     88.8920
   669.0000   2000.0000   2000.0000     13.9281     88.9607
   669.2500   2000.0000   2000.0000     14.3483     89.1683
   669.5000   2000.0000   2000.0000     14.7096     89.2657
   669.7500   2000.0000   2000.0000     14.9788     88.9554
   670.0000   2000.0000   2000.0000     15.1298     88.1520
   670.2500   2000.0000   2000.0000     15.1533     87.8358
   670.5000   2000.0000   2000.0000     15.0589     88.2009
   670.7500   2000.0000   2000.0000     14.8669     88.9484
   671.0000   2000.0000   2000.0000     14.5946     90.4495
   671.2500   2000.0000   2000.0000     14.2473     91.5405
   671.5000   2000.0000   2000.0000     13.8255     93.3423
   671.7500   2000.0000   2000.0000     13.3380     94.9174
   672.0000   2000.0000   2000.0000     12.8094     98.4924
   672.2500   2000.0000   2000.0000     12.2728    101.8226
   672.5000   2000.0000   2000.0000     11.7571    107.6713
   672.7500   2000.0000   2000.0000     11.2790    111.5249
   673.0000   2000.0000   2000.0000     10.8423    116.4913
   673.2500   2000.0000   2000.0000     10.4413    119.2651
   673.5000   2000.0000   2000.0000     10.0664    123.0272
   673.7500   2000.0000   2000.0000      9.7092    125.2710
   674.0000   2000.0000   2000.0000      9.3672    127.5949
   674.2500   2000.0000   2000.0000      9.0448    128.1063
   674.5000   2000.0000   2000.0000      8.7514    127.6860
   674.7500   2000.0000   2000.0000      8.4957    127.3251
   675.0000   2000.0000   2000.0000      8.2818    127.6358
   675.2500   2000.0000   2000.0000      8.1065    128.3215
