~Version Information
VERS.                      2.0: CWLS Log ASCII Standard - VERSION 2.0
WRAP.                       NO: One line per depth step
~Well Information Block
STRT.FT               550.0000: 
STOP.FT              1498.5000: 
STEP.FT                 0.1000: 
NULL.                -999.2500: 
COMP.          Pioneer Natural Resources: COMPANY
WELL.          Surtees 23-34 Tr: WELL
FLD.           Purgatoire River: FIELD
LOC.           1559' FSL & 1997' FWL: LOCATION
PROV.                 Colorado: PROVINCE
CNTY.               Las Animas: COUNTRY
SRVC.                Patterson: SERVICE COMPANY
DATE.          Wed Jul 27 09:35:51 2005: LOG DATE
UWI.           05 071 08449 00: UNIQUE WELL ID
~Curve Information Block
DEPT.FT            0 000 00 00: Depth
DCAL.in                       : CDL Caliper
RHOB.g/cc                     : CDL Bulk Density
RHOC.g/cc                     : CDL Density Correction
DPOR.pu                       : CDL Density Porosity
GR.GAPI                       : Gamma Ray
NPOR.pu                       : Neutron Porosity
~Parameter Information Block
~A  Depth       DCAL        RHOB        RHOC        DPOR         GR         NPOR    
# ...
   799.6000      8.1042      2.6003      0.0180      3.0102    115.9862     22.4154
   799.7000      8.1042      2.5717      0.0132      4.7468    119.3799     22.7856
   799.8000      8.1043      2.5734      0.1061      4.6399    119.0497     23.2704
   799.9000      8.1043      2.5808      0.0939      4.1964    117.4932     23.1160
   800.0000      8.1138      2.5799      0.0867      4.2464    115.6679     22.4808
   800.1000      8.1138      2.5716      0.0691      4.7536    114.6452     22.1859
   800.2000      8.1138      2.5614      0.0751      5.3680    115.1459     22.2300
   800.3000      8.1162      2.5580      0.0877      5.5779    117.0234     22.4686
   800.4000      8.1162      2.5671      0.0873      5.0233    117.0204     22.9496
   800.5000      8.1110      2.5811      0.1776      4.1734    112.0718     23.3005
   800.6000      8.1110      2.5861      0.1302      3.8730    105.7208     23.2891
   800.7000      8.1110      2.5919      0.1047      3.5223    102.1656     23.2456
   800.8000      8.1156      2.6133      0.1178      2.2251    100.2100     23.1525
   800.9000      8.1156      2.6371      0.1244      0.7793     99.6134     22.5972
   801.0000      8.1170      2.6421      0.1076      0.4794    103.2384     22.0469
   801.1000      8.1170      2.6263      0.0835      1.4392    110.0613     22.2988
   801.2000      8.1170      2.6009      0.1022      2.9747    117.8617     23.2055
   801.3000      8.1139      2.5730      0.0742      4.6666    125.3295     24.0743
   801.4000      8.1139      2.5435      0.0497      6.4535    129.4706     24.6529
   801.5000      8.1257      2.5167      0.0279      8.0773    130.8136     25.0539
   801.6000      8.1257      2.5039      0.0134      8.8538    131.8711     24.9789
   801.7000      8.1257      2.5095      0.0668      8.5153    131.1327     24.2800
   801.8000      8.1147      2.5241      0.0695      7.6318    131.2309     23.6877
   801.9000      8.1147      2.5375      0.0711      6.8210    136.8543     23.5813
   802.0000      8.1054      2.5400      0.0833      6.6669    142.2987     23.6853
   802.1000      8.1054      2.5322      0.0528      7.1398    141.3779     24.0497
   802.2000      8.1054      2.5314      0.1106      7.1860    137.9490     24.4782
   802.3000      8.1102      2.5426      0.1248      6.5097    135.7443     24.4050
   802.4000      8.1102      2.5581      0.0958      5.5700    135.0079     23.9245
   802.5000      8.0925      2.5784      0.1130      4.3364    134.5847     23.3824
   802.6000      8.0925      2.6010      0.1112      2.9667    133.3077     22.8418
   802.7000      8.0925      2.6180      0.1198      1.9401    130.9202     22.3046
   802.8000      8.1041      2.6227      0.1089      1.6564    125.2125     21.9177
   802.9000      8.1041      2.6098      0.0622      2.4363    117.3534     21.9203
   803.0000      8.0979      2.5858      0.0453      3.8919    114.4134     22.3597
   803.1000      8.0979      2.5590      0.0617      5.5177    119.3519     22.8866
   803.2000      8.0979      2.5292      0.0501      7.3183    126.6367     22.8973
   803.3000      8.1151      2.5069      0.0245      8.6715    129.6742     22.4742
   803.4000      8.1151      2.5029      0.0369      8.9146    130.7327     22.1367
   803.5000      8.1210      2.5103      0.0083      8.4662    132.7901     21.9087
   803.6000      8.1210      2.5216      0.0562      7.7797    131.9249     21.8486
   803.7000      8.1210      2.5276      0.0866      7.4174    128.3133     22.0623
   803.8000      8.1283      2.5219      0.0709      7.7614    128.4052     22.3695
   803.9000      8.1283      2.5154      0.0264      8.1592    132.3540     22.6200
   804.0000      8.1219      2.5154      0.0753      8.1561    136.0059     22.8123
   804.1000      8.1219      2.5162      0.0139      8.1082    137.0059     23.2150
   804.2000      8.1219      2.5176      0.0351      8.0268    132.5730     24.0672
   804.3000      8.1173      2.5284      0.0563      7.3683    125.3437     24.8232
   804.4000      8.1173      2.5585      0.0436      5.5478    121.4127     24.8573
   804.5000      8.1151      2.6034      0.0823      2.8228    121.5491     24.3148
   804.6000      8.1151      2.6319      0.1220      1.0940    121.9486     23.7686
   804.7000      8.1151      2.6173      0.0798      1.9813    120.3930     23.5697
   804.8000      8.1218      2.5749      0.0762      4.5503    118.8891     23.5076
   804.9000      8.1218      2.5409     -0.0075      6.6108    117.2919     23.3627
   805.0000      8.1202      2.5264      0.0650      7.4893    115.3642     23.2506
   805.1000      8.1202      2.5136      0.0442      8.2665    117.1161     23.2342
   805.2000      8.1202      2.4963     -0.0164      9.3156    120.9353     23.1949
   805.3000      8.1262      2.4850      0.0411      9.9989    121.5603     22.9718
   805.4000      8.1262      2.4806      0.0345     10.2652    117.9916     22.8851
   805.5000      8.1376      2.4815     -0.0003     10.2142    112.9652     23.0931
   805.6000      8.1376      2.4864      0.0503      9.9151    109.8688     23.3510
   805.7000      8.1376      2.4881      0.0283      9.8126    108.5234     23.6078
   805.8000      8.1443      2.4940      0.0028      9.4520    108.5011     23.6090
   805.9000      8.1443      2.5154      0.0409      8.1556    110.6781     23.2305
   806.0000      8.1399      2.5375      0.0738      6.8211    111.3102     22.9657
   806.1000      8.1399      2.5474      0.0411      6.2184    106.6503     23.1014
   806.2000      8.1399      2.5505      0.0699      6.0324    101.3567     23.4612
   806.3000      8.1387      2.5439      0.0648      6.4301    101.8643     23.8489
   806.4000      8.1387      2.5257      0.0561      7.5336    107.1577     24.0025
   806.5000      8.1111      2.5026      0.0868      8.9339    114.3378     23.8070
   806.6000      8.1111      2.4815      0.0510     10.2135    121.4198     23.4916
   806.7000      8.1111      2.4685      0.0844     11.0007    124.6014     23.1206
   806.8000      8.1028      2.4628      0.0869     11.3455    123.4406     22.7687
   806.9000      8.1028      2.4678      0.0789     11.0455    122.1555     22.7503
   807.0000      8.0872      2.4900      0.0762      9.6968    122.1255     22.8709
   807.1000      8.0872      2.5223      0.1050      7.7390    120.4505     22.7149
   807.2000      8.0872      2.5473      0.1533      6.2223    116.8962     22.4552
   807.3000      8.0940      2.5560      0.1618      5.6980    114.8797     22.4781
   807.4000      8.0940      2.5583      0.1747      5.5566    114.2495     22.7710
   807.5000      8.0994      2.5717      0.1499      4.7461    111.8894     23.0518
   807.6000      8.0994      2.6000      0.1607      3.0297    107.2076     23.1163
   807.7000      8.0994      2.6273      0.1636      1.3777    103.7046     22.8248
   807.8000      8.1029      2.6347      0.1764      0.9289    105.5031     22.3006
   807.9000      8.1029      2.6218      0.1053      1.7078    111.5519     21.8735
   808.0000      8.0948      2.6065      0.0838      2.6352    116.3709     21.4686
   808.1000      8.0948      2.5977      0.1229      3.1722    117.0632     20.8804
   808.2000      8.0948      2.5928      0.0951      3.4671    115.8778     20.4788
   808.3000      8.0982      2.5964      0.0840      3.2510    115.8953     20.5820
   808.4000      8.0982      2.6059      0.1059      2.6729    118.4201     20.9597
   808.5000      8.0893      2.6038      0.1115      2.8012    124.5048     21.2560
   808.6000      8.0893      2.5831      0.1229      4.0525    133.5694     21.4170
   808.7000      8.0893      2.5571      0.0782      5.6293    143.4117     21.6439
   808.8000      8.0735      2.5387      0.0860      6.7476    151.3618     22.2471
   808.9000      8.0735      2.5329      0.0650      7.0960    153.8163     23.2160
   809.0000      8.1080      2.5376      0.0725      6.8133    150.7160     24.1846
   809.1000      8.1080      2.5419      0.0927      6.5534    145.0673     24.8956
