~Version Information
VERS.                      2.0: CWLS Log ASCII Standard - VERSION 2.0
WRAP.                       NO: One line per depth step
~Well Information Block
STRT.FT                -6.7500: 
STOP.FT              1250.5000: 
STEP.FT                 0.2500: 
NULL.                -999.2500: 
COMP.          Pioneer Natural Resources: COMPANY
WELL.          Irish Eyes 33-21: WELL
FLD.           Purgatorie River: FIELD
LOC.           1379' FSL & 2544' FEL--: LOCATION
PROV.                       CO: PROVINCE
CNTY.               Las Animas: COUNTRY
SRVC.          Patterson Wireline: SERVICE COMPANY
DATE.          Mon Jan 23 11:57:23 2006: LOG DATE
UWI.           05 071 08658 00: UNIQUE WELL ID
~Curve Information Block
DEPT.FT            0 000 00 00: Depth
CCL.                          : Casing Collar Locator
TT3.usec                      : CBL 3' Travel Time
AMP3.mV                       : CBL 3' Amplitude
GR.GAPI                       : Gamma Ray
~Parameter Information Block
~A  Depth       CCL         TT3         AMP3         GR     
# ...
  1165.7500      0.0000    720.3200     12.0739     50.4929
  1166.0000      0.0000    725.5318     11.9422     50.4538
  1166.2500      0.0000    733.1649     11.8663     50.6356
  1166.5000      0.0000    741.7419     11.8706     51.2385
  1166.7500      0.0000    749.2606     11.9694     52.3148
  1167.0000      0.0000    754.4418     12.1576     53.6487
  1167.2500      0.0000    757.3159     12.3971     54.8298
  1167.5000      0.0000    758.7006     12.6206     55.7406
  1167.7500      0.0000    759.3748     12.7625     56.6776
  1168.0000      0.0000    759.6853     12.7925     57.6403
  1168.2500      0.0000    759.5549     12.7219     57.9314
  1168.5000      0.0000    758.5359     12.5824     56.9878
  1168.7500      0.0000    755.8981     12.3996     55.3306
  1169.0000      0.0000    751.0972     12.1829     54.1948
  1169.2500      0.0000    744.6338     11.9324     54.3693
  1169.5000      0.0000    738.3963     11.6505     55.8088
  1169.7500      0.0000    734.2092     11.3485     58.1406
  1170.0000      0.0000    730.9746     11.0441     60.9082
  1170.2500      0.0000    722.7719     10.7591     63.3838
  1170.5000      0.0000    700.4213     10.5191     64.8432
  1170.7500      0.0000    656.9567     10.3482     65.2813
  1171.0000      0.0000    594.1411     10.2568     65.4591
  1171.2500      0.0000    524.2584     10.2334     66.0393
  1171.5000      0.0000    463.5658     10.2496     66.9243
  1171.7500      0.0000    422.2375     10.2761     67.7162
  1172.0000      0.0000    400.1381     10.2934     68.5480
  1172.2500      0.0000    390.8557     10.2934     69.8752
  1172.5000      0.0000    387.8867     10.2765     71.5172
  1172.7500      0.0000    387.7550     10.2473     72.6657
  1173.0000      0.0000    390.3938     10.2088     72.9914
  1173.2500      0.0000    398.9676     10.1576     73.0009
  1173.5000      0.0000    419.1299     10.0780     73.1142
  1173.7500      0.0000    455.5568      9.9303     73.0310
  1174.0000      0.0000    506.5223      9.6367     72.0780
  1174.2500      0.0000    562.6885      9.1031     69.7607
  1174.5000      0.0000    614.1197      8.3057     66.1338
  1174.7500      0.0000    658.3173      7.3878     61.9832
  1175.0000      0.0000    699.1943      6.6211     58.3528
  1175.2500      0.0000    739.2132      6.2065     55.6883
  1175.5000      0.0000    774.9222      6.1210     53.7014
  1175.7500      0.0000    799.9657      6.1988     52.0344
  1176.0000      0.0000    811.1052      6.3194     50.6061
  1176.2500      0.0000    810.3665      6.4636     49.3188
  1176.5000      0.0000    800.8109      6.6345     47.8774
  1176.7500     -2.0000    781.9587      6.8059     46.1856
  1177.0000      2.0000    751.4944      6.9517     44.8803
  1177.2500      0.0000    710.0325      7.0956     45.1505
  1177.5000      0.0000    661.2474      7.3210     47.7994
  1177.7500      0.0000    609.2441      7.6959     52.4536
  1178.0000      0.0000    559.6859      8.1490     57.6432
  1178.2500      0.0000    520.3658      8.4702     61.5930
  1178.5000      0.0000    494.4118      8.5268     63.1754
  1178.7500      0.0000    474.6703      8.4469     62.6215
  1179.0000      0.0000    450.6500      8.5012     61.3514
  1179.2500      0.0000    420.1209      8.8274     60.6456
  1179.5000      0.0000    389.9777      9.3369     60.3913
  1179.7500      0.0000    367.5497      9.8474     59.5201
  1180.0000      0.0000    354.6209     10.2346     57.6197
  1180.2500      0.0000    348.6283     10.4696     55.6312
  1180.5000      0.0000    346.2787     10.5825     55.0098
  1180.7500      0.0000    345.4560     10.6252     56.6844
  1181.0000      0.0000    345.2091     10.6473     60.7318
  1181.2500      0.0000    345.1839     10.6813     66.2966
  1181.5000      0.0000    345.2162     10.7377     71.6103
  1181.7500      0.0000    345.2345     10.8136     74.6839
  1182.0000      0.0000    345.2536     10.9046     74.5933
  1182.2500      0.0000    345.3573     11.0101     72.1357
  1182.5000      0.0000    345.6140     11.1290     68.9223
  1182.7500      0.0000    346.0226     11.2465     65.8769
  1183.0000      0.0000    346.6111     11.3282     63.0143
  1183.2500      0.0000    347.6728     11.3359     60.5317
  1183.5000      0.0000    349.8368     11.2591     59.3451
  1183.7500      0.0000    353.5540     11.1282     60.1742
  1184.0000      0.0000    358.1913     10.9970     62.5025
  1184.2500      0.0000    361.9271     10.9109     64.9110
  1184.5000      0.0000    363.3361     10.8887     66.3662
  1184.7500      0.0000    363.5543     10.9203     66.7987
  1185.0000      0.0000    366.8265     10.9767     66.5491
  1185.2500      0.0000    379.2739     11.0292     65.7862
  1185.5000      0.0000    407.2946     11.0647     64.7421
  1185.7500      0.0000    455.0918     11.0867     63.9888
  1186.0000      0.0000    520.2020     11.1045     64.0271
  1186.2500      0.0000    590.5527     11.1235     64.9811
  1186.5000      0.0000    648.7855     11.1458     66.9337
  1186.7500      0.0000    681.5044     11.1769     69.9403
  1187.0000      0.0000    684.4899     11.2261     73.3150
  1187.2500      0.0000    662.2632     11.3003     75.4321
  1187.5000      0.0000    627.7992     11.3957     74.9124
  1187.7500      0.0000    600.9832     11.4980     72.0381
  1188.0000      0.0000    598.7200     11.5898     68.6226
  1188.2500      0.0000    621.8978     11.6640     66.3808
  1188.5000      0.0000    654.4604     11.7300     65.6309
  1188.7500      0.0000    675.8725     11.8050     65.4044
  1189.0000      0.0000    672.3484     11.8972     64.5154
  1189.2500      0.0000    639.5117     12.0004     62.6896
  1189.5000      0.0000    582.3337     12.1029     60.9820
  1189.7500      0.0000    515.3576     12.1958     60.8513
  1190.0000      0.0000    458.6668     12.2708     62.4593
  1190.2500      0.0000    429.8991     12.3167     64.0351
  1190.5000      0.0000    439.1011     12.3204     63.3770
  1190.7500      0.0000    487.5297     12.2729     60.1250
  1191.0000      0.0000    565.7004     12.1741     56.2416
  1191.2500      0.0000    652.4427     12.0359     54.0250
  1191.5000      0.0000    721.9991     11.8779     53.9134
  1191.7500      0.0000    756.3292     11.7168     54.4709
  1192.0000      0.0000    751.1223     11.5620     54.1307
  1192.2500      0.0000    713.7383     11.4244     52.4897
  1192.5000      0.0000    661.1717     11.3228     50.1575
  1192.7500      0.0000    617.6251     11.2711     47.9634
  1193.0000      0.0000    603.7507     11.2606     46.4466
  1193.2500      0.0000    622.7275     11.2584     45.7699
  1193.5000      0.0000    659.8910     11.2269     45.9118
  1193.7500      0.0000    697.5601     11.1484     46.9120
  1194.0000      0.0000    727.5300     11.0369     48.8827
  1194.2500      0.0000    750.4280     10.9304     51.7333
  1194.5000      0.0000    768.3916     10.8692     54.9882
  1194.7500      0.0000    780.6741     10.8751     58.0589
  1195.0000      0.0000    783.8205     10.9476     60.6219
  1195.2500      0.0000    774.5148     11.0737     62.4901
  1195.5000      0.0000    754.2313     11.2338     63.2130
  1195.7500      0.0000    732.6398     11.3986     62.2573
  1196.0000      0.0000    723.6117     11.5318     59.8352
  1196.2500      0.0000    734.2059     11.6061     57.2840
  1196.5000      0.0000    758.5191     11.6184     56.1626
  1196.7500      0.0000    784.3677     11.5881     56.8599
  1197.0000      0.0000    803.8436     11.5434     58.3809
  1197.2500      0.0000    815.8436     11.5063     59.6508
  1197.5000      0.0000    821.9420     11.4846     60.6381
  1197.7500      0.0000    823.6959     11.4747     61.9327
  1198.0000      0.0000    823.2885     11.4698     63.6500
  1198.2500      0.0000    823.7998     11.4622     65.2304
  1198.5000      0.0000    827.3517     11.4419     66.0853
  1198.7500      0.0000    833.4741     11.3974     66.0006
  1199.0000      0.0000    839.7106     11.3212     65.0609
