~Version Information
VERS.                      2.0: CWLS Log ASCII Standard - VERSION 2.0
WRAP.                       NO: One line per depth step
~Well Information Block
STRT.FT               340.0000: 
STOP.FT              2342.7000: 
STEP.FT                 0.1000: 
NULL.                -999.2500: 
COMP.          Pioneer Natural Resources: COMPANY
WELL.          Pinkerton 41-12: WELL
FLD.           Purgatoire River: FIELD
LOC.           1222' FNL & 670' FEL--: LOCATION
CNTY.               Las Animas: COUNTY
SRVC.                Patterson: SERVICE COMPANY
DATE.          Thu Mar 16 06:39:17 2006: LOG DATE
UWI.           05 071 08500 00: UNIQUE WELL ID
STAT.                 Colorado: STATE
~Curve Information Block
DEPT.FT            0 000 00 00: Depth
DCAL.in                       : CDL Caliper
RHOB.g/cc                     : CDL Bulk Density
RHOC.g/cc                     : CDL Density Correction
DPOR.pu                       : CDL Density Porosity
NPOR.pu                       : Neutron Porosity
GR.GAPI                       : Gamma Ray
~Parameter Information Block
~A  Depth       DCAL        RHOB        RHOC        DPOR        NPOR         GR     
# ...
   474.4000      8.1860      2.4456      0.0149     12.3871     18.4483     66.2578
   474.5000      8.2027      2.4469      0.0427     12.3089     19.0709     65.1384
   474.6000      8.2027      2.4478      0.0403     12.2573     19.5729     65.0735
   474.7000      8.2027      2.4373      0.0630     12.8929     19.7516     66.1640
   474.8000      8.2063      2.4156      0.0280     14.2090     19.7359     67.8651
   474.9000      8.2063      2.3891      0.0225     15.8134     19.7388     69.7212
   475.0000      8.1800      2.3672      0.0238     17.1394     19.8395     69.2113
   475.1000      8.1800      2.3581      0.0058     17.6933     19.9650     65.3969
   475.2000      8.1800      2.3593      0.0230     17.6153     20.1567     61.8184
   475.3000      8.1562      2.3649     -0.0131     17.2793     20.2813     60.9062
   475.4000      8.1562      2.3802      0.0062     16.3493     20.1736     60.8646
   475.5000      8.1721      2.4092      0.0636     14.5944     20.1025     60.3029
   475.6000      8.1721      2.4370      0.1020     12.9092     20.1961     60.2424
   475.7000      8.1721      2.4468      0.0714     12.3127     20.0664     60.7629
   475.8000      8.1934      2.4434      0.0283     12.5223     19.5175     62.0025
   475.9000      8.1934      2.4390      0.0565     12.7893     18.9018     64.4403
   476.0000      8.1869      2.4317      0.0411     13.2309     18.7018     65.8963
   476.1000      8.1869      2.4185      0.0174     14.0273     18.8197     65.1158
   476.2000      8.1869      2.4060      0.0015     14.7888     18.5423     64.0792
   476.3000      8.1771      2.3976      0.0190     15.2992     17.9001     62.4355
   476.4000      8.1771      2.3929     -0.0122     15.5831     17.5304     59.5647
   476.5000      8.1717      2.3955     -0.0095     15.4265     17.5179     57.7326
   476.6000      8.1717      2.4087      0.0050     14.6225     17.7392     57.9991
   476.7000      8.1717      2.4295      0.0486     13.3644     18.1728     60.1910
   476.8000      8.1601      2.4455      0.0709     12.3930     18.5514     65.7485
   476.9000      8.1601      2.4442      0.0670     12.4716     18.5637     74.0582
   477.0000      8.1492      2.4288      0.0538     13.4065     18.1207     77.4372
   477.1000      8.1492      2.4135     -0.0077     14.3337     17.4621     71.9632
   477.2000      8.1492      2.4086      0.0491     14.6304     17.0518     64.9711
   477.3000      8.1498      2.4151      0.0633     14.2348     17.1523     62.7317
   477.4000      8.1498      2.4280      0.0583     13.4575     17.6468     64.3247
   477.5000      8.1640      2.4399      0.0564     12.7315     18.2169     66.5924
   477.6000      8.1640      2.4505      0.0288     12.0897     18.7048     67.9148
   477.7000      8.1640      2.4658      0.0423     11.1633     18.9855     68.8953
   477.8000      8.1813      2.4884      0.0657      9.7912     18.8945     71.3744
   477.9000      8.1813      2.5177      0.0784      8.0166     18.8320     76.2919
   478.0000      8.1950      2.5470      0.0535      6.2414     19.1900     81.1801
   478.1000      8.1950      2.5589      0.0808      5.5220     19.6555     82.0731
   478.2000      8.1950      2.5418      0.0883      6.5591     19.9993     79.8506
   478.3000      8.2076      2.5098      0.0347      8.4976     20.2701     79.9385
   478.4000      8.2076      2.4894     -0.0016      9.7347     20.4821     85.2807
   478.5000      8.2118      2.4873      0.0186      9.8580     20.7030     90.9279
   478.6000      8.2118      2.4906      0.0111      9.6628     21.0253     90.3327
   478.7000      8.2118      2.4956      0.0065      9.3592     21.2795     86.1702
   478.8000      8.2050      2.5055      0.0663      8.7554     21.2655     84.4991
   478.9000      8.2050      2.5205      0.0550      7.8494     21.1338     85.2757
   479.0000      8.2010      2.5401      0.0874      6.6634     21.0173     86.2158
   479.1000      8.2010      2.5578      0.0936      5.5866     20.8853     88.4958
   479.2000      8.2010      2.5715      0.0803      4.7594     20.7376     93.4722
   479.3000      8.2007      2.5844      0.1234      3.9737     20.6546     97.1814
   479.4000      8.2007      2.5889      0.1540      3.7044     20.6691     95.7301
   479.5000      8.1983      2.5712      0.1344      4.7757     20.5279     90.2937
   479.6000      8.1983      2.5333      0.0815      7.0732     20.1922     84.2657
   479.7000      8.1983      2.4966      0.0196      9.2963     19.9651     80.1298
   479.8000      8.2042      2.4845     -0.0323     10.0312     19.9383     77.9302
   479.9000      8.2042      2.4959      0.0173      9.3400     19.8186     77.7198
   480.0000      8.2230      2.5061      0.0392      8.7223     19.3713     80.7077
   480.1000      8.2230      2.5059      0.0433      8.7358     18.8718     85.6746
   480.2000      8.2230      2.5151     -0.0017      8.1772     18.6995     90.0335
   480.3000      8.2457      2.5398      0.0707      6.6813     18.6618     92.0088
   480.4000      8.2457      2.5543      0.0532      5.8010     18.4917     88.4057
   480.5000      8.2688      2.5395      0.0990      6.6953     18.5284     80.1744
   480.6000      8.2688      2.5025      0.0314      8.9369     19.0738     73.8735
   480.7000      8.2688      2.4728     -0.0259     10.7418     19.8216     73.4155
   480.8000      8.2817      2.4654      0.0237     11.1886     20.3996     76.9761
   480.9000      8.2817      2.4600      0.0230     11.5172     20.7122     79.9997
   481.0000      8.2759      2.4464     -0.0263     12.3378     20.8380     80.9764
   481.1000      8.2759      2.4390     -0.0350     12.7871     20.9839     80.0572
   481.2000      8.2759      2.4388     -0.0167     12.8010     21.1880     78.0872
   481.3000      8.2601      2.4355     -0.0159     12.9993     21.2878     76.4529
   481.4000      8.2601      2.4279      0.0269     13.4607     21.3027     74.0452
   481.5000      8.2414      2.4168      0.0207     14.1352     21.5077     69.0632
   481.6000      8.2414      2.4028      0.0019     14.9789     21.8996     63.4092
   481.7000      8.2414      2.3817      0.0225     16.2628     22.3771     61.4268
   481.8000      8.2206      2.3394      0.0225     18.8272     22.9637     64.4768
   481.9000      8.2206      2.2727     -0.0442     22.8652     23.4412     72.6589
   482.0000      8.2120      2.1999     -0.0553     27.2761     23.8218     85.0152
   482.1000      8.2120      2.1388     -0.0450     30.9831     24.2573     96.5336
   482.2000      8.2120      2.1019     -0.0754     33.2199     24.4449    102.1800
   482.3000      8.2670      2.1154     -0.0790     32.3973     24.3689    101.7135
   482.4000      8.2670      2.2000      0.0371     27.2755     24.4723     99.5722
   482.5000      8.4416      2.3347      0.1877     19.1111     24.8355     99.5583
   482.6000      8.4416      2.4738      0.3220     10.6772     25.3061    101.9751
   482.7000      8.4416      2.5840      0.3711      4.0029     25.5767    104.9035
   482.8000      8.6545      2.6506      0.4056     -0.0339     25.5326    106.6099
   482.9000      8.6545      2.6781      0.2896     -1.7055     25.4077    107.8637
   483.0000      8.7413      2.6871      0.2587     -2.2489     25.1965    108.8192
   483.1000      8.7413      2.6865      0.2083     -2.2099     24.8507    106.6627
   483.2000      8.7413      2.6725      0.1723     -1.3615     24.6139    103.1270
   483.3000      8.7352      2.6420      0.1461      0.4872     24.5595    103.4590
   483.4000      8.7352      2.5895      0.1063      3.6686     24.4076    108.0102
   483.5000      8.7231      2.5176      0.0104      8.0219     24.1966    112.3565
   483.6000      8.7231      2.4446      0.0318     12.4498     24.1240    111.3135
   483.7000      8.7231      2.3897     -0.0213     15.7754     23.8275    106.1811
   483.8000      8.6987      2.3683     -0.0124     17.0698     23.1934    102.4339
   483.9000      8.6987      2.3762      0.0217     16.5961     22.6951    100.7406
