~Version Information
VERS.                      2.0: CWLS Log ASCII Standard - VERSION 2.0
WRAP.                       NO: One line per depth step
~Well Information Block
STRT.FT                -6.7500: 
STOP.FT              1661.0000: 
STEP.FT                 0.2500: 
NULL.                -999.2500: 
COMP.          Pioneer Natural Resources: COMPANY
WELL.           Pedri 42-33 Tr: WELL
FLD.           Purgatorie River: FIELD
LOC.           1933'' FNL & 662' FEL--: LOCATION
PROV.                       CO: PROVINCE
CNTY.               Las Animas: COUNTRY
SRVC.          Patterson Wireline: SERVICE COMPANY
DATE.          Tue Dec 27 08:53:52 2005: LOG DATE
UWI.           05 071 08640 00: UNIQUE WELL ID
~Curve Information Block
DEPT.FT            0 000 00 00: Depth
CCL.                          : Casing Collar Locator
TT3.usec                      : CBL 3' Travel Time
AMP3.mV                       : CBL 3' Amplitude
GR.GAPI                       : Gamma Ray
~Parameter Information Block
~A  Depth       CCL         TT3         AMP3         GR     
# ...
   328.2500      0.0000    722.7920      7.9797     74.5246
   328.5000      0.0000    725.1543      7.9928     72.5509
   328.7500      0.0000    734.1082      8.0200     69.2501
   329.0000      0.0000    747.6942      8.0566     66.4482
   329.2500      0.0000    761.1992      8.1078     65.7660
   329.5000      0.0000    770.8840      8.1782     67.0845
   329.7500      0.0000    776.0195      8.2569     68.8218
   330.0000      0.0000    777.9925      8.3206     69.5774
   330.2500      0.0000    778.4620      8.3514     69.4263
   330.5000      0.0000    778.3699      8.3512     69.9158
   330.7500      0.0000    777.7759      8.3390     73.0193
   331.0000      0.0000    775.9045      8.3385     79.8452
   331.2500      0.0000    771.3623      8.3635     89.8062
   331.5000      0.0000    763.0176      8.4119    100.6660
   331.7500      0.0000    751.3740      8.4683    109.5623
   332.0000      0.0000    739.2674      8.5138    114.5417
   332.2500      0.0000    730.9072      8.5317    115.5036
   332.5000      0.0000    729.7249      8.5100    113.9435
   332.7500      0.0000    736.3212      8.4451    111.9449
   333.0000      0.0000    747.8346      8.3453    111.0986
   333.2500      0.0000    759.6058      8.2256    111.8908
   333.5000      0.0000    768.1505      8.0995    113.8429
   333.7500      0.0000    772.8268      7.9764    115.9450
   334.0000      0.0000    775.0917      7.8634    116.8209
   334.2500      0.0000    776.8922      7.7630    115.0719
   334.5000      0.0000    779.8103      7.6697    110.3497
   334.7500      0.0000    784.8453      7.5733    104.0724
   335.0000      0.0000    792.0377      7.4697     98.4947
   335.2500      0.0000    800.1677      7.3669     95.0494
   335.5000      0.0000    807.3389      7.2778     93.8233
   335.7500      0.0000    812.2278      7.2105     94.1211
   336.0000      0.0000    814.7709      7.1637     95.1885
   336.2500      0.0000    815.7555      7.1328     96.9426
   336.5000      0.0000    816.0421      7.1165     99.8954
   336.7500      0.0000    816.1593      7.1182    103.4906
   337.0000      0.0000    816.2982      7.1401    105.1751
   337.2500      0.0000    816.4343      7.1788    102.7127
   337.5000      0.0000    816.4613      7.2267     97.1495
   337.7500      0.0000    816.3178      7.2776     91.9820
   338.0000      0.0000    816.0529      7.3280     89.4972
   338.2500      0.0000    815.8070      7.3747     89.1800
   338.5000      0.0000    815.7444      7.4158     89.4166
   338.7500      0.0000    815.9761      7.4533     89.2200
   339.0000      0.0000    816.4888      7.4911     88.1425
   339.2500      0.0000    817.1273      7.5295     85.8941
   339.5000      0.0000    817.6727      7.5630     82.8279
   339.7500      0.0000    817.9513      7.5820     80.1208
   340.0000      0.0000    817.8845      7.5786     78.8336
   340.2500      0.0000    817.4932      7.5517     78.9321
   340.5000      0.0000    816.9048      7.5070     79.2980
   340.7500      0.0000    816.2939      7.4524     78.6694
   341.0000      0.0000    815.6897      7.3954     77.0090
   341.2500      0.0000    814.7310      7.3456     76.1376
   341.5000      0.0000    812.6362      7.3142     78.3641
   341.7500      0.0000    808.6750      7.3096     84.0100
   342.0000      0.0000    803.1016      7.3341     90.6905
   342.2500      0.0000    797.7521      7.3855     95.4019
   342.5000      0.0000    795.2537      7.4584     96.8851
   342.7500      0.0000    797.0199      7.5450     95.7112
   343.0000      0.0000    801.8704      7.6349     92.8708
   343.2500      0.0000    806.7390      7.7162     89.0598
   343.5000      0.0000    808.7006      7.7771     84.8162
   343.7500      0.0000    806.4695      7.8104     80.6601
   344.0000      0.0000    800.6713      7.8164     77.4529
   344.2500      0.0000    793.2810      7.7983     76.9497
   344.5000      0.0000    786.4745      7.7550     81.2300
   344.7500      0.0000    781.3301      7.6834     90.6822
   345.0000      0.0000    777.3051      7.5892    102.7186
   345.2500      0.0000    773.0527      7.4899    113.2084
   345.5000      0.0000    768.1832      7.4048    119.3117
   345.7500      0.0000    764.5848      7.3481    120.5805
   346.0000      0.0000    765.6107      7.3341    117.8362
   346.2500      0.0000    772.9674      7.3774    112.1068
   346.5000      0.0000    784.2149      7.4781    104.5373
   346.7500      0.0000    794.1205      7.6091     96.2328
   347.0000      0.0000    799.0945      7.7269     87.9454
   347.2500      0.0000    800.0255      7.7974     80.1967
   347.5000      0.0000    800.3780      7.8120     73.2908
   347.7500      0.0000    802.1808      7.7840     66.9035
   348.0000      0.0000    804.7406      7.7350     60.2619
   348.2500      0.0000    806.4142      7.6828     53.2816
   348.5000      0.0000    806.1985      7.6352     47.2232
   348.7500      0.0000    804.0181      7.5910     43.8781
   349.0000      0.0000    800.6724      7.5452     44.1369
   349.2500      0.0000    797.5371      7.4911     47.1720
   349.5000      0.0000    795.8961      7.4239     50.8632
   349.7500      0.0000    796.5785      7.3470     53.3146
   350.0000      0.0000    799.8486      7.2749     54.2430
   350.2500      0.0000    805.0349      7.2247     54.8280
   350.5000      0.0000    810.5684      7.2033     56.2173
   350.7500      0.0000    814.9453      7.2046     58.3440
   351.0000      0.0000    817.6446      7.2161     60.2144
   351.2500      0.0000    819.0576      7.2285     61.1149
   351.5000      0.0000    819.8279      7.2414     61.2222
   351.7500      0.0000    820.3817      7.2615     61.0141
   352.0000      0.0000    820.8412      7.2944     60.5332
   352.2500      0.0000    821.1252      7.3379     59.4583
   352.5000      0.0000    821.0927      7.3875     57.5525
   352.7500      0.0000    820.6776      7.4453     54.8407
   353.0000      0.0000    819.9770      7.5179     51.7452
   353.2500      0.0000    819.2340      7.6072     49.2722
   353.5000      0.0000    818.6969      7.7056     48.5417
   353.7500      0.0000    818.4766      7.8019     49.6382
   354.0000      0.0000    818.5363      7.8901     51.2299
   354.2500      0.0000    818.7774      7.9709     51.8406
   354.5000      0.0000    819.0695      8.0478     51.3951
   354.7500      0.0000    819.1666      8.1220     51.1721
   355.0000      0.0000    818.5535      8.1914     52.2136
   355.2500      0.0000    816.3972      8.2538     53.9803
   355.5000      0.0000    811.8888      8.3100     54.6565
   355.7500      0.0000    804.9865      8.3598     52.7291
   356.0000      0.0000    796.8783      8.3953     48.3819
   356.2500      0.0000    789.4227      8.4042     43.7003
   356.5000      0.0000    783.8871      8.3820     41.6206
   356.7500      0.0000    780.1160      8.3380     44.1355
   357.0000      0.0000    776.6335      8.2867     50.9329
   357.2500      0.0000    771.4183      8.2353     59.6865
   357.5000      0.0000    763.3151      8.1815     67.8167
   357.7500      0.0000    753.7226      8.1217     74.0706
   358.0000      0.0000    746.7125      8.0584     78.6652
   358.2500      0.0000    746.1647      8.0000     82.2913
   358.5000      0.0000    752.2419      7.9553     85.0637
   358.7500      0.0000    761.2980      7.9282     86.4719
   359.0000      0.0000    769.2559      7.9162     86.3453
   359.2500      0.0000    774.3889      7.9120     85.5265
   359.5000      0.0000    777.0698      7.9066     85.2252
   359.7500      0.0000    778.0004      7.8927     86.0021
   360.0000      0.0000    777.1063      7.8688     87.6879
   360.2500      0.0000    773.6505      7.8365     89.8112
   360.5000      0.0000    767.0252      7.7903     91.6536
   360.7500      0.0000    757.4270      7.7080     92.2876
   361.0000      0.0000    745.8593      7.5666     91.1728
   361.2500      0.0000    734.2433      7.3807     88.7129
   361.5000      0.0000    726.7115      7.2114     85.8568
