~Version Information
VERS.                      2.0: CWLS Log ASCII Standard - VERSION 2.0
WRAP.                       NO: One line per depth step
~Well Information Block
STRT.FT               360.0000: 
STOP.FT              2475.0000: 
STEP.FT                 0.1000: 
NULL.                -999.2500: 
COMP.          Pioneer Natural Resources: COMPANY
WELL.          Hellzonfire 32-31: WELL
FLD.           Purgatoire River: FIELD
LOC.           1993' FNL & 2265' FEL: LOCATION
STAT.                 Colorado: State
CNTY.               Las Animas: COUNTY
CTRY. USA : Country
SECT. 31 : Section
TOWN. 32S : Township
RANG. 66W : Range
SRVC.                Patterson: SERVICE COMPANY
DATE.          Fri Sep 02 07:26:13 2005: LOG DATE
API.           05 071 08483 00: UNIQUE WELL ID
~Curve Information Block
DEPT.FT            0 000 00 00: Depth
DCAL.in                       : CDL Caliper
RHOB.g/cc                     : CDL Bulk Density
RHOC.g/cc                     : CDL Density Correction
DPOR.pu                       : CDL Density Porosity
GR.GAPI                       : Gamma Ray
NPOR.pu                       : Neutron Porosity
~Parameter Information Block
~A  Depth       DCAL        RHOB        RHOC        DPOR         GR         NPOR    
# ...
  1060.8000      8.1803      2.6088      0.0643      2.4949    132.1726     24.6202
  1060.9000      8.1803      2.6423      0.1046      0.4681    133.5320     25.6800
  1061.0000      8.1778      2.6666      0.1761     -1.0048    131.6446     25.6116
  1061.1000      8.1778      2.6652      0.1397     -0.9187    127.1469     23.7116
  1061.2000      8.1778      2.6383      0.1444      0.7079    124.3122     22.4467
  1061.3000      8.1492      2.5973      0.1126      3.1937    123.8294     22.8911
  1061.4000      8.1492      2.5625     -0.0228      5.3028    124.8055     23.4226
  1061.5000      8.1907      2.5492     -0.0309      6.1094    129.2989     23.4196
  1061.6000      8.1907      2.5497      0.0059      6.0760    136.0576     23.6213
  1061.7000      8.1907      2.5526      0.0240      5.9043    143.1249     23.7875
  1061.8000      8.2218      2.5580      0.0522      5.5783    148.5750     23.4469
  1061.9000      8.2218      2.5567      0.1044      5.6522    150.4594     23.3897
  1062.0000      8.2212      2.5373      0.0194      6.8303    149.7625     24.0250
  1062.1000      8.2212      2.5105      0.0225      8.4545    149.5231     24.6959
  1062.2000      8.2212      2.4947      0.0006      9.4108    152.0302     25.1873
  1062.3000      8.2184      2.4965      0.0093      9.3010    152.8805     25.3125
  1062.4000      8.2184      2.5107      0.0496      8.4400    146.8161     25.0444
  1062.5000      8.2184      2.5315      0.0742      7.1801    139.6132     25.0535
  1062.6000      8.2184      2.5460      0.1152      6.3035    142.1553     25.4126
  1062.7000      8.2184      2.5388      0.1297      6.7371    154.1475     25.9542
  1062.8000      8.2201      2.5193      0.0478      7.9183    163.1245     26.2580
  1062.9000      8.2201      2.5035      0.1087      8.8781    162.1663     25.8709
  1063.0000      8.2475      2.4832      0.1111     10.1080    157.1561     25.6924
  1063.1000      8.2475      2.4532      0.0320     11.9245    153.2119     26.1162
  1063.2000      8.2475      2.4214      0.0775     13.8547    150.2911     26.3294
  1063.3000      8.2612      2.4015     -0.0054     15.0605    149.0748     26.6084
  1063.4000      8.2612      2.4115      0.0030     14.4563    151.7088     27.1167
  1063.5000      8.2645      2.4433      0.0457     12.5289    158.1016     26.9268
  1063.6000      8.2645      2.4633      0.1181     11.3154    159.8468     26.0211
  1063.7000      8.2645      2.4599      0.0841     11.5202    151.7850     24.8279
  1063.8000      8.2620      2.4569      0.1248     11.7024    142.7099     23.5685
  1063.9000      8.2620      2.4680      0.1996     11.0324    140.7477     23.3035
  1064.0000      8.2617      2.4833      0.1506     10.1007    145.7064     25.0749
  1064.1000      8.2617      2.4992      0.1941      9.1401    151.0581     27.8727
  1064.2000      8.2617      2.5269      0.1620      7.4634    151.5510     29.2320
  1064.3000      8.2638      2.5665      0.2023      5.0608    151.0964     28.5852
  1064.4000      8.2638      2.5912      0.2678      3.5643    153.0359     27.7512
  1064.5000      8.2831      2.5874      0.2077      3.7959    151.0189     27.7359
  1064.6000      8.2831      2.5692      0.2064      4.8990    142.6229     27.3789
  1064.7000      8.2831      2.5369      0.2145      6.8531    136.0977     25.9719
  1064.8000      8.3514      2.4899      0.0669      9.7057    136.9687     25.4328
  1064.9000      8.3514      2.4499      0.0479     12.1263    140.9230     26.4165
  1065.0000      8.2704      2.4333      0.0308     13.1359    144.4631     26.5420
  1065.1000      8.2704      2.4365      0.0529     12.9407    150.1259     25.3656
  1065.2000      8.2704      2.4459      0.0667     12.3689    156.8763     25.2300
  1065.3000      8.2471      2.4401      0.0933     12.7232    158.5153     26.3775
  1065.4000      8.2471      2.4097      0.0387     14.5641    153.9461     26.6109
  1065.5000      8.2433      2.3698      0.0585     16.9807    148.4362     25.4858
  1065.6000      8.2433      2.3226      0.0803     19.8406    145.8156     24.5238
  1065.7000      8.2433      2.2581      0.1019     23.7489    146.5498     24.3733
  1065.8000      8.1788      2.1968      0.0110     27.4645    147.0379     24.5913
  1065.9000      8.1788      2.1825     -0.0161     28.3351    144.1069     24.5570
  1066.0000      8.0452      2.2293      0.0647     25.4979    140.1663     24.2135
  1066.1000      8.0452      2.3127      0.1265     20.4410    140.7071     24.4319
  1066.2000      8.0452      2.4067      0.1905     14.7445    146.7400     25.5134
  1066.3000      7.8895      2.5010      0.3042      9.0289    153.2612     26.3641
  1066.4000      7.8895      2.5865      0.3740      3.8472    153.3969     26.0653
  1066.5000      7.9071      2.6427      0.3916      0.4409    145.7677     25.2935
  1066.6000      7.9071      2.6524      0.3160     -0.1473    137.7395     24.7278
  1066.7000      7.9071      2.6306      0.2514      1.1779    133.7271     23.9280
  1066.8000      7.9309      2.6107      0.2276      2.3832    130.3360     22.0540
  1066.9000      7.9309      2.5964      0.2525      3.2483    127.6761     19.9407
  1067.0000      7.9627      2.5635      0.1931      5.2401    127.4623     20.0866
  1067.1000      7.9627      2.5105      0.1573      8.4566    124.9666     22.2582
  1067.2000      7.9627      2.4633      0.0686     11.3139    120.2584     23.5910
  1067.3000      8.0002      2.4308      0.1350     13.2864    119.5468     23.4885
  1067.4000      8.0002      2.3872      0.1113     15.9264    120.1285     23.0353
  1067.5000      8.1399      2.3230      0.0271     19.8177    115.2512     22.4996
  1067.6000      8.1399      2.2632     -0.0470     23.4430    107.9344     22.4865
  1067.7000      8.1399      2.2206      0.0225     26.0228    106.5489     23.1280
  1067.8000      8.2815      2.1849      0.0016     28.1870    113.6360     23.1321
  1067.9000      8.2815      2.1525      0.0169     30.1499    121.0345     22.5287
  1068.0000      8.3928      2.1245      0.0574     31.8508    119.0770     23.0150
  1068.1000      8.3928      2.1000      0.1077     33.3311    113.7834     24.8121
  1068.2000      8.3928      2.0860      0.1923     34.1834    117.6072     27.4158
  1068.3000      8.4628      2.0862      0.1964     34.1705    128.9390     30.0433
  1068.4000      8.4628      2.0981      0.2477     33.4491    137.0229     30.2977
  1068.5000      8.4821      2.1349      0.1502     31.2160    134.9982     27.4112
  1068.6000      8.4821      2.2094      0.2113     26.7033    125.6343     24.7826
  1068.7000      8.4821      2.2878      0.2338     21.9507    120.1885     25.2525
  1068.8000      8.5650      2.3358      0.1022     19.0406    124.5169     27.1331
  1068.9000      8.5650      2.3565      0.1691     17.7907    131.6647     28.1087
  1069.0000      8.6443      2.3518      0.1172     18.0709    136.1180     28.5666
  1069.1000      8.6443      2.3329      0.0168     19.2189    137.7776     29.5033
  1069.2000      8.6443      2.3280      0.0147     19.5145    132.9163     30.5438
  1069.3000      8.4991      2.3553     -0.0216     17.8600    124.3478     30.3102
  1069.4000      8.4991      2.3999      0.1279     15.1556    122.3344     28.8171
  1069.5000      8.2711      2.4237      0.0783     13.7155    131.1685     27.7108
  1069.6000      8.2711      2.4235      0.0760     13.7274    145.7342     28.1824
  1069.7000      8.2711      2.4302     -0.0204     13.3233    155.2047     29.8412
  1069.8000      8.1920      2.4510      0.0864     12.0601    153.7077     31.3042
  1069.9000      8.1920      2.4749      0.0284     10.6104    146.3163     31.2907
  1070.0000      8.1752      2.5034      0.0874      8.8870    141.0821     29.7783
  1070.1000      8.1752      2.5305      0.0920      7.2446    138.6624     28.5829
  1070.2000      8.1752      2.5513      0.0663      5.9803    134.8620     28.5921
  1070.3000      8.1453      2.5790      0.0399      4.3059    131.2167     28.3815
