~Version Information
VERS.                      2.0: CWLS Log ASCII Standard - VERSION 2.0
WRAP.                       NO: One line per depth step
~Well Information Block
STRT.FT               545.0000: 
STOP.FT              1452.5000: 
STEP.FT                 0.1000: 
NULL.                -999.2500: 
COMP.          Pioneer Natural Resources: COMPANY
WELL.          Parklane 43-34 Tr: WELL
FLD.           Purgatoire River: FIELD
LOC.           1643' FSL & 966' FEL: LOCATION
PROV.                 Colorado: PROVINCE
CNTY.               Las Animas: COUNTRY
SRVC.                Patterson: SERVICE COMPANY
DATE.          Fri Jul 29 07:27:28 2005: LOG DATE
UWI.           05 071 08452 00: UNIQUE WELL ID
~Curve Information Block
DEPT.FT            0 000 00 00: Depth
DCAL.in                       : CDL Caliper
RHOB.g/cc                     : CDL Bulk Density
RHOC.g/cc                     : CDL Density Correction
DPOR.pu                       : CDL Density Porosity
GR.GAPI                       : Gamma Ray
NPOR.pu                       : Neutron Porosity
~Parameter Information Block
~A  Depth       DCAL        RHOB        RHOC        DPOR         GR         NPOR    
# ...
   785.0000      8.3457      2.1306     -0.0258     31.4803    151.1839     18.9217
   785.1000      8.3457      2.0612     -0.0452     35.6850    149.5759     18.7858
   785.2000      8.3457      1.9966     -0.0833     39.5984    144.6111     18.8687
   785.3000      8.3990      1.9409     -0.0979     42.9764    133.8648     18.9756
   785.4000      8.3990      1.9134     -0.0866     44.6438    122.1992     19.2042
   785.5000      8.4214      1.9277     -0.0477     43.7739    117.4357     20.0241
   785.6000      8.4214      1.9760      0.0188     40.8473    120.4675     21.1829
   785.7000      8.4214      2.0523      0.0158     36.2220    127.4637     21.9257
   785.8000      8.4195      2.1533      0.1650     30.1053    132.2768     22.2055
   785.9000      8.4195      2.2574      0.2446     23.7963    131.1702     22.7257
   786.0000      8.3633      2.3467      0.2611     18.3833    125.9587     23.7582
   786.1000      8.3633      2.4134      0.3764     14.3423    117.7705     24.9041
   786.2000      8.3633      2.4435      0.3705     12.5174    109.6382     25.8851
   786.3000      8.3233      2.4363      0.2313     12.9526    107.1483     26.4233
   786.4000      8.3233      2.4196      0.0839     13.9639    109.1968     26.3177
   786.5000      8.1452      2.4166      0.1055     14.1440    112.1527     26.0912
   786.6000      8.1452      2.4217      0.0651     13.8350    117.6588     26.2623
   786.7000      8.1452      2.4286     -0.0566     13.4205    125.9461     26.4263
   786.8000      8.0932      2.4446     -0.0645     12.4499    130.3087     26.3045
   786.9000      8.0932      2.4692      0.0027     10.9574    126.8514     26.1222
   787.0000      8.0327      2.4967     -0.0091      9.2897    120.1751     26.0756
   787.1000      8.0327      2.5271      0.0618      7.4514    114.9780     26.1555
   787.2000      8.0327      2.5523      0.0871      5.9224    112.6413     26.1598
   787.3000      8.0269      2.5614      0.0426      5.3724    111.8643     26.0001
   787.4000      8.0269      2.5543      0.0155      5.7997    110.6091     25.8128
   787.5000      8.0330      2.5368      0.0522      6.8597    107.2587     25.7065
   787.6000      8.0330      2.5184      0.0008      7.9753    101.5644     25.2995
   787.7000      8.0330      2.5086      0.0096      8.5719     96.5563     24.2459
   787.8000      7.9969      2.5095      0.0002      8.5154     95.8113     23.2076
   787.9000      7.9969      2.5174      0.0083      8.0357     99.4154     22.9958
   788.0000      7.9945      2.5220      0.0306      7.7561    105.7694     23.3429
   788.1000      7.9945      2.5162      0.0296      8.1116    112.2590     23.4997
   788.2000      7.9945      2.5048     -0.0035      8.7973    115.1747     23.4836
   788.3000      7.9975      2.4965      0.0075      9.3010    115.3114     23.7287
   788.4000      7.9975      2.4924      0.0171      9.5522    115.4127     24.0379
   788.5000      7.9998      2.4867      0.0166      9.8961    115.7685     24.1230
   788.6000      7.9998      2.4721      0.0106     10.7799    116.8067     24.3542
   788.7000      7.9998      2.4546     -0.0442     11.8413    118.7852     24.9283
   788.8000      8.0176      2.4539     -0.0194     11.8863    122.4786     25.5593
   788.9000      8.0176      2.4769      0.0007     10.4923    128.2349     25.9659
   789.0000      8.0236      2.5108      0.0142      8.4355    131.3741     26.0261
   789.1000      8.0236      2.5359      0.0870      6.9137    127.5054     25.9033
   789.2000      8.0236      2.5390      0.0508      6.7300    120.2505     25.8575
   789.3000      8.0197      2.5294     -0.0059      7.3065    117.5642     25.8454
   789.4000      8.0197      2.5219      0.0080      7.7629    121.8764     25.7446
   789.5000      8.0158      2.5155      0.0329      8.1488    130.4279     25.8496
   789.6000      8.0158      2.5107      0.0650      8.4437    136.6932     26.4492
   789.7000      8.0158      2.5075      0.0597      8.6359    135.1638     27.1018
   789.8000      8.0046      2.5043      0.0377      8.8315    130.9521     27.1973
   789.9000      8.0046      2.5090      0.0161      8.5456    133.0016     26.8502
   790.0000      8.0086      2.5268      0.0622      7.4643    139.3768     26.5112
   790.1000      8.0086      2.5499      0.0683      6.0679    142.5102     26.5069
   790.2000      8.0086      2.5650      0.0704      5.1494    141.4065     26.7633
   790.3000      8.0274      2.5598      0.0651      5.4667    138.7741     26.8421
   790.4000      8.0274      2.5381      0.0233      6.7812    135.1868     26.4090
   790.5000      8.0001      2.5205      0.0249      7.8507    130.2916     25.7268
   790.6000      8.0001      2.5165      0.0108      8.0898    126.0178     25.0918
   790.7000      8.0001      2.5140      0.0392      8.2424    124.8875     24.6737
   790.8000      8.0387      2.5044     -0.0037      8.8220    123.3375     24.7671
   790.9000      8.0387      2.5015      0.0220      8.9984    121.3619     25.0455
   791.0000      8.0259      2.5076      0.0545      8.6293    124.0209     24.9319
   791.1000      8.0259      2.5101      0.0128      8.4807    130.7677     24.3911
   791.2000      8.0259      2.5147     -0.0203      8.2006    134.6032     23.7957
   791.3000      7.9957      2.5320     -0.0093      7.1524    131.7511     23.7155
   791.4000      7.9957      2.5538     -0.0049      5.8299    126.8616     24.1150
   791.5000      7.9984      2.5639      0.0634      5.2160    124.1055     24.4519
   791.6000      7.9984      2.5643      0.0072      5.1948    123.9259     24.6462
   791.7000      7.9984      2.5682      0.0069      4.9596    126.0328     24.9920
   791.8000      8.0243      2.5691      0.0253      4.9040    127.6895     25.5069
   791.9000      8.0243      2.5589     -0.0077      5.5185    127.8020     25.9324
   792.0000      8.0343      2.5420      0.0104      6.5468    129.8630     26.1698
   792.1000      8.0343      2.5227     -0.0194      7.7153    133.7164     26.3263
   792.2000      8.0343      2.5113     -0.0429      8.4062    134.4606     26.5758
   792.3000      8.0280      2.5123     -0.0420      8.3426    131.5256     26.9096
   792.4000      8.0280      2.5194     -0.0526      7.9182    127.6760     27.0896
   792.5000      8.0181      2.5301     -0.0218      7.2637    124.1472     27.0991
   792.6000      8.0181      2.5357      0.0419      6.9263    122.3640     27.1272
   792.7000      8.0181      2.5274     -0.0452      7.4311    119.9193     27.3066
   792.8000      8.0140      2.5203     -0.0219      7.8625    112.9176     27.4064
   792.9000      8.0140      2.5245      0.0240      7.6043    103.6898     26.9073
   793.0000      8.0032      2.5276      0.0080      7.4172     96.3277     25.8088
   793.1000      8.0032      2.5239      0.0032      7.6397     91.3660     24.5033
   793.2000      8.0032      2.5252      0.0435      7.5660     87.5346     23.4498
   793.3000      7.9968      2.5533      0.0151      5.8586     83.6131     22.9275
   793.4000      7.9968      2.6159      0.1554      2.0653     80.8592     22.8545
   793.5000      7.9693      2.6811      0.1259     -1.8858     80.0291     22.9571
   793.6000      7.9693      2.7163      0.1994     -4.0178     79.1041     22.6581
   793.7000      7.9693      2.7211      0.1517     -4.3110     78.1341     21.8499
   793.8000      7.9088      2.7096      0.1784     -3.6138     78.5623     21.2256
   793.9000      7.9088      2.6860      0.1202     -2.1844     77.6772     21.1257
   794.0000      7.8800      2.6535      0.0866     -0.2112     74.0430     21.2369
   794.1000      7.8800      2.6242      0.0147      1.5613     72.2028     21.2562
   794.2000      7.8800      2.6063      0.0268      2.6482     74.2050     21.1077
   794.3000      7.8897      2.5965     -0.0213      3.2423     76.7786     21.1083
   794.4000      7.8897      2.5915      0.0003      3.5443     78.3484     21.6791
   794.5000      7.9579      2.5884      0.0433      3.7343     82.1682     22.4777
