~Version Information
VERS.                      2.0: CWLS Log ASCII Standard - VERSION 2.0
WRAP.                       NO: One line per depth step
~Well Information Block
STRT.FT               370.0000: 
STOP.FT              1259.0000: 
STEP.FT                 0.1000: 
NULL.                -999.2500: 
COMP.          Pioneer Natural Resources: COMPANY
WELL.           Tennis 7-12 Tr: WELL
FLD.           Purgatoire River: FIELD
LOC.           1794' FNL & 1563' FEL: LOCATION
PROV.                 Colorado: PROVINCE
CNTY.               Las Animas: COUNTRY
SRVC.                Patterson: SERVICE COMPANY
DATE.          Tue Dec 20 13:35:40 2005: LOG DATE
UWI.           05 071 08635 00: UNIQUE WELL ID
~Curve Information Block
DEPT.FT            0 000 00 00: Depth
DCAL.in                       : CDL Caliper
RHOB.g/cc                     : CDL Bulk Density
RHOC.g/cc                     : CDL Density Correction
DPOR.pu                       : CDL Density Porosity
GR.GAPI                       : Gamma Ray
~Parameter Information Block
~A  Depth       DCAL        RHOB        RHOC        DPOR         GR     
# ...
  1187.6000      7.9408      2.5617      0.0680      5.3534     87.5361
  1187.7000      7.9408      2.5539      0.0975      5.8217     87.6562
  1187.8000      7.9392      2.5491      0.0530      6.1146     81.8247
  1187.9000      7.9392      2.5607      0.0866      5.4122     77.2088
  1188.0000      7.9392      2.5814      0.1002      4.1559     79.1283
  1188.1000      7.9392      2.5933      0.1023      3.4354     83.7728
  1188.2000      7.9392      2.5860      0.1172      3.8806     84.3689
  1188.3000      7.9392      2.5631      0.0524      5.2675     80.4661
  1188.4000      7.9392      2.5466      0.0465      6.2675     75.8735
  1188.5000      7.9395      2.5492      0.0524      6.1098     73.9783
  1188.6000      7.9395      2.5588      0.0864      5.5254     75.5273
  1188.7000      7.9395      2.5631      0.0313      5.2675     78.4300
  1188.8000      7.9389      2.5616      0.0707      5.3549     79.6221
  1188.9000      7.9389      2.5567      0.0759      5.6523     78.1790
  1189.0000      7.9373      2.5605      0.0202      5.4272     74.2431
  1189.1000      7.9373      2.5832      0.0310      4.0482     66.7732
  1189.2000      7.9373      2.6060      0.1065      2.6665     57.6911
  1189.3000      7.9361      2.6106      0.0779      2.3905     51.5805
  1189.4000      7.9361      2.6070      0.0834      2.6037     48.3425
  1189.5000      7.9384      2.6047      0.0824      2.7472     47.4131
  1189.6000      7.9384      2.5959      0.0660      3.2770     51.6146
  1189.7000      7.9384      2.5642      0.1377      5.1975     59.5074
  1189.8000      7.9482      2.4971      0.0850      9.2642     65.4794
  1189.9000      7.9482      2.3904      0.0979     15.7346     66.4534
  1190.0000      7.9625      2.2406      0.0322     24.8099     63.7869
  1190.1000      7.9625      2.0694     -0.0767     35.1888     60.4510
  1190.2000      7.9625      1.9188     -0.1308     44.3140     56.6981
  1190.3000      7.9721      1.8004     -0.1670     51.4898     52.9281
  1190.4000      7.9721      1.6975     -0.1237     57.7257     52.7905
  1190.5000      7.9763      1.6130     -0.1510     62.8460     55.3218
  1190.6000      7.9763      1.5630     -0.1008     65.8765     54.8457
  1190.7000      7.9763      1.5364      0.0813     67.4920     51.6399
  1190.8000      7.9813      1.5138      0.1023     68.8633     51.7910
  1190.9000      7.9813      1.5060      0.0781     69.3322     56.8093
  1191.0000      8.0004      1.5312      0.0355     67.8048     61.0526
  1191.1000      8.0004      1.5768      0.0607     65.0405     60.9758
  1191.2000      8.0004      1.6140      0.0619     62.7874     59.7778
  1191.3000      8.0351      1.6377      0.0657     61.3543     60.8236
  1191.4000      8.0351      1.6629      0.1641     59.8268     64.8552
  1191.5000      8.0562      1.7049      0.1390     57.2790     70.4795
  1191.6000      8.0562      1.7753      0.1548     53.0130     74.9942
  1191.7000      8.0562      1.8656      0.1229     47.5364     77.7151
  1191.8000      8.0399      1.9569      0.1171     42.0071     81.0001
  1191.9000      8.0399      2.0516      0.0853     36.2655     86.3188
  1192.0000      7.9961      2.1588      0.1884     29.7691     92.1730
  1192.1000      7.9961      2.2643      0.2652     23.3741     96.0943
  1192.2000      7.9961      2.3615      0.2307     17.4832     93.9390
  1192.3000      7.9668      2.4606      0.2704     11.4801     86.4135
  1192.4000      7.9668      2.5441      0.2926      6.4208     80.1278
  1192.5000      7.9595      2.5807      0.2158      4.2020     77.9896
  1192.6000      7.9595      2.5772      0.0754      4.4123     78.7495
  1192.7000      7.9595      2.5643      0.0762      5.1935     80.7315
  1192.8000      7.9585      2.5574      0.0375      5.6127     80.9653
  1192.9000      7.9585      2.5585      0.0629      5.5470     76.8452
  1193.0000      7.9576      2.5600      0.0650      5.4534     70.4299
  1193.1000      7.9576      2.5518      0.0712      5.9514     66.7035
  1193.2000      7.9576      2.5348      0.0578      6.9800     67.1961
  1193.3000      7.9567      2.5220      0.0242      7.7564     68.7295
  1193.4000      7.9567      2.5224      0.0407      7.7362     69.2009
  1193.5000      7.9572      2.5283      0.0661      7.3737     67.9740
  1193.6000      7.9572      2.5312      0.0444      7.2007     65.4775
  1193.7000      7.9572      2.5363      0.0020      6.8896     64.2748
  1193.8000      7.9579      2.5502      0.0303      6.0458     66.3608
  1193.9000      7.9579      2.5611      0.0829      5.3855     71.5934
  1194.0000      7.9578      2.5519      0.0728      5.9457     77.7193
  1194.1000      7.9578      2.5260      0.0340      7.5144     80.6631
  1194.2000      7.9578      2.5022      0.0200      8.9585     78.1577
  1194.3000      7.9575      2.4990      0.0046      9.1522     73.7754
  1194.4000      7.9575      2.5210      0.0612      7.8198     71.5993
  1194.5000      7.9575      2.5480      0.0527      6.1794     71.8769
  1194.6000      7.9575      2.5646      0.0303      5.1775     72.4289
  1194.7000      7.9575      2.5745      0.0495      4.5773     71.1455
  1194.8000      7.9580      2.5793      0.0632      4.2847     68.8643
  1194.9000      7.9580      2.5783      0.0583      4.3451     67.1037
  1195.0000      7.9583      2.5733      0.0740      4.6494     67.7380
  1195.1000      7.9583      2.5651      0.0430      5.1434     72.7862
  1195.2000      7.9583      2.5590      0.0669      5.5147     80.1734
  1195.3000      7.9576      2.5626      0.0389      5.2953     85.1204
  1195.4000      7.9576      2.5755      0.0630      4.5158     84.3738
  1195.5000      7.9565      2.5910      0.0598      3.5769     78.7949
  1195.6000      7.9565      2.6115      0.0518      2.3320     74.4948
  1195.7000      7.9565      2.6377      0.1051      0.7461     73.7130
  1195.8000      7.9568      2.6561      0.0949     -0.3696     72.5693
  1195.9000      7.9568      2.6574      0.1118     -0.4509     71.9553
  1196.0000      7.9576      2.6393      0.1198      0.6515     73.8701
  1196.1000      7.9576      2.6093      0.0481      2.4647     75.3594
  1196.2000      7.9576      2.5898      0.0030      3.6496     74.0118
  1196.3000      7.9578      2.5890      0.0364      3.6989     70.0370
  1196.4000      7.9578      2.5890      0.0889      3.6948     67.3131
  1196.5000      7.9584      2.5778      0.0532      4.3775     69.2789
  1196.6000      7.9584      2.5656      0.0507      5.1168     74.4475
  1196.7000      7.9584      2.5561      0.0580      5.6917     80.4799
  1196.8000      7.9590      2.5420      0.0188      6.5453     85.0627
  1196.9000      7.9590      2.5279      0.0239      7.4025     85.9312
  1197.0000      7.9584      2.5214      0.0067      7.7932     83.6864
  1197.1000      7.9584      2.5241      0.0147      7.6279     83.3444
  1197.2000      7.9584      2.5350      0.0115      6.9727     88.0974
  1197.3000      7.9573      2.5477      0.0722      6.1997     94.4437
  1197.4000      7.9573      2.5559      0.0308      5.7035    100.5292
  1197.5000      7.9560      2.5640      0.0581      5.2128    107.1678
  1197.6000      7.9560      2.5786      0.0311      4.3294    112.9812
  1197.7000      7.9560      2.6026      0.0345      2.8716    115.8236
  1197.8000      7.9552      2.6285      0.0562      1.3004    112.9887
  1197.9000      7.9552      2.6401      0.0767      0.5972    104.3767
  1198.0000      7.9561      2.6361      0.0581      0.8401     93.4205
  1198.1000      7.9561      2.6345      0.0473      0.9371     84.2397
  1198.2000      7.9561      2.6510      0.0471     -0.0602     78.9716
  1198.3000      7.9570      2.6808      0.0680     -1.8695     74.9538
  1198.4000      7.9570      2.7042      0.0677     -3.2852     69.8694
  1198.5000      7.9576      2.7052      0.0425     -3.3467     65.2036
  1198.6000      7.9576      2.6789      0.0266     -1.7504     61.4246
  1198.7000      7.9576      2.6350     -0.0128      0.9104     57.2704
