~Version Information
VERS.                      2.0: CWLS Log ASCII Standard - VERSION 2.0
WRAP.                       NO: One line per depth step
~Well Information Block
STRT.FT               -10.2500: 
STOP.FT              2871.7500: 
STEP.FT                 0.2500: 
NULL.                -999.2500: 
COMP.          Pioneer Natural Resources: COMPANY
WELL.          Grey Goose 33-30: WELL
FLD.           Purgatorie River: FIELD
LOC.           2136' FSL & 2065' FEL--: LOCATION
STAT.                       CO: State
CNTY.               Las Animas: COUNTY
CTRY. USA : Country
SECT. 30  : Section
TOWN. 32S : Township
RANG. 67W : Range
SRVC.          Patterson Wireline: SERVICE COMPANY
DATE.          Tue Dec 06 12:24:57 2005: LOG DATE
API.            05 071 0854600: UNIQUE WELL ID
~Curve Information Block
DEPT.FT            0 000 00 00: Depth
CCL.                          : Casing Collar Locator
TT3.usec                      : CBL 3' Travel Time
AMP3.mV                       : CBL 3' Amplitude
GR.GAPI                       : Gamma Ray
~Parameter Information Block
~A  Depth       CCL         TT3         AMP3         GR     
# ...
  2468.7500      0.0000    671.7477      4.0912    100.5232
  2469.0000      0.0000    671.9888      4.1994     94.4122
  2469.2500      0.0000    672.2288      4.2304     88.4363
  2469.5000      0.0000    672.5314      4.1831     84.1815
  2469.7500      0.0000    672.8424      4.0579     82.5333
  2470.0000      0.0000    673.0292      3.8697     83.1995
  2470.2500      0.0000    672.9798      3.6621     85.2355
  2470.5000      0.0000    672.7009      3.4992     87.5013
  2470.7500      0.0000    672.3000      3.4308     88.7541
  2471.0000      0.0000    671.9001      3.4594     87.9757
  2471.2500      0.0000    671.6400      3.5465     85.1574
  2471.5000      0.0000    671.7783      3.6509     81.7756
  2471.7500      0.0000    672.6818      3.7550     79.9316
  2472.0000      0.0000    674.4893      3.8588     80.3984
  2472.2500      0.0000    676.6604      3.9593     81.4734
  2472.5000      0.0000    678.0776      4.0438     80.3491
  2472.7500      0.0000    677.9284      4.1022     76.0260
  2473.0000      0.0000    676.4327      4.1428     70.6510
  2473.2500      0.0000    674.5163      4.1932     67.6985
  2473.5000      0.0000    672.7710      4.2822     69.1532
  2473.7500      0.0000    670.7167      4.4190     74.7045
  2474.0000      0.0000    666.6415      4.5832     82.7637
  2474.2500      0.0000    658.2026      4.7344     91.1144
  2474.5000      0.0000    644.0341      4.8367     97.0311
  2474.7500      0.0000    625.2843      4.8851     98.3772
  2475.0000      0.0000    604.6647      4.9081     95.2520
  2475.2500      0.0000    583.3339      4.9458     89.9617
  2475.5000      0.0000    560.1625      5.0240     84.9554
  2475.7500      0.0000    535.4363      5.1443     81.0281
  2476.0000      0.0000    514.5443      5.2907     77.5475
  2476.2500      0.0000    506.7558      5.4430     73.8509
  2476.5000      0.0000    519.5851      5.5837     70.1208
  2476.7500      0.0000    552.8413      5.6927     67.2653
  2477.0000      0.0000    596.9592      5.7474     66.3116
  2477.2500      0.0000    638.1520      5.7401     67.7961
  2477.5000      0.0000    667.0073      5.6900     71.4573
  2477.7500      0.0000    682.8231      5.6256     76.3203
  2478.0000      0.0000    690.2843      5.5543     81.1745
  2478.2500      0.0000    693.4631      5.4577     85.3739
  2478.5000      0.0000    693.4271      5.3199     89.2674
  2478.7500      0.0000    690.1058      5.1525     93.5041
  2479.0000      0.0000    684.5568      4.9912     97.9255
  2479.2500      0.0000    678.9200      4.8699    101.5792
  2479.5000      0.0000    674.8867      4.8021    103.7452
  2479.7500      0.0000    672.7934      4.7809    104.5467
  2480.0000      0.0000    672.0255      4.7903    104.7709
  2480.2500      0.0000    671.8385      4.8172    105.4650
  2480.5000      0.0000    671.8235      4.8559    107.2759
  2480.7500      0.0000    672.0023      4.9039    109.5509
  2481.0000      0.0000    672.8145      4.9561    110.3195
  2481.2500      0.0000    675.0193      5.0017    107.8634
  2481.5000      0.0000    679.2959      5.0300    102.4697
  2481.7500      0.0000    685.5380      5.0382     96.3223
  2482.0000      0.0000    692.4159      5.0301     91.7034
  2482.2500      0.0000    697.8367      5.0043     89.5183
  2482.5000      0.0000    700.0276      4.9532     89.3476
  2482.7500      0.0000    698.3546      4.8773     90.4185
  2483.0000      0.0000    693.4973      4.7955     92.1857
  2483.2500      0.0000    687.1153      4.7339     94.0995
  2483.5000      0.0000    681.0813      4.7078     95.4189
  2483.7500      0.0000    676.6091      4.7144     95.6601
  2484.0000      0.0000    673.9169      4.7397     94.8686
  2484.2500      0.0000    672.5757      4.7693     93.2170
  2484.5000      0.0000    672.0692      4.7954     90.7601
  2484.7500      0.0000    672.1567      4.8138     87.6745
  2485.0000      0.0000    672.9799      4.8195     84.3956
  2485.2500      0.0000    674.7161      4.8087     81.6544
  2485.5000      0.0000    676.5024      4.7856     80.4972
  2485.7500      0.0000    674.8728      4.7661     81.8366
  2486.0000      0.0000    663.4673      4.7727     85.6629
  2486.2500      0.0000    636.2977      4.8198     90.8141
  2486.5000      0.0000    593.7443      4.9015     95.6237
  2486.7500      0.0000    545.6898      4.9911     98.7989
  2487.0000      0.0000    507.2419      5.0564     99.9102
  2487.2500      0.0000    490.2059      5.0756     99.4671
  2487.5000      0.0000    496.9217      5.0426     98.5635
  2487.7500      0.0000    519.2239      4.9632     98.0841
  2488.0000      0.0000    542.2355      4.8521     98.1281
  2488.2500      0.0000    552.0936      4.7252     98.2933
  2488.5000      0.0000    543.0312      4.5729     98.2218
  2488.7500      0.0000    518.4938      4.3406     97.4969
  2489.0000      0.0000    487.5456      3.9687     95.3113
  2489.2500      0.0000    461.2520      3.4759     90.8386
  2489.5000      0.0000    449.9417      2.9911     84.0005
  2489.7500      0.0000    460.2322      2.6908     75.8243
  2490.0000      0.0000    491.6687      2.7004     68.1867
  2490.2500      0.0000    534.6122      3.0203     63.0703
  2490.5000     -2.0000    573.6609      3.5099     61.4983
  2490.7500      0.0000    597.5240      3.9619     62.7783
  2491.0000      0.0000    606.7433      4.2279     64.8266
  2491.2500      0.0000    610.4446      4.2798     65.6008
  2491.5000      0.0000    616.8539      4.1682     64.5930
  2491.7500      0.0000    628.5061      3.9678     63.1731
  2492.0000      0.0000    643.4570      3.7728     63.4866
  2492.2500      0.0000    657.9484      3.6824     66.9197
  2492.5000      0.0000    669.0416      3.7362     73.4446
  2492.7500      0.0000    676.4694      3.8809     82.0680
  2493.0000      0.0000    681.9034      4.0251     91.4513
  2493.2500      0.0000    686.4480      4.1133     99.9736
  2493.5000      0.0000    689.3289      4.1455    105.7252
  2493.7500      0.0000    688.9557      4.1516    107.3057
  2494.0000      0.0000    684.5220      4.1617    104.9843
  2494.2500      0.0000    675.8713      4.1914    100.7197
  2494.5000      0.0000    662.1046      4.2412     96.5399
  2494.7500      0.0000    641.3952      4.3104     92.9239
  2495.0000      0.0000    612.7411      4.4097     89.0772
  2495.2500      0.0000    577.4636      4.5545     84.6025
  2495.5000      0.0000    539.2631      4.7425     80.3337
  2495.7500      0.0000    503.8749      4.9459     77.4553
  2496.0000      0.0000    478.1649      5.1300     76.2552
  2496.2500      0.0000    468.0627      5.2708     76.1218
  2496.5000      0.0000    476.9807      5.3516     76.5566
  2496.7500      0.0000    505.1802      5.3509     77.5463
  2497.0000      0.0000    547.9690      5.2480     78.7962
  2497.2500      0.0000    594.5066      5.0466     79.3805
  2497.5000      0.0000    632.2087      4.7879     78.7140
  2497.7500      0.0000    654.7170      4.5369     77.5070
  2498.0000      0.0000    664.7100      4.3492     77.2617
  2498.2500      0.0000    668.8498      4.2439     78.9977
  2498.5000      0.0000    671.8276      4.2034     82.8183
  2498.7500      0.0000    675.0712      4.1946     88.5040
  2499.0000      0.0000    678.4619      4.1914     95.8138
  2499.2500      0.0000    681.5125      4.1818    103.8631
  2499.5000      0.0000    683.7112      4.1648    110.7471
  2499.7500      0.0000    685.0142      4.1432    114.5559
  2500.0000      0.0000    685.9761      4.1190    114.7828
  2500.2500      0.0000    687.0562      4.0916    112.5069
  2500.5000      0.0000    688.1909      4.0584    109.5974
  2500.7500      0.0000    689.4573      4.0171    108.0029
  2501.0000      0.0000    691.6051      3.9702    108.9764
  2501.2500      0.0000    695.2968      3.9267    112.2258
  2501.5000      0.0000    700.0634      3.8965    116.0828
  2501.7500      0.0000    704.5001      3.8842    118.7103
  2502.0000      0.0000    707.3738      3.8892    118.8849
