~Version Information
VERS.                      2.0: CWLS Log ASCII Standard - VERSION 2.0
WRAP.                       NO: One line per depth step
~Well Information Block
STRT.FT                -6.7500: 
STOP.FT              1544.5000: 
STEP.FT                 0.2500: 
NULL.                -999.2500: 
COMP.          Pioneer Natural Resources: COMPANY
WELL.          Lorencito 10-36-33-67: WELL
FLD.           Purgatorie River: FIELD
LOC.           2130' FSL & 2362' FEL--: LOCATION
STAT.                       CO: State
CNTY.               Las Animas: COUNTY
CTRY. USA : Country
SECT. 36 : Section
TOWN. 33S : Township
RANG. 67W : Range
SRVC.          Patterson Wireline: SERVICE COMPANY
DATE.          Fri Sep 02 09:21:42 2005: LOG DATE
API.           05 071 08501 00: UNIQUE WELL ID
~Curve Information Block
DEPT.FT            0 000 00 00: Depth
CCL.                          : Casing Collar Locator
TT3.usec                      : CBL 3' Travel Time
AMP3.mV                       : CBL 3' Amplitude
GR.GAPI                       : Gamma Ray
~Parameter Information Block
~A  Depth       CCL         TT3         AMP3         GR     
    -6.7500   -999.2500   -999.2500   -999.2500    124.8432
    -6.5000   -999.2500   -999.2500   -999.2500    123.3582
    -6.2500   -999.2500   -999.2500   -999.2500    121.0817
    -6.0000   -999.2500   -999.2500   -999.2500    119.2220
    -5.7500   -999.2500   -999.2500   -999.2500    118.8539
    -5.5000   -999.2500   -999.2500   -999.2500    120.4307
    -5.2500   -999.2500   -999.2500   -999.2500    123.1222
    -5.0000   -999.2500   -999.2500   -999.2500    124.9674
    -4.7500   -999.2500   -999.2500   -999.2500    124.1123
    -4.5000   -999.2500   -999.2500   -999.2500    120.4379
    -4.2500   -999.2500   -999.2500   -999.2500    115.9575
    -4.0000   -999.2500   -999.2500   -999.2500    113.0476
    -3.7500   -999.2500   -999.2500   -999.2500    112.3006
    -3.5000   -999.2500   -999.2500   -999.2500    112.4584
    -3.2500   -999.2500   -999.2500   -999.2500    112.1078
    -3.0000   -999.2500   -999.2500   -999.2500    110.9880
    -2.7500   -999.2500   -999.2500   -999.2500    109.7817
    -2.5000   -999.2500   -999.2500   -999.2500    108.9059
    -2.2500   -999.2500   -999.2500   -999.2500    107.5891
    -2.0000   -999.2500   -999.2500   -999.2500    104.5320
    -1.7500   -999.2500   1149.0000      1.8987     99.8017
    -1.5000   -999.2500   1149.0000      1.8893     95.4691
    -1.2500   -999.2500   1149.0000      1.8887     93.6593
    -1.0000   -999.2500   1149.0000      1.8979     94.3407
    -0.7500   -999.2500   1149.0000      1.9096     95.6051
    -0.5000   -999.2500   1149.0000      1.9149     95.6145
    -0.2500   -999.2500   1149.0000      1.9109     93.7064
     0.0000   -999.2500   1149.0000      1.9026     90.1720
     0.2500   -999.2500   1149.0000      1.8981     85.6440
     0.5000   -999.2500   1149.0000      1.9154     74.6702
     0.7500   -999.2500   1149.0000      1.9292     68.1948
     1.0000   -999.2500   1149.0000      1.9369     61.8967
     1.2500   -999.2500   1149.0000      1.9354     56.9844
     1.5000   -999.2500   1149.0000      1.9266     53.9205
     1.7500   -999.2500   1149.0000      1.9144     51.9058
     2.0000   -999.2500   1149.0000      1.9018     49.6254
     2.2500   -999.2500   1149.0000      1.8908     46.5839
     2.5000   -999.2500   1149.0000      1.8838     43.5993
     2.7500   -999.2500   1149.0000      1.8832     41.9606
     3.0000   -999.2500   1149.0000      1.8905     42.3824
     3.2500   -999.2500   1149.0000      1.9036     44.7481
     3.5000   -999.2500   1149.0000      1.9171     48.3995
     3.7500      0.0000   1149.0000      1.9247     52.4838
     4.0000      0.0000   1149.0000      1.9242     56.3583
     4.2500      0.0000   1149.0000      1.9180     59.9427
     4.5000      0.0000   1149.0000      1.9107     63.4857
     4.7500      0.0000   1149.0000      1.9056     66.7535
     5.0000      0.0000   1149.0000      1.9043     68.7957
     5.2500      0.0000   1149.0000      1.9061     69.0281
     5.5000      0.0000   1149.0000      1.9076     68.3105
     5.7500      0.0000   1149.0000      1.9039     68.3206
     6.0000      0.0000   1149.0000      1.8938     69.6799
     6.2500      0.0000   1149.0000      1.8814     70.9851
     6.5000      0.0000   1148.9406      1.8773     69.9893
     6.7500      0.0000   1148.5530      1.9035     65.7810
     7.0000      0.0000   1146.5846      2.0439     59.5996
     7.2500      0.0000   1138.7999      2.5764     53.5894
     7.5000      0.0000   1114.8247      4.1704     49.1869
     7.7500      0.0000   1057.3256      7.9094     46.7718
     8.0000      0.0000    949.9668     14.7198     46.2696
     8.2500      0.0000    793.9951     24.2621     47.7137
     8.5000      0.0000    617.9410     34.3660     51.3683
     8.7500      0.0000    464.1679     42.0611     57.3079
     9.0000      0.0000    361.4180     45.4779     64.6163
     9.2500      0.0000    310.7557     44.7416     71.2018
     9.5000      0.0000    294.9754     41.2712     74.9739
     9.7500      0.0000    296.2120     36.6044     75.3167
    10.0000      0.0000    306.1778     31.7771     73.1893
    10.2500      0.0000    327.6652     27.2976     70.0182
    10.5000      0.0000    371.7686     23.3390     66.8605
    10.7500      0.0000    451.4939     19.9171     64.3356
    11.0000      0.0000    571.1534     17.0024     62.7292
    11.2500      0.0000    717.6669     14.5704     62.0340
    11.5000      0.0000    863.8027     12.6101     62.0522
    11.7500      0.0000    983.4161     11.1085     62.4172
    12.0000      0.0000   1064.8461     10.0374     62.5512
    12.2500      0.0000   1111.6772      9.3490     61.9674
    12.5000      0.0000   1134.6777      8.9767     60.7914
    12.7500      0.0000   1144.3193      8.8401     59.7678
    13.0000      0.0000   1147.7249      8.8563     59.5723
    13.2500      0.0000   1148.7194      8.9528     60.2352
    13.5000      0.0000   1148.9515      9.0774     61.3606
    13.7500      0.0000   1148.9935      9.2006     62.7559
    14.0000      0.0000   1149.0000      9.3088     64.5550
    14.2500      0.0000   1149.0000      9.3957     66.8148
    14.5000      0.0000   1149.0000      9.4578     69.2799
    14.7500      0.0000   1149.0000      9.4920     71.4918
    15.0000      0.0000   1149.0000      9.4967     72.9721
    15.2500      0.0000   1149.0000      9.4751     73.4069
    15.5000      0.0000   1149.0000      9.4371     72.8075
    15.7500      0.0000   1149.0000      9.3938     71.4281
    16.0000      0.0000   1149.0000      9.3476     69.5799
    16.2500      0.0000   1149.0000      9.2905     67.7617
    16.5000      0.0000   1149.0000      9.2147     66.8125
    16.7500      0.0000   1149.0000      9.1254     67.2011
    17.0000      0.0000   1149.0000      9.0432     67.9253
    17.2500      0.0000   1149.0000      8.9933     66.8267
    17.5000      0.0000   1149.0000      8.9898     62.6275
    17.7500      0.0000   1149.0000      9.0265     56.3888
    18.0000      0.0000   1149.0000      9.0808     50.6289
    18.2500      0.0000   1149.0000      9.1266     47.3572
    18.5000      0.0000   1149.0000      9.1463     47.1368
    18.7500      0.0000   1149.0000      9.1345     49.4208
    19.0000      0.0000   1149.0000      9.0945     53.1059
    19.2500      0.0000   1149.0000      9.0345     56.8472
    19.5000      0.0000   1149.0000      8.9646     59.5025
    19.7500      0.0000   1149.0000      8.8928     60.6897
    20.0000      0.0000   1149.0000      8.8213     60.8034
    20.2500      0.0000   1148.9799      8.7491     60.2945
    20.5000      0.0000   1148.8683      8.6774     58.9871
    20.7500      0.0000   1148.3108      8.6102     56.2607
    21.0000      0.0000   1146.2225      8.5520     52.1046
    21.2500      0.0000   1140.1621      8.5049     47.9579
    21.5000      0.0000   1126.6569      8.4682     46.0841
    21.7500      0.0000   1103.5220      8.4404     47.8056
    22.0000      0.0000   1072.8885      8.4210     52.5587
    22.2500      0.0000   1040.7504      8.4101     58.7193
    22.5000      0.0000   1011.7531      8.4065     64.9965
    22.7500      0.0000    984.8785      8.4090     70.8409
    23.0000      0.0000    955.8533      8.4194     75.8771
    23.2500      0.0000    923.6215      8.4430     79.4714
    23.5000      0.0000    892.8103      8.4828     81.0699
    23.7500      0.0000    869.4521      8.5355     80.7775
    24.0000      0.0000    855.7300      8.5931     79.3407
    24.2500      0.0000    849.4573      8.6447     77.4462
    24.5000      0.0000    847.1113      8.6815     75.1620
    24.7500      0.0000    846.2203      8.7018     72.3884
    25.0000      0.0000    845.6660      8.7124     69.8452
    25.2500      0.0000    844.8997      8.7229     68.9874
    25.5000      0.0000    843.2838      8.7410     70.6888
    25.7500      0.0000    839.8820      8.7710     74.4595
    26.0000      0.0000    833.9128      8.8126     79.0082
    26.2500      0.0000    825.4424      8.8602     82.8959
    26.5000      0.0000    815.6440      8.9061     84.7442
