~Version Information
VERS.                      2.0: CWLS Log ASCII Standard - VERSION 2.0
WRAP.                       NO: One line per depth step
~Well Information Block
STRT.FT               345.0000: 
STOP.FT              2167.7000: 
STEP.FT                 0.1000: 
NULL.                -999.2500: 
COMP.          Pioneer Natural Resources: COMPANY
WELL.          Hemisphere 32-24: WELL
FLD.           Purgatoire River: FIELD
LOC.           1850' FNL & 2284' FEL--: LOCATION
PROV.                 Colorado: PROVINCE
CNTY.               Las Animas: COUNTRY
SRVC.                Patterson: SERVICE COMPANY
DATE.          Mon Aug 15 07:19:13 2005: LOG DATE
UWI.           05 071 08440 00: UNIQUE WELL ID
~Curve Information Block
DEPT.FT            0 000 00 00: Depth
DCAL.in                       : CDL Caliper
RHOB.g/cc                     : CDL Bulk Density
RHOC.g/cc                     : CDL Density Correction
DPOR.pu                       : CDL Density Porosity
NPOR.pu                       : Neutron Porosity
GR.GAPI                       : Gamma Ray
~Parameter Information Block
~A  Depth       DCAL        RHOB        RHOC        DPOR        NPOR         GR     
# ...
  1660.2000      7.9601      2.4908      0.0802      9.6506     17.7000     43.1077
  1660.3000      7.9603      2.4782      0.0835     10.4124     17.5472     43.2991
  1660.4000      7.9603      2.4632      0.0626     11.3204     17.8165     46.0053
  1660.5000      7.9602      2.4536      0.0612     11.9034     18.9573     49.1350
  1660.6000      7.9602      2.4555      0.0260     11.7876     20.4100     51.3570
  1660.7000      7.9602      2.4674      0.0816     11.0679     20.9187     54.6324
  1660.8000      7.9575      2.4773      0.0663     10.4693     20.4493     58.8416
  1660.9000      7.9575      2.4831      0.0515     10.1158     20.0916     61.4179
  1661.0000      7.9546      2.4908      0.0656      9.6514     20.1304     61.0824
  1661.1000      7.9546      2.4951      0.0715      9.3893     20.0810     57.5616
  1661.2000      7.9546      2.4886      0.0878      9.7811     19.9939     54.6782
  1661.3000      7.9553      2.4736      0.0678     10.6880     19.8771     56.1136
  1661.4000      7.9553      2.4593      0.0397     11.5600     19.6066     58.5918
  1661.5000      7.9570      2.4561      0.0255     11.7506     19.5176     57.4656
  1661.6000      7.9570      2.4685      0.0558     11.0018     19.6452     52.9563
  1661.7000      7.9570      2.4889      0.0528      9.7614     19.7284     49.9892
  1661.8000      7.9580      2.5032      0.0987      8.8962     19.4525     52.6209
  1661.9000      7.9580      2.4997      0.0515      9.1115     18.6259     58.7471
  1662.0000      7.9599      2.4836      0.0585     10.0843     17.9810     61.3087
  1662.1000      7.9599      2.4736      0.0344     10.6934     18.2680     58.4668
  1662.2000      7.9599      2.4804      0.0651     10.2771     19.1811     57.0528
  1662.3000      7.9606      2.4931      0.1076      9.5117     19.9285     60.0488
  1662.4000      7.9606      2.4914      0.0875      9.6150     20.2294     61.4048
  1662.5000      7.9591      2.4693      0.0951     10.9486     20.2376     58.1132
  1662.6000      7.9591      2.4417      0.0244     12.6233     20.1307     53.6830
  1662.7000      7.9591      2.4273      0.0167     13.4994     19.8255     50.5855
  1662.8000      7.9588      2.4254      0.0552     13.6113     19.2109     47.9409
  1662.9000      7.9588      2.4270      0.0181     13.5139     18.7767     45.4875
  1663.0000      7.9611      2.4271      0.0750     13.5110     18.9683     44.8882
  1663.1000      7.9611      2.4212      0.0498     13.8694     19.4526     44.7700
  1663.2000      7.9611      2.4160      0.0217     14.1823     19.3704     42.0921
  1663.3000      7.9633      2.4195      0.0585     13.9685     18.5571     38.4368
  1663.4000      7.9633      2.4262      0.0652     13.5625     18.1020     36.2480
  1663.5000      7.9621      2.4288      0.0883     13.4086     18.6899     35.5835
  1663.6000      7.9621      2.4291      0.0500     13.3902     19.9138     36.0378
  1663.7000      7.9621      2.4322      0.0669     13.1984     20.9678     36.2949
  1663.8000      7.9583      2.4351      0.0564     13.0234     21.3752     36.4729
  1663.9000      7.9583      2.4281      0.0988     13.4477     20.9291     39.3070
  1664.0000      7.9534      2.4108      0.0255     14.4984     19.7563     42.1875
  1664.1000      7.9534      2.4028      0.0284     14.9844     18.7686     40.6710
  1664.2000      7.9534      2.4161      0.0519     14.1752     18.5696     37.1208
  1664.3000      7.9462      2.4366      0.1049     12.9331     18.6726     35.7304
  1664.4000      7.9462      2.4428      0.1421     12.5592     18.5277     35.6792
  1664.5000      7.9415      2.4263      0.0807     13.5582     18.3428     33.8817
  1664.6000      7.9415      2.4055      0.0568     14.8179     18.5497     30.5828
  1664.7000      7.9415      2.4032      0.0803     14.9594     18.8778     29.2990
  1664.8000      7.9458      2.4143      0.0924     14.2877     18.6204     33.0547
  1664.9000      7.9458      2.4244      0.0629     13.6698     17.8728     40.6641
  1665.0000      7.9566      2.4323      0.0491     13.1939     17.3726     46.7176
  1665.1000      7.9566      2.4336      0.0788     13.1141     17.2777     48.4595
  1665.2000      7.9566      2.4210      0.0807     13.8792     17.1589     49.4270
  1665.3000      7.9650      2.4016      0.0276     15.0550     16.8597     50.6655
  1665.4000      7.9650      2.3881      0.0486     15.8700     16.7100     47.8127
  1665.5000      7.9683      2.3852     -0.0029     16.0460     16.9695     41.8499
  1665.6000      7.9683      2.3958      0.0099     15.4058     16.9223     38.9116
  1665.7000      7.9683      2.4153      0.0671     14.2250     16.1513     40.2811
  1665.8000      7.9698      2.4294      0.0502     13.3724     15.5145     42.7771
  1665.9000      7.9698      2.4324      0.0714     13.1899     15.3845     44.9424
  1666.0000      7.9681      2.4271      0.0856     13.5109     15.6616     46.3397
  1666.1000      7.9681      2.4145      0.1216     14.2715     16.0328     46.0471
  1666.2000      7.9681      2.4039      0.0147     14.9127     15.7779     45.3668
  1666.3000      7.9642      2.4109      0.0592     14.4901     15.2641     44.3530
  1666.4000      7.9642      2.4310      0.1058     13.2736     15.6085     42.5637
  1666.5000      7.9609      2.4456      0.1108     12.3856     16.7071     43.0922
  1666.6000      7.9609      2.4427      0.1487     12.5649     17.7832     48.0296
  1666.7000      7.9609      2.4226      0.1001     13.7796     18.8615     52.7505
  1666.8000      7.9579      2.4038      0.0721     14.9190     19.9843     53.0212
  1666.9000      7.9579      2.4052      0.0486     14.8359     20.7124     52.3715
  1667.0000      7.9558      2.4241      0.0711     13.6936     20.8901     54.4867
  1667.1000      7.9558      2.4440      0.1007     12.4860     20.6197     58.7083
  1667.2000      7.9558      2.4556      0.1171     11.7820     20.2417     62.5761
  1667.3000      7.9586      2.4627      0.0802     11.3499     20.2715     66.6482
  1667.4000      7.9586      2.4725      0.0981     10.7552     20.6976     71.8458
  1667.5000      7.9645      2.4811      0.0647     10.2350     20.8423     74.6315
  1667.6000      7.9645      2.4813      0.0844     10.2257     20.6919     74.3705
  1667.7000      7.9645      2.4680      0.1124     11.0319     20.8738     72.7525
  1667.8000      7.9673      2.4394      0.0863     12.7633     20.8787     69.2405
  1667.9000      7.9673      2.4094      0.0177     14.5839     20.1767     63.6911
  1668.0000      7.9679      2.3899      0.0672     15.7661     19.1910     56.4133
  1668.1000      7.9679      2.3716      0.0393     16.8737     18.2835     48.8542
  1668.2000      7.9679      2.3528      0.0286     18.0149     17.5368     43.5348
  1668.3000      7.9687      2.3468      0.0635     18.3752     17.0906     41.6020
  1668.4000      7.9687      2.3529      0.0783     18.0082     17.1027     40.8595
  1668.5000      7.9697      2.3564      0.0691     17.7955     17.5038     38.6453
  1668.6000      7.9697      2.3478      0.0650     18.3164     17.8516     35.5492
  1668.7000      7.9697      2.3283      0.0561     19.4960     17.5404     34.0980
  1668.8000      7.9706      2.3151      0.0054     20.2985     16.7580     34.4438
  1668.9000      7.9706      2.3275      0.0298     19.5441     16.3901     32.7228
  1669.0000      7.9704      2.3553      0.0518     17.8623     16.5996     26.8724
  1669.1000      7.9704      2.3687      0.0866     17.0500     16.8556     20.1526
  1669.2000      7.9704      2.3571      0.0595     17.7504     16.8401     16.1690
  1669.3000      7.9696      2.3384      0.0321     18.8848     16.6095     15.6508
  1669.4000      7.9696      2.3355      0.0355     19.0579     16.3741     18.7042
  1669.5000      7.9691      2.3525      0.0618     18.0317     16.3112     24.4997
  1669.6000      7.9691      2.3770      0.0676     16.5449     16.5505     29.3726
  1669.7000      7.9691      2.3982      0.0650     15.2616     16.8267     30.1905
