~Version Information
VERS.                      2.0: CWLS Log ASCII Standard - VERSION 2.0
WRAP.                       NO: One line per depth step
~Well Information Block
STRT.FT                -8.7500: 
STOP.FT              1860.5000: 
STEP.FT                 0.2500: 
NULL.                -999.2500: 
COMP.          Pioneer Natural Resources: COMPANY
WELL.          Cortina 23-25 Tr: WELL
FLD.           Purgatorie River: FIELD
LOC.           --2521' FSL & 2345' FWL------: LOCATION
STAT.                       CO: PROVINCE
CNTY.               Las Animas: COUNTY
CTRY. USA : country
SECT. 25 : Section
TOWN. 32S : Township
RANG. 67W : Range
SRVC.          Patterson Wireline: SERVICE COMPANY
DATE.          Thu Sep 29 11:30:45 2005: LOG DATE
API.           05 071 08534 00: UNIQUE WELL ID
~Curve Information Block
DEPT.FT            0 000 00 00: Depth
CCL.                          : Casing Collar Locator
TT3.usec                      : CBL 3' Travel Time
AMP3.mV                       : CBL 3' Amplitude
GR.GAPI                       : Gamma Ray
~Parameter Information Block
~A  Depth       CCL         TT3         AMP3         GR     
# ...
  1331.2500      0.0000    728.3327     13.5564     71.4925
  1331.5000      0.0000    728.7294     13.7066     72.9512
  1331.7500      0.0000    725.7926     13.8436     78.3462
  1332.0000      0.0000    722.6213     13.9708     87.7890
  1332.2500      0.0000    722.4840     14.0755    100.1519
  1332.5000      0.0000    725.9698     14.1179    113.3158
  1332.7500      0.0000    730.7723     14.0410    125.1340
  1333.0000      0.0000    734.6219     13.8016    133.8781
  1333.2500      0.0000    737.6935     13.4075    138.0139
  1333.5000      0.0000    741.3703     12.9391    136.7050
  1333.7500      0.0000    745.4882     12.5251    130.9804
  1334.0000      0.0000    748.0985     12.2720    123.6323
  1334.2500      0.0000    747.6789     12.2057    117.4542
  1334.5000      0.0000    744.4637     12.2731    113.8963
  1334.7500      0.0000    739.6070     12.3871    113.3669
  1335.0000      0.0000    734.1964     12.4647    115.7024
  1335.2500      0.0000    729.7548     12.4365    119.5823
  1335.5000      0.0000    728.8712     12.2456    122.3831
  1335.7500      0.0000    733.9279     11.8650    121.9667
  1336.0000      0.0000    744.7112     11.3338    118.6676
  1336.2500      0.0000    757.8989     10.7680    114.8601
  1336.5000      0.0000    769.4077     10.3083    112.5440
  1336.7500      0.0000    777.0831     10.0404    111.6700
  1337.0000      0.0000    781.2012      9.9624    110.7234
  1337.2500      0.0000    783.1133     10.0172    108.6251
  1337.5000      0.0000    783.9353     10.1401    105.8892
  1337.7500      0.0000    784.1323     10.2779    103.9840
  1338.0000      0.0000    783.5366     10.3897    103.9730
  1338.2500      0.0000    781.2467     10.4499    106.1155
  1338.5000      0.0000    775.6214     10.4611    110.3411
  1338.7500      0.0000    765.0904     10.4594    116.3208
  1339.0000      0.0000    749.8260     10.4938    123.0235
  1339.2500      0.0000    732.7841     10.5943    128.7623
  1339.5000      0.0000    718.5056     10.7593    131.9545
  1339.7500      0.0000    710.4285     10.9653    131.7852
  1340.0000      0.0000    709.0914     11.1826    128.3217
  1340.2500      0.0000    712.3405     11.3868    122.4120
  1340.5000      0.0000    716.8641     11.5589    115.6356
  1340.7500      0.0000    720.0907     11.6785    109.9999
  1341.0000      0.0000    721.3816     11.7234    107.1156
  1341.2500      0.0000    721.5340     11.6871    107.2250
  1341.5000      0.0000    721.1086     11.5956    108.9715
  1341.7500      0.0000    719.3064     11.5030    110.4715
  1342.0000      0.0000    714.2924     11.4624    110.8177
  1342.2500      0.0000    703.8895     11.4953    110.5722
  1342.5000      0.0000    685.5348     11.5853    111.1159
  1342.7500      0.0000    656.7117     11.6978    113.6521
  1343.0000      0.0000    617.5900     11.8059    118.1387
  1343.2500      0.0000    573.9474     11.9022    122.6191
  1343.5000      0.0000    536.2549     11.9913    124.0308
  1343.7500      0.0000    515.0806     12.0716    120.4113
  1344.0000      0.0000    517.0049     12.1251    112.6578
  1344.2500      0.0000    542.8356     12.1312    104.1849
  1344.5000      0.0000    586.7966     12.0875     98.5574
  1344.7500      0.0000    637.4542     12.0126     96.9219
  1345.0000      0.0000    682.5971     11.9282     97.6875
  1345.2500      0.0000    715.6555     11.8445     98.9239
  1345.5000      0.0000    737.5659     11.7585    100.4772
  1345.7500      0.0000    752.6716     11.6609    103.1470
  1346.0000      0.0000    763.7513     11.5435    106.5322
  1346.2500      0.0000    770.6752     11.4055    108.8876
  1346.5000      0.0000    771.8552     11.2573    108.9615
  1346.7500      0.0000    765.1171     11.1180    107.1562
  1347.0000      0.0000    747.2520     11.0111    104.8546
  1347.2500      0.0000    714.9756     10.9581    103.1000
  1347.5000      0.0000    668.7079     10.9693    102.0492
  1347.7500      0.0000    615.4312     11.0338    101.6817
  1348.0000      0.0000    565.9838     11.1203    102.8164
  1348.2500      0.0000    528.6726     11.1944    106.7654
  1348.5000      0.0000    505.5459     11.2396    113.8054
  1348.7500      0.0000    493.7609     11.2675    122.5761
  1349.0000      0.0000    489.0063     11.3162    131.0406
  1349.2500      0.0000    487.7346     11.4327    137.4704
  1349.5000      0.0000    487.3778     11.6478    140.6486
  1349.7500      0.0000    485.1937     11.9629    140.2335
  1350.0000      0.0000    477.5743     12.3617    137.4015
  1350.2500      0.0000    461.6721     12.8250    134.4796
  1350.5000      0.0000    438.2751     13.3228    133.3741
  1350.7500      0.0000    412.4443     13.8037    134.5240
  1351.0000      0.0000    390.4236     14.2097    137.2926
  1351.2500      0.0000    375.6838     14.5061    140.4897
  1351.5000      0.0000    367.7924     14.6957    142.1690
  1351.7500      0.0000    364.2729     14.8031    140.0843
  1352.0000      0.0000    362.8628     14.8522    133.3633
  1352.2500      0.0000    362.4969     14.8586    123.3371
  1352.5000      0.0000    363.3351     14.8372    112.5209
  1352.7500      0.0000    366.6199     14.8060    103.3337
  1353.0000      0.0000    374.2127     14.7757     97.5379
  1353.2500      0.0000    386.9048     14.7370     95.8324
  1353.5000      0.0000    401.9806     14.6671     97.6447
  1353.7500      0.0000    413.1379     14.5533    101.5185
  1354.0000      0.0000    415.0137     14.4069    105.5800
  1354.2500      0.0000    408.3291     14.2473    107.9862
  1354.5000      0.0000    398.9843     14.0813    107.8791
  1354.7500      0.0000    391.7624     13.9092    106.0467
  1355.0000      0.0000    386.5715     13.7496    104.1284
  1355.2500      0.0000    380.9927     13.6392    103.3195
  1355.5000      0.0000    374.2324     13.5995    104.0384
  1355.7500      0.0000    367.6083     13.6130    106.1652
  1356.0000      0.0000    363.0289     13.6364    109.0954
  1356.2500      0.0000    362.7382     13.6350    111.7665
  1356.5000      0.0000    369.7528     13.6027    112.9492
  1356.7500      0.0000    386.5426     13.5556    111.8438
  1357.0000      0.0000    412.4538     13.5102    108.8778
  1357.2500      0.0000    443.3495     13.4666    105.8939
  1357.5000      0.0000    475.3861     13.4059    104.9783
  1357.7500      0.0000    509.3363     13.2990    106.7239
  1358.0000      0.0000    549.2862     13.1252    109.7066
  1358.2500      0.0000    595.0667     12.8902    111.6482
  1358.5000      0.0000    636.3943     12.6285    111.1739
  1358.7500      0.0000    656.8532     12.3824    108.9348
  1359.0000      0.0000    646.0959     12.1773    107.0817
  1359.2500      0.0000    609.5828     12.0183    107.1003
  1359.5000      0.0000    566.1409     11.9048    108.1859
  1359.7500      0.0000    534.9971     11.8395    108.3575
  1360.0000      0.0000    525.7177     11.8219    106.8943
  1360.2500      0.0000    540.0200     11.8375    104.6289
  1360.5000      0.0000    576.5970     11.8609    102.0113
  1360.7500      0.0000    628.9818     11.8721     98.3290
  1361.0000      0.0000    683.4982     11.8703     93.3123
  1361.2500      0.0000    725.7871     11.8698     88.3957
  1361.5000      0.0000    749.3232     11.8793     85.6015
  1361.7500      0.0000    756.5798     11.8878     85.5819
  1362.0000      0.0000    754.2229     11.8639     87.1917
  1362.2500      0.0000    748.2628     11.7475     88.6638
  1362.5000      0.0000    741.6816     11.4366     88.9043
  1362.7500      0.0000    734.5814     10.8219     87.7986
  1363.0000      0.0000    725.4759      9.9097     85.6355
  1363.2500      0.0000    711.9181      8.9259     82.5916
  1363.5000      0.0000    690.6262      8.2222     78.8659
  1363.7500      0.0000    659.4747      8.0147     75.1147
  1364.0000      0.0000    620.6560      8.2297     72.5778
  1364.2500      0.0000    581.7294      8.6271     72.6460
  1364.5000      0.0000    553.1120      9.0187     75.8905
