~Version Information
VERS.                      2.0: CWLS Log ASCII Standard - VERSION 2.0
WRAP.                       NO: One line per depth step
~Well Information Block
STRT.FT                -8.7500: 
STOP.FT              1525.0000: 
STEP.FT                 0.2500: 
NULL.                -999.2500: 
COMP.          Pioneer Natural Resources: COMPANY
WELL.          Grand Prix 13-12 Tr: WELL
FLD.           Purgatorie River: FIELD
LOC.           2595' FSL & 1277' FWL--: LOCATION
CNTY.               Las Animas: COUNTY
SRVC.          Patterson Wireline: SERVICE COMPANY
DATE.          Thu Apr 13 10:28:30 2006: LOG DATE
UWI.           05 071 08711 00: UNIQUE WELL ID
STAT.                       CO: STATE
~Curve Information Block
DEPT.FT            0 000 00 00: Depth
CCL.                          : Casing Collar Locator
TT3.usec                      : CBL 3' Travel Time
AMP3.mV                       : CBL 3' Amplitude
GR.GAPI                       : Gamma Ray
~Parameter Information Block
~A  Depth       CCL         TT3         AMP3         GR     
# ...
  1297.7500      0.0000    398.4673      3.1891     96.7743
  1298.0000      0.0000    397.7610      3.1670     99.4693
  1298.2500      0.0000    397.1719      3.1725    101.6736
  1298.5000      0.0000    396.3159      3.2051    101.6055
  1298.7500      0.0000    395.0917      3.2480     98.5710
  1299.0000      0.0000    393.8164      3.2803     93.8149
  1299.2500      0.0000    393.3202      3.2874     89.3947
  1299.5000      0.0000    395.3618      3.2630     86.2269
  1299.7500      0.0000    403.5182      3.2038     83.5517
  1300.0000      0.0000    423.3011      3.1077     80.1994
  1300.2500      0.0000    459.1563      2.9813     76.0195
  1300.5000      0.0000    508.7156      2.8516     72.1559
  1300.7500      0.0000    560.5231      2.7700     70.1036
  1301.0000      0.0000    601.0231      2.7909     70.1811
  1301.2500      0.0000    625.5106      2.9279     70.7313
  1301.5000      0.0000    640.6215      3.1267     69.1525
  1301.7500      0.0000    655.6787      3.3007     64.1377
  1302.0000      0.0000    673.6489      3.3990     57.0071
  1302.2500      0.0000    690.8942      3.4306     50.8910
  1302.5000      2.0000    703.0156      3.4320     48.5470
  1302.7500     -2.0000    708.7703      3.4324     50.6811
  1303.0000      0.0000    709.4223      3.4446     55.9650
  1303.2500      0.0000    706.7988      3.4713     62.4876
  1303.5000      0.0000    702.5652      3.5106     69.3429
  1303.7500      0.0000    698.1364      3.5491     77.0397
  1304.0000      0.0000    694.3433      3.5548     86.3887
  1304.2500      0.0000    691.2532      3.5014     96.8309
  1304.5000      0.0000    688.5654      3.4111    105.9462
  1304.7500      0.0000    686.3232      3.3460    111.0881
  1305.0000      0.0000    685.2486      3.3426    111.8783
  1305.2500      0.0000    686.0756      3.3760    110.8418
  1305.5000      0.0000    688.1255      3.3978    111.3605
  1305.7500      0.0000    688.1791      3.3827    115.1872
  1306.0000      0.0000    681.0669      3.3353    121.7112
  1306.2500      0.0000    662.8358      3.2742    128.8919
  1306.5000      0.0000    635.4926      3.2209    134.7444
  1306.7500      0.0000    609.1740      3.1941    138.5117
  1307.0000      0.0000    597.3684      3.2042    140.6461
  1307.2500      0.0000    607.1525      3.2498    141.6505
  1307.5000      0.0000    633.4437      3.3176    141.4018
  1307.7500      0.0000    663.4372      3.3875    139.7979
  1308.0000      0.0000    686.4534      3.4414    137.2905
  1308.2500      0.0000    699.4036      3.4720    134.3537
  1308.5000      0.0000    704.8198      3.4841    131.2087
  1308.7500      0.0000    706.1789      3.4854    128.5338
  1309.0000      0.0000    705.0771      3.4795    127.8034
  1309.2500      0.0000    700.6742      3.4682    130.2470
  1309.5000      0.0000    690.5833      3.4539    135.4859
  1309.7500      0.0000    673.5106      3.4379    141.4448
  1310.0000      0.0000    652.7778      3.4193    145.9572
  1310.2500      0.0000    636.2125      3.4006    148.5641
  1310.5000      0.0000    629.5082      3.3903    150.4740
  1310.7500      0.0000    629.1856      3.3959    152.6445
  1311.0000      0.0000    625.4409      3.4156    154.1317
  1311.2500      0.0000    613.5436      3.4400    152.6797
  1311.5000      0.0000    600.0429      3.4612    147.2240
  1311.7500      0.0000    596.1762      3.4754    139.7541
  1312.0000      0.0000    607.2857      3.4782    134.2782
  1312.2500      0.0000    629.8950      3.4589    133.5790
  1312.5000      0.0000    656.2405      3.4035    136.7377
  1312.7500      0.0000    679.3256      3.3056    139.6700
  1313.0000      0.0000    695.5602      3.1774    138.2820
  1313.2500      0.0000    705.2051      3.0483    131.5234
  1313.5000      0.0000    710.7012      2.9491    121.5949
  1313.7500      0.0000    714.1643      2.8940    111.4218
  1314.0000      0.0000    716.3506      2.8757    102.4266
  1314.2500      0.0000    717.5731      2.8770     94.7013
  1314.5000      0.0000    718.6119      2.8832     88.6581
  1314.7500      0.0000    720.2802      2.8855     85.8191
  1315.0000      0.0000    722.8759      2.8798     87.5900
  1315.2500      0.0000    726.5814      2.8725     93.2606
  1315.5000      0.0000    731.7827      2.8860     99.7390
  1315.7500      0.0000    738.1683      2.9467    103.7362
  1316.0000      0.0000    743.7778      3.0568    104.0738
  1316.2500      0.0000    745.6451      3.1821    101.7710
  1316.5000      0.0000    741.8611      3.2775     98.4700
  1316.7500      0.0000    733.2503      3.3221     95.4829
  1317.0000      0.0000    722.8885      3.3253     94.0798
  1317.2500      0.0000    713.8041      3.3063     95.6902
  1317.5000      0.0000    707.3538      3.2780    101.2658
  1317.7500      0.0000    703.6069      3.2470    110.5676
  1318.0000      0.0000    702.3383      3.2196    122.1067
  1318.2500      0.0000    703.1142      3.2010    133.5370
  1318.5000      0.0000    705.0019      3.1898    142.3372
  1318.7500      0.0000    706.9016      3.1768    146.8327
  1319.0000      0.0000    708.1810      3.1517    147.0454
  1319.2500      0.0000    708.8058      3.1135    144.5342
  1319.5000      0.0000    708.9936      3.0754    141.2549
  1319.7500      0.0000    708.8831      3.0580    138.3421
  1320.0000      0.0000    708.4628      3.0733    135.6880
  1320.2500      0.0000    707.6226      3.1151    132.5297
  1320.5000      0.0000    706.2456      3.1661    128.4028
  1320.7500      0.0000    704.4363      3.2114    123.6374
  1321.0000      0.0000    702.7745      3.2432    119.0871
  1321.2500      0.0000    702.1144      3.2553    115.5063
  1321.5000      0.0000    702.8474      3.2406    113.0829
  1321.7500      0.0000    704.4623      3.1974    111.5941
  1322.0000      0.0000    706.0313      3.1364    111.1882
  1322.2500      0.0000    706.9981      3.0772    112.8089
  1322.5000      0.0000    707.3773      3.0379    117.4172
  1322.7500      0.0000    707.3934      3.0292    124.8576
  1323.0000      0.0000    707.1081      3.0553    133.7334
  1323.2500      0.0000    706.2794      3.1125    142.1359
  1323.5000      0.0000    704.4670      3.1856    148.4394
  1323.7500      0.0000    701.4864      3.2494    152.0202
  1324.0000      0.0000    698.0551      3.2814    153.4780
  1324.2500      0.0000    695.8292      3.2758    153.6743
  1324.5000      0.0000    696.2720      3.2439    152.5152
  1324.7500      0.0000    699.3000      3.2054    149.3698
  1325.0000      0.0000    703.3307      3.1795    144.8134
  1325.2500      0.0000    706.6782      3.1824    140.9937
  1325.5000      0.0000    708.6074      3.2233    139.6266
  1325.7500      0.0000    709.1378      3.2974    140.2252
  1326.0000      0.0000    708.4242      3.3828    140.9436
  1326.2500      0.0000    706.7310      3.4477    140.7407
  1326.5000      0.0000    704.8095      3.4658    140.1250
  1326.7500      0.0000    703.7634      3.4298    140.0754
  1327.0000      0.0000    704.2290      3.3523    140.8386
  1327.2500      0.0000    705.8304      3.2541    141.6997
  1327.5000      0.0000    707.6035      3.1529    141.5388
  1327.7500      0.0000    708.7853      3.0626    139.6260
  1328.0000      0.0000    709.0648      2.9958    136.1114
  1328.2500      0.0000    708.2661      2.9650    131.8855
  1328.5000      0.0000    706.0400      2.9783    127.9951
  1328.7500      0.0000    702.0020      3.0358    125.3158
  1329.0000      0.0000    696.2818      3.1259    124.6708
  1329.2500      0.0000    689.9196      3.2278    126.6326
  1329.5000      0.0000    684.5004      3.3165    130.6189
  1329.7500      0.0000    681.2780      3.3687    134.2798
  1330.0000      0.0000    680.6573      3.3666    134.4188
  1330.2500      0.0000    682.3234      3.3030    129.1154
  1330.5000      0.0000    685.5713      3.1882    119.2193
  1330.7500      0.0000    689.5255      3.0513    107.9333
  1331.0000      0.0000    693.2169      2.9324     99.0761
