~Version Information
VERS.                      2.0: CWLS Log ASCII Standard - VERSION 2.0
WRAP.                       NO: One line per depth step
~Well Information Block
STRT.FT               860.0000: 
STOP.FT              2360.5000: 
STEP.FT                 0.1000: 
NULL.                -999.2500: 
COMP.          Pioneer Natural Resources: COMPANY
WELL.            Cayenne 23-23: WELL
FLD.           Purgatoire River: FIELD
LOC.           2555' FSL & 2386' FWL: LOCATION
PROV.                 Colorado: PROVINCE
CNTY.               Las Animas: COUNTRY
SRVC.                Patterson: SERVICE COMPANY
DATE.          Wed Aug 17 08:28:25 2005: LOG DATE
UWI.           05 071 08476 00: UNIQUE WELL ID
~Curve Information Block
DEPT.FT            0 000 00 00: Depth
DCAL.in                       : CDL Caliper
RHOB.g/cc                     : CDL Bulk Density
RHOC.g/cc                     : CDL Density Correction
DPOR.pu                       : CDL Density Porosity
GR.GAPI                       : Gamma Ray
NPOR.pu                       : Neutron Porosity
~Parameter Information Block
~A  Depth       DCAL        RHOB        RHOC        DPOR         GR         NPOR    
# ...
  1253.6000      8.0148      3.0072      0.0421    -21.6470    112.8355     24.7507
  1253.7000      8.0148      2.9691      0.0163    -19.3406    110.4503     24.4845
  1253.8000      7.9777      2.9142      0.0087    -16.0123    106.3271     24.5722
  1253.9000      7.9777      2.8513      0.0161    -12.1973    103.1827     24.7873
  1254.0000      7.9875      2.7965      0.0198     -8.8771    101.0731     24.1931
  1254.1000      7.9875      2.7640      0.0226     -6.9112    100.9855     23.1055
  1254.2000      7.9875      2.7490      0.0352     -5.9974    105.9192     22.6492
  1254.3000      8.0468      2.7328      0.0218     -5.0204    113.3669     22.8116
  1254.4000      8.0468      2.7061     -0.0032     -3.3975    119.8172     23.3409
  1254.5000      8.0504      2.6698      0.0628     -1.2000    124.8482     24.2266
  1254.6000      8.0504      2.6315     -0.0101      1.1223    125.2607     24.7388
  1254.7000      8.0504      2.6041      0.0527      2.7824    119.5338     24.3382
  1254.8000      8.0671      2.5826      0.0613      4.0868    115.2993     23.9427
  1254.9000      8.0671      2.5609      0.0107      5.3999    119.3640     24.6227
  1255.0000      8.0942      2.5534      0.0465      5.8558    132.6524     25.6550
  1255.1000      8.0942      2.5674      0.0052      5.0065    149.1334     25.5657
  1255.2000      8.0942      2.5928      0.0775      3.4657    158.2437     24.6357
  1255.3000      8.1374      2.6097      0.0758      2.4424    156.1293     24.0980
  1255.4000      8.1374      2.6091      0.0894      2.4813    146.8590     24.0084
  1255.5000      8.1231      2.6022      0.0579      2.8965    137.7726     23.5144
  1255.6000      8.1231      2.6047      0.0680      2.7456    131.5921     22.2780
  1255.7000      8.1231      2.6181      0.0489      1.9358    124.8287     20.7860
  1255.8000      8.1126      2.6299      0.0202      1.2155    118.3480     20.0162
  1255.9000      8.1126      2.6364      0.0637      0.8268    117.2223     20.3495
  1256.0000      8.1005      2.6402      0.0635      0.5965    122.3220     20.4765
  1256.1000      8.1005      2.6279      0.0787      1.3396    128.9668     19.6384
  1256.2000      8.1005      2.5916      0.0246      3.5375    130.5254     19.0197
  1256.3000      8.0929      2.5518      0.0042      5.9545    122.9763     19.0059
  1256.4000      8.0929      2.5269     -0.0152      7.4598    110.2535     19.0357
  1256.5000      8.0900      2.5213     -0.0196      7.7994    103.1074     19.5562
  1256.6000      8.0900      2.5339     -0.0108      7.0391    103.9439     20.6090
  1256.7000      8.0900      2.5561      0.0167      5.6906    103.3912     20.9768
  1256.8000      8.0494      2.5761      0.0312      4.4818     97.5840     20.1535
  1256.9000      8.0494      2.5840      0.0462      3.9979     90.9296     19.1882
  1257.0000      8.0342      2.5766      0.0687      4.4503     89.6059     19.1772
  1257.1000      8.0342      2.5578      0.0577      5.5876     97.4564     20.2504
  1257.2000      8.0342      2.5419      0.0150      6.5525    109.9718     21.7540
  1257.3000      8.0453      2.5419      0.0563      6.5518    116.6243     23.0694
  1257.4000      8.0453      2.5494      0.0531      6.0942    114.1608     23.7705
  1257.5000      8.0356      2.5473      0.0996      6.2231    111.8067     23.1485
  1257.6000      8.0356      2.5360     -0.0084      6.9068    113.2828     21.9567
  1257.7000      8.0356      2.5315      0.0314      7.1789    113.3791     21.6678
  1257.8000      7.9965      2.5318      0.0345      7.1636    111.1251     21.8377
  1257.9000      7.9965      2.5154      0.0152      8.1558    108.6906     21.5830
  1258.0000      7.9804      2.4774     -0.0173     10.4580    105.9687     21.2253
  1258.1000      7.9804      2.4433     -0.0220     12.5274    100.6094     20.6129
  1258.2000      7.9804      2.4339     -0.0144     13.0942     93.8220     19.5646
  1258.3000      7.9897      2.4456     -0.0133     12.3905     88.4839     18.9154
  1258.4000      7.9897      2.4708      0.0265     10.8597     84.4359     18.5089
  1258.5000      8.0127      2.4993      0.0437      9.1352     80.1238     17.5418
  1258.6000      8.0127      2.5098      0.0565      8.4989     76.2610     16.6221
  1258.7000      8.0127      2.4951      0.0467      9.3887     75.3020     16.6485
  1258.8000      8.0150      2.4870     -0.0197      9.8785     77.2343     17.2103
  1258.9000      8.0150      2.5171      0.0402      8.0560     76.4346     17.5474
  1259.0000      8.0172      2.5692      0.1237      4.8979     69.0692     17.6124
  1259.1000      8.0172      2.6105      0.0834      2.3954     61.0695     17.6046
  1259.2000      8.0172      2.6264      0.1064      1.4299     58.4609     17.7248
  1259.3000      8.0202      2.6120      0.1145      2.3027     59.4562     18.0404
  1259.4000      8.0202      2.5751      0.0698      4.5403     60.5291     17.7939
  1259.5000      8.0190      2.5382      0.0206      6.7764     62.1130     16.9558
  1259.6000      8.0190      2.5176      0.0139      8.0234     65.8247     16.6670
  1259.7000      8.0190      2.5176     -0.0077      8.0220     66.6852     17.1924
  1259.8000      8.0068      2.5301      0.0489      7.2675     62.4701     17.9127
  1259.9000      8.0068      2.5327      0.0431      7.1093     60.2416     18.5449
  1260.0000      8.0060      2.5211      0.0143      7.8128     62.8471     19.2482
  1260.1000      8.0060      2.5124      0.0138      8.3395     66.2398     20.0489
  1260.2000      8.0060      2.5115      0.0020      8.3936     70.7193     20.5701
  1260.3000      8.0131      2.5095      0.0728      8.5160     77.5531     20.3329
  1260.4000      8.0131      2.5023      0.0133      8.9497     82.7846     19.6459
  1260.5000      8.0404      2.4913      0.0436      9.6166     83.5082     19.3527
  1260.6000      8.0404      2.4782      0.0190     10.4115     80.1833     19.7885
  1260.7000      8.0404      2.4739      0.0026     10.6698     73.5978     20.3160
  1260.8000      8.0134      2.4870      0.0412      9.8768     69.1650     20.3169
  1260.9000      8.0134      2.5128      0.0366      8.3181     73.0320     19.9841
  1261.0000      7.9971      2.5457      0.0641      6.3195     79.5101     19.7418
  1261.1000      7.9971      2.5782      0.0746      4.3502     79.9784     19.9648
  1261.2000      7.9971      2.6009      0.0700      2.9775     76.5688     20.5473
  1261.3000      7.9967      2.6154      0.0524      2.0992     75.4844     20.8601
  1261.4000      7.9967      2.6212      0.1121      1.7464     76.2808     20.9627
  1261.5000      8.0097      2.6045      0.0898      2.7587     74.8890     21.3553
  1261.6000      8.0097      2.5706      0.0123      4.8148     73.0813     21.8151
  1261.7000      8.0097      2.5393     -0.0071      6.7075     73.5474     21.4083
  1261.8000      7.9900      2.5105      0.0449      8.4564     72.9026     20.0074
  1261.9000      7.9900      2.4842     -0.0331     10.0455     71.2264     18.8790
  1262.0000      8.0068      2.4743     -0.0321     10.6457     73.5864     18.8593
  1262.1000      8.0068      2.4831      0.0425     10.1133     78.6375     19.4715
  1262.2000      8.0068      2.5040      0.0142      8.8496     80.2634     20.0380
  1262.3000      8.0204      2.5321      0.0624      7.1442     77.4817     20.3722
  1262.4000      8.0204      2.5636      0.0806      5.2346     74.6915     20.5482
  1262.5000      8.0065      2.5973      0.0586      3.1929     74.4545     20.8619
  1262.6000      8.0065      2.6268      0.0820      1.4033     74.8642     21.6257
  1262.7000      8.0065      2.6356      0.0555      0.8708     74.0077     22.2575
  1262.8000      8.0042      2.6191      0.0522      1.8745     72.1277     22.3438
  1262.9000      8.0042      2.5979      0.0511      3.1582     70.7128     22.5260
  1263.0000      8.0422      2.5851      0.0336      3.9334     72.2897     23.1124
  1263.1000      8.0422      2.5743     -0.0064      4.5859     76.8943     23.7518
