~Version Information
VERS.                      2.0: CWLS Log ASCII Standard - VERSION 2.0
WRAP.                       NO: One line per depth step
~Well Information Block
STRT.FT                -6.5000: 
STOP.FT              1317.5000: 
STEP.FT                 0.2500: 
NULL.                -999.2500: 
COMP.          Pioneer Natural Resources: COMPANY
WELL.              Dicks 32-5R: WELL
FLD.           Purgatorie River: FIELD
LOC.           1485' FNL & 1684' FEL--: LOCATION
PROV.                       CO: PROVINCE
CNTY.               Las Animas: COUNTRY
SRVC.          Patterson Wireline: SERVICE COMPANY
DATE.          Tue Dec 13 09:33:22 2005: LOG DATE
UWI.           05 071 08596 00: UNIQUE WELL ID
~Curve Information Block
DEPT.FT            0 000 00 00: Depth
CCL.                          : Casing Collar Locator
TT3.usec                      : CBL 3' Travel Time
AMP3.mV                       : CBL 3' Amplitude
GR.GAPI                       : Gamma Ray
~Parameter Information Block
~A  Depth       CCL         TT3         AMP3         GR     
# ...
   429.0000      0.0000    803.8203      9.9757     94.8039
   429.2500      0.0000    800.8444      9.9349     95.0070
   429.5000      0.0000    797.6882      9.9388     95.2633
   429.7500      0.0000    795.3377      9.9847     96.3067
   430.0000      0.0000    793.9099     10.0416     98.1962
   430.2500      0.0000    793.0807     10.0794     99.7333
   430.5000      0.0000    792.5405     10.0906     99.4957
   430.7500      0.0000    792.1300     10.0816     97.1071
   431.0000      0.0000    791.7933     10.0519     93.0533
   431.2500      0.0000    791.5268      9.9938     87.7256
   431.5000      0.0000    791.3591      9.9137     81.4153
   431.7500      0.0000    791.3430      9.8440     75.2453
   432.0000      0.0000    791.5194      9.8225     71.2540
   432.2500      0.0000    791.8760      9.8559     70.9745
   432.5000      0.0000    792.3340      9.9137     74.1329
   432.7500      0.0000    792.7872      9.9692     78.9668
   433.0000      0.0000    793.1628     10.0367     83.6420
   433.2500      0.0000    793.4457     10.1567     87.3553
   433.5000      0.0000    793.6487     10.3477     90.4492
   433.7500      0.0000    793.7772     10.5789     93.7232
   434.0000      0.0000    793.8193     10.7899     97.5304
   434.2500      0.0000    793.7614     10.9316    101.3127
   434.5000      0.0000    793.6124     10.9916    103.8452
   434.7500      0.0000    793.4202     10.9886    103.9462
   435.0000      0.0000    793.2563     10.9457    101.1953
   435.2500      0.0000    793.1688     10.8713     96.3025
   435.5000      0.0000    793.1442     10.7686     90.9952
   435.7500      0.0000    793.1163     10.6578     87.4425
   436.0000      0.0000    793.0112     10.5770     87.2012
   436.2500      0.0000    792.7903     10.5543     90.3327
   436.5000      0.0000    792.4600     10.5875     95.6685
   436.7500      0.0000    792.0204     10.6541    101.9447
   437.0000      0.0000    791.3348     10.7301    108.1035
   437.2500      0.0000    789.9485     10.7936    112.4181
   437.5000      0.0000    787.0435     10.8263    112.4798
   437.7500      0.0000    781.8348     10.8272    106.9808
   438.0000      0.0000    774.4060     10.8194     97.2586
   438.2500      0.0000    766.2693     10.8297     86.7544
   438.5000      0.0000    759.8444     10.8644     79.0467
   438.7500      0.0000    757.0832     10.9101     76.0926
   439.0000      0.0000    758.2592     10.9543     77.7589
   439.2500      0.0000    761.6248     10.9942     82.6294
   439.5000      0.0000    764.2162     11.0284     88.9335
   439.7500      0.0000    763.6987     11.0465     94.8320
   440.0000      0.0000    759.9976     11.0315     98.5650
   440.2500      0.0000    755.1015     10.9735     98.9582
   440.5000      0.0000    751.3324     10.8861     95.8198
   440.7500      0.0000    750.0826     10.8049     89.9043
   441.0000      0.0000    751.9224     10.7570     82.7225
   441.2500      0.0000    757.0018     10.7313     76.2767
   441.5000      0.0000    764.7703     10.6890     72.2555
   441.7500      0.0000    773.6119     10.6088     70.8037
   442.0000      0.0000    781.4427     10.5120     70.2127
   442.2500      0.0000    786.9338     10.4350     68.4121
   442.5000      0.0000    790.0203     10.3822     64.9774
   442.7500      0.0000    791.2677     10.3251     61.5898
   443.0000      0.0000    790.9660     10.2508     60.5129
   443.2500      0.0000    788.8447     10.1926     62.5431
   443.5000      0.0000    784.6454     10.1926     66.3329
   443.7500      0.0000    779.0829     10.2445     69.6843
   444.0000      0.0000    774.1323     10.2874     71.2437
   444.2500      0.0000    771.9707     10.2551     70.6831
   444.5000      0.0000    773.4952     10.1327     67.8238
   444.7500      0.0000    777.9211      9.9716     62.5294
   445.0000      0.0000    783.4737      9.8510     55.3645
   445.2500      0.0000    788.2591      9.8209     47.6625
   445.5000      0.0000    790.9213      9.8779     40.8386
   445.7500      0.0000    791.1744      9.9907     35.9373
   446.0000      0.0000    790.1353     10.1334     33.6452
   446.2500      0.0000    789.9640     10.2823     34.0901
   446.5000      0.0000    792.2653     10.3986     36.3774
   446.7500      0.0000    796.2259     10.4373     38.7519
   447.0000      0.0000    798.9083     10.3684     39.6161
   447.2500      0.0000    797.8414     10.1863     38.4818
   447.5000      0.0000    792.8093      9.9062     36.0391
   447.7500      0.0000    785.2291      9.5596     33.5482
   448.0000      0.0000    777.0998      9.1885     32.1290
   448.2500      0.0000    770.8630      8.8395     32.2130
   448.5000      0.0000    768.8973      8.5577     33.4079
   448.7500      0.0000    771.9876      8.3724     34.9767
   449.0000      0.0000    778.4610      8.2809     36.6033
   449.2500      0.0000    785.3271      8.2579     38.7516
   449.5000      0.0000    790.2552      8.2825     42.2195
   449.7500      0.0000    792.4517      8.3454     47.1470
   450.0000      0.0000    792.2113      8.4305     52.4673
   450.2500      0.0000    790.3709      8.5061     56.7636
   450.5000      0.0000    788.2353      8.5416     59.7851
   450.7500      0.0000    787.2603      8.5265     62.7109
   451.0000      0.0000    788.1410      8.4775     66.7542
   451.2500      0.0000    790.2887      8.4285     71.9079
   451.5000      0.0000    792.4999      8.4102     77.1922
   451.7500      0.0000    794.0080      8.4276     81.6880
   452.0000      0.0000    794.7827      8.4562     84.9591
   452.2500      0.0000    795.1266      8.4625     86.6987
   452.5000      0.0000    795.2787      8.4344     86.5508
   452.7500      0.0000    795.3277      8.3897     84.7067
   453.0000      0.0000    795.2928      8.3588     82.4329
   453.2500      0.0000    795.1902      8.3575     81.2845
   453.5000      0.0000    795.0453      8.3797     81.6595
   453.7500      0.0000    794.8804      8.4123     82.7029
   454.0000      0.0000    794.7128      8.4509     83.5579
   454.2500      0.0000    794.5493      8.4999     83.9571
   454.5000      0.0000    794.3083      8.5603     83.7356
   454.7500      0.0000    793.5969      8.6223     82.6706
   455.0000      0.0000    791.3542      8.6684     80.8254
   455.2500      0.0000    785.7563      8.6827     78.5092
   455.5000      0.0000    775.1660      8.6600     75.9256
   455.7500      0.0000    760.0780      8.6110     73.2207
   456.0000      0.0000    744.2858      8.5581     70.8668
   456.2500      0.0000    733.1178      8.5206     69.8356
   456.5000      0.0000    729.3442      8.5013     71.3086
   456.7500      0.0000    730.5284      8.4872     75.9922
   457.0000      0.0000    731.0177      8.4688     83.4294
   457.2500      0.0000    727.0659      8.4614     91.8934
   457.5000      0.0000    719.7512      8.5061     99.1205
   457.7500      0.0000    712.9490      8.6411    103.3783
   458.0000      0.0000    709.5073      8.8618    104.1414
   458.2500      0.0000    709.7054      9.1077    102.3633
   458.5000      0.0000    712.1854      9.2923    100.3405
   458.7500      0.0000    715.7294      9.3501    100.5673
   459.0000      0.0000    720.7507      9.2627    103.8281
   459.2500      0.0000    730.1047      9.0443    108.4331
   459.5000      0.0000    748.8812      8.6952    111.7186
   459.7500      0.0000    782.7737      8.1816    112.2233
   460.0000      0.0000    834.6284      7.5008    110.3485
   460.2500      0.0000    900.8669      6.7796    107.4132
   460.5000      0.0000    971.4567      6.2417    104.3832
   460.7500      0.0000   1034.3002      6.0284    101.2183
   461.0000      0.0000   1080.5999      6.0836     97.2814
   461.2500     -2.0000   1106.9073      6.2361     92.6119
   461.5000      0.0000   1112.4542      6.3586     88.6885
   461.7500      0.0000   1095.5055      6.4431     87.3219
   462.0000      0.0000   1054.4144      6.5696     88.6337
   462.2500      0.0000    992.8936      6.8158     90.6603
