~Version Information
VERS.                      2.0: CWLS Log ASCII Standard - VERSION 2.0
WRAP.                       NO: One line per depth step
~Well Information Block
STRT.FT               645.0000: 
STOP.FT              2133.5000: 
STEP.FT                 0.2500: 
NULL.                -999.2500: 
COMP.          Pioneer Natural Resources: COMPANY
WELL.          Gunslinger 13-24: WELL
FLD.           Purgatoire River: FIELD
LOC.           1968' FSL & 633' FWL: LOCATION
PROV.                 Colorado: PROVINCE
CNTY.               Las Animas: COUNTRY
SRVC.                Patterson: SERVICE COMPANY
DATE.          Fri Jul 29 15:04:35 2005: LOG DATE
UWI.           05 071 08442 00: UNIQUE WELL ID
~Curve Information Block
DEPT.FT            0 000 00 00: Depth
SN.Ohm-m                      : IEL Short Normal
SP.mV                         : IEL Spontaneous Potential
DIR.Ohm-m                     : IEL Induction Resistivity
GR.GAPI                       : Gamma Ray
~Parameter Information Block
~A  Depth        SN          SP         DIR          GR     
# ...
  2085.5000     23.8046     13.3288     24.9366     80.8639
  2085.7500     24.1113     13.5442     25.0418     78.7679
  2086.0000     24.5592     13.8634     25.0255     75.6440
  2086.2500     25.1529     14.2844     24.9270     73.9000
  2086.5000     25.7900     14.7742     24.7874     72.0577
  2086.7500     26.2872     15.2722     24.6443     71.3493
  2087.0000     26.5480     15.7167     24.5235     70.9397
  2087.2500     26.6081     16.0773     24.4306     71.0825
  2087.5000     26.5666     16.3651     24.3520     72.2562
  2087.7500     26.5340     16.6130     24.2720     74.0149
  2088.0000     26.5783     16.8508     24.1900     78.2023
  2088.2500     26.6467     17.0973     24.1226     81.4551
  2088.5000     26.5735     17.3633     24.0861     85.3461
  2088.7500     26.1981     17.6515     24.0767     86.5311
  2089.0000     25.4936     17.9514     24.0624     86.1740
  2089.2500     24.6443     18.2402     23.9973     85.1371
  2089.5000     23.9331     18.4929     23.8499     83.6930
  2089.7500     23.4887     18.6959     23.6294     83.2845
  2090.0000     23.2388     18.8563     23.3843     83.3913
  2090.2500     23.0864     18.9973     23.1692     83.3918
  2090.5000     23.0117     19.1443     23.0097     82.2282
  2090.7500     23.0204     19.3092     22.8959     80.4414
  2091.0000     23.0848     19.4832     22.8052     76.7860
  2091.2500     23.1797     19.6411     22.7296     74.3988
  2091.5000     23.2949     19.7548     22.6838     72.2085
  2091.7500     23.3907     19.8085     22.6919     72.1891
  2092.0000     23.4554     19.8047     22.7711     74.2786
  2092.2500     23.5451     19.7563     22.9253     76.5795
  2092.5000     23.6612     19.6741     23.1430     80.4356
  2092.7500     23.7075     19.5615     23.3939     82.9116
  2093.0000     23.6477     19.4243     23.6267     85.7694
  2093.2500     23.5691     19.2762     23.7818     86.3811
  2093.5000     23.5407     19.1290     23.8236     84.2934
  2093.7500     23.5494     18.9774     23.7718     81.1740
  2094.0000     23.5700     18.8022     23.7039     76.2820
  2094.2500     23.5995     18.5899     23.7182     74.5153
  2094.5000     23.6409     18.3458     23.8810     75.3596
  2094.7500     23.7080     18.0889     24.1855     77.8284
  2095.0000     23.8475     17.8408     24.5499     82.6957
  2095.2500     24.1146     17.6181     24.8634     85.7716
  2095.5000     24.5007     17.4278     25.0664     89.1118
  2095.7500     24.8846     17.2653     25.1977     90.2523
  2096.0000     25.1442     17.1208     25.3649     90.2945
  2096.2500     25.3455     16.9940     25.6693     89.2753
  2096.5000     25.6743     16.9055     26.1551     86.5255
  2096.7500     26.1941     16.8904     26.8092     84.3665
  2097.0000     26.7883     16.9716     27.5957     81.7570
  2097.2500     27.3368     17.1349     28.4858     80.8324
  2097.5000     27.8750     17.3305     29.4486     80.4054
  2097.7500     28.5375     17.5067     30.4092     80.2775
  2098.0000     29.3959     17.6454     31.2274     79.6288
  2098.2500     30.4238     17.7721     31.7590     78.7731
  2098.5000     31.5906     17.9365     31.9666     77.0712
  2098.7500     32.8871     18.1833     31.9673     75.7964
  2099.0000     34.2545     18.5340     31.9530     73.4046
  2099.2500     35.5754     18.9854     32.0738     71.1039
  2099.5000     36.7547     19.5184     32.3730     66.4290
  2099.7500     37.7680     20.1080     32.7886     63.0779
  2100.0000     38.5843     20.7295     33.2001     59.4963
  2100.2500     39.0820     21.3615     33.4947     58.9234
  2100.5000     39.1472     21.9847     33.6236     60.8792
  2100.7500     38.8024     22.5773     33.6045     63.3743
  2101.0000     38.1326     23.1143     33.4749     67.6088
  2101.2500     37.1696     23.5714     33.2489     70.4613
  2101.5000     35.9326     23.9304     32.9153     74.9033
  2101.7500     34.5206     24.1824     32.4684     77.9890
  2102.0000     33.0830     24.3283     31.9335     82.4945
  2102.2500     31.7600     24.3801     31.3677     85.2693
  2102.5000     30.6773     24.3592     30.8378     89.2012
  2102.7500     29.8780     24.2928     30.3917     91.7906
  2103.0000     29.2943     24.2068     30.0394     95.4929
  2103.2500     28.8553     24.1186     29.7610     97.5432
  2103.5000     28.5641     24.0346     29.5361     99.4638
  2103.7500     28.4739     23.9540     29.3716     99.8051
  2104.0000     28.5889     23.8775     29.3053     98.9540
  2104.2500     28.7960     23.8138     29.3794     97.7485
  2104.5000     28.9743     23.7800     29.6036     95.8447
  2104.7500     29.1262     23.7973     29.9266     95.1110
  2105.0000     29.3076     23.8836     30.2303     95.6365
  2105.2500     29.5272     24.0428     30.3620     97.2777
  2105.5000     29.7608     24.2566     30.2111    101.4427
  2105.7500     29.9867     24.4851     29.7877    104.8621
  2106.0000     30.1983     24.6853     29.2279    109.7308
  2106.2500     30.3590     24.8368     28.7019    112.1662
  2106.5000     30.4075     24.9586     28.3045    114.2491
  2106.7500     30.3446     25.0992     28.0157    114.8980
  2107.0000     30.1751     25.3051     27.7471    115.6803
  2107.2500     29.8046     25.5913     27.4267    116.3724
  2107.5000     29.1494     25.9344     27.0507    117.1369
  2107.7500     28.2891     26.2925     26.6698    116.6656
  2108.0000     27.3734     26.6343     26.3399    113.2602
  2108.2500     26.4768     26.9540     26.0846    109.0362
  2108.5000     25.7086     27.2642     25.8863    100.5205
  2108.7500     25.2945     27.5778     25.7007     94.1319
  2109.0000     25.3329     27.8955     25.4827     84.8000
  2109.2500     25.6335     28.2091     25.2086     79.4421
  2109.5000     25.9754     28.5131     24.8810     73.6546
  2109.7500     26.3029     28.8146     24.5121     71.6257
  2110.0000     26.5939     29.1287     24.1037     71.3336
  2110.2500     26.7752     29.4642     23.6401     72.6041
  2110.5000     26.8059     29.8153     23.0982     75.5106
  2110.7500     26.6922     30.1694     22.4640     77.2098
  2111.0000     26.4265     30.5237     21.7418     77.9859
  2111.2500     26.0114     30.8986     20.9551     76.9787
  2111.5000     25.4886     31.3334     20.1425     73.9189
  2111.7500     24.8689     31.8649     19.3514     71.8850
  2112.0000     24.1115     32.5009     18.6275     70.7419
  2112.2500     23.1802     33.2101     18.0030     72.0457
  2112.5000     22.1046     33.9382     17.4882     77.7686
  2112.7500     21.0088     34.6386     17.0689     84.0175
  2113.0000     20.0117     35.2950     16.7123     95.3963
  2113.2500     19.1270     35.9225     16.3767    101.9933
  2113.5000     18.3190     36.5517     16.0251    104.5170
  2113.7500     17.5489     37.2143     15.6346     98.2641
  2114.0000     16.8251     37.9373     15.2016     76.5213
  2114.2500     16.2971     38.7344     14.7414     57.1873
  2114.5000     16.1446     39.5848     14.2849     29.8446
  2114.7500     16.3384     40.4246     13.8715     16.5765
  2115.0000     16.6085     41.1763     13.5404      5.3551
  2115.2500     16.6717     41.8022     13.3232      2.1210
  2115.5000     16.5167     42.3223     13.2392      0.4030
  2115.7500     16.3845     42.7803     13.2933      0.1091
  2116.0000     16.4102     43.1984     13.4748      0.0097
  2116.2500     16.4805     43.5693     13.7571      0.0000
  2116.5000     16.4599     43.8750     14.0981   -999.2500
  2116.7500     16.3689     44.1028     14.4440   -999.2500
  2117.0000     16.3536     44.2544     14.7348   -999.2500
  2117.2500     16.5637     44.3578     14.9122   -999.2500
  2117.5000     17.0540     44.4726     14.9342   -999.2500
  2117.7500     17.7951     44.6714     14.7912   -999.2500
  2118.0000     18.7482     45.0059     14.5156   -999.2500
  2118.2500     19.8804     45.4842     14.1722   -999.2500
  2118.5000     21.0866     46.0751     13.8351   -999.2500
  2118.7500     22.1305     46.7270     13.5657   -999.2500
