~Version Information
VERS.                      2.0: CWLS Log ASCII Standard - VERSION 2.0
WRAP.                       NO: One line per depth step
~Well Information Block
STRT.FT                -4.2500: 
STOP.FT               745.0000: 
STEP.FT                 0.2500: 
NULL.                -999.2500: 
COMP.          Pioneer Natural Resources: COMPANY
WELL.                Zed 11-23: WELL
FLD.           Purgatoire River: FIELD
LOC.           641' FNL & 952' FWL: LOCATION
CNTY.               Las Animas: COUNTY
SRVC.                         : SERVICE COMPANY
DATE.          Fri Mar 03 16:43:06 2006: LOG DATE
UWI.           05 071 08702 00: UNIQUE WELL ID
STAT.                       CO: STATE
~Curve Information Block
DEPT.FT            0 000 00 00: Depth
GR.GAPI                       : Gamma Ray
CCL.                          : Casing Collar Locator
TT3.usec                      : CBL 3' Travel Time
AMP3.mV                       : CBL 3' Amplitude
~Parameter Information Block
~A  Depth        GR         CCL         TT3         AMP3    
# ...
   498.2500     50.7744      0.0000    704.0134     10.2797
   498.5000     46.6139      0.0000    688.3307      9.9443
   498.7500     46.2748      0.0000    667.1713      9.5616
   499.0000     49.9323      0.0000    645.0182      9.1463
   499.2500     56.0066      0.0000    628.0977      8.7164
   499.5000     62.3987      0.0000    619.9182      8.3209
   499.7500     67.4963      0.0000    617.7145      8.0191
   500.0000     70.4270      0.0000    613.7574      7.8368
   500.2500     71.0710      0.0000    602.1420      7.7476
   500.5000     70.0629      0.0000    585.7913      7.6915
   500.7500     68.4622      0.0000    575.8344      7.6129
   501.0000     67.1457      0.0000    582.6527      7.4993
   501.2500     66.5550      0.0000    607.1230      7.3990
   501.5000     66.8879      0.0000    639.9067      7.3989
   501.7500     68.1171      0.0000    668.5905      7.5711
   502.0000     69.7877      0.0000    686.1270      7.9332
   502.2500     71.3270      0.0000    693.6420      8.4447
   502.5000     72.7342      0.0000    696.7430      9.0191
   502.7500     74.4617      0.0000    700.3390      9.5346
   503.0000     76.3786      0.0000    706.4614      9.8653
   503.2500     77.3900      0.0000    714.7802      9.9328
   503.5000     76.4689      0.0000    723.8108      9.7374
   503.7500     73.6930      0.0000    732.3314      9.3391
   504.0000     70.0044      0.0000    740.4112      8.8171
   504.2500     66.3279      0.0000    748.4481      8.2436
   504.5000     63.1832      0.0000    754.5653      7.6709
   504.7500     60.8425      0.0000    753.4016      7.1243
   505.0000     59.5030      0.0000    738.2980      6.6046
   505.2500     59.2682      0.0000    705.5453      6.1035
   505.5000     60.0912      0.0000    657.8558      5.6209
   505.7500     61.6987      0.0000    604.5377      5.1675
   506.0000     63.4225      0.0000    557.0710      4.7520
   506.2500     64.3703      0.0000    523.1547      4.3642
   506.5000     64.1761      0.0000    504.5030      3.9805
   506.7500     63.5028      0.0000    498.8959      3.6018
   507.0000     63.5084      0.0000    501.9556      3.2820
   507.2500     64.8088      0.0000    507.3581      3.0883
   507.5000     66.8858      0.0000    508.6936      3.0238
   507.7500     68.2551      0.0000    502.9607      3.0193
   508.0000     67.3561      0.0000    491.7169      3.0064
   508.2500     63.7674      0.0000    478.8948      2.9745
   508.5000     58.7257      0.0000    468.0336      2.9474
   508.7500     54.3018     -2.0000    460.8883      2.9374
   509.0000     51.9757      0.0000    457.5276      2.9366
   509.2500     51.9028      0.0000    457.1315      2.9467
   509.5000     53.2602      0.0000    458.6906      3.0059
   509.7500     54.9986      0.0000    461.5797      3.1586
   510.0000     56.3619      0.0000    466.0085      3.3767
   510.2500     57.0957      0.0000    472.6449      3.5404
   510.5000     57.3492      0.0000    481.0365      3.5466
   510.7500     57.2792      0.0000    488.8588      3.4153
   511.0000     56.7792      0.0000    493.6136      3.2490
   511.2500     55.7421      0.0000    494.8174      3.1167
   511.5000     54.4238      0.0000    493.9329      3.0202
   511.7500     53.3925      0.0000    492.6303      2.9398
   512.0000     53.3355      0.0000    491.6813      2.8689
   512.2500     54.9003      0.0000    491.1063      2.8121
   512.5000     58.2241      0.0000    490.7175      2.7787
   512.7500     62.3979      0.0000    490.4169      2.7854
   513.0000     65.7555      0.0000    490.2540      2.8560
   513.2500     67.1092      0.0000    490.4021      3.0113
   513.5000     66.7799      0.0000    491.3155      3.2560
   513.7500     66.1791      0.0000    494.3041      3.5758
   514.0000     66.3998      0.0000    502.3990      3.9500
   514.2500     67.4505      0.0000    520.4038      4.3613
   514.5000     68.7745      0.0000    552.5317      4.7956
   514.7500     70.0665      0.0000    598.1034      5.2373
   515.0000     71.4672      0.0000    649.3732      5.6698
   515.2500     73.1488      0.0000    695.1234      6.0757
   515.5000     74.8301      0.0000    727.5006      6.4392
   515.7500     75.8163      0.0000    745.5449      6.7569
   516.0000     75.5280      0.0000    752.9420      7.0490
   516.2500     73.8065      0.0000    753.7391      7.3490
   516.5000     70.8267      0.0000    750.3007      7.6769
   516.7500     67.0714      0.0000    743.9890      8.0218
   517.0000     63.2279      0.0000    736.3707      8.3463
   517.2500     59.7583      0.0000    729.1122      8.6042
   517.5000     56.8331      0.0000    722.9442      8.7600
   517.7500     54.8418      0.0000    717.3209      8.8104
   518.0000     54.4293      0.0000    711.3529      8.7937
   518.2500     55.6048      0.0000    704.8954      8.7698
   518.5000     57.2726      0.0000    698.8587      8.7789
   518.7500     58.2483      0.0000    694.9775      8.8220
   519.0000     58.6939      0.0000    695.2299      8.8822
   519.2500     60.0635      0.0000    700.8351      8.9533
   519.5000     63.4772      0.0000    711.3987      9.0409
   519.7500     68.3858      0.0000    724.9451      9.1442
   520.0000     72.9782      0.0000    738.3536      9.2481
   520.2500     75.7752      0.0000    747.8252      9.3318
   520.5000     76.7240      0.0000    750.0750      9.3842
   520.7500     76.8331      0.0000    744.1436      9.4208
   521.0000     76.8871      0.0000    732.0246      9.4850
   521.2500     76.6039      0.0000    717.2803      9.6198
   521.5000     75.0703      0.0000    703.2311      9.8282
   521.7500     71.8665      0.0000    692.1476     10.0683
   522.0000     67.6208      0.0000    685.1270     10.2973
   522.2500     63.5292      0.0000    682.2017     10.5149
   522.5000     60.4862      0.0000    682.7977     10.7553
   522.7500     58.5752      0.0000    686.2604     11.0395
   523.0000     57.2609      0.0000    691.9907     11.3420
   523.2500     56.2080      0.0000    699.3409     11.6015
   523.5000     55.8953      0.0000    707.3981     11.7655
   523.7500     57.0820      0.0000    714.7861     11.8218
   524.0000     59.6543      0.0000    720.0715     11.7943
   524.2500     62.4621      0.0000    722.7154     11.7208
   524.5000     64.4561      0.0000    722.9234     11.6410
   524.7500     65.5677      0.0000    720.1321     11.5899
   525.0000     66.3871      0.0000    712.7402     11.5869
   525.2500     67.4534      0.0000    699.8616     11.6317
   525.5000     68.9674      0.0000    682.6851     11.7207
   525.7500     70.7439      0.0000    664.6022     11.8593
   526.0000     72.1984      0.0000    651.2753     12.0452
   526.2500     72.5911      0.0000    649.1589     12.2403
   526.5000     71.6302      0.0000    660.9328     12.3776
   526.7500     69.9266      0.0000    682.0257     12.4106
   527.0000     68.6072      0.0000    703.2266     12.3570
   527.2500     68.2545      0.0000    716.6214     12.2781
   527.5000     68.3390      0.0000    718.9722     12.2113
   527.7500     67.8087      0.0000    712.1961     12.1411
   528.0000     66.0666      0.0000    703.1796     12.0389
   528.2500     63.4081      0.0000    700.9865     11.9059
   528.5000     60.8727      0.0000    710.2651     11.7616
   528.7500     59.6357      0.0000    727.1947     11.6203
   529.0000     60.0265      0.0000    743.5353     11.4940
   529.2500     60.9984      0.0000    753.6528     11.3953
   529.5000     61.0684      0.0000    756.7946     11.3236
   529.7500     59.9811      0.0000    754.8875     11.2652
   530.0000     58.9925      0.0000    750.5092     11.2127
   530.2500     59.3415      0.0000    746.3104     11.1750
   530.5000     60.9395      0.0000    744.4677     11.1630
   530.7500     62.8543      0.0000    745.9608     11.1772
   531.0000     64.5944      0.0000    750.6531     11.2097
   531.2500     66.3444      0.0000    757.8876     11.2522
   531.5000     68.0438      0.0000    766.5791     11.3019
