~Version Information
 VERS.                                  2.0 : CWLS LAS VERSION
 WRAP.                                   NO : WRAPING MODE
 SWARE .                 MController 2.5.0N : SOFTWARE VERSION
~Well Information
 WELL.                       ALABASTER 11-8 : WELL
 COMP.    PIONEER NATURAL RESOURCES USA INC : COMPANY
 FLD.                      PURGATOIRE RIVER : FIELD
 LOC.                 NW/NW SEC 8 T33S R66W : LOCATION
 DATE.                             01/18/06 : DATE(S) LOGGED
 SRVC.       BLANCO GEOLOGICAL SERVICES LLC : SERVICE COMPANY
 STAT.                             COLORADO : STATE
 CNTY.                           LAS ANIMAS : COUNTY
 CTRY.                                  USA : COUNTRY
 API.                       05-071-08642-00 : API NUMBER
 STRT.FT                             555.00 : START DEPTH
 STOP.FT                            2045.00 : STOP DEPTH
 STEP.FT                               1.00 : DEPTH INCREMENT
 NULL.                                -9999 : NULL VALUE
~Curve information
 DEPTH.FT                                   :
 ROP.MIN/FT                                 :
 GAS.UNITS                                  :
~ASCII Log data
# ...
       755.0         0.73          7.8 
       756.0         0.47          7.5 
       757.0         0.27          6.7 
       758.0         0.20          6.7 
       759.0         0.27          6.4 
       760.0         0.30          6.9 
       761.0         0.27          7.3 
       762.0         0.23          7.3 
       763.0         0.22          7.4 
       764.0         0.20          7.5 
       765.0         0.20         10.6 
       766.0         0.17         10.1 
       767.0         0.17          8.8 
       768.0         0.17          7.3 
       769.0         0.10          7.4 
       770.0         0.10          7.0 
       771.0         0.30          7.3 
       772.0         0.37          7.2 
       773.0         0.40          6.2 
       774.0         0.27          6.3 
       775.0         0.40          7.5 
       776.0         2.55          8.0 
       777.0         0.33          4.7 
       778.0         0.53          4.6 
       779.0         0.42          4.5 
       780.0         0.20          4.5 
       781.0         0.17          4.3 
       782.0         0.17          4.5 
       783.0         0.33          7.0 
       784.0         0.40          9.5 
       785.0         0.33         10.2 
       786.0         0.33          9.7 
       787.0         0.40         11.7 
       788.0         0.33         18.7 
       789.0         0.40         18.5 
       790.0         0.42         17.4 
       791.0         0.40         15.2 
       792.0         0.40         12.9 
       793.0         0.37         13.1 
       794.0         0.37         12.6 
       795.0         0.33         12.2 
       796.0         0.30         11.9 
       797.0         0.23         11.2 
       798.0         0.37         13.1 
       799.0         0.23         13.0 
       800.0         0.28         12.5 
       801.0         0.33         11.5 
       802.0         0.37         11.8 
       803.0         0.40         11.2 
       804.0         0.37         12.9 
       805.0         0.43         12.8 
       806.0         3.82         19.3 
       807.0         0.30          4.5 
       808.0         0.23          6.2 
       809.0         0.27          7.5 
       810.0         0.25          8.3 
       811.0         0.23          8.1 
       812.0         0.30          8.1 
       813.0         0.23          7.9 
       814.0         0.20          7.2 
       815.0         0.20          7.8 
       816.0         0.23          8.6 
       817.0         0.20          8.8 
       818.0         0.20          8.9 
       819.0         0.20          9.2 
       820.0         0.20          8.6 
       821.0         0.20          8.6 
       822.0         0.23          8.4 
       823.0         0.23          8.2 
       824.0         0.17          8.1 
       825.0         0.18          8.1 
       826.0         0.17          7.8 
       827.0         0.17          7.4 
       828.0         0.20          7.3 
       829.0         0.20          7.4 
       830.0         0.17          7.2 
       831.0         0.17          7.3 
       832.0         0.20          7.2 
       833.0         0.17          7.2 
       834.0         0.07          7.1 
       835.0         0.20          7.6 
       836.0         2.32         12.4 
       837.0         0.30          4.8 
       838.0         0.23          5.4 
       839.0         0.10          6.8 
       840.0         0.07          7.1 
       841.0         0.10          8.2 
       842.0         0.07          8.1 
       843.0         0.17          9.7 
       844.0         0.17         11.0 
       845.0         0.20         10.2 
       846.0         0.13         10.2 
       847.0         0.13         10.6 
       848.0         0.17         12.7 
       849.0         0.17         16.4 
       850.0         0.10         19.6 
       851.0         0.10         23.2 
       852.0         0.10         28.3 
       853.0         0.10         31.0 
       854.0         0.10         39.3 
       855.0         0.12         47.8 
       856.0         0.13         52.0 
       857.0         0.20         51.8 
       858.0         0.23         44.3 
       859.0         0.20         33.7 
       860.0         0.30         29.6 
       861.0         0.17         25.3 
       862.0         0.17         24.8 
       863.0         0.20         24.1 
       864.0         0.10         20.7 
       865.0         0.13         18.4 
       866.0         1.23         26.8 
       867.0         0.38          4.6 
       868.0         0.37          4.4 
       869.0         0.33          4.6 
       870.0         0.50          9.5 
       871.0         0.27         11.2 
       872.0         0.20         11.2 
       873.0         0.23         11.2 
       874.0         0.23         11.2 
       875.0         0.20         11.7 
       876.0         0.23         11.8 
       877.0         0.20         11.9 
       878.0         0.17         12.3 
       879.0         0.65         13.6 
       880.0         0.60         13.2 
       881.0         0.20         11.6 
       882.0         0.17         11.6 
       883.0         0.17         11.6 
       884.0         0.17         10.7 
       885.0         0.13         10.6 
       886.0         0.20         10.7 
       887.0         0.13         10.4 
       888.0         0.17         10.1 
       889.0         0.13         10.0 
       890.0         0.13         10.2 
       891.0         0.13         10.5 
       892.0         0.17         11.5 
       893.0         0.23         10.8 
       894.0         0.25         10.9 
       895.0         0.13          9.9 
       896.0         2.37         12.5 
       897.0         0.27          4.4 
       898.0         0.20          4.4 
       899.0         0.20          4.5 
       900.0         0.22          5.4 
       901.0         0.20          6.7 
       902.0         0.23          7.6 
       903.0         0.23          8.4 
       904.0         0.20          8.6 
       905.0         0.20          8.6 
       906.0         0.17          9.3 
       907.0         0.20          8.6 
       908.0         0.20          8.5 
       909.0         0.20          9.3 
       910.0         0.20          9.7 
       911.0         0.17         11.0 
       912.0         0.23         13.7 
       913.0         0.30         14.9 
       914.0         0.23         13.7 
       915.0         0.20         12.7 
       916.0         0.18         15.3 
       917.0         0.13         18.1 
       918.0         0.13         19.9 
       919.0         0.13         19.7 
       920.0         0.27         18.5 
       921.0         0.20         13.4 
       922.0         0.20         10.9 
       923.0         0.27          9.7 
       924.0         0.20          9.0 
       925.0         0.20          8.6 
       926.0         3.35         13.0 
       927.0         0.30         10.7 
       928.0         0.13         10.5 
       929.0         0.13         10.7 
       930.0         0.17         11.1 
       931.0         0.17         11.9 
       932.0         0.13         12.4 
       933.0         0.20         13.2 
       934.0         0.23         13.5 
       935.0         0.22         13.1 
       936.0         0.13         12.9 
       937.0         0.10         12.7 
       938.0         0.10         12.7 
       939.0         0.20         12.0 
       940.0         0.33         11.9 
       941.0         0.27         11.5 
       942.0         0.30         10.5 
       943.0         0.27         10.8 
       944.0         0.27         10.6 
       945.0         0.27         10.5 
       946.0         0.27         10.2 
       947.0         0.23         11.0 
       948.0         0.23         10.5 
       949.0         0.28         10.7 
       950.0         0.27         10.2 
       951.0         0.27         10.5 
       952.0         0.27         10.9 
       953.0         0.27         10.8 
       954.0         0.17         10.5 
