~Version Information
VERS.                      2.0: CWLS Log ASCII Standard - VERSION 2.0
WRAP.                       NO: One line per depth step
~Well Information Block
STRT.FT               240.0000: 
STOP.FT              1677.0000: 
STEP.FT                 0.1000: 
NULL.                -999.2500: 
COMP.          Pioneer Natural Resources: COMPANY
WELL.          Lorencito 8-1-34-67: WELL
FLD.           Purgatoire River: FIELD
LOC.           1567' FNL & 500' FEL: LOCATION
STAT.                 Colorado: State
CTRY. USA : Country 
CNTY.               Las Animas: COUNTY
SECT. 1 : Section 
TOWN. 34S : Township
RANG. 67W : Range
SRVC.                Patterson: SERVICE COMPANY
DATE.          Fri Aug 26 09:30:14 2005: LOG DATE
API.           05 071 08506 00: UNIQUE WELL ID
~Curve Information Block
DEPT.FT            0 000 00 00: Depth
DCAL.in                       : CDL Caliper
RHOB.g/cc                     : CDL Bulk Density
RHOC.g/cc                     : CDL Density Correction
DPOR.pu                       : CDL Density Porosity
GR.GAPI                       : Gamma Ray
NPOR.pu                       : Neutron Porosity
~Parameter Information Block
~A  Depth       DCAL        RHOB        RHOC        DPOR         GR         NPOR    
# ...
   902.4000      8.1632      2.6224      0.2699      1.6711    138.0545     25.7046
   902.5000      8.1403      2.6528      0.2248     -0.1676    131.8429     25.5050
   902.6000      8.1403      2.6698      0.2884     -1.2006    121.6359     25.1650
   902.7000      8.1403      2.6719      0.2618     -1.3259    111.7472     25.1772
   902.8000      8.1436      2.6494      0.1860      0.0383    107.3046     25.6636
   902.9000      8.1436      2.6051      0.1402      2.7229    108.2555     25.7396
   903.0000      8.1344      2.5538      0.0595      5.8306    109.6321     24.9617
   903.1000      8.1344      2.5106      0.0538      8.4508    111.8485     23.8338
   903.2000      8.1344      2.4796     -0.0454     10.3281    114.2543     22.7770
   903.3000      8.1434      2.4625     -0.0464     11.3638    110.7162     21.8796
   903.4000      8.1434      2.4584     -0.0230     11.6147    106.8046     21.2274
   903.5000      8.0896      2.4595      0.0284     11.5452    110.1155     20.9481
   903.6000      8.0896      2.4632      0.0419     11.3214    116.7132     21.0919
   903.7000      8.0896      2.4826      0.0122     10.1435    120.9373     21.4214
   903.8000      8.0271      2.5215      0.1643      7.7890    122.1043     21.4585
   903.9000      8.0271      2.5460      0.2289      6.3015    121.1754     21.0945
   904.0000      7.9852      2.5262      0.1838      7.5024    119.6636     20.7097
   904.1000      7.9852      2.4832      0.1388     10.1083    121.1203     20.5771
   904.2000      7.9852      2.4577      0.1910     11.6569    126.8311     20.7304
   904.3000      8.0089      2.4664      0.2101     11.1260    133.6050     21.0311
   904.4000      8.0089      2.5101      0.2137      8.4811    138.2504     21.1605
   904.5000      8.0374      2.5686      0.2827      4.9307    140.7298     21.2199
   904.6000      8.0374      2.6072      0.2583      2.5952    142.2371     21.4917
   904.7000      8.0374      2.6233      0.2640      1.6165    140.7198     21.8054
   904.8000      8.0407      2.6375      0.2938      0.7596    134.1655     22.1497
   904.9000      8.0407      2.6393      0.3386      0.6464    127.3392     22.6114
   905.0000      8.1323      2.6053      0.2604      2.7068    127.0698     23.0517
   905.1000      8.1323      2.5538      0.1523      5.8279    132.8868     23.4689
   905.2000      8.1323      2.5238      0.1345      7.6455    137.2469     23.8567
   905.3000      8.1878      2.5160      0.1683      8.1186    138.1280     24.1550
   905.4000      8.1878      2.5188      0.0450      7.9527    140.4097     24.2295
   905.5000      8.1822      2.5455      0.1244      6.3326    143.3119     23.7930
   905.6000      8.1822      2.5946      0.1601      3.3575    139.6576     23.1649
   905.7000      8.1822      2.6387      0.2036      0.6836    130.4381     23.1586
   905.8000      8.1370      2.6585      0.2375     -0.5130    125.3247     23.6511
   905.9000      8.1370      2.6469      0.1802      0.1863    126.8272     23.7615
   906.0000      8.0539      2.5957      0.1842      3.2889    129.5556     23.3689
   906.1000      8.0539      2.5066      0.0956      8.6899    129.4199     22.9793
   906.2000      8.0539      2.4233     -0.0929     13.7416    129.6658     22.6967
   906.3000      8.0610      2.3910     -0.0008     15.6993    132.9490     22.5689
   906.4000      8.0610      2.3957      0.0683     15.4120    136.8834     22.8514
   906.5000      8.0592      2.4030      0.0340     14.9682    142.5664     23.5359
   906.6000      8.0592      2.4075      0.0344     14.6957    149.8430     24.3328
   906.7000      8.0592      2.4287      0.0454     13.4119    153.5001     25.1150
   906.8000      8.0640      2.4823      0.1473     10.1654    151.8272     25.4649
   906.9000      8.0640      2.5525      0.2500      5.9113    147.0450     24.9772
   907.0000      8.0791      2.6025      0.3364      2.8812    142.6833     24.2980
   907.1000      8.0791      2.6141      0.2159      2.1780    141.5850     24.2556
   907.2000      8.0791      2.6057      0.1747      2.6869    143.1854     24.7157
   907.3000      8.0496      2.6051      0.1277      2.7183    144.6399     25.1955
   907.4000      8.0496      2.6200      0.0856      1.8184    144.2698     25.5518
   907.5000      8.0624      2.6371      0.0993      0.7839    140.1802     25.6326
   907.6000      8.0624      2.6415      0.1186      0.5130    130.3735     25.5424
   907.7000      8.0624      2.6372      0.0260      0.7779    118.7243     25.6365
   907.8000      8.1257      2.6310      0.0360      1.1525    112.2589     25.8161
   907.9000      8.1257      2.6147      0.0352      2.1387    113.1258     25.8317
   908.0000      8.1495      2.5982     -0.0035      3.1380    119.3843     25.7247
   908.1000      8.1495      2.6077      0.0332      2.5649    125.8208     25.3505
   908.2000      8.1495      2.6335      0.0820      0.9998    124.7112     24.7316
   908.3000      8.2239      2.6348      0.0502      0.9208    117.1896     24.4013
   908.4000      8.2239      2.6046     -0.0564      2.7487    110.9853     24.3013
   908.5000      8.2106      2.5756     -0.0126      4.5088    107.1451     24.0494
   908.6000      8.2106      2.5636     -0.0188      5.2372    102.5931     23.9939
   908.7000      8.2106      2.5626     -0.0042      5.2956     97.1660     24.3624
   908.8000      8.1544      2.5614     -0.0097      5.3702     91.4021     24.8766
   908.9000      8.1544      2.5469      0.0245      6.2488     87.3427     25.1338
   909.0000      8.0876      2.5234     -0.0072      7.6699     86.1312     24.7749
   909.1000      8.0876      2.5117     -0.0067      8.3831     86.4323     24.0620
   909.2000      8.0876      2.5141      0.0617      8.2388     88.7964     23.5124
   909.3000      8.0447      2.5124      0.0760      8.3400     92.9070     23.2288
   909.4000      8.0447      2.4922      0.0505      9.5625     94.1791     22.9712
   909.5000      7.9424      2.4601      0.0023     11.5076     93.4470     22.4882
   909.6000      7.9424      2.4423     -0.0127     12.5904     96.6379     21.8880
   909.7000      7.9424      2.4469      0.0924     12.3120    105.5822     21.6429
   909.8000      7.9560      2.4590      0.0776     11.5750    120.1815     21.8547
   909.9000      7.9560      2.4727      0.1470     10.7461    134.0915     22.2136
   910.0000      7.9558      2.4895      0.1339      9.7262    138.2352     22.4866
   910.1000      7.9558      2.5150      0.1275      8.1836    135.8285     22.5086
   910.2000      7.9558      2.5557      0.2137      5.7131    136.8867     22.2890
   910.3000      7.9554      2.6145      0.2766      2.1517    143.8539     22.1207
   910.4000      7.9554      2.6889      0.2812     -2.3554    152.8794     22.2560
   910.5000      7.9652      2.7498      0.3599     -6.0497    157.4317     22.6466
   910.6000      7.9652      2.7423      0.3662     -5.5915    151.4775     23.1518
   910.7000      7.9652      2.6572      0.2185     -0.4354    138.4361     23.5037
   910.8000      8.1479      2.5688      0.0166      4.9240    128.4115     23.5562
   910.9000      8.1479      2.5450      0.0223      6.3617    123.9470     23.6170
   911.0000      8.2823      2.5661      0.1095      5.0878    118.1059     23.9194
   911.1000      8.2823      2.5805      0.0508      4.2145    109.1981     24.1952
   911.2000      8.2823      2.5766      0.0376      4.4509    104.4482     24.1423
   911.3000      8.1743      2.5660     -0.0437      5.0905    108.0677     23.8800
   911.4000      8.1743      2.5515      0.0456      5.9713    114.6675     23.4843
   911.5000      8.1702      2.5337      0.0149      7.0494    118.0291     22.8616
   911.6000      8.1702      2.5292     -0.0037      7.3204    116.3034     22.2305
   911.7000      8.1702      2.5472      0.0480      6.2331    111.7098     21.8823
   911.8000      8.2088      2.5722      0.0770      4.7149    109.9344     21.7732
   911.9000      8.2088      2.5899      0.0006      3.6404    111.2445     21.7890
