~Version Information
VERS.                      2.0: CWLS Log ASCII Standard - VERSION 2.0
WRAP.                       NO: One line per depth step
~Well Information Block
STRT.FT                -4.7500: 
STOP.FT              2723.2500: 
STEP.FT                 0.2500: 
NULL.                -999.2500: 
COMP.          Pioneer Natural Resources: COMPANY
WELL.           Dolzanie 34-12: WELL
FLD.           Purgatorie River: FIELD
LOC.           1001' FSL & 1750' FEL: LOCATION
PROV.                 Colorado: PROVINCE
CNTY.               Las Animas: COUNTRY
SRVC.                Patterson: SERVICE COMPANY
DATE.          Wed Jul 27 14:23:29 2005: LOG DATE
UWI.                          : UNIQUE WELL ID
~Curve Information Block
DEPT.FT            0 000 00 00: Depth
GR.GAPI                       : Gamma Ray
CCL.                          : Casing Collar Locator
TT3.usec                      : CBL 3' Travel Time
AMP3.mV                       : CBL 3' Amplitude
~Parameter Information Block
~A  Depth        GR         CCL         TT3         AMP3    
# ...
  1435.7500     73.8639      0.0000    670.4538      8.7685
  1436.0000     76.1870      0.0000    669.9969      8.7638
  1436.2500     79.8016      0.0000    668.5282      8.7704
  1436.5000     84.9763      0.0000    665.2740      8.7682
  1436.7500     92.4168      0.0000    662.0071      8.7550
  1437.0000    102.1238      0.0000    663.6356      8.7410
  1437.2500    112.4435      0.0000    669.9736      8.7261
  1437.5000    120.8348      0.0000    670.8467      8.7141
  1437.7500    125.6212      0.0000    660.3007      8.7109
  1438.0000    126.6072      0.0000    644.8876      8.7029
  1438.2500    124.4538      0.0000    625.7034      8.6917
  1438.5000    120.3624      0.0000    592.6135      8.7254
  1438.7500    116.1454      0.0000    547.4287      8.8438
  1439.0000    113.7251      0.0000    508.9216      9.0245
  1439.2500    114.3267      0.0000    489.8220      9.2127
  1439.5000    118.2424      0.0000    489.3543      9.3790
  1439.7500    125.0057      0.0000    504.7956      9.5252
  1440.0000    133.3294      0.0000    533.9665      9.6562
  1440.2500    140.9771      0.0000    569.7674      9.7750
  1440.5000    145.3714      0.0000    601.9062      9.8710
  1440.7500    144.9592      0.0000    623.3846      9.8904
  1441.0000    140.2363      0.0000    635.0361      9.7682
  1441.2500    133.5050      0.0000    644.2118      9.5325
  1441.5000    127.5343      0.0000    654.9276      9.3259
  1441.7500    123.9370      0.0000    662.1661      9.2674
  1442.0000    122.2243      0.0000    656.2019      9.3325
  1442.2500    120.4491      0.0000    627.4228      9.4084
  1442.5000    117.1205      0.0000    577.7849      9.4185
  1442.7500    112.5429      0.0000    536.0934      9.3696
  1443.0000    108.3556      0.0000    538.6171      9.3032
  1443.2500    106.2977      0.0000    583.3260      9.2343
  1443.5000    107.4983      0.0000    632.3773      9.1459
  1443.7500    112.1598      0.0000    660.0469      9.0226
  1444.0000    119.2582      0.0000    669.0918      8.8765
  1444.2500    126.8441      0.0000    670.1600      8.7396
  1444.5000    133.1334      0.0000    667.4028      8.6392
  1444.7500    137.2280      0.0000    658.6255      8.5980
  1445.0000    138.7114      0.0000    640.7493      8.6291
  1445.2500    137.1997      0.0000    615.9116      8.7133
  1445.5000    133.0213      0.0000    591.3630      8.8242
  1445.7500    127.9857      0.0000    573.6701      8.9416
  1446.0000    124.6385      0.0000    565.6497      9.0148
  1446.2500    124.4958      0.0000    565.9901      8.9845
  1446.5000    127.0162      0.0000    570.4822      8.8642
  1446.7500    130.0005      0.0000    576.2296      8.7531
  1447.0000    130.9067      0.0000    582.7139      8.7365
  1447.2500    128.4853      0.0000    588.6357      8.7984
  1447.5000    123.8051      0.0000    592.6982      8.8690
  1447.7500    119.5299      0.0000    596.7490      8.9058
  1448.0000    117.6791      0.0000    605.4207      8.9010
  1448.2500    118.0316      0.0000    621.7610      8.8709
  1448.5000    118.8367      0.0000    641.7648      8.8370
  1448.7500    118.8921      0.0000    655.7609      8.7907
  1449.0000    118.5735      0.0000    655.8676      8.7050
  1449.2500    118.9371      0.0000    639.6357      8.5927
  1449.5000    120.4410      0.0000    612.9877      8.4996
  1449.7500    122.8991      0.0000    593.0389      8.4311
  1450.0000    126.1889      0.0000    596.0164      8.3547
  1450.2500    130.3316      0.0000    618.6894      8.2669
  1450.5000    135.0927      0.0000    644.0153      8.2040
  1450.7500    139.8447      0.0000    662.7123      8.2010
  1451.0000    143.6417      0.0000    676.4045      8.2628
  1451.2500    145.4927      0.0000    683.8109      8.3604
  1451.5000    145.0408      0.0000    676.7886      8.4543
  1451.7500    143.0061      0.0000    655.9923      8.5242
  1452.0000    140.6119      0.0000    635.6490      8.5623
  1452.2500    138.5805      0.0000    622.3616      8.5555
  1452.5000    136.8781      0.0000    610.9408      8.4962
  1452.7500    135.2025      0.0000    601.2809      8.4016
  1453.0000    133.3139      0.0000    596.2434      8.3150
  1453.2500    131.0038      0.0000    591.7404      8.2699
  1453.5000    128.2287      0.0000    581.4211      8.2580
  1453.7500    125.3874      0.0000    567.2237      8.2663
  1454.0000    123.1847      0.0000    563.5777      8.3081
  1454.2500    122.1493      0.0000    582.0249      8.4030
  1454.5000    122.4234      0.0000    611.5422      8.5597
  1454.7500    123.8015      0.0000    625.7219      8.7609
  1455.0000    125.5165      0.0000    610.0971      8.9575
  1455.2500    126.0658      0.0000    575.9598      9.1060
  1455.5000    123.9416      0.0000    546.0415      9.2119
  1455.7500    118.8911      0.0000    532.7137      9.3086
  1456.0000    112.3780      0.0000    534.6258      9.3787
  1456.2500    106.8381      0.0000    543.7188      9.3490
  1456.5000    104.2286      0.0000    548.1119      9.2097
  1456.7500    104.6960      0.0000    539.2225      9.0482
  1457.0000    106.5546      0.0000    519.8259      8.9254
  1457.2500    107.7851      0.0000    503.2225      8.8264
  1457.5000    107.3898      0.0000    509.0808      8.7231
  1457.7500    105.3522      0.0000    547.5244      8.6072
  1458.0000    102.0493      0.0000    601.5156      8.5006
  1458.2500     98.2385      0.0000    642.9745      8.4586
  1458.5000     95.2194      0.0000    661.4055      8.5188
  1458.7500     94.3196      0.0000    663.6295      8.6452
  1459.0000     96.0157      0.0000    659.5101      8.7579
  1459.2500     99.6649      0.0000    656.9606      8.8237
  1459.5000    104.1995      0.0000    659.5529      8.8853
  1459.7500    108.9973      0.0000    664.6179      8.9786
  1460.0000    113.9814      0.0000    668.1478      9.0638
  1460.2500    119.1243      0.0000    669.0231      9.0631
  1460.5000    124.2920      0.0000    666.6102      8.9393
  1460.7500    129.4124      0.0000    658.1687      8.7429
  1461.0000    134.1521      0.0000    642.1660      8.5813
  1461.2500    137.2917      0.0000    624.1855      8.5203
  1461.5000    137.1988      0.0000    613.2646      8.5292
  1461.7500    133.5241      0.0000    609.5504      8.5436
  1462.0000    127.8514      0.0000    602.5820      8.5376
  1462.2500    122.0172      0.0000    584.1978      8.5081
  1462.5000    116.3862      0.0000    558.8381      8.4668
  1462.7500    110.4589      0.0000    538.6614      8.4553
  1463.0000    104.4936      0.0000    531.8679      8.5114
  1463.2500     99.7020      0.0000    541.0655      8.6181
  1463.5000     97.3770      0.0000    566.7652      8.7167
  1463.7500     98.4389      0.0000    603.3085      8.7699
  1464.0000    103.2420      0.0000    637.4247      8.7701
  1464.2500    110.9736      0.0000    658.8707      8.7084
  1464.5000    119.2893      0.0000    667.9544      8.5972
  1464.7500    125.1911      0.0000    670.1331      8.4790
  1465.0000    127.0349      0.0000    668.1285      8.3857
  1465.2500    126.0445      0.0000    659.9725      8.3310
  1465.5000    125.4660      0.0000    643.3890      8.3254
  1465.7500    127.6542      0.0000    622.2971      8.3776
  1466.0000    132.0931      0.0000    605.2881      8.4888
  1466.2500    136.4648      0.0000    596.9114      8.6412
  1466.5000    139.1270      0.0000    596.4279      8.7991
  1466.7500    140.1633      0.0000    603.9587      8.9279
  1467.0000    140.5605      0.0000    620.0985      9.0032
  1467.2500    140.9472      0.0000    637.2885      8.9809
  1467.5000    140.9509      0.0000    641.5728      8.7612
  1467.7500    139.4012      0.0000    631.9167      8.2838
  1468.0000    135.2477      0.0000    625.3980      7.6688
  1468.2500    128.4748      0.0000    637.7129      7.0567
  1468.5000    120.0452      0.0000    670.8668      6.3864
  1468.7500    110.9756      0.0000    713.9435      5.6614
  1469.0000    101.8635      0.0000    751.1335      5.1513
