~Version Information
VERS.                      2.0: CWLS Log ASCII Standard - VERSION 2.0
WRAP.                       NO: One line per depth step
~Well Information Block
STRT.FT               830.0000: 
STOP.FT              1792.5000: 
STEP.FT                 0.1000: 
NULL.                -999.2500: 
COMP.          Pioneer Natural Resources: COMPANY
WELL.           Rolls 14-14 Tr: WELL
FLD.           Purgatoire River: FIELD
LOC.           473' FSL & 817' FWL: LOCATION
PROV.                 Colorado: PROVINCE
CNTY.               Las Animas: COUNTRY
SRVC.                Patterson: SERVICE COMPANY
DATE.          Wed Aug 03 07:11:37 2005: LOG DATE
UWI.           05 071 08454 00: UNIQUE WELL ID
~Curve Information Block
DEPT.FT            0 000 00 00: Depth
DCAL.in                       : CDL Caliper
RHOB.g/cc                     : CDL Bulk Density
RHOC.g/cc                     : CDL Density Correction
DPOR.pu                       : CDL Density Porosity
GR.GAPI                       : Gamma Ray
NPOR.pu                       : Neutron Porosity
~Parameter Information Block
~A  Depth       DCAL        RHOB        RHOC        DPOR         GR         NPOR    
# ...
  1022.0000      8.1361      2.5441      0.0788      6.4154    124.8683     24.7891
  1022.1000      8.1361      2.5259      0.0634      7.5190    126.8474     24.5167
  1022.2000      8.1361      2.5149      0.0261      8.1877    126.4543     24.0563
  1022.3000      8.1430      2.5067      0.0862      8.6834    126.0656     24.0077
  1022.4000      8.1430      2.4964      0.0677      9.3111    125.8324     24.3533
  1022.5000      8.1500      2.4962      0.0437      9.3201    126.2629     24.4500
  1022.6000      8.1500      2.5097      0.0976      8.5048    127.3416     23.9792
  1022.7000      8.1500      2.5261      0.0921      7.5112    126.9506     23.3508
  1022.8000      8.1488      2.5480      0.1530      6.1806    125.1021     23.0848
  1022.9000      8.1488      2.5717      0.1741      4.7483    126.0844     23.2432
  1023.0000      8.1539      2.5783      0.1766      4.3467    130.2721     23.3728
  1023.1000      8.1539      2.5644      0.0904      5.1908    131.9087     23.1283
  1023.2000      8.1539      2.5461      0.0917      6.2971    129.9252     22.7553
  1023.3000      8.1528      2.5359      0.0409      6.9151    128.3718     22.7170
  1023.4000      8.1528      2.5298      0.0644      7.2845    128.3753     22.9077
  1023.5000      8.1504      2.5173      0.0693      8.0403    129.9907     22.9100
  1023.6000      8.1504      2.5037      0.0197      8.8679    134.0278     22.7400
  1023.7000      8.1504      2.5021      0.1137      8.9649    137.7738     22.6599
  1023.8000      8.1585      2.5137      0.0660      8.2624    139.1544     22.6296
  1023.9000      8.1585      2.5334      0.0817      7.0665    139.3692     22.3316
  1024.0000      8.1732      2.5399      0.0944      6.6714    137.7665     21.9633
  1024.1000      8.1732      2.5102      0.0498      8.4754    134.5081     22.0631
  1024.2000      8.1732      2.4626      0.0246     11.3582    133.1102     22.5410
  1024.3000      8.2358      2.4313      0.0209     13.2518    134.9507     22.7699
  1024.4000      8.2358      2.4226      0.0106     13.7838    135.6992     22.5219
  1024.5000      8.1894      2.4282      0.0085     13.4419    131.7742     22.2420
  1024.6000      8.1894      2.4396      0.0615     12.7542    124.9904     22.0116
  1024.7000      8.1894      2.4500     -0.0084     12.1242    120.2598     21.3390
  1024.8000      8.1790      2.4494      0.1121     12.1565    120.2582     19.9354
  1024.9000      8.1790      2.4231      0.0919     13.7534    121.6997     18.3473
  1025.0000      8.2092      2.3783      0.0869     16.4642    120.6416     17.2104
  1025.1000      8.2092      2.3234      0.1246     19.7924    116.7923     15.8798
  1025.2000      8.2092      2.2403      0.1139     24.8321    112.9762     13.7757
  1025.3000      8.2278      2.1180      0.0526     32.2411    110.0010     11.7239
  1025.4000      8.2278      1.9690     -0.0247     41.2707    106.7029     10.3572
  1025.5000      8.2987      1.8100     -0.0881     50.9115    102.6198      9.6077
  1025.6000      8.2987      1.6528     -0.0805     60.4358     98.6224      9.2659
  1025.7000      8.2987      1.5061     -0.0809     69.3273     94.6291      8.9839
  1025.8000      8.2815      1.3864     -0.0734     76.5805     88.6095      8.6667
  1025.9000      8.2815      1.3116      0.0513     81.1143     81.4660      8.6997
  1026.0000      8.3998      1.2763      0.1323     83.2521     75.6616      9.2913
  1026.1000      8.3998      1.2675      0.1573     83.7871     72.6950     10.2077
  1026.2000      8.3998      1.2926      0.1252     82.2655     73.8744     11.0674
  1026.3000      8.5381      1.3693      0.1394     77.6184     76.0213     11.9256
  1026.4000      8.5381      1.4945      0.1732     70.0289     75.1374     13.2486
  1026.5000      8.6287      1.6472      0.2373     60.7776     74.8196     15.0114
  1026.6000      8.6287      1.8078      0.3018     51.0448     79.2418     16.8857
  1026.7000      8.6287      1.9573      0.3532     41.9839     85.2920     18.9505
  1026.8000      8.5160      2.0861      0.3788     34.1784     90.2578     21.1378
  1026.9000      8.5160      2.2054      0.3410     26.9450     95.7980     22.9837
  1027.0000      8.4628      2.3186      0.3380     20.0843    102.5276     23.9822
  1027.1000      8.4628      2.3945      0.3555     15.4873    110.0211     24.1897
  1027.2000      8.4628      2.4179      0.2111     14.0695    119.1257     24.5012
  1027.3000      8.4050      2.4180      0.1230     14.0585    131.1375     25.2769
  1027.4000      8.4050      2.4115      0.1168     14.4520    142.8481     25.9102
  1027.5000      8.3451      2.4019      0.0495     15.0372    145.6536     25.9894
  1027.6000      8.3451      2.4063      0.0780     14.7725    140.6003     25.9310
  1027.7000      8.3451      2.4259      0.0981     13.5831    138.4370     26.0758
  1027.8000      8.2809      2.4403      0.1288     12.7071    141.2541     26.3351
  1027.9000      8.2809      2.4416      0.0182     12.6325    146.2176     26.6252
  1028.0000      8.2501      2.4462      0.0673     12.3538    152.3041     26.5805
  1028.1000      8.2501      2.4716      0.0697     10.8109    155.1317     26.1618
  1028.2000      8.2501      2.5187      0.1444      7.9568    153.2850     26.0529
  1028.3000      8.2399      2.5665      0.1678      5.0594    152.6742     26.4473
  1028.4000      8.2399      2.5900      0.1582      3.6365    153.2262     26.9310
  1028.5000      8.2284      2.5879      0.1527      3.7644    150.0495     27.1291
  1028.6000      8.2284      2.5746      0.1502      4.5702    146.2194     26.8558
  1028.7000      8.2284      2.5620      0.0953      5.3326    143.8155     26.2024
  1028.8000      8.2028      2.5536      0.0966      5.8425    139.3973     25.4514
  1028.9000      8.2028      2.5462      0.1149      6.2914    134.6862     24.9825
  1029.0000      8.1924      2.5432      0.0273      6.4738    135.9626     25.0238
  1029.1000      8.1924      2.5519      0.0433      5.9457    142.6756     25.1535
  1029.2000      8.1924      2.5632      0.0595      5.2618    147.8106     24.6674
  1029.3000      8.1735      2.5589      0.0636      5.5216    148.8241     23.7691
  1029.4000      8.1735      2.5403      0.0195      6.6466    150.0800     23.3490
  1029.5000      8.1706      2.5319      0.0116      7.1559    152.0907     23.8152
  1029.6000      8.1706      2.5422      0.0723      6.5310    153.8548     24.5352
  1029.7000      8.1706      2.5503      0.0904      6.0424    155.7527     24.6024
  1029.8000      8.1918      2.5414      0.0792      6.5801    155.9247     23.9607
  1029.9000      8.1918      2.5203      0.0721      7.8609    154.9368     23.4661
  1030.0000      8.2056      2.4899      0.0536      9.7017    154.0791     23.6694
  1030.1000      8.2056      2.4478      0.0487     12.2531    151.3578     23.9454
  1030.2000      8.2056      2.4007      0.0299     15.1105    147.4951     23.6172
  1030.3000      8.2057      2.3649      0.0053     17.2816    144.9689     23.1103
  1030.4000      8.2057      2.3486      0.0096     18.2649    143.9588     22.9778
  1030.5000      8.2100      2.3562      0.0222     17.8078    144.0028     22.9393
  1030.6000      8.2100      2.3928      0.0736     15.5899    142.0673     22.6387
  1030.7000      8.2100      2.4421      0.1525     12.5980    138.0363     22.2641
  1030.8000      8.2445      2.4778      0.1901     10.4359    138.0341     21.9912
  1030.9000      8.2445      2.4990      0.1493      9.1528    143.1352     21.8443
  1031.0000      8.2354      2.5139      0.1817      8.2472    148.7897     21.8018
  1031.1000      8.2354      2.5120      0.2171      8.3653    149.0025     21.7114
  1031.2000      8.2354      2.4874      0.2170      9.8521    143.2942     21.4861
  1031.3000      8.2528      2.4615      0.1744     11.4261    141.3911     21.2957
  1031.4000      8.2528      2.4610      0.2173     11.4573    145.2969     21.1218
  1031.5000      8.3485      2.4937      0.1800      9.4714    146.6338     20.8059
