~Version Information
VERS.                      2.0: CWLS Log ASCII Standard - VERSION 2.0
WRAP.                       NO: One line per depth step
~Well Information Block
STRT.FT               360.0000: 
STOP.FT              2475.0000: 
STEP.FT                 0.1000: 
NULL.                -999.2500: 
COMP.          Pioneer Natural Resources: COMPANY
WELL.          Hellzonfire 32-31: WELL
FLD.           Purgatoire River: FIELD
LOC.           1993' FNL & 2265' FEL: LOCATION
STAT.                 Colorado: State
CNTY.               Las Animas: COUNTY
CTRY. USA : Country
SECT. 31 : Section
TOWN. 32S : Township
RANG. 66W : Range
SRVC.                Patterson: SERVICE COMPANY
DATE.          Fri Sep 02 07:26:13 2005: LOG DATE
API.           05 071 08483 00: UNIQUE WELL ID
~Curve Information Block
DEPT.FT            0 000 00 00: Depth
DCAL.in                       : CDL Caliper
RHOB.g/cc                     : CDL Bulk Density
RHOC.g/cc                     : CDL Density Correction
DPOR.pu                       : CDL Density Porosity
GR.GAPI                       : Gamma Ray
NPOR.pu                       : Neutron Porosity
~Parameter Information Block
~A  Depth       DCAL        RHOB        RHOC        DPOR         GR         NPOR    
# ...
  1905.6000      8.0369      2.4776      0.1141     10.4496     24.6061     12.4803
  1905.7000      8.0369      2.4685      0.1034     11.0028     23.0152     12.8219
  1905.8000      8.0308      2.4621      0.0600     11.3860     21.5689     13.2629
  1905.9000      8.0308      2.4706      0.0895     10.8739     21.8583     13.1496
  1906.0000      8.0309      2.4771      0.0800     10.4777     22.9392     12.8031
  1906.1000      8.0309      2.4638      0.0941     11.2834     24.6828     13.1081
  1906.2000      8.0309      2.4311      0.0906     13.2641     26.6436     13.9169
  1906.3000      8.0252      2.3954      0.0106     15.4333     28.1775     14.6414
  1906.4000      8.0252      2.3771      0.0216     16.5388     28.1469     15.1117
  1906.5000      8.0257      2.3870      0.0105     15.9407     24.6317     15.0835
  1906.6000      8.0257      2.4207      0.0280     13.8980     19.4091     14.4783
  1906.7000      8.0257      2.4539      0.0949     11.8819     16.7373     13.7583
  1906.8000      8.0296      2.4622      0.0461     11.3818     17.7302     13.3349
  1906.9000      8.0296      2.4491      0.0548     12.1742     21.2361     13.1327
  1907.0000      8.0342      2.4383      0.0481     12.8289     25.4789     12.8764
  1907.1000      8.0342      2.4466      0.0188     12.3261     26.9666     12.5448
  1907.2000      8.0342      2.4631      0.0865     11.3269     25.1063     12.4917
  1907.3000      8.0387      2.4606      0.0441     11.4798     24.4754     15.9055
  1907.4000      8.0387      2.4279      0.0835     13.4636     27.4335     16.4948
  1907.5000      8.0464      2.3803      0.0327     16.3426     32.3902     16.9962
  1907.6000      8.0464      2.3434      0.0223     18.5802     37.0026     17.4132
  1907.7000      8.0464      2.3298     -0.0072     19.4080     40.2867     17.6269
  1907.8000      8.0326      2.3424      0.0151     18.6448     41.3461     17.5376
  1907.9000      8.0326      2.3747      0.0607     16.6828     38.9302     17.2484
  1908.0000      7.9790      2.4188      0.0277     14.0143     35.5116     16.9119
  1908.1000      7.9790      2.4719      0.1206     10.7926     35.8607     16.8158
  1908.2000      7.9790      2.5233      0.1421      7.6804     41.4758     17.1338
  1908.3000      7.9657      2.5606      0.1677      5.4156     50.3846     17.6993
  1908.4000      7.9657      2.5869      0.1449      3.8254     59.3644     18.3130
  1908.5000      7.9664      2.6120      0.1670      2.3047     65.8838     19.0186
  1908.6000      7.9664      2.6337      0.1365      0.9904     69.4587     19.8944
  1908.7000      7.9664      2.6430      0.1452      0.4222     70.9699     20.7155
  1908.8000      7.9643      2.6387      0.0969      0.6848     70.7853     21.3267
  1908.9000      7.9643      2.6311      0.0752      1.1472     69.1108     21.8731
  1909.0000      7.9630      2.6424      0.0396      0.4590     66.5973     22.2112
  1909.1000      7.9630      2.6796      0.0316     -1.7930     65.8588     22.3751
  1909.2000      7.9630      2.7097      0.1076     -3.6156     75.0116     22.4283
  1909.3000      7.9826      2.7023      0.0504     -3.1690     81.3006     22.3502
  1909.4000      7.9826      2.6755      0.0057     -1.5465     89.9394     22.6724
  1909.5000      7.9885      2.6672      0.0366     -1.0448    100.4632     23.2429
  1909.6000      7.9885      2.6944      0.0492     -2.6903    106.2393     23.2037
  1909.7000      7.9885      2.7402      0.1059     -5.4642    102.9710     22.3924
  1909.8000      7.9896      2.7718      0.1003     -7.3821     96.5764     21.1590
  1909.9000      7.9896      2.7801      0.1005     -7.8863     93.6760     20.1106
  1910.0000      7.9965      2.7754      0.0784     -7.5991     93.0732     19.7407
  1910.1000      7.9965      2.7616      0.0643     -6.7656     94.4846     19.7167
  1910.2000      7.9965      2.7481     -0.0244     -5.9472    107.5456     19.3135
  1910.3000      7.9936      2.7450      0.0260     -5.7594    116.0100     18.7430
  1910.4000      7.9936      2.7479     -0.0021     -5.9331    122.3469     18.5536
  1910.5000      8.0192      2.7543     -0.0032     -6.3195    122.8444     18.6422
  1910.6000      8.0192      2.7550      0.0585     -6.3653    120.1988     18.8747
  1910.7000      8.0192      2.7418      0.0004     -5.5654    118.4407     19.2774
  1910.8000      8.0252      2.7324      0.0199     -4.9930    114.1747     19.4693
  1910.9000      8.0252      2.7431      0.0145     -5.6413    104.6697     19.3271
  1911.0000      8.0213      2.7607      0.1107     -6.7067     96.8752     19.3066
  1911.1000      8.0213      2.7626      0.0044     -6.8214     96.8675     19.4279
  1911.2000      8.0213      2.7497      0.0439     -6.0408     99.8791     19.3446
  1911.3000      8.0099      2.7316      0.0874     -4.9473    100.3172     19.1786
  1911.4000      8.0099      2.7167      0.0299     -4.0408     97.8797     19.1665
  1911.5000      8.0072      2.7110      0.0339     -3.6975     93.9872     19.2751
  1911.6000      8.0072      2.7044      0.0062     -3.2956     90.8046     19.2677
  1911.7000      8.0072      2.6931     -0.0195     -2.6136     88.0671     19.1589
  1911.8000      8.0116      2.6911      0.0210     -2.4906     85.8968     19.2890
  1911.9000      8.0116      2.7049      0.0147     -3.3278     84.5342     19.2872
  1912.0000      8.0121      2.7312      0.0088     -4.9241     82.7210     18.8668
  1912.1000      8.0121      2.7611      0.0888     -6.7361     82.9081     18.5004
  1912.2000      8.0121      2.7835      0.0702     -8.0926     85.7652     18.3525
  1912.3000      8.0145      2.7990      0.1226     -9.0330     87.0514     18.7737
  1912.4000      8.0145      2.8099      0.0871     -9.6915     87.2657     19.9454
  1912.5000      8.0152      2.8166      0.0878    -10.0961     89.4138     20.8244
  1912.6000      8.0152      2.8188      0.0900    -10.2288     92.8946     20.9244
  1912.7000      8.0152      2.8063      0.1403     -9.4724     95.7523     20.9621
  1912.8000      8.0071      2.7772      0.0472     -7.7097     95.8178     21.2332
  1912.9000      8.0071      2.7438      0.0265     -5.6875     92.4698     21.3575
  1913.0000      8.0057      2.7128     -0.0245     -3.8064     88.8285     21.3251
  1913.1000      8.0057      2.6856      0.0226     -2.1550     89.0511     21.5382
  1913.2000      8.0057      2.6593      0.0338     -0.5610     91.6625     21.6715
  1913.3000      8.0203      2.6345     -0.0023      0.9403     90.7180     21.4976
  1913.4000      8.0203      2.6273     -0.0417      1.3747     85.6694     21.2896
  1913.5000      8.0190      2.6525     -0.0514     -0.1523     82.3317     20.9071
  1913.6000      8.0190      2.7059      0.0248     -3.3894     81.3325     20.4628
  1913.7000      8.0190      2.7640      0.0921     -6.9091     80.0433     20.6178
  1913.8000      8.0230      2.8000      0.0664     -9.0931     80.8355     21.3040
  1913.9000      8.0230      2.8021      0.0890     -9.2211     85.1994     21.7377
  1914.0000      8.0118      2.7775      0.0464     -7.7271     88.6746     21.9230
  1914.1000      8.0118      2.7452      0.0414     -5.7714     87.7731     22.0678
  1914.2000      8.0118      2.7188      0.0500     -4.1698     85.2945     21.9029
  1914.3000      8.0076      2.6975      0.0255     -2.8778     87.2915     21.7040
  1914.4000      8.0076      2.6787     -0.0125     -1.7417     92.2330     21.7480
  1914.5000      8.0027      2.6705      0.0090     -1.2437     97.1992     21.7758
  1914.6000      8.0027      2.6753      0.0266     -1.5332    104.3254     21.8195
  1914.7000      8.0027      2.6835      0.0560     -2.0281    110.1408     22.1828
  1914.8000      8.0087      2.6901      0.0847     -2.4329    109.6847     22.6307
  1914.9000      8.0087      2.6958      0.0354     -2.7746    103.3070     22.6634
  1915.0000      8.0059      2.6975      0.0505     -2.8768     96.9794     22.1933
  1915.1000      8.0059      2.6959      0.0776     -2.7824     95.3463     21.5176
