~Version Information
VERS.                      2.0: CWLS Log ASCII Standard - VERSION 2.0
WRAP.                       NO: One line per depth step
~Well Information Block
STRT.FT               390.0000: 
STOP.FT              1434.5000: 
STEP.FT                 0.1000: 
NULL.                -999.2500: 
COMP.          Pioneer Natural Resources: COMPANY
WELL.             John K 12-28: WELL
FLD.           Purgatoire River: FIELD
LOC.           1476' FNL & 465' FWL: LOCATION
CNTY.               Las Animas: COUNTY
SRVC.                Patterson: SERVICE COMPANY
DATE.          Mon Apr 10 06:53:47 2006: LOG DATE
UWI.           05 071 08723 00: UNIQUE WELL ID
STAT.                 Colorado: STATE
~Curve Information Block
DEPT.FT            0 000 00 00: Depth
DCAL.in                       : CDL Caliper
RHOB.g/cc                     : CDL Bulk Density
RHOC.g/cc                     : CDL Density Correction
DPOR.pu                       : CDL Density Porosity
GR.GAPI                       : Gamma Ray
NPOR.pu                       : Neutron Porosity
~Parameter Information Block
~A  Depth       DCAL        RHOB        RHOC        DPOR         GR         NPOR    
   390.0000      1.5814      2.1425     -0.4135     30.7585     93.3687     19.9939
   390.1000      1.5814      2.1561     -0.4197     29.9315     91.2685     19.0118
   390.2000      1.5814      2.1657     -0.4073     29.3512     91.2454     18.2003
   390.3000      1.5818      2.1689     -0.4158     29.1582     94.8239     17.8483
   390.4000      1.5818      2.1643     -0.3732     29.4358    100.6245     17.7571
   390.5000      1.5821      2.1504     -0.3690     30.2808    108.4775     18.0974
   390.6000      1.5821      2.1364     -0.4084     31.1268    114.8945     19.5370
   390.7000      1.5821      2.1301     -0.4239     31.5064    115.4452     21.4984
   390.8000      1.5826      2.1244     -0.4308     31.8551    114.6539     22.9015
   390.9000      1.5826      2.1161     -0.4354     32.3595    117.9625     23.0135
   391.0000      1.5821      2.1167     -0.4274     32.3185    122.2373     22.2363
   391.1000      1.5821      2.1350     -0.4101     31.2119    121.6079     22.3338
   391.2000      1.5821      2.1609     -0.3579     29.6418    113.4010     23.3984
   391.3000      1.5816      2.1825     -0.4021     28.3330    105.3453     23.6554
   391.4000      1.5816      2.1959     -0.3365     27.5232    105.4751     22.5977
   391.5000      1.5824      2.1890     -0.3636     27.9401    109.2201     21.0840
   391.6000      1.5824      2.1571     -0.4149     29.8722    112.1655     19.7350
   391.7000      1.5824      2.1190     -0.4108     32.1795    114.2031     18.8727
   391.8000      1.5827      2.1065     -0.4507     32.9397    115.3307     18.7371
   391.9000      1.5827      2.1322     -0.3623     31.3828    116.2687     18.9472
   392.0000      1.5829      2.1686     -0.3380     29.1729    117.8117     19.1065
   392.1000      1.5829      2.1898     -0.3735     27.8895    121.6271     19.6763
   392.2000      1.5829      2.2001     -0.2966     27.2676    125.9835     20.6597
   392.3000      1.5832      2.2114     -0.3572     26.5799    126.3237     21.2405
   392.4000      1.5832      2.2203     -0.2801     26.0424    123.5139     21.2995
   392.5000      1.5832      2.2084     -0.3235     26.7624    120.1045     21.2406
   392.6000      1.5832      2.1814     -0.3943     28.4027    119.0143     21.0602
   392.7000      1.5832      2.1718     -0.4062     28.9810    118.5937     20.7827
   392.8000      1.5827      2.1903     -0.3227     27.8609    114.9946     20.4490
   392.9000      1.5827      2.2157     -0.3452     26.3220    111.8889     20.1026
   393.0000      1.5826      2.2299     -0.3373     25.4625    112.3775     20.1732
   393.1000      1.5826      2.2379     -0.3773     24.9759    113.2838     20.9614
   393.2000      1.5826      2.2536     -0.3364     24.0223    110.5564     22.2282
   393.3000      1.5827      2.2726     -0.3012     22.8717    103.4340     23.0865
   393.4000      1.5827      2.2849     -0.3066     22.1298     96.3320     22.7399
   393.5000      1.5823      2.2931     -0.3325     21.6311     91.0211     21.5966
   393.6000      1.5823      2.2969     -0.2895     21.4025     83.2738     20.7088
   393.7000      1.5823      2.2843     -0.3228     22.1632     73.5799     20.4838
   393.8000      1.5828      2.2510     -0.3588     24.1803     70.8708     20.3437
   393.9000      1.5828      2.2168     -0.3806     26.2521     80.2499     19.7767
   394.0000      1.5836      2.2089     -0.4260     26.7361     93.7381     19.4173
   394.1000      1.5836      2.2233     -0.3377     25.8625    100.0280     19.3653
   394.2000      1.5836      2.2393     -0.4094     24.8938     97.8278     18.7769
   394.3000      1.5830      2.2563     -0.3490     23.8588     93.8617     17.7936
   394.4000      1.5830      2.2717     -0.3097     22.9258     92.3854     17.2399
   394.5000      1.5824      2.2756     -0.3342     22.6891     93.6719     17.1583
   394.6000      1.5824      2.2789     -0.3602     22.4884     96.7944     16.9257
   394.7000      1.5824      2.2960     -0.3562     21.4528     97.1820     16.6556
   394.8000      1.5818      2.3153     -0.2930     20.2876     90.9436     16.8320
   394.9000      1.5818      2.3174     -0.2820     20.1554     83.7987     17.1365
   395.0000      1.5812      2.3082     -0.3579     20.7138     80.9954     17.0725
   395.1000      1.5812      2.3002     -0.2942     21.1972     77.9221     16.8856
   395.2000      1.5812      2.2977     -0.3121     21.3539     74.6160     17.0427
   395.3000      1.5820      2.3048     -0.3440     20.9234     77.7127     17.7477
   395.4000      1.5820      2.3053     -0.2654     20.8923     84.8855     18.6058
   395.5000      1.5851      2.2820     -0.3329     22.3023     88.4878     18.6898
   395.6000      1.5851      2.2578     -0.3307     23.7670     87.0786     18.0926
   395.7000      1.5851      2.2538     -0.2974     24.0134     83.7363     17.5730
   395.8000      1.5870      2.2575     -0.3230     23.7889     84.2122     17.2809
   395.9000      1.5870      2.2556     -0.3137     23.9057     92.5551     17.1851
   396.0000      1.5851      2.2539     -0.3244     24.0070    102.0561     17.2570
   396.1000      1.5851      2.2671     -0.3135     23.2048    103.7577     17.8379
   396.2000      1.5851      2.3024     -0.3179     21.0664    101.8092     18.9902
   396.3000      1.5827      2.3402     -0.2591     18.7738    102.5757     19.7828
   396.4000      1.5827      2.3470     -0.2877     18.3647    104.2348     19.7073
   396.5000      1.5836      2.3232     -0.3135     19.8049    102.6274     19.2961
   396.6000      1.5836      2.2942     -0.2852     21.5632     98.2172     19.1649
   396.7000      1.5836      2.2745     -0.3423     22.7595     94.2692     19.4577
   396.8000      1.5857      2.2724     -0.4062     22.8823     92.0947     19.7228
   396.9000      1.5857      2.2775     -0.3447     22.5760     92.8208     19.4780
   397.0000      1.5843      2.2628     -0.3598     23.4694     96.1764     19.0417
   397.1000      1.5843      2.2248     -0.3772     25.7714     97.9873     18.8631
   397.2000      1.5843      2.1794     -0.4096     28.5187     99.1233     18.8118
   397.3000      1.5824      2.1409     -0.4545     30.8559    103.6374     18.6010
   397.4000      1.5824      2.1262     -0.4639     31.7447    109.5519     18.1566
   397.5000      1.5828      2.1438     -0.3893     30.6803    114.3085     17.9168
   397.6000      1.5828      2.1786     -0.4059     28.5727    116.4351     18.2892
   397.7000      1.5828      2.2173     -0.3551     26.2266    113.2851     18.8812
   397.8000      1.5828      2.2555     -0.3086     23.9117    108.2399     19.0490
   397.9000      1.5828      2.2837     -0.3020     22.2030    107.2094     18.8468
   398.0000      1.5814      2.2944     -0.2860     21.5527    109.5371     18.7041
   398.1000      1.5814      2.2845     -0.2622     22.1533    115.5032     18.7194
   398.2000      1.5814      2.2545     -0.2845     23.9722    123.0178     18.8310
   398.3000      1.5813      2.2202     -0.3182     26.0493    125.8375     19.1290
   398.4000      1.5813      2.2042     -0.4133     27.0192    126.8303     19.8287
   398.5000      1.5821      2.2087     -0.2865     26.7466    128.8087     20.9802
   398.6000      1.5821      2.2196     -0.3173     26.0856    126.6608     22.0150
   398.7000      1.5821      2.2339     -0.3204     25.2180    122.0511     22.0872
   398.8000      1.5832      2.2541     -0.3013     23.9926    121.0514     21.1823
   398.9000      1.5832      2.2808     -0.2703     22.3777    119.9753     20.0425
   399.0000      1.5842      2.3122     -0.2585     20.4712    113.8360     19.5015
   399.1000      1.5842      2.3249     -0.1660     19.7012    107.9710     19.6661
   399.2000      1.5842      2.2774     -0.2274     22.5817     99.1690     19.6626
   399.3000      1.5847      2.1645     -0.2978     29.4237    104.0794     19.2199
   399.4000      1.5847      2.0229     -0.3752     38.0082    103.2162     19.2027
   399.5000      1.5884      1.8827     -0.4535     46.5020     99.6595     19.4147
