~Version Information
VERS.                      2.0: CWLS Log ASCII Standard - VERSION 2.0
WRAP.                       NO: One line per depth step
~Well Information Block
STRT.FT               -10.0000: 
STOP.FT              2073.0000: 
STEP.FT                 0.2500: 
NULL.                -999.2500: 
COMP.          Pioneer Natural Resources: COMPANY
WELL.              Joplin 44-5: WELL
FLD.           Purgatorie River: FIELD
LOC.           262' FSL & 418' FEL--: LOCATION
PROV.                       CO: PROVINCE
CNTY.               Las Animas: COUNTRY
SRVC.          Patterson Wireline: SERVICE COMPANY
DATE.          Mon Dec 19 09:21:33 2005: LOG DATE
UWI.           05 071 08623 00: UNIQUE WELL ID
~Curve Information Block
DEPT.FT            0 000 00 00: Depth
CCL.                          : Casing Collar Locator
TT3.usec                      : CBL 3' Travel Time
AMP3.mV                       : CBL 3' Amplitude
GR.GAPI                       : Gamma Ray
~Parameter Information Block
~A  Depth       CCL         TT3         AMP3         GR     
# ...
  1631.5000      0.0000    717.4355      6.2642    124.5287
  1631.7500      0.0000    719.0212      6.3804    117.7706
  1632.0000      0.0000    719.9843      6.3963    112.9483
  1632.2500      0.0000    719.3945      6.3160    109.8100
  1632.5000      0.0000    717.1004      6.1661    106.6806
  1632.7500      0.0000    713.4897      5.9803    102.3913
  1633.0000      0.0000    708.4603      5.7852     97.8370
  1633.2500      0.0000    701.6844      5.5992     94.8870
  1633.5000      0.0000    694.4311      5.4384     94.3317
  1633.7500      0.0000    690.3844      5.3155     95.7538
  1634.0000      0.0000    693.3691      5.2323     98.7127
  1634.2500      0.0000    703.6590      5.1791    103.0850
  1634.5000      0.0000    717.1478      5.1423    108.4696
  1634.7500      0.0000    728.6964      5.1120    113.8974
  1635.0000      0.0000    735.7576      5.0863    118.1990
  1635.2500      0.0000    738.6750      5.0705    120.6022
  1635.5000      0.0000    738.6447      5.0697    121.2332
  1635.7500      0.0000    736.1812      5.0807    121.1895
  1636.0000      0.0000    731.1965      5.0927    121.9671
  1636.2500      0.0000    723.9924      5.0972    124.5651
  1636.5000      0.0000    715.9020      5.0964    129.0041
  1636.7500      0.0000    708.8220      5.1011    134.5159
  1637.0000      0.0000    704.1449      5.1227    139.8834
  1637.2500      0.0000    702.3834      5.1668    143.5771
  1637.5000      0.0000    703.6713      5.2320    144.1888
  1637.7500      0.0000    708.0881      5.3111    141.2917
  1638.0000      0.0000    715.1606      5.3980    135.7417
  1638.2500      0.0000    723.3342      5.4971    129.0351
  1638.5000      0.0000    730.5005      5.6229    122.6684
  1638.7500      0.0000    735.2527      5.7842    117.9120
  1639.0000      0.0000    737.4703      5.9682    115.4214
  1639.2500      0.0000    737.6753      6.1452    114.8117
  1639.5000      0.0000    736.0665      6.2895    114.8858
  1639.7500      0.0000    732.3896      6.3929    114.3611
  1640.0000      0.0000    726.7869      6.4602    112.6219
  1640.2500      0.0000    720.6582      6.4965    110.2479
  1640.5000      0.0000    716.4149      6.5022    108.8347
  1640.7500      0.0000    716.0909      6.4754    109.7098
  1641.0000      0.0000    719.9564      6.4171    112.5414
  1641.2500      0.0000    726.3265      6.3337    115.6040
  1641.5000      0.0000    732.7243      6.2350    117.5950
  1641.7500      0.0000    737.3952      6.1299    118.6822
  1642.0000      0.0000    739.9585      6.0207    119.6772
  1642.2500      0.0000    741.0071      5.9046    121.0615
  1642.5000      0.0000    741.4435      5.7834    123.1170
  1642.7500      0.0000    742.2083      5.6759    125.8960
  1643.0000      0.0000    744.2623      5.6165    128.4763
  1643.2500      0.0000    748.1891      5.6304    129.2491
  1643.5000      0.0000    753.3162      5.7078    127.6417
  1643.7500      0.0000    757.4487      5.8097    124.8313
  1644.0000      0.0000    758.2561      5.8980    122.3766
  1644.2500      0.0000    755.2241      5.9565    121.1056
  1644.5000      0.0000    749.7480      5.9874    121.8344
  1644.7500      0.0000    742.9722      5.9954    125.7920
  1645.0000      0.0000    733.7149      5.9751    132.8342
  1645.2500      0.0000    718.9908      5.9137    139.7790
  1645.5000      0.0000    697.6229      5.8069    142.3352
  1645.7500      0.0000    674.3886      5.6704    139.4027
  1646.0000      0.0000    659.6324      5.5316    134.4984
  1646.2500      0.0000    662.0533      5.4124    132.2361
  1646.5000      0.0000    680.6864      5.3254    134.0525
  1646.7500      0.0000    705.1584      5.2783    137.9226
  1647.0000      0.0000    724.1682      5.2724    141.1982
  1647.2500      0.0000    732.7157      5.2979    142.5112
  1647.5000      0.0000    732.1166      5.3369    141.4377
  1647.7500      0.0000    726.1996      5.3703    137.9679
  1648.0000      0.0000    718.7900      5.3839    133.1431
  1648.2500      0.0000    712.9156      5.3719    129.6277
  1648.5000      0.0000    710.1218      5.3383    130.2571
  1648.7500      0.0000    710.0663      5.2906    135.1019
  1649.0000      0.0000    711.3201      5.2343    140.3527
  1649.2500      0.0000    712.8151      5.1736    141.1812
  1649.5000      0.0000    714.3345      5.1194    136.0639
  1649.7500      0.0000    715.7870      5.0887    127.8551
  1650.0000      0.0000    716.7064      5.0936    120.7544
  1650.2500      0.0000    716.7295      5.1321    117.0202
  1650.5000      0.0000    716.0839      5.1932    116.3896
  1650.7500      0.0000    715.3067      5.2678    117.1609
  1651.0000      0.0000    714.7440      5.3536    117.0641
  1651.2500      0.0000    714.5529      5.4530    114.0700
  1651.5000      0.0000    714.7954      5.5668    107.4145
  1651.7500      0.0000    715.1422      5.6868     97.9317
  1652.0000      0.0000    714.7850      5.7947     87.4996
  1652.2500      0.0000    713.0454      5.8716     78.5540
  1652.5000      0.0000    710.0681      5.9118     73.6616
  1652.7500      0.0000    706.7728      5.9256     74.5291
  1653.0000      0.0000    704.0800      5.9276     80.9630
  1653.2500      0.0000    702.1149      5.9220     90.8630
  1653.5000      0.0000    699.8248      5.9021    101.2088
  1653.7500      0.0000    694.8848      5.8593    109.2706
  1654.0000      0.0000    684.2416      5.7900    113.7879
  1654.2500      0.0000    666.4478      5.6942    115.6276
  1654.5000      0.0000    645.1940      5.5728    116.9471
  1654.7500      0.0000    629.6608      5.4261    119.1545
  1655.0000      0.0000    628.4271      5.2506    121.7495
  1655.2500      0.0000    641.9415      5.0410    123.1525
  1655.5000      0.0000    662.4119      4.8027    122.2785
  1655.7500      0.0000    680.9008      4.5671    119.4655
  1656.0000      0.0000    692.7132      4.3903    116.4837
  1656.2500      0.0000    696.9047      4.3210    115.4405
  1656.5000      0.0000    694.5188      4.3619    117.0212
  1656.7500      0.0000    689.2219      4.4709    119.7431
  1657.0000      0.0000    687.5634      4.6108    121.0592
  1657.2500      0.0000    695.5167      4.7834    119.1997
  1657.5000      0.0000    713.9958      5.0042    114.3039
  1657.7500      0.0000    738.6953      5.2651    108.3443
  1658.0000      0.0000    764.2749      5.5386    104.0967
  1658.2500      2.0000    787.0988      5.8033    103.7842
  1658.5000      0.0000    804.2399      6.0514    108.0282
  1658.7500      0.0000    813.2353      6.2969    115.4012
  1659.0000      0.0000    814.3082      6.5796    122.8583
  1659.2500      0.0000    810.6997      6.9174    127.2941
  1659.5000      0.0000    805.4604      7.2383    127.3285
  1659.7500      0.0000    798.7638      7.4165    123.6345
  1660.0000      0.0000    788.8737      7.4075    117.9173
  1660.2500      0.0000    774.9573      7.2928    112.1384
  1660.5000      0.0000    758.5082      7.1719    108.2568
  1660.7500      0.0000    742.5217      7.0624    107.6552
  1661.0000      0.0000    729.6538      6.9242    110.4380
  1661.2500      0.0000    720.8287      6.7351    115.2992
  1661.5000      0.0000    715.3336      6.5185    120.1631
  1661.7500      0.0000    712.1362      6.3219    123.4836
  1662.0000      0.0000    710.5602      6.1862    125.2789
  1662.2500      0.0000    708.5873      6.1257    126.5705
  1662.5000      0.0000    700.6124      6.1236    127.8669
  1662.7500      0.0000    679.4095      6.1423    128.8387
  1663.0000      0.0000    643.2455      6.1451    129.1792
  1663.2500      0.0000    601.2133      6.1161    128.9193
  1663.5000      0.0000    568.8257      6.0651    128.0928
  1663.7500      0.0000    556.3839      6.0161    126.6841
  1664.0000      0.0000    562.1229      5.9878    124.6916
  1664.2500      0.0000    577.4747      5.9812    121.9479
  1664.5000      0.0000    597.4946      5.9826    118.3528
  1664.7500      0.0000    623.0654      5.9790    114.5369
