~Version Information
VERS.                      2.0: CWLS Log ASCII Standard - VERSION 2.0
WRAP.                       NO: One line per depth step
~Well Information Block
STRT.FT               875.0000: 
STOP.FT              2053.0000: 
STEP.FT                 0.1000: 
NULL.                -999.2500: 
COMP.          Pioneer Natural Resources: COMPANY
WELL.          Woodstock 43-19: WELL
FLD.           Purgatoire River: FIELD
LOC.           2195' FSL & 250' FEL: LOCATION
CNTY.               Las Animas: COUNTY
SRVC.                Patterson: SERVICE COMPANY
DATE.          Thu Feb 02 12:45:04 2006: LOG DATE
UWI.           05 071 08677 00: UNIQUE WELL ID
STAT.                 Colorado: STATE
~Curve Information Block
DEPT.FT            0 000 00 00: Depth
DCAL.in                       : CDL Caliper
RHOB.g/cc                     : CDL Bulk Density
RHOC.g/cc                     : CDL Density Correction
DPOR.pu                       : CDL Density Porosity
GR.GAPI                       : Gamma Ray
NPOR.pu                       : Neutron Porosity
~Parameter Information Block
~A  Depth       DCAL        RHOB        RHOC        DPOR         GR         NPOR    
   875.0000      8.1797      1.2119      2.0000     -0.0288    100.1688     18.5006
   875.1000      8.1797      1.1548      2.0000     -0.0299     98.7829     18.4109
   875.2000      8.1797      1.0996      2.0000     -0.0310     98.7536     18.2907
   875.3000      8.1865      1.0880      2.0000     -0.0313     98.6945     18.1321
   875.4000      8.1865      1.1633      2.0000     -0.0297    102.5118     18.1640
   875.5000      8.1829      1.2953      2.0000     -0.0271    111.8286     18.7836
   875.6000      8.1829      1.4054      2.0000     -0.0249    121.2176     19.5199
   875.7000      8.1829      1.4583      2.0000     -0.0238    124.4959     19.7335
   875.8000      8.1807      1.4774      2.0000     -0.0235    121.3607     19.7948
   875.9000      8.1807      1.4831     -0.3521     -0.0234    116.8449     19.8486
   876.0000      8.1769      1.4713     -0.3374     -0.0236    115.4392     19.9303
   876.1000      8.1769      1.4426     -0.3725     -0.0242    115.1593     20.3418
   876.2000      8.1769      1.4196     -0.4390     -0.0246    112.5107     20.4937
   876.3000      8.1922      1.4189     -0.3482     -0.0246    111.5438     19.7958
   876.4000      8.1922      1.4330     -0.3200     73.7580    117.2126     18.6997
   876.5000      8.1942      1.4521     -0.3230     72.5972    125.9240     17.8201
   876.6000      8.1942      1.4629     -0.2667     71.9468    128.5221     17.1324
   876.7000      8.1942      1.4386     -0.2872     73.4159    122.6039     16.4731
   876.8000      8.1866      1.3696     -0.3451     77.5987    117.3578     15.8584
   876.9000      8.1866      1.2807     -0.4726     82.9897    116.2456     15.2887
   877.0000      8.1850      1.2021     -0.4618     87.7506    113.8450     14.6742
   877.1000      8.1850      1.1420     -0.5138     91.3931    111.5722     14.1436
   877.2000      8.1850      1.0926     -0.4871     94.3898    115.5207     13.8246
   877.3000      8.1694      1.0548     -0.6018     96.6780    122.7395     13.7120
   877.4000      8.1694      1.0578     -0.6437     96.4993    125.6075     13.6794
   877.5000      8.1723      1.1218     -0.5227     92.6202    124.8441     13.5066
   877.6000      8.1723      1.2254     -0.4779     86.3406    127.9093     13.5467
   877.7000      8.1723      1.3318     -0.4175     79.8901    135.0329     14.4330
   877.8000      8.1802      1.4120     -0.4038     75.0333    137.4993     15.7841
   877.9000      8.1802      1.4503     -0.3651     72.7063    134.3415     16.5447
   878.0000      8.1770      1.4596     -0.5073     72.1436    129.7960     16.3087
   878.1000      8.1770      1.4752     -0.4885     71.1985    125.5120     15.7598
   878.2000      8.1770      1.5132     -0.4769     68.8988    124.6135     15.5806
   878.3000      8.1786      1.5542     -0.3578     66.4142    123.4461     15.7636
   878.4000      8.1786      1.5731     -0.4091     65.2691    114.4890     15.9181
   878.5000      8.1886      1.5726     -0.4261     65.2964    103.6466     15.5224
   878.6000      8.1886      1.5712     -0.4340     65.3830    101.1697     14.5038
   878.7000      8.1886      1.5685     -0.3647     65.5428    107.0939     13.2871
   878.8000      8.1894      1.5531     -0.4181     66.4764    114.3081     12.3928
   878.9000      8.1894      1.5323     -0.4136     67.7415    117.6621     12.5945
   879.0000      8.2003      1.5283     -0.4840     67.9833    117.0172     13.8808
   879.1000      8.2003      1.5515     -0.4363     66.5778    114.2964     15.0987
   879.2000      8.2003      1.5852     -0.4281     64.5305    114.5302     15.5418
   879.3000      8.2005      1.6109     -0.4435     62.9733    116.7263     15.4756
   879.4000      8.2005      1.6347     -0.4733     61.5356    114.0508     15.4415
   879.5000      8.2008      1.6630     -0.3857     59.8203    107.3843     15.6380
   879.6000      8.2008      1.6836     -0.4020     58.5683    103.6920     15.4916
   879.7000      8.2008      1.6959     -0.4159     57.8233    105.1540     15.0397
   879.8000      8.1841      1.7091     -0.3968     57.0242    107.2891     15.0433
   879.9000      8.1841      1.7197     -0.3956     56.3846    107.5653     15.3412
   880.0000      8.1954      1.7295     -0.4058     55.7892    107.3628     15.7544
   880.1000      8.1954      1.7455     -0.3483     54.8188    106.6365     16.5898
   880.2000      8.1954      1.7612     -0.3732     53.8669    102.9304     17.5061
   880.3000      8.1965      1.7725     -0.3826     53.1797     97.3796     17.5282
   880.4000      8.1965      1.7842     -0.3720     52.4703     94.1257     16.3385
   880.5000      8.1820      1.8003     -0.3798     51.4981     94.2069     14.5746
   880.6000      8.1820      1.8171     -0.3485     50.4763     97.4337     12.9818
   880.7000      8.1820      1.8217     -0.3655     50.1985     99.8001     12.1786
   880.8000      8.1873      1.8094     -0.3979     50.9475     96.0222     12.5651
   880.9000      8.1873      1.7956     -0.4328     51.7828     89.1580     14.0189
   881.0000      8.1957      1.7941     -0.4020     51.8697     86.9734     15.6517
   881.1000      8.1957      1.7966     -0.3761     51.7219     90.9372     16.3938
   881.2000      8.1957      1.7827     -0.3420     52.5644     94.7490     16.0005
   881.3000      8.1875      1.7482     -0.4533     54.6549     92.8785     14.9272
   881.4000      8.1875      1.7118     -0.4622     56.8614     86.7380     13.9646
   881.5000      8.1848      1.6898     -0.4899     58.1959     84.5716     13.8591
   881.6000      8.1848      1.6813     -0.4370     58.7083     88.5619     14.6129
   881.7000      8.1848      1.6752     -0.4389     59.0767     90.0813     15.4980
   881.8000      8.1821      1.6687     -0.4694     59.4756     86.5802     16.1674
   881.9000      8.1821      1.6652     -0.4307     59.6859     85.3860     16.7810
   882.0000      8.1923      1.6537     -0.4223     60.3813     90.2114     17.1788
   882.1000      8.1923      1.6263     -0.4626     62.0444     99.2543     17.2593
   882.2000      8.1923      1.5969     -0.5320     63.8215    109.4899     16.9477
   882.3000      8.1978      1.5726     -0.4571     65.2961    116.8886     16.3002
   882.4000      8.1978      1.5460     -0.5158     66.9107    121.8103     15.7564
   882.5000      8.1974      1.5298     -0.5764     67.8915    126.0426     15.5866
   882.6000      8.1974      1.5390     -0.5172     67.3335    125.4149     15.4707
   882.7000      8.1974      1.5565     -0.4527     66.2732    118.7024     15.2353
   882.8000      8.2079      1.5666     -0.5242     65.6616    111.3360     15.4360
   882.9000      8.2079      1.5822     -0.5109     64.7178    105.3162     16.4204
   883.0000      8.2015      1.6060     -0.4714     63.2702    100.4981     17.2708
   883.1000      8.2015      1.6138     -0.4100     62.8025     98.1750     16.9921
   883.2000      8.2015      1.5921     -0.4808     64.1139     97.7167     16.1506
   883.3000      8.1977      1.5606     -0.5006     66.0225     98.8174     15.7666
   883.4000      8.1977      1.5518     -0.6029     66.5596    106.2023     16.2921
   883.5000      8.2069      1.5790     -0.5216     64.9063    120.7140     17.4811
   883.6000      8.2069      1.6144     -0.4235     62.7609    131.0892     18.5448
   883.7000      8.2069      1.6260     -0.4263     62.0606    132.0051     18.9775
   883.8000      8.2112      1.6234     -0.5094     62.2191    128.9057     18.6259
   883.9000      8.2112      1.6267     -0.4400     62.0182    121.7581     17.9657
   884.0000      8.2148      1.6278     -0.4129     61.9504    110.1478     17.4408
   884.1000      8.2148      1.6210     -0.5073     62.3649     99.7999     16.7000
   884.2000      8.2148      1.6195     -0.4755     62.4543     94.8694     15.8763
   884.3000      8.2109      1.6301     -0.4537     61.8101     96.3061     15.8526
   884.4000      8.2109      1.6451     -0.4542     60.9016    100.3924     16.6664
   884.5000      8.1993      1.6514     -0.3990     60.5234    101.2962     17.4284
