~Version Information
VERS.                      2.0: CWLS Log ASCII Standard - VERSION 2.0
WRAP.                       NO: One line per depth step
~Well Information Block
STRT.FT                 0.0000: 
STOP.FT               878.7500: 
STEP.FT                 0.2500: 
NULL.                -999.2500: 
COMP.          Pioneer Natural Resources: COMPANY
WELL.          Screamin 12-29 Tr: WELL
FLD.           Purgatoire River: FIELD
LOC.           1979' FNL & 532' FWL--: LOCATION
CNTY.               Las Animas: COUNTY
SRVC.                Patterson: SERVICE COMPANY
DATE.          Thu Apr 13 22:21:38 2006: LOG DATE
UWI.           05 071 08660 00: UNIQUE WELL ID
STAT.                 Colorado: STATE
~Curve Information Block
DEPT.FT            0 000 00 00: Depth
GR.GAPI                       : Gamma Ray
CCL.                          : Casing Collar Locator
TT3.usec                      : CBL 3' Travel Time
AMP3.mV                       : CBL 3' Amplitude
~Parameter Information Block
~A  Depth        GR         CCL         TT3         AMP3    
# ...
   603.0000     74.1252      0.0000    740.5784      4.8786
   603.2500     70.5984      0.0000    764.5696      4.8737
   603.5000     65.6851      0.0000    802.4368      4.8475
   603.7500     62.9077      0.0000    823.2132      4.8227
   604.0000     60.1602      0.0000    843.1732      4.7854
   604.2500     59.5597      0.0000    849.2332      4.7685
   604.5000     60.1444      0.0000    850.9053      4.7654
   604.7500     60.8621      0.0000    849.4059      4.7762
   605.0000     61.1926      0.0000    845.0323      4.7965
   605.2500     60.4918      0.0000    840.1425      4.8046
   605.5000     58.3132      0.0000    828.6303      4.8035
   605.7500     56.8292      0.0000    818.8967      4.7932
   606.0000     55.9001      0.0000    804.4896      4.7619
   606.2500     56.4081      0.0000    796.1274      4.7337
   606.5000     58.3158      0.0000    783.2106      4.6973
   606.7500     59.8704      0.0000    771.2491      4.6876
   607.0000     62.0567      0.0000    744.0352      4.6981
   607.2500     63.2654      0.0000    719.6813      4.7149
   607.5000     64.9541      0.0000    677.2712      4.7424
   607.7500     66.5527      0.0000    647.2391      4.7621
   608.0000     70.7652      0.0000    602.5443      4.8016
   608.2500     74.9652      0.0000    575.8292      4.8366
   608.5000     82.4106      0.0000    548.0459      4.8947
   608.7500     87.0161      0.0000    541.3682      4.9285
   609.0000     91.4094      0.0000    549.0442      4.9613
   609.2500     92.1704      0.0000    562.4229      4.9719
   609.5000     90.9599      0.0000    587.0964      4.9812
   609.7500     89.6860      0.0000    602.8835      4.9875
   610.0000     88.6705      0.0000    621.7807      4.9963
   610.2500     89.0198      0.0000    630.8274      5.0021
   610.5000     90.8467      0.0000    641.9554      5.0200
   610.7500     92.3479      0.0000    650.7527      5.0426
   611.0000     94.1000      0.0000    669.6496      5.0856
   611.2500     94.9486      0.0000    684.7469      5.1101
   611.5000     96.5482      0.0000    702.1352      5.1304
   611.7500     98.0292      0.0000    704.3663      5.1352
   612.0000     99.8699      0.0000    691.4543      5.1391
   612.2500     99.9292      0.0000    676.4765      5.1442
   612.5000     97.7669      0.0000    655.2075      5.1607
   612.7500     95.4053      0.0000    645.6265      5.1783
   613.0000     91.7791      0.0000    638.6139      5.2091
   613.2500     89.5335      0.0000    637.2332      5.2261
   613.5000     85.8876      0.0000    637.2510      5.2356
   613.7500     83.0313      0.0000    637.6198      5.2278
   614.0000     78.6365      0.0000    637.9651      5.1965
   614.2500     76.1450      0.0000    638.0018      5.1680
   614.5000     73.0233      0.0000    638.1166      5.1264
   614.7500     70.7789      0.0000    638.8571      5.1063
   615.0000     66.5643      0.0000    643.3199      5.1005
   615.2500     63.5825      0.0000    650.6988      5.1196
   615.5000     60.4364      0.0000    671.6121      5.1828
   615.7500     60.0660      0.0000    691.7578      5.2363
   616.0000     62.2657      0.0000    724.8010      5.3062
   616.2500     64.6757      0.0000    743.1198      5.3387
   616.5000     67.4450      0.0000    758.0974      5.3821
   616.7500     67.9765      0.0000    758.6635      5.4226
   617.0000     67.4998      0.0000    746.8049      5.5071
   617.2500     67.4463      0.0000    731.9797      5.5666
   617.5000     69.0428      0.0000    702.6726      5.6310
   617.7500     70.9779      0.0000    679.7445      5.6484
   618.0000     73.5422      0.0000    638.5518      5.6415
   618.2500     74.0710      0.0000    604.0977      5.6218
   618.5000     72.3443      0.0000    542.9954      5.5730
   618.7500     69.7326      0.0000    502.5486      5.5254
   619.0000     65.1622      0.0000    457.9762      5.4407
   619.2500     63.0052      0.0000    444.1647      5.3958
   619.5000     62.9988      0.0000    443.4186      5.3895
   619.7500     65.5271      0.0000    448.8614      5.4381
   620.0000     72.4082      0.0000    453.2153      5.5719
   620.2500     77.9757      0.0000    449.6259      5.6784
   620.5000     85.3827      0.0000    435.5105      5.8289
   620.7500     88.6501      0.0000    424.3109      5.9090
   621.0000     90.9215      0.0000    414.0466      5.9816
   621.2500     91.3319      0.0000    416.7741      5.9932
   621.5000     91.2311      0.0000    441.5121      5.9638
   621.7500     90.7296      0.0000    471.9297      5.9277
   622.0000     89.0393      0.0000    529.6379      5.8759
   622.2500     87.3117      0.0000    567.2785      5.8523
   622.5000     84.0024      0.0000    609.9207      5.8348
   622.7500     81.1362      0.0000    627.3179      5.8310
   623.0000     75.3605      0.0000    642.3463      5.8324
   623.2500     70.9006      0.0000    649.8598      5.8388
   623.5000     65.4927      0.0000    663.3810      5.8569
   623.7500     63.9645      0.0000    674.8351      5.8709
   624.0000     64.7674      0.0000    692.7122      5.8872
   624.2500     66.3784      0.0000    701.5352      5.8950
   624.5000     69.3517      0.0000    704.6090      5.9102
   624.7500     71.9353      0.0000    699.5398      5.9263
   625.0000     76.9095      0.0000    687.6678      5.9589
   625.2500     80.0773      0.0000    682.8566      5.9833
   625.5000     82.2465      0.0000    687.3330      6.0172
   625.7500     81.4058      0.0000    697.8568      6.0327
   626.0000     78.2139      0.0000    718.4933      6.0371
   626.2500     76.3733      0.0000    731.2662      6.0235
   626.5000     75.6866      0.0000    745.6306      5.9730
   626.7500     76.3821      0.0000    752.6274      5.9189
   627.0000     77.5491      0.0000    761.8150      5.8169
   627.2500     77.7243      0.0000    767.7480      5.7473
   627.5000     77.4316      0.0000    775.1783      5.6594
   627.7500     77.6567      0.0000    777.7932      5.6160
   628.0000     79.5759      0.0000    776.6929      5.5704
   628.2500     81.8569      0.0000    772.8715      5.5483
   628.5000     86.0107      0.0000    764.8077      5.5126
   628.7500     88.7958      0.0000    759.6184      5.4750
   629.0000     92.6325      0.0000    754.3262      5.3799
   629.2500     95.0600      0.0000    752.9251      5.2885
   629.5000     98.7393      0.0000    753.2248      5.1212
   629.7500    101.0606      0.0000    753.2098      5.0011
   630.0000    103.6081      0.0000    747.0646      4.8265
   630.2500    104.3169      0.0000    735.6209      4.7220
   630.5000    103.6803      0.0000    707.9404      4.5952
   630.7500    102.2416      0.0000    687.3576      4.5358
   631.0000     99.4987      0.0000    663.3051      4.4816
   631.2500     98.2741      0.0000    654.2303      4.4609
   631.5000     98.5214      0.0000    648.0513      4.4385
   631.7500     99.5629      0.0000    645.8294      4.4224
   632.0000     99.8392      0.0000    642.5854      4.3827
   632.2500     98.0422      0.0000    640.4595      4.3362
   632.5000     93.0870      0.0000    637.8733      4.2296
   632.7500     89.6734      0.0000    636.4871      4.1440
   633.0000     85.7588      0.0000    634.2654      4.0357
   633.2500     83.5389      0.0000    632.3674      4.0012
   633.5000     79.5091      0.0000    628.9550      4.0121
   633.7500     76.3762      0.0000    626.6881      4.0356
   634.0000     72.4556      0.0000    623.5441      4.0249
   634.2500     71.1008      0.0000    620.8599      3.9568
   634.5000     70.9535      0.0000    613.3092      3.7754
   634.7500     71.7770      0.0000    604.5643      3.6463
   635.0000     74.2216      0.0000    585.5591      3.5284
   635.2500     76.5231      0.0000    570.1981      3.5242
   635.5000     79.9691      0.0000    546.9827      3.6105
   635.7500     81.5844      0.0000    533.8661      3.7048
   636.0000     82.9570      2.0000    520.5592      3.8686
   636.2500     83.9107      1.5320    516.0281      3.9837
