~Version Information
VERS.                      2.0: CWLS Log ASCII Standard - VERSION 2.0
WRAP.                       NO: One line per depth step
~Well Information Block
STRT.FT                10.0000: 
STOP.FT              1187.0000: 
STEP.FT                 0.1000: 
NULL.                -999.2500: 
COMP.          Pioneer Natural Resources: COMPANY
WELL.          Whitecoat 14-36: WELL
FLD.           Purgatorie River: FIELD
LOC.           606' FSL & 260' FWL: LOCATION
PROV.                 Colorado: PROVINCE
CNTY.               Las Animas: COUNTRY
SRVC.                Patterson: SERVICE COMPANY
DATE.          Tue Dec 06 07:14:37 2005: LOG DATE
UWI.                          : UNIQUE WELL ID
~Curve Information Block
DEPT.FT            0 000 00 00: Depth
DCAL.in                       : CDL Caliper
RHOB.g/cc                     : CDL Bulk Density
RHOC.g/cc                     : CDL Density Correction
DPOR.pu                       : CDL Density Porosity
GR.GAPI                       : Gamma Ray
NPOR.pu                       : Neutron Porosity
~Parameter Information Block
~A  Depth       DCAL        RHOB        RHOC        DPOR         GR         NPOR    
# ...
   394.0000      7.9886      2.4696      0.0258     10.9336    124.1946     23.3916
   394.1000      7.9886      2.4457     -0.0393     12.3837    132.9261     22.6283
   394.2000      7.9886      2.4397     -0.0555     12.7451    140.0678     22.1813
   394.3000      7.9952      2.4586      0.0150     11.5980    141.3176     21.9614
   394.4000      7.9952      2.4782      0.0862     10.4123    140.4881     21.8754
   394.5000      8.0443      2.4754      0.0608     10.5809    144.7448     21.8412
   394.6000      8.0443      2.4632      0.0337     11.3223    151.5818     21.8157
   394.7000      8.0443      2.4642      0.0665     11.2578    154.6629     22.2155
   394.8000      8.0897      2.4793      0.0574     10.3465    155.4193     23.1816
   394.9000      8.0897      2.4956      0.0637      9.3588    158.6293     23.9514
   395.0000      8.1498      2.5096      0.0551      8.5083    164.0544     24.1449
   395.1000      8.1498      2.5269      0.0779      7.4620    166.7005     24.1744
   395.2000      8.1498      2.5343      0.1231      7.0145    166.1157     24.3388
   395.3000      8.0961      2.5147      0.0500      8.2003    165.2304     24.6671
   395.4000      8.0961      2.4898     -0.0250      9.7116    163.0417     25.0804
   395.5000      8.1226      2.4885      0.0100      9.7899    158.7066     25.4902
   395.6000      8.1226      2.5098      0.0010      8.4946    154.4707     25.8654
   395.7000      8.1226      2.5355      0.0649      6.9413    152.0559     26.1191
   395.8000      8.1059      2.5433      0.0462      6.4663    152.5268     26.0995
   395.9000      8.1059      2.5337     -0.0198      7.0501    153.8897     25.9235
   396.0000      8.0935      2.5277      0.0138      7.4109    152.2707     25.8339
   396.1000      8.0935      2.5329      0.0175      7.0964    147.3699     25.7922
   396.2000      8.0935      2.5399      0.0298      6.6704    142.9278     25.7455
   396.3000      8.0561      2.5425      0.0267      6.5168    140.4797     25.8599
   396.4000      8.0561      2.5435      0.0388      6.4565    138.6945     25.9734
   396.5000      8.0796      2.5440      0.0542      6.4249    138.0243     25.8678
   396.6000      8.0796      2.5484      0.0082      6.1564    139.0392     25.8714
   396.7000      8.0796      2.5597      0.0747      5.4724    141.3001     26.0329
   396.8000      8.0649      2.5641      0.0687      5.2050    142.9238     26.1509
   396.9000      8.0649      2.5565      0.0393      5.6690    141.6239     26.4164
   397.0000      8.0741      2.5471      0.0437      6.2382    137.6995     26.6974
   397.1000      8.0741      2.5384      0.0714      6.7643    135.2618     26.6046
   397.2000      8.0741      2.5296      0.0644      7.2985    137.8228     26.2209
   397.3000      8.0392      2.5305      0.0564      7.2402    143.0796     25.8109
   397.4000      8.0392      2.5442      0.0761      6.4130    146.1741     25.5640
   397.5000      8.0435      2.5622      0.0507      5.3183    145.3645     25.6200
   397.6000      8.0435      2.5749      0.0992      4.5498    143.9413     25.9930
   397.7000      8.0435      2.5696      0.0891      4.8728    145.1526     26.4095
   397.8000      8.0480      2.5466      0.0679      6.2684    146.4811     26.4121
   397.9000      8.0480      2.5217      0.0521      7.7732    145.7410     25.8250
   398.0000      8.0627      2.5057      0.0471      8.7427    145.5107     25.0925
   398.1000      8.0627      2.4939      0.0567      9.4615    147.1109     24.7192
   398.2000      8.0627      2.4807      0.0545     10.2579    150.5346     24.7018
   398.3000      8.0649      2.4678      0.0794     11.0442    155.1298     24.9487
   398.4000      8.0649      2.4513      0.0709     12.0403    158.6204     25.2477
   398.5000      8.0772      2.4315      0.0204     13.2416    159.4317     25.0457
   398.6000      8.0772      2.4209      0.0452     13.8825    157.5207     24.3394
   398.7000      8.0772      2.4257      0.0612     13.5947    155.0155     23.9114
   398.8000      8.0821      2.4424      0.0394     12.5799    153.0444     24.0407
   398.9000      8.0821      2.4691      0.1123     10.9665    150.0518     24.2402
   399.0000      8.0815      2.5022      0.1602      8.9586    146.8308     24.2288
   399.1000      8.0815      2.5350      0.1926      6.9698    147.3879     24.1902
   399.2000      8.0815      2.5610      0.2192      5.3926    152.6197     24.3440
   399.3000      8.1109      2.5789      0.2457      4.3062    159.0055     24.6150
   399.4000      8.1109      2.5901      0.1881      3.6281    161.7573     24.6852
   399.5000      8.1115      2.5929      0.1853      3.4596    158.9897     24.6051
   399.6000      8.1115      2.5817      0.1582      4.1423    153.9517     24.6398
   399.7000      8.1115      2.5593      0.1368      5.4947    150.9875     24.8215
   399.8000      8.1036      2.5431      0.1261      6.4784    150.5406     24.9894
   399.9000      8.1036      2.5422      0.1758      6.5334    149.2544     24.9911
   400.0000      8.0968      2.5491      0.1642      6.1178    147.3288     24.9176
   400.1000      8.0968      2.5581      0.1612      5.5712    147.5293     24.8894
   400.2000      8.0968      2.5624      0.1841      5.3068    149.2318     24.7473
   400.3000      8.1012      2.5489      0.1813      6.1272    150.1550     24.5028
   400.4000      8.1012      2.5237      0.1112      7.6572    149.1140     24.3917
   400.5000      8.0971      2.5226      0.1000      7.7220    145.7152     24.4122
   400.6000      8.0971      2.5683      0.2074      4.9541    141.7370     24.5176
   400.7000      8.0971      2.6497      0.1661      0.0204    139.5211     24.8128
   400.8000      8.0600      2.7530      0.1906     -6.2452    138.1743     25.4800
   400.9000      8.0600      2.8668      0.2267    -13.1395    134.3900     26.7152
   401.0000      8.0577      2.9788      0.2389    -19.9273    127.4963     28.5198
   401.1000      8.0577      3.0783      0.2909    -25.9581    119.5917     30.5352
   401.2000      8.0577      3.1509      0.2861    -30.3588    110.8663     32.3958
   401.3000      8.1390      3.1898      0.2325    -32.7174     99.9617     33.9603
   401.4000      8.1390      3.2011      0.1864    -33.4018     88.7363     35.2622
   401.5000      8.0939      3.1938      0.0466    -32.9598     80.5488     36.3942
   401.6000      8.0939      3.1744     -0.0105    -31.7802     76.0123     37.3268
   401.7000      8.0939      3.1575     -0.0502    -30.7603     72.7862     37.8956
   401.8000      7.9391      3.1723     -0.0151    -31.6515     68.9280     38.1351
   401.9000      7.9391      3.2229      0.1144    -34.7206     65.4317     38.1240
   402.0000      7.8876      3.2783      0.1201    -38.0788     64.6221     37.7059
   402.1000      7.8876      3.3190      0.0972    -40.5465     66.1028     36.6990
   402.2000      7.8876      3.3333      0.1841    -41.4130     67.5810     35.0389
   402.3000      7.8548      3.3015      0.2003    -39.4844     69.7828     32.9722
   402.4000      7.8548      3.2239      0.1788    -34.7836     75.0862     30.9272
   402.5000      7.8388      3.1180      0.1031    -28.3644     82.2086     29.1219
   402.6000      7.8388      3.0046      0.0120    -21.4889     87.7142     27.5687
   402.7000      7.8388      2.8993     -0.0519    -15.1101     90.9585     26.1428
   402.8000      7.8276      2.7987     -0.0753     -9.0126     93.6244     24.8233
   402.9000      7.8276      2.7015     -0.1120     -3.1205     97.0732     23.7882
   403.0000      7.9883      2.6260     -0.0764      1.4523    102.4210     23.0297
   403.1000      7.9883      2.5856     -0.0209      3.9004    108.4439     22.3113
   403.2000      7.9883      2.5784      0.0315      4.3404    112.0141     21.6375
   403.3000      8.0411      2.5879      0.1177      3.7655    113.1904     21.1362
   403.4000      8.0411      2.5862      0.1366      3.8656    114.6720     20.7530
   403.5000      8.0333      2.5611      0.1364      5.3856    118.4669     20.5143
