~Version Information
VERS.                      2.0: CWLS Log ASCII Standard - VERSION 2.0
WRAP.                       NO: One line per depth step
~Well Information Block
STRT.FT               588.7000: 
STOP.FT              1820.2000: 
STEP.FT                 0.1000: 
NULL.                -999.2500: 
COMP.          Pioneer Natural Resources: COMPANY
WELL.           Loews 41-32 Tr: WELL
FLD.           Purgatoire River: FIELD
LOC.           706' FNL & 224' FEL--: LOCATION
CNTY.               Las Animas: COUNTY
SRVC.                Patterson: SERVICE COMPANY
DATE.          Tue Feb 21 10:23:46 2006: LOG DATE
UWI.           05 071 08690 00: UNIQUE WELL ID
STAT.                 Colorado: STATE
~Curve Information Block
DEPT.FT            0 000 00 00: Depth
DCAL.in                       : CDL Caliper
RHOB.g/cc                     : CDL Bulk Density
RHOC.g/cc                     : CDL Density Correction
DPOR.pu                       : CDL Density Porosity
GR.GAPI                       : Gamma Ray
~Parameter Information Block
~A  Depth       DCAL        RHOB        RHOC        DPOR         GR     
# ...
   756.7000      8.2771      2.3929      0.0541     15.5794    150.0344
   756.8000      8.2758      2.3765      0.0317     16.5764    155.7841
   756.9000      8.2758      2.3918      0.1127     15.6512    159.2562
   757.0000      8.2727      2.4285      0.1829     13.4222    160.3367
   757.1000      8.2727      2.4517      0.1590     12.0205    161.8088
   757.2000      8.2727      2.4519      0.0914     12.0058    163.4148
   757.3000      8.2694      2.4485      0.0912     12.2126    162.5532
   757.4000      8.2694      2.4489      0.1255     12.1860    159.2098
   757.5000      8.2677      2.4422      0.0897     12.5936    157.2397
   757.6000      8.2677      2.4201      0.0721     13.9340    156.6178
   757.7000      8.2677      2.3875      0.0298     15.9068    154.4715
   757.8000      8.2656      2.3659      0.0048     17.2172    152.4811
   757.9000      8.2656      2.3689      0.0576     17.0375    153.4498
   758.0000      8.2630      2.3768      0.1139     16.5581    158.6609
   758.1000      8.2630      2.3667      0.0753     17.1707    163.9733
   758.2000      8.2630      2.3511      0.0587     18.1165    162.6218
   758.3000      8.2618      2.3516      0.0874     18.0834    155.8932
   758.4000      8.2618      2.3658      0.1081     17.2257    148.6335
   758.5000      8.2626      2.3787      0.1109     16.4434    141.0556
   758.6000      8.2626      2.3866      0.0728     15.9606    134.4819
   758.7000      8.2626      2.3985      0.0816     15.2405    132.9347
   758.8000      8.2670      2.4113      0.1267     14.4672    138.4937
   758.9000      8.2670      2.4062      0.1087     14.7786    147.1772
   759.0000      8.2714      2.3847      0.0615     16.0777    147.8574
   759.1000      8.2714      2.3811      0.0384     16.2997    138.8592
   759.2000      8.2714      2.4119      0.1593     14.4327    131.6526
   759.3000      8.2713      2.4464      0.1645     12.3423    132.4693
   759.4000      8.2713      2.4565      0.1059     11.7283    138.5427
   759.5000      8.2700      2.4540      0.0374     11.8770    144.1255
   759.6000      8.2700      2.4595      0.0858     11.5456    145.1038
   759.7000      8.2700      2.4766      0.0861     10.5108    143.6693
   759.8000      8.2691      2.4971      0.0954      9.2679    143.6053
   759.9000      8.2691      2.5072      0.1316      8.6547    143.1821
   760.0000      8.2659      2.5052      0.1189      8.7767    142.4732
   760.1000      8.2659      2.5049      0.1197      8.7930    145.2246
   760.2000      8.2659      2.5087      0.1084      8.5611    150.8868
   760.3000      8.2623      2.5074      0.0847      8.6407    153.8593
   760.4000      8.2623      2.5061      0.0599      8.7199    153.0427
   760.5000      8.2595      2.5167      0.1036      8.0791    154.0141
   760.6000      8.2595      2.5314      0.1621      7.1872    158.6843
   760.7000      8.2595      2.5282      0.1506      7.3810    162.7766
   760.8000      8.2583      2.5041      0.1024      8.8408    163.0664
   760.9000      8.2583      2.4831      0.0528     10.1177    162.0859
   761.0000      8.2600      2.4848      0.1163     10.0148    162.8932
   761.1000      8.2600      2.4988      0.1099      9.1657    163.2832
   761.2000      8.2600      2.5010      0.1309      9.0294    160.8014
   761.3000      8.2644      2.4858      0.1050      9.9498    155.7569
   761.4000      8.2644      2.4711      0.1031     10.8407    150.8045
   761.5000      8.2601      2.4692      0.1066     10.9574    147.4002
   761.6000      8.2601      2.4754      0.1110     10.5794    145.5063
   761.7000      8.2601      2.4898      0.0654      9.7078    147.0423
   761.8000      8.2392      2.5157      0.1333      8.1387    150.1982
   761.9000      8.2392      2.5461      0.1366      6.2982    150.3262
   762.0000      8.2211      2.5690      0.1248      4.9108    149.2775
   762.1000      8.2211      2.5735      0.1238      4.6350    149.8842
   762.2000      8.2211      2.5633      0.0603      5.2521    151.5472
   762.3000      8.2156      2.5576      0.0758      5.6023    152.9255
   762.4000      8.2156      2.5668      0.0440      5.0413    150.9622
   762.5000      8.2169      2.5842      0.1101      3.9904    146.9557
   762.6000      8.2169      2.5925      0.1195      3.4851    146.1508
   762.7000      8.2169      2.5869      0.0654      3.8235    149.5111
   762.8000      8.2194      2.5843      0.0617      3.9846    153.8646
   762.9000      8.2194      2.6014      0.0541      2.9446    154.4483
   763.0000      8.2186      2.6311      0.1165      1.1473    151.2444
   763.1000      8.2186      2.6507      0.0804     -0.0410    147.4628
   763.2000      8.2186      2.6517      0.0938     -0.1026    146.5195
   763.3000      8.2103      2.6407      0.0767      0.5649    149.7874
   763.4000      8.2103      2.6319      0.0595      1.0996    151.8111
   763.5000      8.1977      2.6268      0.0804      1.4050    145.7405
   763.6000      8.1977      2.6156      0.0336      2.0865    134.7413
   763.7000      8.1977      2.5951      0.0846      3.3264    128.6748
   763.8000      8.1907      2.5653     -0.0092      5.1323    129.5227
   763.9000      8.1907      2.5344     -0.0156      7.0050    129.9591
   764.0000      8.1887      2.5048      0.0043      8.8004    126.9693
   764.1000      8.1887      2.4703     -0.0557     10.8928    125.4136
   764.2000      8.1887      2.4376     -0.0487     12.8757    127.9642
   764.3000      8.1871      2.4201     -0.0419     13.9332    135.0731
   764.4000      8.1871      2.4215     -0.0285     13.8505    145.0468
   764.5000      8.1823      2.4263      0.0345     13.5580    150.3120
   764.6000      8.1823      2.4162      0.0246     14.1680    147.0107
   764.7000      8.1823      2.3992      0.0043     15.2012    141.7077
   764.8000      8.1733      2.3961      0.0550     15.3857    142.3698
   764.9000      8.1733      2.4121      0.1284     14.4207    149.6677
   765.0000      8.1598      2.4367      0.1727     12.9264    157.0781
   765.1000      8.1598      2.4640      0.1449     11.2711    158.6361
   765.2000      8.1598      2.4992      0.1580      9.1424    154.5368
   765.3000      8.1468      2.5337      0.2415      7.0485    148.4790
   765.4000      8.1468      2.5430      0.1853      6.4860    144.7453
   765.5000      8.1406      2.5269      0.1172      7.4608    145.8902
   765.6000      8.1406      2.5111      0.0755      8.4191    150.9346
   765.7000      8.1406      2.5077      0.1006      8.6239    156.2185
   765.8000      8.1402      2.5123      0.0469      8.3463    156.4200
   765.9000      8.1402      2.5228      0.0599      7.7121    151.1950
   766.0000      8.1428      2.5349      0.0614      6.9757    145.6202
   766.1000      8.1428      2.5463      0.0598      6.2863    139.8125
   766.2000      8.1428      2.5629      0.0406      5.2768    132.9928
   766.3000      8.1457      2.5856      0.0711      3.9028    129.4466
   766.4000      8.1457      2.6018      0.0856      2.9214    129.9563
   766.5000      8.1462      2.6008      0.0810      2.9811    130.8785
   766.6000      8.1462      2.5884      0.0526      3.7340    131.0000
   766.7000      8.1462      2.5790      0.0222      4.3057    132.4716
   766.8000      8.1464      2.5797      0.0444      4.2619    137.6730
   766.9000      8.1464      2.5862      0.0565      3.8696    145.1127
   767.0000      8.1478      2.5943      0.0294      3.3765    149.3902
   767.1000      8.1478      2.6060      0.0567      2.6663    145.7883
   767.2000      8.1478      2.6182      0.0514      1.9261    136.4334
   767.3000      8.1481      2.6261      0.0730      1.4511    129.6669
   767.4000      8.1481      2.6231      0.0680      1.6311    131.3233
   767.5000      8.1472      2.5995      0.0559      3.0617    139.1319
   767.6000      8.1472      2.5589      0.0293      5.5235    147.5573
   767.7000      8.1472      2.5267     -0.0006      7.4729    152.0554
   767.8000      8.1454      2.5231      0.0158      7.6920    151.5765
