~Version Information
VERS.                      2.0: CWLS Log ASCII Standard - VERSION 2.0
WRAP.                       NO: One line per depth step
~Well Information Block
STRT.FT               745.0000: 
STOP.FT              1985.0000: 
STEP.FT                 0.1000: 
NULL.                -999.2500: 
COMP.          Pioneer Natural Resources: COMPANY
WELL.          Lorencito 15-36-33-67: WELL
FLD.           Purgatoire River: FIELD
LOC.           38' FSL & 1446' FEL: LOCATION
STAT.                 Colorado: State
CNTY.               Las Animas: COUNTY
CTRY. USA : Country
SECT. 36 : Section
TOWN. 33S : Township
RANG. 67W : Range
SRVC.                Patterson: SERVICE COMPANY
DATE.          Thu Oct 13 10:16:17 2005: LOG DATE
API.           05 071 08515 00: UNIQUE WELL ID
~Curve Information Block
DEPT.FT            0 000 00 00: Depth
DCAL.in                       : CDL Caliper
RHOB.g/cc                     : CDL Bulk Density
RHOC.g/cc                     : CDL Density Correction
DPOR.pu                       : CDL Density Porosity
GR.GAPI                       : Gamma Ray
NPOR.pu                       : Neutron Porosity
~Parameter Information Block
~A  Depth       DCAL        RHOB        RHOC        DPOR         GR         NPOR    
# ...
  1234.6000      8.1563      2.5659      0.0420      5.0988    116.1999     23.5029
  1234.7000      8.1563      2.5638      0.0339      5.2264    109.3577     23.6925
  1234.8000      8.1555      2.5581      0.0355      5.5691    112.6357     24.0181
  1234.9000      8.1555      2.5504      0.0123      6.0336    122.2840     23.8978
  1235.0000      8.1536      2.5467      0.0497      6.2582    127.6218     23.0992
  1235.1000      8.1536      2.5402      0.0225      6.6518    121.8673     21.8430
  1235.2000      8.1536      2.5250     -0.0194      7.5731    113.4738     20.9789
  1235.3000      8.1519      2.5111     -0.0409      8.4186    111.8339     20.9002
  1235.4000      8.1519      2.5119     -0.0421      8.3671    114.1362     21.1237
  1235.5000      8.1539      2.5335     -0.0378      7.0628    117.4887     21.1093
  1235.6000      8.1539      2.5640      0.0297      5.2098    120.7364     20.8209
  1235.7000      8.1539      2.5839      0.0456      4.0068    121.3285     20.5096
  1235.8000      8.1557      2.5868      0.0253      3.8281    118.6786     20.3035
  1235.9000      8.1557      2.5787      0.0385      4.3192    114.1049     20.2020
  1236.0000      8.1540      2.5704      0.0095      4.8243    107.9878     20.1629
  1236.1000      8.1540      2.5644      0.0767      5.1884     98.4351     20.1740
  1236.2000      8.1540      2.5538      0.0349      5.8288     85.8344     20.1796
  1236.3000      8.1543      2.5498     -0.0208      6.0716     74.6104     19.8972
  1236.4000      8.1543      2.5587      0.0620      5.5306     70.2256     19.4130
  1236.5000      8.1541      2.5582      0.0011      5.5656     72.3704     19.2364
  1236.6000      8.1541      2.5383     -0.0118      6.7693     72.9634     19.3810
  1236.7000      8.1541      2.5130     -0.0335      8.3027     68.4066     19.6147
  1236.8000      8.1520      2.4954     -0.0553      9.3671     64.8824     19.9035
  1236.9000      8.1520      2.4923     -0.0923      9.5590     66.6873     20.1874
  1237.0000      8.1523      2.5042     -0.0661      8.8354     72.3754     20.4213
  1237.1000      8.1523      2.5209     -0.0013      7.8240     79.4805     20.8454
  1237.2000      8.1523      2.5319     -0.0395      7.1595     85.1213     21.5417
  1237.3000      8.1545      2.5402     -0.0244      6.6559     86.8014     21.8911
  1237.4000      8.1545      2.5489      0.0405      6.1282     86.2021     21.2335
  1237.5000      8.1552      2.5554      0.0062      5.7310     89.3378     20.1003
  1237.6000      8.1552      2.5579      0.0030      5.5794     96.3372     19.5637
  1237.7000      8.1552      2.5559      0.0258      5.7048    101.7929     19.6165
  1237.8000      8.1535      2.5554     -0.0142      5.7337    101.9221     19.9122
  1237.9000      8.1535      2.5614      0.0417      5.3717     97.0176     20.4767
  1238.0000      8.1533      2.5681     -0.0070      4.9611     92.4361     20.6845
  1238.1000      8.1533      2.5686      0.0059      4.9321     91.3245     20.0357
  1238.2000      8.1533      2.5495      0.0025      6.0889     94.1993     19.2787
  1238.3000      8.1517      2.5049     -0.0211      8.7940     97.6106     18.8705
  1238.4000      8.1517      2.4553     -0.0547     11.7992     96.3983     18.5736
  1238.5000      8.1523      2.4213     -0.0380     13.8623     91.8684     18.3773
  1238.6000      8.1523      2.4066     -0.0423     14.7504     86.4465     18.3218
  1238.7000      8.1523      2.4131     -0.0479     14.3563     81.9549     18.3732
  1238.8000      8.1504      2.4325     -0.0045     13.1799     79.9234     18.4586
  1238.9000      8.1504      2.4510     -0.0394     12.0621     76.9797     18.4824
  1239.0000      8.1377      2.4685      0.0356     10.9984     73.5667     18.5969
  1239.1000      8.1377      2.4875      0.0314      9.8482     74.4962     18.8287
  1239.2000      8.1377      2.5051      0.0537      8.7800     79.4705     18.6437
  1239.3000      8.1328      2.5188      0.1105      7.9511     85.1298     17.9857
  1239.4000      8.1328      2.5322      0.0974      7.1406     89.0750     17.5120
  1239.5000      8.1039      2.5505      0.1200      6.0289     90.3178     17.5688
  1239.6000      8.1039      2.5668      0.1418      5.0417     87.8520     17.9116
  1239.7000      8.1039      2.5693      0.1457      4.8883     83.5096     18.0891
  1239.8000      8.1102      2.5570      0.1090      5.6389     81.1799     17.8794
  1239.9000      8.1102      2.5379      0.0684      6.7967     80.5090     17.5481
  1240.0000      8.1388      2.5198      0.0520      7.8919     80.3050     17.4712
  1240.1000      8.1388      2.5064      0.0253      8.7039     80.3203     17.6165
  1240.2000      8.1388      2.4952      0.0612      9.3796     78.5295     17.6194
  1240.3000      8.1565      2.4844      0.0100     10.0345     74.9981     17.4701
  1240.4000      8.1565      2.4789      0.0304     10.3713     72.4953     17.5277
  1240.5000      8.1580      2.4743      0.0035     10.6468     71.4540     17.7176
  1240.6000      8.1580      2.4637      0.0087     11.2882     70.0272     17.7572
  1240.7000      8.1580      2.4483      0.0115     12.2259     68.4718     17.8121
  1240.8000      8.1565      2.4282     -0.0191     13.4397     68.1224     17.8112
  1240.9000      8.1565      2.4122     -0.0551     14.4092     67.4912     17.5237
  1241.0000      8.1570      2.4194     -0.0447     13.9774     63.0741     17.3232
  1241.1000      8.1570      2.4459      0.0086     12.3675     55.4772     17.4848
  1241.2000      8.1570      2.4642      0.0485     11.2632     50.0372     17.7842
  1241.3000      8.1565      2.4651      0.0079     11.2076     48.7417     18.1843
  1241.4000      8.1565      2.4696      0.0058     10.9318     49.4672     19.0511
  1241.5000      8.1514      2.4901      0.0535      9.6906     51.5551     20.1166
  1241.6000      8.1514      2.5142      0.0707      8.2274     53.5498     20.5430
  1241.7000      8.1514      2.5271      0.0731      7.4492     54.5216     20.2439
  1241.8000      8.1579      2.5244      0.0782      7.6121     56.4026     19.8274
  1241.9000      8.1579      2.5093      0.0548      8.5298     59.1019     19.6699
  1242.0000      8.1519      2.4865      0.0032      9.9114     61.5962     19.5508
  1242.1000      8.1519      2.4617      0.0476     11.4103     65.3710     19.0050
  1242.2000      8.1519      2.4432     -0.0038     12.5362     70.1169     18.2326
  1242.3000      8.1505      2.4353     -0.0007     13.0113     71.3703     17.9738
  1242.4000      8.1505      2.4278     -0.0042     13.4667     69.0786     18.4436
  1242.5000      8.1492      2.4133      0.0035     14.3465     67.4933     19.1466
  1242.6000      8.1492      2.4078      0.0014     14.6790     66.0594     19.3675
  1242.7000      8.1492      2.4253      0.0110     13.6179     62.5443     18.8373
  1242.8000      8.1455      2.4503      0.0767     12.1041     58.8418     17.9399
  1242.9000      8.1455      2.4539      0.0932     11.8825     56.2021     17.2134
  1243.0000      8.1414      2.4295      0.0530     13.3642     54.3643     16.6079
  1243.1000      8.1414      2.4022      0.0084     15.0188     54.8980     15.8897
  1243.2000      8.1414      2.3996     -0.0017     15.1787     57.6910     15.4305
  1243.3000      8.1479      2.4172      0.0639     14.1063     60.2711     15.4710
  1243.4000      8.1479      2.4315      0.0663     13.2420     62.7861     15.7148
  1243.5000      8.1566      2.4344      0.0487     13.0641     63.7284     15.9645
  1243.6000      8.1566      2.4295      0.0640     13.3610     60.1339     16.2911
  1243.7000      8.1566      2.4158      0.0388     14.1955     54.8622     16.5768
  1243.8000      8.1573      2.3995      0.0095     15.1799     52.0970     16.6620
  1243.9000      8.1573      2.3963     -0.0013     15.3755     52.7234     16.5704
  1244.0000      8.1565      2.4102      0.0120     14.5314     54.7631     16.3802
  1244.1000      8.1565      2.4237      0.0230     13.7155     54.5452     16.0991
