~Version Information
VERS.                      2.0: CWLS Log ASCII Standard - VERSION 2.0
WRAP.                       NO: One line per depth step
~Well Information Block
STRT.FT               260.8000: 
STOP.FT              1942.0000: 
STEP.FT                 0.1000: 
NULL.                -999.2500: 
COMP.          XTO Energy Inc.: COMPANY
WELL.          Golden Eagle 19-11: WELL
FLD.           Purgatoire River: FIELD
LOC.           2351' FSL & 1926' FWL--: LOCATION
CNTY.               Las Animas: COUNTY
SRVC.                Patterson: SERVICE COMPANY
DATE.          Thu Mar 09 08:41:38 2006: LOG DATE
UWI.           05 071 08696 00: UNIQUE WELL ID
STAT.                 Colorado: STATE
~Curve Information Block
DEPT.FT            0 000 00 00: Depth
DCAL.in                       : CDL Caliper
RHOB.g/cc                     : CDL Bulk Density
RHOC.g/cc                     : CDL Density Correction
DPOR.pu                       : CDL Density Porosity
NPOR.pu                       : Neutron Porosity
GR.GAPI                       : Gamma Ray
~Parameter Information Block
~A  Depth       DCAL        RHOB        RHOC        DPOR        NPOR         GR     
# ...
  1470.4000      7.8839      2.0835      0.0560     34.3330     29.3227    177.5412
  1470.5000      7.8862      2.0950      0.0370     33.6351     29.4351    167.9850
  1470.6000      7.8862      2.1191      0.0874     32.1751     29.3366    157.8870
  1470.7000      7.8862      2.1480      0.1035     30.4253     28.6803    152.9708
  1470.8000      7.8863      2.1813      0.1453     28.4090     27.8111    146.9015
  1470.9000      7.8863      2.2228      0.1760     25.8937     27.3969    134.1333
  1471.0000      7.8862      2.2720      0.1357     22.9114     27.3681    122.3212
  1471.1000      7.8862      2.3252      0.0932     19.6828     27.3355    118.6914
  1471.2000      7.8862      2.3749      0.1025     16.6724     27.5197    119.1140
  1471.3000      7.8899      2.4135      0.0634     14.3333     28.0202    118.1553
  1471.4000      7.8899      2.4329      0.1215     13.1549     28.1395    119.7418
  1471.5000      7.8967      2.4328      0.0571     13.1639     27.6119    123.6645
  1471.6000      7.8967      2.4330      0.0426     13.1505     27.2024    122.6953
  1471.7000      7.8967      2.4500      0.0603     12.1215     27.3134    118.8213
  1471.8000      7.8987      2.4842      0.0482     10.0500     27.5804    117.6679
  1471.9000      7.8987      2.5324      0.0591      7.1248     27.7881    118.9287
  1472.0000      7.8923      2.5855      0.1062      3.9120     27.8149    119.1439
  1472.1000      7.8923      2.6217      0.1381      1.7180     27.3717    118.0290
  1472.2000      7.8923      2.6237      0.1011      1.5928     26.6347    121.3603
  1472.3000      7.8823      2.5996      0.1087      3.0526     26.0832    132.5962
  1472.4000      7.8823      2.5745      0.0931      4.5736     25.9425    141.9015
  1472.5000      7.8767      2.5626      0.1134      5.2969     25.9892    138.4237
  1472.6000      7.8767      2.5608      0.0913      5.4091     25.9031    127.8015
  1472.7000      7.8767      2.5632      0.0656      5.2630     25.6487    120.4382
  1472.8000      7.8788      2.5639      0.0876      5.2166     25.1935    120.2591
  1472.9000      7.8788      2.5656      0.0380      5.1136     24.6117    124.0505
  1473.0000      7.8832      2.5836      0.0355      4.0225     24.3058    123.0567
  1473.1000      7.8832      2.6211      0.0712      1.7543     24.3652    113.5617
  1473.2000      7.8832      2.6624      0.0796     -0.7513     24.4857    101.4067
  1473.3000      7.8833      2.6919      0.0901     -2.5402     24.6999     92.6458
  1473.4000      7.8833      2.7078      0.0464     -3.5024     24.9988     88.5524
  1473.5000      7.8789      2.7169      0.1023     -4.0565     25.1188     87.1420
  1473.6000      7.8789      2.7213      0.0680     -4.3199     25.0587     86.4923
  1473.7000      7.8789      2.7273      0.0297     -4.6828     24.9004     86.3216
  1473.8000      7.8689      2.7408      0.0652     -5.5060     24.5432     87.2650
  1473.9000      7.8689      2.7552      0.0591     -6.3734     24.1483     89.6711
  1474.0000      7.8609      2.7608      0.0962     -6.7162     23.9696     92.9015
  1474.1000      7.8609      2.7573      0.0821     -6.5031     23.8315     95.5164
  1474.2000      7.8609      2.7588      0.0063     -6.5920     23.7451     97.7324
  1474.3000      7.8607      2.7709      0.0425     -7.3297     23.9289    101.3253
  1474.4000      7.8607      2.7747      0.0807     -7.5562     24.0880    103.2312
  1474.5000      7.8682      2.7520      0.0382     -6.1816     24.0578    100.1594
  1474.6000      7.8682      2.7057      0.0083     -3.3739     24.0428     97.6437
  1474.7000      7.8682      2.6598     -0.0667     -0.5969     24.0145    102.3480
  1474.8000      7.8735      2.6434     -0.0551      0.3982     23.9309    108.2185
  1474.9000      7.8735      2.6562      0.0159     -0.3771     24.0458    106.5629
  1475.0000      7.8692      2.6741     -0.0248     -1.4581     24.4062    102.5261
  1475.1000      7.8692      2.6808      0.0263     -1.8657     24.6274    101.9640
  1475.2000      7.8692      2.6690      0.0231     -1.1510     24.6649    100.8783
  1475.3000      7.8590      2.6414      0.0358      0.5195     24.8956     98.0721
  1475.4000      7.8590      2.6119      0.0518      2.3110     25.1746     98.3841
  1475.5000      7.8494      2.5915      0.0562      3.5439     25.1845    103.7830
  1475.6000      7.8494      2.5851      0.0351      3.9353     25.2262    109.7459
  1475.7000      7.8494      2.5926      0.0598      3.4765     25.5232    110.7130
  1475.8000      7.8527      2.6039      0.1018      2.7940     25.8133    105.4858
  1475.9000      7.8527      2.6080      0.0700      2.5427     26.1655     97.8078
  1476.0000      7.8680      2.6062      0.0566      2.6558     26.6919     95.4933
  1476.1000      7.8680      2.6030      0.0315      2.8499     26.9024    102.1781
  1476.2000      7.8680      2.6027      0.0467      2.8659     26.4658    110.6016
  1476.3000      7.8800      2.6075      0.0300      2.5767     25.8754    113.0605
  1476.4000      7.8800      2.6124      0.0628      2.2812     25.6435    109.3505
  1476.5000      7.8810      2.6119      0.0492      2.3067     25.5910    103.1015
  1476.6000      7.8810      2.6077      0.0251      2.5629     25.4765     97.4877
  1476.7000      7.8810      2.5980      0.0378      3.1513     25.5798     95.9960
  1476.8000      7.8757      2.5804     -0.0044      4.2167     26.1081    104.4793
  1476.9000      7.8757      2.5704      0.0169      4.8270     26.5874    121.8004
  1477.0000      7.8725      2.5732      0.0622      4.6539     26.4772    134.7714
  1477.1000      7.8725      2.5713      0.0530      4.7690     26.1113    135.5363
  1477.2000      7.8725      2.5575      0.0749      5.6059     26.0676    127.4767
  1477.3000      7.8707      2.5405      0.0779      6.6376     26.2141    117.5968
  1477.4000      7.8707      2.5312      0.0705      7.2019     26.1969    114.2146
  1477.5000      7.8705      2.5304      0.0844      7.2493     26.0481    116.5952
  1477.6000      7.8705      2.5256      0.0813      7.5377     26.0097    119.3469
  1477.7000      7.8705      2.5103      0.0689      8.4669     26.1712    122.2192
  1477.8000      7.8779      2.4959      0.0452      9.3414     26.3802    124.9286
  1477.9000      7.8779      2.4973      0.0448      9.2528     26.5338    125.3807
  1478.0000      7.8883      2.5115      0.0755      8.3940     26.5341    124.0714
  1478.1000      7.8883      2.5220      0.0722      7.7570     26.2145    122.4315
  1478.2000      7.8883      2.5208      0.0611      7.8327     25.6817    120.1760
  1478.3000      7.8910      2.5134      0.0276      8.2759     25.3328    115.1749
  1478.4000      7.8910      2.5079      0.0420      8.6107     25.2911    110.6939
  1478.5000      7.8903      2.5047      0.0729      8.8087     25.2565    112.5468
  1478.6000      7.8903      2.5016      0.0572      8.9952     24.8818    115.9316
  1478.7000      7.8903      2.5017      0.0381      8.9892     24.4304    113.8250
  1478.8000      7.8923      2.5128      0.0368      8.3156     24.4627    109.1376
  1478.9000      7.8923      2.5303      0.0696      7.2569     24.8580    107.8101
  1479.0000      7.8914      2.5378      0.0467      6.7993     25.1149    112.1850
  1479.1000      7.8914      2.5323      0.0487      7.1323     25.1115    119.0868
  1479.2000      7.8914      2.5253      0.0232      7.5569     24.9223    121.3200
  1479.3000      7.8847      2.5239      0.0834      7.6423     24.7525    115.6942
  1479.4000      7.8847      2.5202      0.0864      7.8651     24.8380    105.9865
  1479.5000      7.8804      2.5127      0.0472      8.3217     24.8691     95.5631
  1479.6000      7.8804      2.5131      0.0420      8.2995     24.5441     87.6284
  1479.7000      7.8804      2.5241      0.0472      7.6299     24.1326     85.2985
  1479.8000      7.8784      2.5398      0.0556      6.6774     24.1294     86.5391
  1479.9000      7.8784      2.5570      0.0565      5.6389     24.5370     87.6868
