~Version Information
VERS.                      2.0: CWLS Log ASCII Standard - VERSION 2.0
WRAP.                       NO: One line per depth step
~Well Information Block
STRT.FT               830.0000: 
STOP.FT              1792.5000: 
STEP.FT                 0.1000: 
NULL.                -999.2500: 
COMP.          Pioneer Natural Resources: COMPANY
WELL.           Rolls 14-14 Tr: WELL
FLD.           Purgatoire River: FIELD
LOC.           473' FSL & 817' FWL: LOCATION
PROV.                 Colorado: PROVINCE
CNTY.               Las Animas: COUNTRY
SRVC.                Patterson: SERVICE COMPANY
DATE.          Wed Aug 03 07:11:37 2005: LOG DATE
UWI.           05 071 08454 00: UNIQUE WELL ID
~Curve Information Block
DEPT.FT            0 000 00 00: Depth
DCAL.in                       : CDL Caliper
RHOB.g/cc                     : CDL Bulk Density
RHOC.g/cc                     : CDL Density Correction
DPOR.pu                       : CDL Density Porosity
GR.GAPI                       : Gamma Ray
NPOR.pu                       : Neutron Porosity
~Parameter Information Block
~A  Depth       DCAL        RHOB        RHOC        DPOR         GR         NPOR    
# ...
   897.2000      8.3670      2.4284      0.1278     13.4325    154.2411     22.8599
   897.3000      8.3041      2.4214      0.1053     13.8538    149.3024     22.6620
   897.4000      8.3041      2.4279      0.1133     13.4600    149.7528     22.3767
   897.5000      8.2757      2.4427      0.1692     12.5622    153.5373     21.8893
   897.6000      8.2757      2.4528      0.1062     11.9503    154.4506     21.3042
   897.7000      8.2757      2.4570      0.1300     11.6948    151.3640     20.8372
   897.8000      8.2851      2.4577      0.1503     11.6519    148.1825     20.8071
   897.9000      8.2851      2.4568      0.2562     11.7062    147.6704     21.3604
   898.0000      8.3118      2.4606      0.2355     11.4805    149.6575     22.3788
   898.1000      8.3118      2.4673      0.3021     11.0746    151.1455     23.4732
   898.2000      8.3118      2.4668      0.1983     11.1039    148.5426     24.1481
   898.3000      8.2217      2.4709      0.1287     10.8517    144.0626     24.4378
   898.4000      8.2217      2.4959      0.1526      9.3398    141.4832     24.8683
   898.5000      8.2445      2.5303      0.1750      7.2536    139.8430     25.5189
   898.6000      8.2445      2.5616      0.1630      5.3593    136.9086     26.0392
   898.7000      8.2445      2.5830      0.1533      4.0617    134.4786     26.3554
   898.8000      8.2476      2.5732      0.1433      4.6530    134.2274     26.8223
   898.9000      8.2476      2.5340     -0.0368      7.0309    133.6466     27.6027
   899.0000      8.2169      2.5025     -0.0369      8.9391    133.6851     28.0316
   899.1000      8.2169      2.5033     -0.0767      8.8890    137.4722     27.5472
   899.2000      8.2169      2.5371     -0.0451      6.8427    141.3630     26.6454
   899.3000      8.2087      2.5802     -0.0198      4.2290    140.8924     26.2175
   899.4000      8.2087      2.5995      0.0814      3.0628    137.9326     26.5629
   899.5000      8.2048      2.5916     -0.0061      3.5404    137.8452     27.2890
   899.6000      8.2048      2.5806      0.0065      4.2039    142.5896     27.6353
   899.7000      8.2048      2.5786      0.0134      4.3244    147.4755     27.2259
   899.8000      8.1957      2.5746      0.0677      4.5719    145.5109     26.4680
   899.9000      8.1957      2.5580      0.0559      5.5741    139.2469     25.8946
   900.0000      8.1863      2.5396      0.0039      6.6934    137.0792     25.8394
   900.1000      8.1863      2.5311      0.0285      7.2072    138.8745     26.3052
   900.2000      8.1863      2.5317      0.0098      7.1726    141.0543     26.8759
   900.3000      8.1666      2.5343      0.0070      7.0135    143.6893     27.2828
   900.4000      8.1666      2.5316      0.0316      7.1748    146.0153     27.2893
   900.5000      8.1716      2.5262      0.0388      7.5048    145.9291     26.6404
   900.6000      8.1716      2.5264      0.0312      7.4923    143.3389     25.6590
   900.7000      8.1716      2.5288      0.0693      7.3463    139.6124     24.9958
   900.8000      8.1885      2.5229      0.0381      7.7020    137.1105     24.8043
   900.9000      8.1885      2.5119      0.0293      8.3687    138.1649     24.8149
   901.0000      8.1722      2.5005      0.0458      9.0603    140.5263     24.7889
   901.1000      8.1722      2.4854      0.0142      9.9728    141.7238     24.5504
   901.2000      8.1722      2.4673      0.0107     11.0703    141.6819     24.0871
   901.3000      8.1684      2.4482     -0.0104     12.2320    138.5446     23.8220
   901.4000      8.1684      2.4427     -0.0167     12.5629    134.5200     24.1277
   901.5000      8.1630      2.4743      0.0128     10.6456    134.5903     24.9743
   901.6000      8.1630      2.5453      0.0791      6.3429    138.2491     26.0575
   901.7000      8.1630      2.6438      0.1175      0.3764    140.6441     26.7754
   901.8000      8.1365      2.7505      0.2042     -6.0922    139.7704     26.7530
   901.9000      8.1365      2.8294      0.2217    -10.8731    136.7960     26.3650
   902.0000      8.1250      2.8546      0.2636    -12.4001    130.7791     25.8563
   902.1000      8.1250      2.8352      0.1974    -11.2264    122.5537     24.9913
   902.2000      8.1250      2.7951      0.1760     -8.7963    116.2022     24.0611
   902.3000      8.1132      2.7404      0.1392     -5.4778    113.7598     23.5331
   902.4000      8.1132      2.6775     -0.0224     -1.6672    112.5379     23.2663
   902.5000      8.1097      2.6315     -0.0915      1.1196    109.0360     22.9945
   902.6000      8.1097      2.6041     -0.0762      2.7812    104.1506     22.8073
   902.7000      8.1097      2.5730     -0.0399      4.6640    100.7282     22.9267
   902.8000      8.1049      2.5429      0.0057      6.4924    100.6894     23.5017
   902.9000      8.1049      2.5382      0.0116      6.7765    105.6400     24.4541
   903.0000      8.1006      2.5611      0.1314      5.3867    112.3713     25.3406
   903.1000      8.1006      2.5921      0.1224      3.5085    117.4211     25.8072
   903.2000      8.1006      2.6184      0.1234      1.9135    121.4316     25.9021
   903.3000      8.0953      2.6349      0.1060      0.9140    121.7539     25.8304
   903.4000      8.0953      2.6418      0.1073      0.4966    116.1997     25.6386
   903.5000      8.1101      2.6461      0.1168      0.2380    108.8491     25.3845
   903.6000      8.1101      2.6561      0.1124     -0.3673    103.7809     25.0923
   903.7000      8.1101      2.6744      0.0558     -1.4764    100.3414     24.6235
   903.8000      8.1173      2.6906      0.1094     -2.4614     96.3192     24.2165
   903.9000      8.1173      2.6858      0.0898     -2.1708     90.9950     24.0412
   904.0000      8.1338      2.6643      0.0060     -0.8666     84.8279     23.5219
   904.1000      8.1338      2.6483     -0.0058      0.1037     79.8428     22.5954
   904.2000      8.1338      2.6350     -0.0087      0.9094     77.2806     21.7249
   904.3000      8.1043      2.6155     -0.0303      2.0938     75.6669     20.8414
   904.4000      8.1043      2.6041     -0.0186      2.7813     72.2803     19.7695
   904.5000      8.0767      2.6014      0.0274      2.9451     68.9231     18.7241
   904.6000      8.0767      2.5889      0.0148      3.7023     70.1253     17.9662
   904.7000      8.0767      2.5647      0.0015      5.1691     74.8033     17.2930
   904.8000      8.0723      2.5324      0.0748      7.1252     79.9705     16.7691
   904.9000      8.0723      2.4970     -0.0305      9.2716     84.0543     16.9737
   905.0000      8.0765      2.4784     -0.0106     10.3976     87.6023     17.8903
   905.1000      8.0765      2.4790      0.0597     10.3637     92.8693     18.6582
   905.2000      8.0765      2.4862      0.0267      9.9285     98.5657     18.9049
   905.3000      8.1026      2.5028      0.0269      8.9186    101.1651     19.1127
   905.4000      8.1026      2.5287      0.0649      7.3531    101.7765     19.5935
   905.5000      8.1077      2.5503      0.1167      6.0400    104.0066     20.2685
   905.6000      8.1077      2.5668      0.0993      5.0450    106.5783     20.9126
   905.7000      8.1077      2.5841      0.1431      3.9918    107.2151     21.3204
   905.8000      8.1098      2.5853      0.1907      3.9194    107.4926     21.3904
   905.9000      8.1098      2.5610      0.0579      5.3940    108.2274     21.2459
   906.0000      8.1143      2.5389      0.0424      6.7340    111.3315     21.3697
   906.1000      8.1143      2.5360      0.0401      6.9113    121.3721     22.0999
   906.2000      8.1143      2.5364      0.0384      6.8842    132.1407     23.0218
   906.3000      8.1191      2.5245      0.0297      7.6063    131.6812     23.2561
   906.4000      8.1191      2.5057      0.0260      8.7478    122.5364     22.7075
   906.5000      8.1241      2.5020     -0.0329      8.9713    116.6914     22.1932
   906.6000      8.1241      2.5219      0.0473      7.7659    118.2036     22.1341
   906.7000      8.1241      2.5393      0.1091      6.7072    122.1831     22.4082
