~Version Information
VERS.                      2.0: CWLS Log ASCII Standard - VERSION 2.0
WRAP.                       NO: One line per depth step
~Well Information Block
STRT.FT               880.0000: 
STOP.FT              1995.0000: 
STEP.FT                 0.2500: 
NULL.                -999.2500: 
COMP.          Petrogulf Corporation: COMPANY
WELL.          Collister 17-31R: WELL
FLD.           Purgatorie River: FIELD
LOC.           962' FNL & 1520' FEL: LOCATION
PROV.                 Colorado: PROVINCE
CNTY.               Las Animas: COUNTRY
SRVC.                Patterson: SERVICE COMPANY
DATE.          Mon Sep 26 09:32:26 2005: LOG DATE
UWI.                          : UNIQUE WELL ID
~Curve Information Block
DEPT.FT            0 000 00 00: Depth
SP.mV                         : DIL Spontaneous Potential
RILD.Ohm-m                    : DIL Deep Resistivity
RILM.Ohm-m                    : DIL Medium Resistivity
RLL3.Ohm-m                    : DIL Shallow Resistivity
GR.GAPI                       : Gamma Ray
~Parameter Information Block
~A  Depth        SP         RILD        RILM        RLL3         GR     
# ...
   964.0000    138.9612     37.9285     46.6334    101.6384    103.6964
   964.2500    137.7825     41.1001     46.0649     93.6689     82.9644
   964.5000    136.5284     43.8823     47.0077     78.3405     70.0916
   964.7500    135.2860     46.5236     49.1637     61.6951     60.6110
   965.0000    133.9691     48.0871     48.3820     54.3699     90.8445
   965.2500    132.5897     51.6879     49.5871     49.8579    107.8485
   965.5000    130.8082     53.2860     52.9077     44.9516     98.6668
   965.7500    128.7869     55.6518     53.8839     48.8597    105.8997
   966.0000    126.5807     55.0578     57.1051     69.3233     97.8841
   966.2500    125.1877     59.5143     60.8781    106.2267    107.2972
   966.5000    124.1653     60.1621     67.1175    143.3435    114.5264
   966.7500    122.6794     59.3571     65.1583    153.6868     89.1936
   967.0000    120.8151     58.3579     63.9042    133.7574     74.7960
   967.2500    119.2008     57.1047     66.5777     98.2645     70.2093
   967.5000    118.2348     56.9151     63.5709     83.8039     81.5116
   967.7500    117.5336     58.7246     64.9315     81.6545     67.4411
   968.0000    117.0756     60.6101     71.3218     84.6256     71.3435
   968.2500    116.9485     64.0945     73.0014     88.3062     57.1329
   968.5000    117.2431     66.5599     69.3073     89.3668     57.0240
   968.7500    117.5821     63.3861     73.6410     91.1070     61.1078
   969.0000    118.3113     58.8462     75.8197     91.2120     41.4906
   969.2500    119.0352     60.4695     72.1306     93.0940     49.1036
   969.5000    120.0457     58.1009     79.1542     99.3491     78.4064
   969.7500    121.8381     55.5653     75.7932    112.4717     65.2765
   970.0000    123.2431     52.9176     73.9104    122.1697     58.3363
   970.2500    124.4562     48.6696     71.2639    123.3781     62.5122
   970.5000    126.0161     43.3343     61.8405    123.5366     49.6432
   970.7500    127.9653     39.8788     61.1848    123.2638     36.9714
   971.0000    130.3597     36.7650     50.5602    123.5937     68.2255
   971.2500    132.7703     35.2723     42.3219    121.6924     63.6209
   971.5000    135.5816     34.2827     37.0969    100.2355     58.4855
   971.7500    138.9061     34.2027     31.3518     57.1726     80.0540
   972.0000    141.6682     33.0240     27.1929     33.2744     75.8137
   972.2500    143.9320     33.4822     25.3549     24.0408     68.8268
   972.5000    145.5115     33.1214     24.7976     20.2644     89.3262
   972.7500    146.6318     32.7179     25.5473     20.3893     99.1601
   973.0000    147.4960     33.0360     26.7426     23.9644    118.8823
   973.2500    148.1882     32.3637     28.7499     29.8937    126.7580
   973.5000    148.5939     33.4888     31.8465     42.0995    124.6552
   973.7500    149.3623     33.5085     33.9261     57.3899    118.7132
   974.0000    150.0004     33.5708     36.3496     82.8572    136.3474
   974.2500    150.5524     33.8932     38.2837    108.8943    122.1005
   974.5000    151.1297     35.1021     41.6636    124.5190     76.9790
   974.7500    151.7773     37.9257     43.9884    130.8481     69.0277
   975.0000    152.2422     41.8506     46.0779    133.4297     62.4566
   975.2500    152.7076     44.3976     49.7297    135.2751     63.2276
   975.5000    153.3685     49.4952     55.0488    130.5637     52.8302
   975.7500    153.6718     53.5690     59.8732    118.9029     51.3379
   976.0000    154.1811     59.2470     64.1678    108.9922     44.3125
   976.2500    155.5309     59.5150     69.3561    113.1298     39.0519
   976.5000    156.2457     59.3958     78.8674    129.1546     39.8284
   976.7500    156.6311     64.6283     90.3939    138.7655     35.5971
   977.0000    156.6682     61.4598     96.4923    146.6603     52.4081
   977.2500    156.5831     58.7057     99.1413    161.1487     57.6126
   977.5000    156.2000     55.1581     91.7378    173.4742     64.0344
   977.7500    155.5491     52.2060     83.8907    181.8721     55.3688
   978.0000    154.6253     47.4812     81.0641    171.8477     61.1328
   978.2500    154.3055     43.1561     72.6391    146.1585     60.9995
   978.5000    154.3810     40.3557     59.1567    120.9346     55.2380
   978.7500    155.2660     37.1259     50.5958    103.9513     58.6032
   979.0000    156.8504     34.8029     43.4729     93.8341     45.0155
   979.2500    158.9699     32.5552     35.7559     63.3571     61.9803
   979.5000    161.5261     30.1759     32.5716     30.0252     71.2926
   979.7500    164.5252     27.8238     29.8770     21.8452     47.8620
   980.0000    167.0857     26.1263     28.3799     30.2773     55.4541
   980.2500    169.6089     24.5116     26.3101     39.5540     83.2423
   980.5000    172.2016     22.6618     24.7035     30.2990     92.8955
   980.7500    174.3314     21.4347     22.9173     22.5375    105.1576
   981.0000    175.7962     19.6701     20.7386     21.6248    111.0785
   981.2500    176.7907     18.5854     19.1938     23.8302    111.7609
   981.5000    177.5086     17.6530     17.8159     25.9897    132.3056
   981.7500    178.3468     17.1285     16.4211     23.7338    144.8851
   982.0000    178.9967     16.8415     15.3246     18.4181    134.7971
   982.2500    179.3842     16.7052     14.6285     16.6297    138.3841
   982.5000    179.3333     16.7802     13.9597     16.0225    133.0800
   982.7500    178.9146     16.6863     13.9181     15.1200    130.0821
   983.0000    178.5787     16.7519     14.0015     14.9457    136.9061
   983.2500    178.0741     16.7872     14.3998     15.6072    133.5898
   983.5000    177.3596     17.0743     14.9845     20.0597    149.1265
   983.7500    176.4863     17.3886     15.6177     23.0253    134.8372
   984.0000    175.4007     17.3507     16.1124     23.3286    134.2652
   984.2500    174.2978     17.8158     16.3340     23.4280    124.1563
   984.5000    173.0211     18.3220     16.7451     21.6106    124.9221
   984.7500    171.4164     19.2367     17.7090     22.5028    122.2146
   985.0000    169.6960     19.6704     18.9153     22.5778    112.9960
   985.2500    167.7507     20.9847     20.5965     25.7167    130.7977
   985.5000    165.5489     22.6228     22.6650     29.9983    133.5348
   985.7500    163.6916     24.0291     25.1365     34.2899    130.5014
   986.0000    162.0415     24.9669     27.7376     40.9465    116.6820
   986.2500    160.3092     26.6149     29.2853     46.7939    116.7639
   986.5000    158.2439     28.8006     30.1433     43.8601    113.1537
   986.7500    156.7232     29.8622     32.4241     39.7450    104.9822
   987.0000    155.5045     31.0725     33.9246     41.2107     88.8875
   987.2500    154.3355     32.2920     36.2963     42.4946     97.0482
   987.5000    153.2182     33.4702     39.0803     48.1059    111.6295
   987.7500    152.1969     32.7236     41.4522     51.3659    105.8871
   988.0000    151.1573     32.5393     43.5252     54.1893    121.4812
   988.2500    150.4471     32.2206     42.6108     57.4305    129.6258
   988.5000    150.1148     31.6553     42.9623     56.3232    127.4749
   988.7500    149.9857     30.3603     41.1219     62.9301    141.9107
   989.0000    150.3377     29.8039     38.1030     74.9854    131.4433
   989.2500    151.0200     27.9819     35.2557     67.6103    123.6116
   989.5000    151.8155     26.8630     30.8602     45.8162    120.6685
   989.7500    152.5145     25.6784     26.9230     32.5441    118.9902
   990.0000    153.2392     24.7271     24.8891     25.7531    103.4072
   990.2500    154.0003     24.4528     23.2484     21.3884    117.1208
   990.5000    155.1141     23.9619     22.2333     20.2229    134.9294
   990.7500    156.4553     23.2498     21.9314     21.6674    122.2527
   991.0000    157.8840     22.4302     21.5005     22.2912    160.6620
   991.2500    159.2270     21.6148     21.3903     21.8115    146.4348
   991.5000    160.2617     20.7084     21.4186     22.8872    159.8639
   991.7500    161.0774     20.4656     20.9373     29.9751    126.0899
