~Version Information
VERS.                      2.0: CWLS Log ASCII Standard - VERSION 2.0
WRAP.                       NO: One line per depth step
~Well Information Block
STRT.FT                -7.7500: 
STOP.FT              1485.2500: 
STEP.FT                 0.2500: 
NULL.                -999.2500: 
COMP.          Pioneer Natural Resources: COMPANY
WELL.          Hammerhead 24-24 Tr: WELL
FLD.           Purgatorie River: FIELD
LOC.           953' FSL & 1922' FWL--: LOCATION
CNTY.               Las Animas: COUNTY
SRVC.          Patterson Wireline: SERVICE COMPANY
DATE.          Thu Feb 02 15:03:23 2006: LOG DATE
UWI.           05 071 08669 00: UNIQUE WELL ID
STAT.                       CO: STATE
~Curve Information Block
DEPT.FT            0 000 00 00: Depth
CCL.                          : Casing Collar Locator
TT3.usec                      : CBL 3' Travel Time
AMP3.mV                       : CBL 3' Amplitude
GR.GAPI                       : Gamma Ray
~Parameter Information Block
~A  Depth       CCL         TT3         AMP3         GR     
# ...
   595.2500      0.0000    688.4134      8.2087     81.7745
   595.5000      0.0000    688.4082      8.1817     81.1680
   595.7500      0.0000    688.4040      8.1663     81.0777
   596.0000      0.0000    688.3966      8.1501     82.8294
   596.2500      0.0000    688.3688      8.1275     87.0233
   596.5000      0.0000    688.3306      8.1090     92.4055
   596.7500      0.0000    688.3323      8.1115     96.1973
   597.0000      0.0000    688.4146      8.1407     96.2276
   597.2500      0.0000    688.5502      8.1808     93.0424
   597.5000      0.0000    688.6556      8.2041     89.4262
   597.7500      0.0000    688.6583      8.1924     87.5927
   598.0000      0.0000    688.5449      8.1512     87.2681
   598.2500      0.0000    688.3545      8.1052     86.6188
   598.5000      0.0000    688.1421      8.0787     84.4655
   598.7500      0.0000    687.9514      8.0797     81.3560
   599.0000      0.0000    687.8040      8.0995     78.9194
   599.2500      0.0000    687.7020      8.1210     78.5510
   599.5000      0.0000    687.6446      8.1311     80.5960
   599.7500      0.0000    687.6454      8.1272     84.3237
   600.0000      0.0000    687.7276      8.1150     88.1775
   600.2500      0.0000    687.8870      8.0990     90.2114
   600.5000      0.0000    688.0649      8.0759     89.0971
   600.7500      0.0000    688.1733      8.0399     85.0554
   601.0000      0.0000    688.1584      7.9912     79.5258
   601.2500      0.0000    688.0433      7.9391     73.9625
   601.5000      0.0000    687.9076      7.8967     69.2301
   601.7500      0.0000    687.8209      7.8728     65.8731
   602.0000      0.0000    687.7837      7.8683     64.2439
   602.2500      0.0000    687.7350      7.8792     64.1365
   602.5000      0.0000    687.6177      7.8995     64.6456
   602.7500      0.0000    687.4341      7.9199     64.6526
   603.0000      0.0000    687.2399      7.9303     63.5561
   603.2500      0.0000    687.0950      7.9270     61.6439
   603.5000      0.0000    687.0182      7.9170     59.8061
   603.7500      0.0000    686.9818      7.9100     58.8861
   604.0000      0.0000    686.9495      7.9099     59.2393
   604.2500      0.0000    686.9150      7.9162     60.7599
   604.5000      0.0000    686.9034      7.9288     63.1455
   604.7500      0.0000    686.9399      7.9457     66.0921
   605.0000      0.0000    687.0228      7.9578     69.3443
   605.2500      0.0000    687.1265      7.9532     72.6965
   605.5000      0.0000    687.2261      7.9271     76.0322
   605.7500      0.0000    687.3155      7.8889     79.3422
   606.0000      0.0000    687.3985      7.8577     82.5313
   606.2500      0.0000    687.4719      7.8512     85.2875
   606.5000      0.0000    687.5203      7.8742     87.4976
   606.7500      0.0000    687.5247      7.9158     89.5845
   607.0000      0.0000    687.4767      7.9590     91.7403
   607.2500      0.0000    687.3857      7.9941     93.0907
   607.5000      0.0000    687.2745      8.0217     92.5271
   607.7500      0.0000    687.1682      8.0437     90.1983
   608.0000      0.0000    687.0839      8.0559     87.3274
   608.2500      0.0000    687.0200      8.0518     84.7528
   608.5000      0.0000    686.9543      8.0309     82.4271
   608.7500      0.0000    686.8563      8.0004     80.3371
   609.0000      0.0000    686.7061      7.9708     79.1193
   609.2500      0.0000    686.5076      7.9516     79.3031
   609.5000      0.0000    686.2941      7.9483     80.3563
   609.7500      0.0000    686.1201      7.9612     81.1409
   610.0000      0.0000    686.0301      7.9862     81.2394
   610.2500      0.0000    686.0254      8.0194     81.3326
   610.5000      0.0000    686.0613      8.0594     82.3323
   610.7500      0.0000    686.0815      8.1049     84.4003
   611.0000      0.0000    686.0533      8.1537     86.4863
   611.2500      0.0000    685.9749      8.2023     86.8251
   611.5000      0.0000    685.8652      8.2465     84.5371
   611.7500      0.0000    685.7609      8.2792     80.8817
   612.0000      0.0000    685.7111      8.2939     78.4369
   612.2500      0.0000    685.7469      8.2901     79.1501
   612.5000      0.0000    685.8462      8.2749     83.4178
   612.7500      0.0000    685.9418      8.2577     90.3585
   613.0000      0.0000    685.9835      8.2454     98.1261
   613.2500      0.0000    685.9946      8.2417    104.2864
   613.5000      0.0000    686.0637      8.2457    106.8136
   613.7500      0.0000    686.2714      8.2519    105.1265
   614.0000      0.0000    686.6098      8.2526    100.2104
   614.2500      0.0000    686.9600      8.2438     93.8500
   614.5000      0.0000    687.1578      8.2258     87.6897
   614.7500      0.0000    687.1131      8.2031     82.6512
   615.0000      0.0000    686.8759      8.1834     78.8492
   615.2500      0.0000    686.5775      8.1753     76.0232
   615.5000      0.0000    686.3126      8.1825     74.1750
   615.7500      0.0000    686.0922      8.2020     73.6864
   616.0000      0.0000    685.9032      8.2272     74.7013
   616.2500      0.0000    685.7691      8.2516     76.6923
   616.5000      0.0000    685.7244      8.2681     78.9168
   616.7500      0.0000    685.7643      8.2706     81.1940
   617.0000      0.0000    685.8708      8.2588     84.0693
   617.2500      0.0000    686.1024      8.2375     88.1478
   617.5000      0.0000    686.6843      8.2108     93.0354
   617.7500      0.0000    688.0718      8.1780     96.9517
   618.0000      0.0000    690.8540      8.1361     97.9610
   618.2500      0.0000    695.2219      8.0870     95.8264
   618.5000      0.0000    700.1754      8.0405     92.2602
   618.7500      0.0000    703.5157      8.0092     89.3265
   619.0000      0.0000    703.3413      7.9997     88.1034
   619.2500      0.0000    699.7963      8.0085     88.7167
   619.5000      0.0000    694.9874      8.0263     90.6318
   619.7500      0.0000    691.1288      8.0435     92.5718
   620.0000      0.0000    689.0669      8.0529     93.1356
   620.2500      0.0000    688.3927      8.0476     92.1009
   620.5000      0.0000    688.3424      8.0223     90.5850
   620.7500      0.0000    688.3885      7.9775     89.7814
   621.0000      0.0000    688.3331      7.9255     90.2437
   621.2500      0.0000    688.2415      7.8887     92.2600
   621.5000      0.0000    688.4164      7.8876     95.8122
   621.7500      0.0000    689.4037      7.9218     99.9230
   622.0000      0.0000    691.8637      7.9651    102.8950
   622.2500      0.0000    696.0883      7.9860    103.6329
   622.5000      0.0000    701.3327      7.9727    102.3782
   622.7500      0.0000    705.8882      7.9357     99.9447
   623.0000      0.0000    708.4349      7.8900     96.7473
   623.2500      0.0000    709.2654      7.8440     93.0424
   623.5000      0.0000    709.5341      7.8023     89.7439
   623.7500      0.0000    709.5353      7.7724     88.2231
   624.0000      0.0000    708.6578      7.7638     89.1025
   624.2500      0.0000    706.8664      7.7806     91.5285
   624.5000      0.0000    705.2090      7.8120     93.7524
   624.7500      0.0000    704.9164      7.8330     94.3047
   625.0000      0.0000    706.7159      7.8225     92.7006
   625.2500      0.0000    710.6498      7.7835     89.3550
   625.5000      0.0000    715.7374      7.7436     85.3170
   625.7500      0.0000    720.2856      7.7268     82.3653
   626.0000      0.0000    723.5557      7.7073     82.7354
   626.2500      0.0000    727.2692      7.5934     87.5410
   626.5000      0.0000    734.6494      7.2950     95.0806
   626.7500      0.0000    747.2325      6.8307    101.3998
   627.0000      0.0000    763.0842      6.3373    103.1783
   627.2500      0.0000    779.0912      5.9566    100.2097
   627.5000      0.0000    794.3898      5.7322     95.2700
   627.7500      2.0000    809.4460      5.6208     91.8704
   628.0000      0.0000    821.7208      5.5653     92.0174
   628.2500      0.0000    825.0651      5.5460     95.4568
   628.5000      0.0000    815.4893      5.5806    100.3893
