~Version Information
VERS.                      2.0: CWLS Log ASCII Standard - VERSION 2.0
WRAP.                       NO: One line per depth step
~Well Information Block
STRT.FT               615.0000: 
STOP.FT              2807.0000: 
STEP.FT                 0.1000: 
NULL.                -999.2500: 
COMP.          Pioneer Natural Resources: COMPANY
WELL.              Loews 41-32: WELL
FLD.           Purgatoire River: FIELD
LOC.           751' FNL & 128' FEL: LOCATION
CNTY.               Las Animas: COUNTY
SRVC.                Patterson: SERVICE COMPANY
DATE.          Mon Feb 13 07:19:27 2006: LOG DATE
UWI.           05 071 08693 00: UNIQUE WELL ID
STAT.                 Colorado: STATE
~Curve Information Block
DEPT.FT            0 000 00 00: Depth
DCAL.in                       : CDL Caliper
RHOB.g/cc                     : CDL Bulk Density
RHOC.g/cc                     : CDL Density Correction
DPOR.pu                       : CDL Density Porosity
GR.GAPI                       : Gamma Ray
NPOR.pu                       : Neutron Porosity
~Parameter Information Block
~A  Depth       DCAL        RHOB        RHOC        DPOR         GR         NPOR    
# ...
  1047.0000      8.1888      2.6360      0.3873      0.8478    159.7865     32.4988
  1047.1000      8.1888      2.7164      0.4482     -4.0214    164.6507     31.6239
  1047.2000      8.1888      2.7313      0.3846     -4.9298    168.7383     31.4182
  1047.3000      8.1855      2.7092      0.2962     -3.5873    164.6273     30.9842
  1047.4000      8.1855      2.6948      0.2483     -2.7156    160.2849     29.2832
  1047.5000      8.1852      2.6962      0.2560     -2.7994    164.9883     27.8384
  1047.6000      8.1852      2.7019      0.2350     -3.1460    168.0854     28.3694
  1047.7000      8.1852      2.7082      0.3027     -3.5281    163.8448     30.2461
  1047.8000      8.1842      2.7033      0.3076     -3.2306    160.2490     32.2910
  1047.9000      8.1842      2.6735      0.2351     -1.4269    161.1437     33.8356
  1048.0000      8.1799      2.6279      0.0750      1.3397    162.2081     34.1593
  1048.1000      8.1799      2.5917      0.0549      3.5337    160.0471     33.1202
  1048.2000      8.1799      2.5820      0.0567      4.1212    159.4049     31.6677
  1048.3000      8.1605      2.5916      0.0475      3.5399    162.4897     30.8553
  1048.4000      8.1605      2.5924      0.0819      3.4905    163.3501     30.5282
  1048.5000      8.1656      2.5658      0.0201      5.1011    161.3943     29.3809
  1048.6000      8.1656      2.5256      0.0357      7.5368    161.9656     26.7812
  1048.7000      8.1656      2.4984     -0.0152      9.1894    164.3192     24.8509
  1048.8000      8.1791      2.4888      0.0158      9.7687    163.3547     26.2207
  1048.9000      8.1791      2.4778     -0.0024     10.4340    157.9115     29.4231
  1049.0000      8.1784      2.4594     -0.0642     11.5500    151.2224     31.3547
  1049.1000      8.1784      2.4540     -0.0489     11.8769    147.6052     32.0062
  1049.2000      8.1784      2.4780     -0.0335     10.4268    147.9352     32.9405
  1049.3000      8.1753      2.5240      0.0888      7.6344    150.3329     33.5774
  1049.4000      8.1753      2.5713      0.1027      4.7705    151.7420     32.1403
  1049.5000      8.1572      2.6109      0.1185      2.3683    148.0917     28.8960
  1049.6000      8.1572      2.6468      0.1552      0.1962    140.1794     26.4668
  1049.7000      8.1572      2.6726      0.2104     -1.3670    134.8755     26.8411
  1049.8000      8.1380      2.6780      0.1918     -1.6941    136.3713     28.6264
  1049.9000      8.1380      2.6692      0.1716     -1.1623    143.2323     28.6878
  1050.0000      8.1361      2.6568      0.2333     -0.4096    151.4097     26.6751
  1050.1000      8.1361      2.6370      0.2375      0.7857    155.9920     25.3103
  1050.2000      8.1361      2.6090      0.1396      2.4851    157.5572     25.8585
  1050.3000      8.1469      2.5865      0.0796      3.8479    158.5908     26.6762
  1050.4000      8.1469      2.5800      0.0482      4.2414    160.9955     26.2356
  1050.5000      8.1610      2.5906      0.0101      3.6030    164.1219     23.7737
  1050.6000      8.1610      2.6115      0.0355      2.3330    160.5659     19.7138
  1050.7000      8.1610      2.6241      0.0497      1.5678    151.1813     16.7646
  1050.8000      8.1740      2.6085      0.0447      2.5148    145.5423     17.4626
  1050.9000      8.1740      2.5645      0.0359      5.1837    144.0953     20.5918
  1051.0000      8.1905      2.5088      0.0437      8.5549    140.5291     23.4695
  1051.1000      8.1905      2.4545      0.0049     11.8476    134.9964     25.3301
  1051.2000      8.1905      2.4101     -0.1012     14.5372    133.1218     27.0218
  1051.3000      8.2047      2.3873     -0.0864     15.9200    133.8285     28.5780
  1051.4000      8.2047      2.3997     -0.0842     15.1724    132.3583     29.7379
  1051.5000      8.2133      2.4365      0.0635     12.9376    130.2218     30.6124
  1051.6000      8.2133      2.4563      0.0886     11.7364    131.8065     30.7391
  1051.7000      8.2133      2.4465      0.0702     12.3357    138.1766     30.1306
  1051.8000      8.2194      2.4228      0.2054     13.7695    145.6700     29.8796
  1051.9000      8.2194      2.3845      0.1983     16.0932    150.0400     30.3487
  1052.0000      8.2209      2.3308      0.1669     19.3479    150.4243     30.8080
  1052.1000      8.2209      2.2670      0.1069     23.2145    146.5612     31.0980
  1052.2000      8.2209      2.1989      0.0549     27.3407    139.2491     31.7895
  1052.3000      8.2215      2.1505     -0.0339     30.2730    132.8076     33.0436
  1052.4000      8.2215      2.1418      0.0335     30.8004    131.7725     34.4176
  1052.5000      8.2188      2.1527      0.0740     30.1412    133.3121     35.0968
  1052.6000      8.2188      2.1491      0.1158     30.3566    134.9032     34.6520
  1052.7000      8.2188      2.1146      0.0820     32.4473    137.7916     33.9603
  1052.8000      8.2175      2.0418      0.0928     36.8604    140.9362     34.0434
  1052.9000      8.2175      1.9403     -0.0121     43.0106    142.5807     34.8969
  1053.0000      8.2143      1.8499     -0.0223     48.4890    139.1262     35.8566
  1053.1000      8.2143      1.8028     -0.0551     51.3462    131.0927     36.5378
  1053.2000      8.2143      1.8065     -0.1045     51.1207    124.9898     36.6936
  1053.3000      8.2083      1.8602     -0.0763     47.8692    120.0461     36.1574
  1053.4000      8.2083      1.9588     -0.0072     41.8925    111.7309     35.2261
  1053.5000      8.1945      2.0917      0.1329     33.8370    103.4077     34.1597
  1053.6000      8.1945      2.2302      0.2964     25.4409    100.5993     33.4978
  1053.7000      8.1945      2.3363      0.3381     19.0148    102.8564     33.6216
  1053.8000      8.2670      2.4049      0.2898     14.8562    106.7017     33.7088
  1053.9000      8.2670      2.4645      0.1981     11.2412    110.2172     33.1737
  1054.0000      8.3638      2.5229      0.1620      7.7001    113.6068     31.9806
  1054.1000      8.3638      2.5567      0.1055      5.6524    116.8004     29.2099
  1054.2000      8.3638      2.5606      0.0511      5.4207    118.6776     25.0562
  1054.3000      8.1355      2.5545      0.0111      5.7869    118.0020     22.3034
  1054.4000      8.1355      2.5461      0.0511      6.2979    114.5230     22.6140
  1054.5000      8.1002      2.5353     -0.0120      6.9495    111.2785     23.5533
  1054.6000      8.1002      2.5328      0.0018      7.1014    111.1850     23.2249
  1054.7000      8.1002      2.5418      0.0275      6.5584    112.7351     22.6068
  1054.8000      8.1008      2.5626     -0.0065      5.2995    112.3740     22.2474
  1054.9000      8.1008      2.5878      0.0477      3.7686    113.2515     21.1582
  1055.0000      8.0989      2.5968      0.0192      3.2265    117.4980     19.0705
  1055.1000      8.0989      2.5856      0.0101      3.9056    117.7607     16.7978
  1055.2000      8.0989      2.5686      0.0010      4.9316    113.3879     13.9504
  1055.3000      8.0990      2.5636     -0.0270      5.2374    111.4752      9.0732
  1055.4000      8.0990      2.5754      0.0293      4.5212    111.9935      2.8711
  1055.5000      8.0976      2.5878      0.0470      3.7710    109.8718     -1.4442
  1055.6000      8.0976      2.5903      0.0062      3.6159    105.4608     -1.5764
  1055.7000      8.0976      2.5878      0.0253      3.7677    104.9843      1.4166
  1055.8000      8.0974      2.5834      0.0116      4.0389    109.8323      6.1259
  1055.9000      8.0974      2.5818      0.0014      4.1335    114.0921     12.7101
  1056.0000      8.0895      2.5899     -0.0118      3.6397    116.0236     19.5691
  1056.1000      8.0895      2.6020      0.0448      2.9072    118.0523     23.8514
  1056.2000      8.0895      2.6071      0.0341      2.6003    117.5702     25.0635
  1056.3000      8.0652      2.6034      0.0527      2.8246    112.1828     25.2027
  1056.4000      8.0652      2.5946      0.0226      3.3581    105.4580     25.5071
  1056.5000      8.0593      2.5819      0.0345      4.1273    100.4154     25.7451
