~Version Information
VERS.                      2.0: CWLS Log ASCII Standard - VERSION 2.0
WRAP.                       NO: One line per depth step
~Well Information Block
STRT.FT                -6.5000: 
STOP.FT              1467.0000: 
STEP.FT                 0.2500: 
NULL.                -999.2500: 
COMP.          Pioneer Natural Resources: COMPANY
WELL.          Surtees 23-34 Tr: WELL
FLD.           Purgatorie River: FIELD
LOC.           1559' FSL & 1997' FWL--: LOCATION
PROV.                       CO: PROVINCE
CNTY.               Las Animas: COUNTRY
SRVC.          Patterson Wireline: SERVICE COMPANY
DATE.          Tue Aug 02 13:04:45 2005: LOG DATE
UWI.           05 071 08449 00: UNIQUE WELL ID
~Curve Information Block
DEPT.FT            0 000 00 00: Depth
CCL.                          : Casing Collar Locator
TT3.usec                      : CBL 3' Travel Time
AMP3.mV                       : CBL 3' Amplitude
GR.GAPI                       : Gamma Ray
~Parameter Information Block
~A  Depth       CCL         TT3         AMP3         GR     
# ...
  1434.0000      0.0000    619.1040      5.1570     81.9682
  1434.2500      0.0000    628.4742      5.1571     78.6472
  1434.5000      0.0000    640.2809      5.2120     75.9249
  1434.7500      0.0000    640.0331      5.2781     74.5834
  1435.0000      0.0000    616.9396      5.3460     75.0596
  1435.2500      0.0000    571.9613      5.4361     76.9163
  1435.5000      0.0000    516.9653      5.5603     79.2388
  1435.7500      2.0000    467.6406      5.7108     81.4746
  1436.0000      0.0000    435.5728      5.8756     83.6179
  1436.2500      0.0000    425.2972      6.0529     85.7348
  1436.5000      0.0000    437.0641      6.2537     87.6420
  1436.7500      0.0000    469.4238      6.4807     89.0677
  1437.0000      0.0000    517.6648      6.6925     89.9351
  1437.2500      0.0000    572.3068      6.8118     90.3143
  1437.5000      0.0000    622.6056      6.8034     90.1113
  1437.7500      0.0000    662.2277      6.7206     89.1001
  1438.0000      0.0000    690.6919      6.6471     87.4626
  1438.2500      0.0000    710.1765      6.6179     86.1616
  1438.5000      0.0000    722.3057      6.6208     86.7096
  1438.7500      0.0000    727.7977      6.6428     90.7694
  1439.0000      0.0000    727.8629      6.6856     99.6249
  1439.2500      0.0000    725.0823      6.7488    113.0728
  1439.5000      0.0000    722.7181      6.8185    128.5183
  1439.7500      0.0000    723.1481      6.8727    141.9879
  1440.0000      0.0000    726.7770      6.8929    150.8371
  1440.2500      0.0000    732.2246      6.8719    155.5769
  1440.5000      0.0000    737.5205      6.8157    158.9415
  1440.7500      0.0000    741.3759      6.7410    163.2087
  1441.0000      0.0000    743.6222      6.6686    168.3623
  1441.2500      0.0000    744.7556      6.6128    172.7200
  1441.5000      0.0000    745.3082      6.5747    175.0630
  1441.7500      0.0000    745.5796      6.5450    175.5813
  1442.0000      0.0000    745.6860      6.5163    174.7840
  1442.2500      0.0000    745.6404      6.4926    172.3233
  1442.5000      0.0000    745.3288      6.4867    167.0232
  1442.7500      0.0000    744.4289      6.5073    157.4897
  1443.0000      0.0000    742.4575      6.5474    142.9794
  1443.2500      0.0000    739.1566      6.5860    124.6919
  1443.5000      0.0000    735.0029      6.6026    106.3356
  1443.7500      0.0000    731.0325      6.5929     92.5860
  1444.0000      0.0000    727.3893      6.5685     86.4226
  1444.2500      0.0000    721.8886      6.5444     87.8362
  1444.5000      0.0000    710.4926      6.5316     94.6703
  1444.7500      0.0000    689.8382      6.5399    104.1021
  1445.0000      0.0000    659.6000      6.5780    113.2973
  1445.2500      0.0000    622.5345      6.6454    119.4510
  1445.5000      0.0000    582.2195      6.7266    120.4305
  1445.7500      0.0000    541.1866      6.7972    116.1756
  1446.0000      0.0000    502.0128      6.8361    109.1821
  1446.2500      0.0000    469.3760      6.8366    102.9065
  1446.5000      0.0000    449.4168      6.8099     99.5140
  1446.7500      0.0000    447.2490      6.7757     99.0769
  1447.0000      0.0000    465.2031      6.7488    100.2886
  1447.2500      0.0000    501.5965      6.7348    101.5074
  1447.5000      0.0000    550.2150      6.7323    101.5421
  1447.7500      0.0000    602.4858      6.7320    100.0980
  1448.0000      0.0000    650.9944      6.7122     97.7784
  1448.2500      0.0000    690.9453      6.6440     95.6928
  1448.5000      0.0000    719.9962      6.5069     94.9421
  1448.7500      0.0000    738.8749      6.3075     96.1669
  1449.0000      0.0000    751.2789      6.0846     99.2414
  1449.2500      0.0000    761.3593      5.8944    103.4018
  1449.5000      0.0000    771.3459      5.7801    107.8560
  1449.7500      0.0000    781.8189      5.7456    112.1581
  1450.0000      0.0000    792.7411      5.7590    115.7790
  1450.2500      0.0000    803.4976      5.7785    117.7236
  1450.5000      0.0000    813.1633      5.7772    117.1521
  1450.7500      0.0000    820.9764      5.7476    114.3310
  1451.0000      0.0000    825.5012      5.6953    110.6255
  1451.2500      0.0000    824.0521      5.6388    107.6100
  1451.5000      0.0000    814.8172      5.6112    106.3974
  1451.7500      0.0000    799.4130      5.6488    107.6151
  1452.0000      0.0000    782.1369      5.7664    111.2641
  1452.2500      0.0000    767.0657      5.9403    115.9689
  1452.5000      0.0000    756.2820      6.1220    118.4363
  1452.7500      0.0000    749.8987      6.2682    114.3456
  1453.0000      0.0000    746.8322      6.3627    100.7124
  1453.2500      0.0000    745.6616      6.4129     78.3502
  1453.5000      0.0000    745.1072      6.4338     52.3271
  1453.7500      0.0000    743.8408      6.4393     29.2881
  1454.0000      0.0000    739.8102      6.4403     13.4757
  1454.2500      0.0000    729.9908      6.4464      5.0224
  1454.5000      0.0000    711.7842      6.4617      1.4996
  1454.7500      0.0000    686.1251      6.4815      0.3552
  1455.0000      0.0000    659.6353      6.4955      0.0658
  1455.2500      0.0000    642.4731      6.4971      0.0088
  1455.5000      0.0000    642.3312      6.4913      0.0000
  1455.7500      0.0000    659.2354      6.4907   -999.2500
  1456.0000      0.0000    685.4514      6.5042   -999.2500
  1456.2500      0.0000    710.4836      6.5287   -999.2500
  1456.5000      0.0000    726.7825      6.5535   -999.2500
  1456.7500      0.0000    731.5538      6.5707   -999.2500
  1457.0000      0.0000    724.9530      6.5763   -999.2500
  1457.2500      0.0000    708.4658      6.5595   -999.2500
  1457.5000      0.0000    684.4581      6.4873   -999.2500
  1457.7500      0.0000    653.0929      6.2922   -999.2500
  1458.0000      0.0000    606.5359      5.8771   -999.2500
  1458.2500      0.0000    530.1356      5.1641   -999.2500
  1458.5000      0.0000    417.2057      4.1808   -999.2500
  1458.7500      0.0000    283.6142      3.1024   -999.2500
  1459.0000      0.0000    161.3355      2.1694   -999.2500
  1459.2500      0.0000     75.1316      1.5357   -999.2500
  1459.5000      0.0000     28.2240      1.1989   -999.2500
  1459.7500      0.0000      8.4671      1.0592   -999.2500
  1460.0000      0.0000      2.0128      1.0140   -999.2500
  1460.2500      0.0000      0.3744      1.0026   -999.2500
  1460.5000      0.0000      0.0498      1.0003   -999.2500
  1460.7500      0.0000   -999.2500   -999.2500   -999.2500
  1461.0000      0.0000   -999.2500   -999.2500   -999.2500
  1461.2500      0.0000   -999.2500   -999.2500   -999.2500
  1461.5000      0.0000   -999.2500   -999.2500   -999.2500
  1461.7500      0.0000   -999.2500   -999.2500   -999.2500
  1462.0000      0.0000   -999.2500   -999.2500   -999.2500
  1462.2500      0.0000   -999.2500   -999.2500   -999.2500
  1462.5000      0.0000   -999.2500   -999.2500   -999.2500
  1462.7500      0.0000   -999.2500   -999.2500   -999.2500
  1463.0000      0.0000   -999.2500   -999.2500   -999.2500
  1463.2500      0.0000   -999.2500   -999.2500   -999.2500
  1463.5000      0.0000   -999.2500   -999.2500   -999.2500
  1463.7500      0.0000   -999.2500   -999.2500   -999.2500
  1464.0000      0.0000   -999.2500   -999.2500   -999.2500
  1464.2500      0.0000   -999.2500   -999.2500   -999.2500
  1464.5000      0.0000   -999.2500   -999.2500   -999.2500
  1464.7500      0.0000   -999.2500   -999.2500   -999.2500
  1465.0000      0.0000   -999.2500   -999.2500   -999.2500
  1465.2500      0.0000   -999.2500   -999.2500   -999.2500
  1465.5000      0.0000   -999.2500   -999.2500   -999.2500
  1465.7500      0.0000   -999.2500   -999.2500   -999.2500
  1466.0000      0.0000   -999.2500   -999.2500   -999.2500
  1466.2500      0.0000   -999.2500   -999.2500   -999.2500
  1466.5000   -999.2500   -999.2500   -999.2500   -999.2500
  1466.7500   -999.2500   -999.2500   -999.2500   -999.2500
  1467.0000   -999.2500   -999.2500   -999.2500   -999.2500
