~Version Information
VERS.                      2.0: CWLS Log ASCII Standard - VERSION 2.0
WRAP.                       NO: One line per depth step
~Well Information Block
STRT.FT                -8.0000: 
STOP.FT              2135.0000: 
STEP.FT                 0.2500: 
NULL.                -999.2500: 
COMP.          Pioneer Natural Resources: COMPANY
WELL.             AMX 13-13 Tr: WELL
FLD.           Purgatorie River: FIELD
LOC.           2401' FSL & 895' FWL--: LOCATION
PROV.                       CO: PROVINCE
CNTY.               Las Animas: COUNTRY
SRVC.          Patterson Wireline: SERVICE COMPANY
DATE.          Thu Jan 05 10:37:28 2006: LOG DATE
UWI.           05 071 08631 00: UNIQUE WELL ID
~Curve Information Block
DEPT.FT            0 000 00 00: Depth
CCL.                          : Casing Collar Locator
TT3.usec                      : CBL 3' Travel Time
AMP3.mV                       : CBL 3' Amplitude
GR.GAPI                       : Gamma Ray
~Parameter Information Block
~A  Depth       CCL         TT3         AMP3         GR     
# ...
   260.0000      0.0000    742.1839     15.2498     76.5632
   260.2500      0.0000    742.8101     15.3363     77.6650
   260.5000      0.0000    744.6163     15.4455     80.8327
   260.7500      0.0000    747.3388     15.5560     84.6644
   261.0000      0.0000    750.0192     15.6455     87.0345
   261.2500      0.0000    751.2620     15.7050     86.5942
   261.5000      0.0000    750.3511     15.7420     83.8298
   261.7500      0.0000    747.9421     15.7699     80.7157
   262.0000      0.0000    745.4059     15.8001     79.3232
   262.2500      0.0000    743.6656     15.8377     80.5526
   262.5000      0.0000    742.8080     15.8796     83.7342
   262.7500      0.0000    742.5001     15.9186     87.1170
   263.0000      0.0000    742.4431     15.9520     88.9070
   263.2500      0.0000    742.4715     15.9844     88.3283
   263.5000      0.0000    742.4722     16.0199     85.8823
   263.7500      0.0000    742.3671     16.0508     82.4409
   264.0000      0.0000    742.1976     16.0612     78.2870
   264.2500      0.0000    742.2396     16.0414     73.3843
   264.5000      0.0000    743.1016     15.9998     68.1309
   264.7500      0.0000    745.7037     15.9628     63.2144
   265.0000      0.0000    750.8590     15.9614     58.9697
   265.2500      0.0000    758.4653     16.0120     55.4174
   265.5000      0.0000    767.0652     16.1059     52.7550
   265.7500      0.0000    774.5237     16.2188     51.3039
   266.0000      0.0000    779.3471     16.3307     51.0308
   266.2500      0.0000    781.0334     16.4351     51.4778
   266.5000      0.0000    778.9158     16.5309     52.2151
   266.7500      0.0000    770.6223     16.6155     53.2138
   267.0000      0.0000    752.3567     16.6869     54.6253
   267.2500      0.0000    722.5954     16.7478     56.1458
   267.5000      0.0000    686.0049     16.8028     56.8607
   267.7500      0.0000    651.1440     16.8583     56.0383
   268.0000      0.0000    622.0825     16.9255     54.0027
   268.2500      0.0000    594.4405     17.0177     51.9260
   268.5000      0.0000    561.4668     17.1404     50.7086
   268.7500      0.0000    522.6693     17.2854     50.2750
   269.0000      0.0000    485.8680     17.4359     49.9447
   269.2500      0.0000    460.5223     17.5770     49.2365
   269.5000      0.0000    447.4880     17.7021     48.2384
   269.7500      0.0000    436.9354     17.8108     47.4075
   270.0000      0.0000    419.4816     17.9002     47.1227
   270.2500      0.0000    397.2342     17.9638     47.4363
   270.5000      0.0000    381.4464     17.9992     48.1725
   270.7500      0.0000    381.5665     18.0164     49.1122
   271.0000      0.0000    397.7451     18.0328     50.0340
   271.2500      0.0000    421.1830     18.0560     50.6635
   271.5000      0.0000    442.4209     18.0658     50.6443
   271.7500      0.0000    462.9790     18.0198     49.6140
   272.0000      0.0000    496.5944     17.8851     47.4037
   272.2500      0.0000    553.9257     17.6720     44.1747
   272.5000      0.0000    627.4722     17.4325     40.3679
   272.7500      0.0000    695.9078     17.2249     36.6740
   273.0000      0.0000    741.3805     17.0830     34.0821
   273.2500      0.0000    758.8537     17.0161     33.5989
   273.5000      0.0000    752.4574     17.0219     35.6164
   273.7500      0.0000    730.8215     17.0861     39.7574
   274.0000      0.0000    707.2783     17.1760     45.5754
   274.2500      0.0000    696.6853     17.2509     53.1225
   274.5000      0.0000    704.7062     17.2913     62.3182
   274.7500      0.0000    720.1622     17.3182     71.9614
   275.0000      0.0000    720.9442     17.3802     80.0906
   275.2500      0.0000    688.6663     17.5169     85.5285
   275.5000      0.0000    620.9421     17.7269     88.5664
   275.7500      0.0000    533.9532     17.9695     90.0381
   276.0000      0.0000    452.6413     18.2018     90.3991
   276.2500      0.0000    394.8643     18.4157     89.9456
   276.5000      0.0000    363.2242     18.6341     89.2743
   276.7500      0.0000    349.7938     18.8748     89.0564
   277.0000      0.0000    345.3834     19.1281     89.6082
   277.2500      0.0000    344.3605     19.3701     90.8057
   277.5000      0.0000    344.8864     19.5809     92.1563
   277.7500      0.0000    348.2325     19.7208     92.7625
   278.0000      0.0000    359.1271     19.6922     91.5839
   278.2500      0.0000    385.4997     19.3466     88.3522
   278.5000      0.0000    434.4748     18.5840     84.2755
   278.7500      0.0000    504.9406     17.4958     81.3267
   279.0000      0.0000    584.0836     16.3803     80.6208
   279.2500      0.0000    654.3177     15.5201     81.6972
   279.5000      0.0000    704.8635     14.9371     83.2151
   279.7500      0.0000    735.8259     14.4489     83.9697
   280.0000      0.0000    753.0527     13.9379     83.3641
   280.2500      0.0000    762.5894     13.4563     81.5425
   280.5000      2.0000    770.2734     13.0934     79.5285
   280.7500      0.0000    782.3248     12.8633     79.0612
   281.0000      0.0000    801.7940     12.7389     81.6232
   281.2500      0.0000    822.5318     12.7534     87.0323
   281.5000      0.0000    828.0122     13.0417     92.9788
   281.7500      0.0000    800.7732     13.7401     96.4432
   282.0000      0.0000    738.1674     14.7923     96.1393
   282.2500      0.0000    659.0142     15.8998     93.6403
   282.5000      0.0000    591.5633     16.7609     91.6456
   282.7500      0.0000    555.6500     17.3218     90.9180
   283.0000      0.0000    557.5065     17.7209     89.5184
   283.2500      0.0000    592.7222     18.0729     85.5170
   283.5000      0.0000    643.9633     18.4032     79.8360
   283.7500      0.0000    680.8759     18.7159     75.5970
   284.0000      0.0000    674.9213     19.0259     74.9477
   284.2500      0.0000    619.5477     19.3356     77.3297
   284.5000      0.0000    535.0849     19.6263     80.7096
   284.7500      0.0000    452.9175     19.8738     83.5352
   285.0000      0.0000    394.4373     20.0576     85.2054
   285.2500      0.0000    362.7733     20.1662     85.5092
   285.5000      0.0000    349.5659     20.2011     84.4454
   285.7500      0.0000    345.3361     20.1784     82.5042
   286.0000      0.0000    344.3405     20.1250     80.6394
   286.2500      0.0000    344.2130     20.0740     79.6433
   286.5000      0.0000    344.2480     20.0576     79.2948
   286.7500      0.0000    344.2917     20.0939     78.3392
   287.0000      0.0000    344.3152     20.1737     75.9013
   287.2500      0.0000    344.3246     20.2626     72.7753
   287.5000      0.0000    344.3244     20.3224     70.6628
   287.7500      0.0000    344.3192     20.3340     70.3048
   288.0000      0.0000    344.3157     20.3044     70.8900
   288.2500      0.0000    344.3191     20.2553     70.9686
   288.5000      0.0000    344.3268     20.2106     69.4308
   288.7500      0.0000    344.3305     20.1871     65.8719
   289.0000      0.0000    344.3203     20.1895     60.7151
   289.2500      0.0000    344.2893     20.2137     55.2455
   289.5000      0.0000    344.2356     20.2536     51.1440
   289.7500      0.0000    344.1655     20.3008     49.4151
   290.0000      0.0000    344.0966     20.3354     49.5923
   290.2500      0.0000    344.0569     20.3243     50.1505
   290.5000      0.0000    344.0696     20.2431     49.7941
   290.7500      0.0000    344.1343     20.1024     48.3981
   291.0000      0.0000    344.2217     19.9476     46.8964
   291.2500      0.0000    344.2943     19.8287     46.4438
   291.5000      0.0000    344.3304     19.7706     47.6770
   291.7500      0.0000    344.3305     19.7649     50.5005
   292.0000      0.0000    344.3067     19.7806     54.1191
   292.2500      0.0000    344.2708     19.7839     57.2205
   292.5000      0.0000    344.2265     19.7594     58.5934
   292.7500      0.0000    344.1681     19.7172     57.8741
   293.0000      0.0000    344.0881     19.6785     55.7118
   293.2500      0.0000    343.9879     19.6545     53.2256
