~Version Information
VERS.                      2.0: CWLS Log ASCII Standard - VERSION 2.0
WRAP.                       NO: One line per depth step
~Well Information Block
STRT.FT                -6.7500: 
STOP.FT              2034.2500: 
STEP.FT                 0.2500: 
NULL.                -999.2500: 
COMP.          Evergreen Operating Corp.: COMPANY
WELL.           Big Pine 32-15: WELL
FLD.           Purgatorie River: FIELD
LOC.           2590 FNL & 1442 FEL--: LOCATION
STAT.                       CO: State
CNTY.               Las Animas: COUNTY
CTRY. USA : Country
SECT. 15 : Section
TOWN. 33S : township
RANG. 67W : Range
SRVC.          Patterson Wireline, Inc.: SERVICE COMPANY
DATE.          Mon Mar 24 12:45:01 2003: LOG DATE
API.           05 071 07772 00: UNIQUE WELL ID
~Curve Information Block
DEPT.FT            0 000 00 00: Depth
HVOLTA.V                      : Head Voltage Apparent
CCL.                          : Casing Collar Locator
TT3.usec                      : CBL 3' Travel Time
AMP3.mV                       : CBL 3' Amplitude
GR.GAPI                       : Gamma Ray
~Parameter Information Block
~A  Depth      HVOLTA       CCL         TT3         AMP3         GR     
# ...
  1197.2500    121.5088      0.0000    728.6281      4.1999    141.8083
  1197.5000    121.4552      0.0000    735.2862      4.5686    139.7441
  1197.7500    121.3145      0.0000    741.4841      4.9226    140.1172
  1198.0000    121.3735      0.0000    741.0396      5.2340    143.1808
  1198.2500    121.2911      0.0000    733.0643      5.5149    147.8415
  1198.5000    121.5067      0.0000    721.6173      5.6107    152.1498
  1198.7500    121.5630      0.0000    712.5600      5.4215    154.8391
  1199.0000    121.4291      0.0000    709.1791      5.1348    156.3949
  1199.2500    121.3206      0.0000    711.2913      4.9895    158.3076
  1199.5000    121.4827      0.0000    716.4650      5.0271    161.4725
  1199.7500    121.3989      0.0000    720.7151      5.1554    165.7275
  1200.0000    121.3728      0.0000    722.1004      5.2954    170.6062
  1200.2500    121.4854      0.0000    724.0800      5.4980    175.9998
  1200.5000    121.4559      0.0000    732.2003      5.8051    182.3369
  1200.7500    121.4257      0.0000    747.9736      6.0190    190.3328
  1201.0000    121.4264      0.0000    765.3201      5.9083    199.9296
  1201.2500    121.4285      0.0000    773.5296      5.5218    209.0582
  1201.5000    121.5102      0.0000    769.7581      5.0573    214.1081
  1201.7500    121.4799      0.0000    766.2813      4.6302    212.4219
  1202.0000    121.5136      0.0000    775.8620      4.3699    204.5884
  1202.2500    121.5356      0.0000    793.7845      4.4225    194.4059
  1202.5000    121.4545      0.0000    803.1807      4.7212    186.4734
  1202.7500    121.4285      0.0000    796.5333      5.0286    183.3499
  1203.0000    121.5088      0.0000    782.3574      5.2219    184.5781
  1203.2500    121.3186      0.0000    770.9844      5.3264    187.9164
  1203.5000    121.4044      0.0000    764.2330      5.3026    190.9329
  1203.7500    121.5129      0.0000    757.6138      5.0942    191.8558
  1204.0000    121.4841      0.0000    749.5881      4.8475    190.1863
  1204.2500    121.5308      0.0000    747.2143      4.8093    186.9720
  1204.5000    121.4497      0.0000    757.8770      5.0725    184.0726
  1204.7500    121.4291      0.0000    779.3523      5.5208    182.8146
  1205.0000    121.5356      0.0000    802.0610      5.9848    182.9931
  1205.2500    121.3447      0.0000    816.3411      6.4537    183.0377
  1205.5000    121.5562      0.0000    816.2969      7.1017    181.5227
  1205.7500    121.4003      0.0000    802.2928      7.9897    178.6674
  1206.0000    121.4010      0.0000    781.7884      8.8551    176.2056
  1206.2500    121.3715      0.0000    767.3580      9.4177    175.7585
  1206.5000    121.4202      0.0000    770.0954      9.6020    177.2484
  1206.7500    121.3145      0.0000    789.8922      9.3037    178.8457
  1207.0000    121.3206      0.0000    816.1735      8.4886    178.5383
  1207.2500    121.4820      0.0000    838.3281      7.4812    175.8654
  1207.5000    121.4216      0.0000    852.6753      6.6681    172.1599
  1207.7500    121.3776      0.0000    863.5086      6.1260    169.4484
  1208.0000    121.4559     -5.0000    876.6741      5.7274    169.2877
  1208.2500    121.4820     -5.0000    894.6653      5.3863    172.0943
  1208.5000    121.5658      0.0000    915.1937      5.0912    176.8054
  1208.7500    122.0148      0.0000    925.2943      4.8673    181.2504
  1209.0000    121.2527      0.0000    914.1943      4.8539    183.5568
  1209.2500    121.3742      0.0000    896.2811      5.2193    183.3863
  1209.5000    121.6173      0.0000    896.6346      5.8239    181.4720
  1209.7500    121.3152      0.0000    918.1946      6.2423    178.1932
  1210.0000    121.3433      0.0000    944.3622      6.2416    173.1700
  1210.2500    121.4017      0.0000    962.5187      5.9540    166.2554
  1210.5000    121.5349      0.0000    965.9811      5.5820    158.4656
  1210.7500    121.3385      0.0000    951.7905      5.2257    151.7932
  1211.0000    121.3708      0.0000    929.8510      4.9939    148.2427
  1211.2500    121.3241      0.0000    916.0569      4.9487    148.7554
  1211.5000    121.5349      0.0000    910.8298      4.9647    152.4743
  1211.7500    121.3447      0.0000    901.5042      4.9448    157.0337
  1212.0000    121.3474      0.0000    884.5485      4.9773    160.0670
  1212.2500    121.3721      0.0000    868.8900      5.1172    160.7149
  1212.5000    121.5081      0.0000    861.3192      5.2675    159.8356
  1212.7500    121.2884      0.0000    857.4501      5.3225    159.1091
  1213.0000    121.2897      0.0000    845.9485      5.2376    159.9794
  1213.2500    121.3399      0.0000    820.9561      5.0042    163.1296
  1213.5000    121.2911      0.0000    792.7722      4.6372    168.6364
  1213.7500    121.3399      0.0000    780.8907      4.1648    176.0900
  1214.0000    121.3728      0.0000    789.2101      3.7195    184.1267
  1214.2500    121.4278      0.0000    798.4498      3.4867    190.2722
  1214.5000    121.5040      0.0000    789.8952      3.4609    192.2756
  1214.7500    121.3976      0.0000    767.3295      3.4645    190.1006
  1215.0000    121.4545      0.0000    749.0796      3.3889    186.3111
  1215.2500    121.5102      0.0000    743.7514      3.2591    184.2183
  1215.5000    121.3447      0.0000    743.3045      3.1397    185.6189
  1215.7500    121.4552      0.0000    739.0645      3.0704    190.0337
  1216.0000    121.3735      0.0000    733.7529      3.0438    195.5487
  1216.2500    121.4285      0.0000    734.6854      3.0243    199.9982
  1216.5000    121.5891      0.0000    743.1682      3.0171    201.6659
  1216.7500    121.3412      0.0000    753.5662      3.0456    199.7534
  1217.0000    121.3969      0.0000    761.1163      3.0793    194.9109
  1217.2500    121.5143      0.0000    766.4948      3.0631    189.2452
  1217.5000    121.7525      0.0000    769.0294      2.9688    185.0849
  1217.7500    121.3715      0.0000    764.5200      2.8101    183.0855
  1218.0000    121.3976      0.0000    754.0942      2.6559    181.6655
  1218.2500    121.5685      0.0000    744.9694      2.5886    178.6383
  1218.5000    121.2904      0.0000    741.5420      2.6028    173.3363
  1218.7500    121.3440      0.0000    742.0863      2.6696    167.0730
  1219.0000    121.4511      0.0000    742.0900      2.8617    161.7728
  1219.2500    121.4573      0.0000    738.9662      3.2179    158.1442
  1219.5000    121.3735      0.0000    734.6133      3.6298    155.1954
  1219.7500    121.4030      0.0000    732.4084      3.9984    151.7822
  1220.0000    121.4504      0.0000    732.5287      4.2675    148.3743
  1220.2500    121.3426      0.0000    732.3755      4.3421    146.6034
  1220.5000    121.4285      0.0000    729.0714      4.2463    147.2802
  1220.7500    121.4257      0.0000    719.4394      4.1353    149.7396
  1221.0000    121.4257      0.0000    699.5023      4.0813    152.9460
  1221.2500    121.4786      0.0000    665.1683      4.0651    156.1174
  1221.5000    121.2925      0.0000    618.8169      4.0658    158.1203
  1221.7500    121.4305      0.0000    579.4642      4.0797    157.1541
  1222.0000    121.5630      0.0000    572.0732      4.1221    151.7475
  1222.2500    121.5383      0.0000    597.5410      4.2491    142.1040
  1222.5000    121.5905      0.0000    632.6895      4.5526    130.2764
  1222.7500    121.3728      0.0000    662.6205      5.0476    118.8659
  1223.0000    121.4745      0.0000    689.5792      5.5152    109.6005
  1223.2500    121.4559      0.0000    713.2301      5.6444    103.1025
  1223.5000    121.4305      0.0000    724.8148      5.3737     99.4875
  1223.7500    121.3461      0.0000    720.7353      4.9503     98.6261
  1224.0000    121.5376      0.0000    710.1849      4.6400     99.9874
  1224.2500    121.4271      0.0000    706.4682      4.5003    102.6853
  1224.5000    121.5891      0.0000    713.7406      4.4110    105.6804
  1224.7500    121.3165      0.0000    726.0352      4.1981    107.8387
  1225.0000    121.5095      0.0000    735.8301      3.8535    108.2721
