~Version Information
VERS.                      2.0: CWLS Log ASCII Standard - VERSION 2.0
WRAP.                       NO: One line per depth step
~Well Information Block
STRT.FT                -6.5000: 
STOP.FT              1758.0000: 
STEP.FT                 0.2500: 
NULL.                -999.2500: 
COMP.          Pioneer Natural Resources: COMPANY
WELL.           Rolls 14-14 Tr: WELL
FLD.           Purgatorie River: FIELD
LOC.           473' FSL & 817' FWL--: LOCATION
PROV.                       CO: PROVINCE
CNTY.               Las Animas: COUNTRY
SRVC.          Patterson Wireline: SERVICE COMPANY
DATE.          Mon Aug 08 11:51:25 2005: LOG DATE
UWI.           05 071 08454 00: UNIQUE WELL ID
~Curve Information Block
DEPT.FT            0 000 00 00: Depth
CCL.                          : Casing Collar Locator
TT3.usec                      : CBL 3' Travel Time
AMP3.mV                       : CBL 3' Amplitude
GR.GAPI                       : Gamma Ray
~Parameter Information Block
~A  Depth       CCL         TT3         AMP3         GR     
# ...
  1501.0000      0.0000    764.4734      4.8673    143.9934
  1501.2500      0.0000    739.0004      4.8792    144.5901
  1501.5000      0.0000    718.3536      4.8660    146.3274
  1501.7500      0.0000    708.6112      4.8392    147.9719
  1502.0000      0.0000    711.6183      4.8127    146.0080
  1502.2500      0.0000    725.2568      4.7892    137.7273
  1502.5000      0.0000    745.2525      4.7643    124.3039
  1502.7500      0.0000    766.9026      4.7371    110.1061
  1503.0000      0.0000    786.1265      4.7165     98.9733
  1503.2500      0.0000    799.5908      4.7152     91.6521
  1503.5000      0.0000    804.3347      4.7334     86.6329
  1503.7500      0.0000    798.1008      4.7521     82.3673
  1504.0000      0.0000    780.6498      4.7488     78.0661
  1504.2500      0.0000    754.8518      4.7183     73.1095
  1504.5000      0.0000    726.1898      4.6703     66.8433
  1504.7500      0.0000    700.4260      4.6142     59.2947
  1505.0000      0.0000    680.9459      4.5550     51.6527
  1505.2500      0.0000    668.0133      4.4975     45.5657
  1505.5000      0.0000    660.3624      4.4441     41.9845
  1505.7500      0.0000    657.1503      4.3961     40.8004
  1506.0000      0.0000    658.2521      4.3622     41.2755
  1506.2500      0.0000    663.1381      4.3559     42.3819
  1506.5000      0.0000    670.0920      4.3745     43.0375
  1506.7500      0.0000    676.8200      4.3919     42.7275
  1507.0000      0.0000    681.7734      4.3811     42.0830
  1507.2500      0.0000    684.9228      4.3391     42.5648
  1507.5000      0.0000    687.6605      4.2887     45.3460
  1507.7500      0.0000    692.5189      4.2591     50.3337
  1508.0000      0.0000    702.6907      4.2618     56.1143
  1508.2500      0.0000    720.2597      4.2752     61.0003
  1508.5000      0.0000    743.0890      4.2551     64.3673
  1508.7500      0.0000    763.6736      4.1680     66.8711
  1509.0000      0.0000    773.4190      4.0145     69.3211
  1509.2500      0.0000    769.8127      3.8186     71.7135
  1509.5000      0.0000    758.7669      3.6003     73.4208
  1509.7500      0.0000    749.0222      3.3672     73.8075
  1510.0000      0.0000    745.0023      3.1260     72.5171
  1510.2500      0.0000    746.3304      2.8930     69.6049
  1510.5000      0.0000    753.1577      2.6926     65.6678
  1510.7500      0.0000    768.2916      2.5499     61.5899
  1511.0000      0.0000    791.6494      2.4832     57.9178
  1511.2500      0.0000    814.7906      2.4981     54.6223
  1511.5000      0.0000    825.1856      2.5892     51.6189
  1511.7500      0.0000    817.1780      2.7474     49.3936
  1512.0000      0.0000    796.9107      2.9659     48.9444
  1512.2500      0.0000    775.9075      3.2403     51.0523
  1512.5000      0.0000    761.6573      3.5712     55.5345
  1512.7500      0.0000    754.8834      3.9679     61.1831
  1513.0000      0.0000    753.3367      4.4476     66.5688
  1513.2500      0.0000    755.8765      5.0221     71.0956
  1513.5000      0.0000    763.0674      5.6783     75.2318
  1513.7500      0.0000    775.1615      6.3599     79.7197
  1514.0000      0.0000    790.3442      6.9665     84.9032
  1514.2500      0.0000    805.2688      7.3846     90.9728
  1514.5000      0.0000    816.9800      7.5485     98.3487
  1514.7500      0.0000    823.7867      7.4786    107.2997
  1515.0000      0.0000    824.7617      7.2597    117.2146
  1515.2500      0.0000    819.6203      6.9811    126.3291
  1515.5000      0.0000    809.6450      6.7025    132.1992
  1515.7500      0.0000    798.2361      6.4581    132.9878
  1516.0000      0.0000    789.5176      6.2651    128.7592
  1516.2500      0.0000    785.8011      6.1219    121.3079
  1516.5000      0.0000    786.4702      6.0108    112.7183
  1516.7500      0.0000    789.1979      5.9117    104.3940
  1517.0000      0.0000    791.3566      5.8095     97.0715
  1517.2500      0.0000    789.2793      5.6971     91.0398
  1517.5000      0.0000    778.2805      5.5820     86.3617
  1517.7500      0.0000    757.5931      5.4885     83.2603
  1518.0000      0.0000    735.8004      5.4385     82.2005
  1518.2500      0.0000    726.8674      5.4264     83.5196
  1518.5000      0.0000    737.4211      5.4217     87.1582
  1518.7500      0.0000    759.8560      5.3965     92.6111
  1519.0000      0.0000    780.1260      5.3366     98.8014
  1519.2500      0.0000    790.2344      5.2333    104.1092
  1519.5000      0.0000    791.7970      5.0863    106.8918
  1519.7500      0.0000    790.4742      4.9222    106.3531
  1520.0000      0.0000    789.9531      4.7917    103.0395
  1520.2500      0.0000    790.6273      4.7323     98.3903
  1520.5000      0.0000    791.3697      4.7381     93.8066
  1520.7500      0.0000    791.0768      4.7714     90.1435
  1521.0000      0.0000    788.7289      4.7971     87.7659
  1521.2500      0.0000    782.9409      4.7985     86.9728
  1521.5000      0.0000    772.7030      4.7671     88.4639
  1521.7500      0.0000    759.1592      4.6951     93.0792
  1522.0000      0.0000    746.2215      4.5920    100.6092
  1522.2500      0.0000    738.5529      4.4947    109.1907
  1522.5000      0.0000    738.3246      4.4419    116.6709
  1522.7500      0.0000    743.6592      4.4395    122.5067
  1523.0000      0.0000    749.8535      4.4634    127.6105
  1523.2500      0.0000    752.3625      4.4867    132.5797
  1523.5000      0.0000    750.2726      4.4885    137.0134
  1523.7500      0.0000    747.9701      4.4517    140.4092
  1524.0000      0.0000    752.0557      4.3815    142.7834
  1524.2500      0.0000    765.1636      4.3176    144.3952
  1524.5000      0.0000    783.3647      4.3033    145.4463
  1524.7500     -1.9855    799.9557      4.3393    145.9977
  1525.0000     -2.0000    810.6990      4.3863    145.8217
  1525.2500     -1.9647    815.1240      4.4086    144.4599
  1525.5000      0.0000    814.1137      4.4056    141.7047
  1525.7500      0.0000    807.6950      4.4068    138.0206
  1526.0000      0.0000    795.3606      4.4462    134.5114
  1526.2500      0.0000    777.9642      4.5393    132.5589
  1526.5000      0.0000    758.6786      4.6726    133.1152
  1526.7500      0.0000    741.6082      4.8101    135.8023
  1527.0000      0.0000    729.0605      4.9107    138.7212
  1527.2500      0.0000    720.0116      4.9477    139.7026
  1527.5000      0.0000    710.8987      4.9263    138.1758
  1527.7500      0.0000    697.5992      4.8803    135.7311
  1528.0000      0.0000    677.3987      4.8449    134.7519
  1528.2500      0.0000    650.7211      4.8332    136.6294
  1528.5000      0.0000    621.8217      4.8434    141.1218
  1528.7500      0.0000    596.9442      4.8708    146.8604
  1529.0000      0.0000    580.8251      4.9037    152.2191
  1529.2500      0.0000    574.8812      4.9170    155.9132
  1529.5000      0.0000    578.3882      4.8902    157.1843
  1529.7500      0.0000    590.0313      4.8285    156.0388
  1530.0000      0.0000    607.9315      4.7601    153.6927
  1530.2500      0.0000    629.6210      4.7154    152.2114
  1530.5000      0.0000    653.2391      4.7056    152.7948
  1530.7500      0.0000    678.0678      4.7146    154.4912
  1531.0000      0.0000    703.3258      4.7116    155.2128
  1531.2500      0.0000    727.6252      4.6818    153.9444
  1531.5000      0.0000    749.8496      4.6413    151.6219
  1531.7500      0.0000    769.2422      4.6149    150.1974
  1532.0000      0.0000    784.7606      4.6054    151.1293
  1532.2500      0.0000    795.4557      4.5955    154.3927
  1532.5000      0.0000    801.1225      4.5743    158.6035
  1532.7500      0.0000    802.2850      4.5525    162.1202
  1533.0000      0.0000    800.6130      4.5512    163.8878
  1533.2500      0.0000    799.4139      4.5827    163.2957
  1533.5000      0.0000    801.5755      4.6419    160.1087
  1533.7500      0.0000    805.6777      4.7060    155.0271
  1534.0000      0.0000    805.8708      4.7450    149.7080
  1534.2500      0.0000    797.4088      4.7430    145.7524
