~Version Information
VERS.                      2.0: CWLS Log ASCII Standard - VERSION 2.0
WRAP.                       NO: One line per depth step
~Well Information Block
STRT.FT               240.0000: 
STOP.FT              1338.7000: 
STEP.FT                 0.1000: 
NULL.                -999.2500: 
COMP.          Pioneer Natural Resources: COMPANY
WELL.            Hamburg 43-35: WELL
FLD.           Purgatoire River: FIELD
LOC.           2444' FSL & 950' FEL--: LOCATION
PROV.                 Colorado: PROVINCE
CNTY.               Las Animas: COUNTRY
SRVC.                Patterson: SERVICE COMPANY
DATE.          Sun Dec 04 11:50:58 2005: LOG DATE
UWI.           05 071 08607 00: UNIQUE WELL ID
~Curve Information Block
DEPT.FT            0 000 00 00: Depth
DCAL.in                       : CDL Caliper
RHOB.g/cc                     : CDL Bulk Density
RHOC.g/cc                     : CDL Density Correction
DPOR.pu                       : CDL Density Porosity
NPOR.pu                       : Neutron Porosity
GR.GAPI                       : Gamma Ray
~Parameter Information Block
~A  Depth       DCAL        RHOB        RHOC        DPOR        NPOR         GR     
# ...
   883.2000      8.0465      2.4803     -0.0109     10.2873     30.0040    149.5969
   883.3000      8.0505      2.4405     -0.0047     12.6992     29.2218    147.2571
   883.4000      8.0505      2.3675     -0.0207     17.1241     28.4175    142.9477
   883.5000      8.0575      2.2756     -0.0724     22.6896     27.4473    141.5528
   883.6000      8.0575      2.1893     -0.1108     27.9205     26.1992    139.3595
   883.7000      8.0575      2.1057     -0.0706     32.9868     24.5906    133.1315
   883.8000      8.0724      1.9979     -0.0931     39.5183     22.5353    125.2913
   883.9000      8.0724      1.8630     -0.1393     47.6958     20.3287    118.1076
   884.0000      8.0927      1.7244     -0.1510     56.0996     18.2047    110.8265
   884.1000      8.0927      1.5989     -0.1613     63.7035     15.9407    102.9902
   884.2000      8.0927      1.4974     -0.1473     69.8517     13.7511     95.3669
   884.3000      8.1086      1.4270     -0.0942     74.1186     11.9608     87.3862
   884.4000      8.1086      1.3789     -0.0890     77.0341     10.4493     80.4767
   884.5000      8.1202      1.3406     -0.0735     79.3570      9.2779     79.5229
   884.6000      8.1202      1.3158     -0.0915     80.8600      8.6882     82.3269
   884.7000      8.1202      1.3238     -0.0819     80.3747      8.5958     80.1933
   884.8000      8.1420      1.3761      0.0129     77.2072      8.6649     73.3584
   884.9000      8.1420      1.4641      0.0843     71.8745      8.6599     68.2752
   885.0000      8.1561      1.5712      0.1647     65.3842      8.6100     66.7611
   885.1000      8.1561      1.6841      0.1863     58.5407      8.7917     68.4988
   885.2000      8.1561      1.7984      0.2337     51.6112      9.3075     74.2463
   885.3000      8.1336      1.9146      0.2818     44.5690      9.9205     83.4680
   885.4000      8.1336      2.0309      0.3008     37.5221     10.5756     91.6668
   885.5000      8.1121      2.1401      0.3067     30.9040     11.4886     94.5497
   885.6000      8.1121      2.2348      0.2928     25.1624     12.5727     93.6347
   885.7000      8.1121      2.3070      0.3096     20.7885     13.6820     92.9230
   885.8000      8.1076      2.3485      0.2303     18.2724     15.0380     94.8837
   885.9000      8.1076      2.3586      0.1726     17.6576     16.5597     99.6049
   886.0000      8.1075      2.3367      0.1055     18.9864     17.7460    105.5080
   886.1000      8.1075      2.2930      0.0506     21.6388     18.6094    110.3600
   886.2000      8.1075      2.2609     -0.0029     23.5800     19.5385    111.1421
   886.3000      8.1061      2.2617      0.0694     23.5319     20.4134    108.2769
   886.4000      8.1061      2.2712      0.0959     22.9564     20.8372    105.2208
   886.5000      8.0979      2.2578      0.0896     23.7723     20.9264    103.0486
   886.6000      8.0979      2.2136      0.1093     26.4511     21.0638     98.5353
   886.7000      8.0979      2.1353      0.1114     31.1940     21.0474     91.7234
   886.8000      8.0824      2.0219      0.0649     38.0690     20.3300     89.0529
   886.9000      8.0824      1.8885      0.0111     46.1539     18.7910     91.5842
   887.0000      8.0712      1.7532     -0.0279     54.3529     16.8344     93.1968
   887.1000      8.0712      1.6256     -0.0717     62.0877     14.9152     90.6165
   887.2000      8.0712      1.5161     -0.1338     68.7240     13.0767     85.1693
   887.3000      8.0716      1.4319     -0.0941     73.8256     11.1235     79.0993
   887.4000      8.0716      1.3696     -0.1125     77.6024      9.3780     73.8711
   887.5000      8.0848      1.3256     -0.0575     80.2681      8.3235     68.4779
   887.6000      8.0848      1.3005     -0.0144     81.7868      7.9828     61.8669
   887.7000      8.0848      1.2975      0.0308     81.9692      8.0173     55.1808
   887.8000      8.1248      1.3145      0.1097     80.9387      8.0157     50.7351
   887.9000      8.1248      1.3391      0.1731     79.4508      7.8201     50.4229
   888.0000      8.1929      1.3604      0.1914     78.1605      7.5543     52.9919
   888.1000      8.1929      1.3760      0.2064     77.2112      7.3873     54.7230
   888.2000      8.1929      1.3859      0.1667     76.6122      7.4612     54.1752
   888.3000      8.2407      1.3944      0.1440     76.0951      7.8374     54.0762
   888.4000      8.2407      1.4122      0.0897     75.0154      8.3548     56.3216
   888.5000      8.2420      1.4454      0.1111     73.0070      8.6783     60.0707
   888.6000      8.2420      1.4972      0.0705     69.8695      8.7177     63.7382
   888.7000      8.2420      1.5824      0.0787     64.7014      8.8471     66.3698
   888.8000      8.2255      1.7052      0.1904     57.2627      9.2524     69.5895
   888.9000      8.2255      1.8400      0.2559     49.0900      9.7088     75.4745
   889.0000      8.1891      1.9673      0.2677     41.3781     10.0393     83.1750
   889.1000      8.1891      2.0912      0.2912     33.8658     10.2964     88.4174
   889.2000      8.1891      2.2147      0.3078     26.3840     10.7548     88.8949
   889.3000      8.1325      2.3265      0.2983     19.6053     11.8014     89.7135
   889.4000      8.1325      2.4142      0.2399     14.2900     13.4235     95.4494
   889.5000      8.0927      2.4778      0.1775     10.4389     15.1544    101.2284
   889.6000      8.0927      2.5228      0.1514      7.7078     16.7445    101.6162
   889.7000      8.0927      2.5494      0.1218      6.0980     18.1342     97.9064
   889.8000      8.0842      2.5606      0.1386      5.4203     19.1619     94.8833
   889.9000      8.0842      2.5667      0.0824      5.0512     19.9094     97.1112
   890.0000      8.0844      2.5726      0.0617      4.6887     20.5959    103.2287
   890.1000      8.0844      2.5726      0.0727      4.6887     21.3872    108.6847
   890.2000      8.0844      2.5673      0.0523      5.0107     22.2811    112.0691
   890.3000      8.0714      2.5663      0.0411      5.0754     23.0941    112.0898
   890.4000      8.0714      2.5678      0.0540      4.9792     23.7266    105.8918
   890.5000      8.0535      2.5590      0.0760      5.5180     24.0941     96.2057
   890.6000      8.0535      2.5424      0.0184      6.5230     24.3154     90.4931
   890.7000      8.0535      2.5402      0.0137      6.6517     24.6145     90.7155
   890.8000      8.0370      2.5556      0.0347      5.7218     24.9927     92.6939
   890.9000      8.0370      2.5689      0.0797      4.9136     25.4494     93.6505
   891.0000      8.0224      2.5694      0.0562      4.8848     26.0864     91.6420
   891.1000      8.0224      2.5609      0.0499      5.4014     26.7177     85.7978
   891.2000      8.0224      2.5524      0.0077      5.9169     26.9109     80.4616
   891.3000      8.0154      2.5518      0.0272      5.9535     26.5549     80.1588
   891.4000      8.0154      2.5600      0.0395      5.4548     25.9878     82.7352
   891.5000      8.0146      2.5747      0.0314      4.5613     25.5627     84.2919
   891.6000      8.0146      2.5917      0.0498      3.5346     25.3401     84.5012
   891.7000      8.0146      2.6007      0.0645      2.9870     25.2672     83.8482
   891.8000      8.0132      2.6007      0.0454      2.9894     25.2630     84.7595
   891.9000      8.0132      2.6052      0.0747      2.7139     25.2143     90.1500
   892.0000      8.0121      2.6135      0.1105      2.2103     25.1232     98.2909
   892.1000      8.0121      2.6114      0.0517      2.3389     25.1020    104.6898
   892.2000      8.0121      2.6034      0.0089      2.8268     25.0760    104.8543
   892.3000      8.0135      2.5992      0.0566      3.0780     24.9581     99.5608
   892.4000      8.0135      2.5900      0.0710      3.6375     24.8956     94.1884
   892.5000      8.0201      2.5731      0.0433      4.6616     24.8322     91.6737
   892.6000      8.0201      2.5633      0.0517      5.2527     24.8551     92.8745
   892.7000      8.0201      2.5642      0.0285      5.2014     25.3039     95.0053
