~Version Information
VERS.                      2.0: CWLS Log ASCII Standard - VERSION 2.0
WRAP.                       NO: One line per depth step
~Well Information Block
STRT.FT                -8.2500: 
STOP.FT              2119.7500: 
STEP.FT                 0.2500: 
NULL.                -999.2500: 
COMP.          Pioneer Natural Resources: COMPANY
WELL.          Hemisphere 32-24: WELL
FLD.           Purgatorie River: FIELD
LOC.           1850' FNL & 2284' FEL--: LOCATION
PROV.                       CO: PROVINCE
CNTY.               Las Animas: COUNTRY
SRVC.          Patterson Wireline: SERVICE COMPANY
DATE.          Sat Aug 27 08:06:42 2005: LOG DATE
UWI.           05 071 08440 00: UNIQUE WELL ID
~Curve Information Block
DEPT.FT            0 000 00 00: Depth
CCL.                          : Casing Collar Locator
TT3.usec                      : CBL 3' Travel Time
AMP3.mV                       : CBL 3' Amplitude
GR.GAPI                       : Gamma Ray
~Parameter Information Block
~A  Depth       CCL         TT3         AMP3         GR     
# ...
  1532.7500      0.0000    681.3550      5.1786    128.9328
  1533.0000      0.0000    701.6508      5.0951    119.1305
  1533.2500      0.0000    719.8474      5.0293    109.2402
  1533.5000      0.0000    733.1113      4.9741    100.8705
  1533.7500      0.0000    741.6031      4.9219     95.7812
  1534.0000      0.0000    747.1766      4.8720     95.1045
  1534.2500      0.0000    752.5163      4.8288     98.5944
  1534.5000      0.0000    759.1593      4.7992    104.6647
  1534.7500      0.0000    765.5120      4.7889    111.4566
  1535.0000      0.0000    768.0319      4.7975    118.1844
  1535.2500      0.0000    764.7578      4.8132    125.3305
  1535.5000      0.0000    757.0836      4.8176    133.1816
  1535.7500      0.0000    747.8835      4.7982    140.3745
  1536.0000      0.0000    738.7238      4.7586    144.6911
  1536.2500      0.0000    730.2585      4.7143    145.4328
  1536.5000      0.0000    725.0502      4.6822    144.1137
  1536.7500      0.0000    727.2866      4.6708    142.6028
  1537.0000      0.0000    738.3277      4.6783    141.4971
  1537.2500      0.0000    754.0421      4.6963    140.4430
  1537.5000      0.0000    767.5122      4.7176    138.9700
  1537.7500      0.0000    773.1659      4.7489    136.6789
  1538.0000      0.0000    768.3441      4.8120    133.4869
  1538.2500      0.0000    753.6418      4.9158    129.9545
  1538.5000      0.0000    734.0135      5.0155    126.8057
  1538.7500      0.0000    717.8553      5.0235    123.9673
  1539.0000      0.0000    711.7069      4.8901    120.3535
  1539.2500      0.0000    715.4716      4.6651    114.6387
  1539.5000      0.0000    724.4233      4.4564    106.5682
  1539.7500      2.0000    734.9559      4.3370     98.0005
  1540.0000      0.0000    746.2648      4.3082     92.3369
  1540.2500      2.0000    757.7910      4.3354     92.0152
  1540.5000      0.0000    767.9697      4.3988     96.3522
  1540.7500      0.0000    775.4368      4.5210    102.3517
  1541.0000      0.0000    779.6964      4.7550    107.7381
  1541.2500      0.0000    780.5623      5.1254    112.6792
  1541.5000      0.0000    777.9549      5.5600    118.2744
  1541.7500      0.0000    772.0081      5.9036    124.1007
  1542.0000      0.0000    762.7090      6.0354    128.1554
  1542.2500      0.0000    750.0321      5.9606    128.9978
  1542.5000      0.0000    735.1089      5.7748    127.2423
  1542.7500      0.0000    720.5046      5.5683    125.0179
  1543.0000      0.0000    708.7614      5.3834    124.3716
  1543.2500      0.0000    701.0716      5.2323    125.8956
  1543.5000      0.0000    697.2317      5.1198    128.3914
  1543.7500      0.0000    696.0608      5.0464    129.9927
  1544.0000      0.0000    695.9991      5.0032    129.9394
  1544.2500      0.0000    696.1529      4.9734    129.0488
  1544.5000      0.0000    696.7523      4.9392    128.3477
  1544.7500      0.0000    698.1372      4.8926    127.7760
  1545.0000      0.0000    699.5073      4.8386    126.6023
  1545.2500      0.0000    699.0640      4.7893    124.6553
  1545.5000      0.0000    695.3164      4.7525    122.5179
  1545.7500      0.0000    688.2820      4.7266    120.5835
  1546.0000      0.0000    679.6775      4.7012    118.6091
  1546.2500      0.0000    671.9068      4.6632    116.5938
  1546.5000      0.0000    666.6143      4.6056    115.6881
  1546.7500      0.0000    664.1445      4.5361    117.5576
  1547.0000      0.0000    664.2300      4.4753    122.5855
  1547.2500      0.0000    666.8436      4.4415    128.9713
  1547.5000      0.0000    672.0015      4.4371    134.1346
  1547.7500      0.0000    678.6572      4.4508    137.0531
  1548.0000      0.0000    684.3192      4.4707    138.6024
  1548.2500      0.0000    686.8198      4.4928    139.5439
  1548.5000      0.0000    686.7939      4.5196    139.2469
  1548.7500      0.0000    687.5134      4.5542    136.9443
  1549.0000      0.0000    691.6795      4.5961    133.3075
  1549.2500      0.0000    698.9774      4.6410    129.8894
  1549.5000      0.0000    706.9662      4.6855    127.5853
  1549.7500      0.0000    713.2072      4.7302    126.1645
  1550.0000      0.0000    715.9727      4.7747    124.6411
  1550.2500      0.0000    714.4160      4.8132    121.7748
  1550.5000      0.0000    709.7079      4.8352    116.9739
  1550.7500      0.0000    705.4752      4.8313    111.1243
  1551.0000      0.0000    705.2583      4.7982    106.1535
  1551.2500      0.0000    708.7864      4.7396    103.4690
  1551.5000      0.0000    711.0298      4.6652    102.7852
  1551.7500      0.0000    705.0868      4.5883    102.3950
  1552.0000      0.0000    686.8200      4.5209    100.7489
  1552.2500      0.0000    659.0549      4.4711     98.0878
  1552.5000      0.0000    632.3707      4.4419     96.5133
  1552.7500      0.0000    619.2377      4.4325     98.1215
  1553.0000      0.0000    624.2296      4.4384    102.8792
  1553.2500      0.0000    639.9750      4.4504    108.3681
  1553.5000      0.0000    654.2345      4.4578    111.8399
  1553.7500      0.0000    660.5550      4.4560    112.7360
  1554.0000      0.0000    660.9302      4.4498    113.0824
  1554.2500      0.0000    659.6922      4.4464    115.2311
  1554.5000      0.0000    657.9443      4.4467    119.4483
  1554.7500      0.0000    654.3553      4.4450    124.1021
  1555.0000      0.0000    648.7260      4.4365    127.9415
  1555.2500      0.0000    642.8941      4.4233    131.3619
  1555.5000      0.0000    638.8743      4.4142    135.2585
  1555.7500      0.0000    637.3696      4.4205    139.3999
  1556.0000      0.0000    637.8074      4.4482    142.3591
  1556.2500      0.0000    638.9727      4.4935    142.5882
  1556.5000      0.0000    639.6385      4.5455    139.3757
  1556.7500      0.0000    639.2259      4.5936    133.2489
  1557.0000      0.0000    638.1648      4.6343    125.7427
  1557.2500      0.0000    637.5564      4.6679    118.5642
  1557.5000      0.0000    638.5810      4.6928    112.7150
  1557.7500      0.0000    642.0391      4.7049    108.4252
  1558.0000      0.0000    647.7166      4.7040    105.8779
  1558.2500      0.0000    653.7978      4.6966    105.6873
  1558.5000      0.0000    657.6379      4.6893    108.4898
  1558.7500      0.0000    657.8798      4.6816    114.2677
  1559.0000      0.0000    655.2775      4.6654    122.0138
  1559.2500      0.0000    650.8851      4.6318    129.6453
  1559.5000      0.0000    644.1483      4.5778    134.3955
  1559.7500      0.0000    633.6255      4.5092    134.2628
  1560.0000      0.0000    619.5775      4.4354    129.7767
  1560.2500      0.0000    605.5269      4.3632    123.9426
  1560.5000      0.0000    596.2277      4.2947    119.7195
  1560.7500      0.0000    592.9934      4.2304    117.5849
  1561.0000      0.0000    592.1061      4.1723    115.9961
  1561.2500      0.0000    589.7228      4.1231    113.6666
  1561.5000      0.0000    587.2195      4.0868    110.3040
  1561.7500      0.0000    589.3597      4.0705    105.5861
  1562.0000      0.0000    598.1907      4.0849     99.0377
  1562.2500      0.0000    611.0104      4.1379     91.2163
  1562.5000      0.0000    623.6423      4.2245     83.8765
  1562.7500      0.0000    633.8392      4.3198     78.4576
  1563.0000      0.0000    641.6302      4.3886     75.0679
  1563.2500      0.0000    647.6590      4.4049     73.2847
  1563.5000      0.0000    651.9437      4.3621     73.3042
  1563.7500      0.0000    654.4620      4.2696     75.6928
  1564.0000      0.0000    656.5661      4.1464     80.1610
  1564.2500      0.0000    661.0096      4.0154     85.1707
  1564.5000      0.0000    669.8594      3.8989     88.9959
  1564.7500      0.0000    682.2252      3.8163     90.7849
  1565.0000      0.0000    694.3823      3.7839     90.5193
  1565.2500      0.0000    702.4662      3.8101     88.7942
  1565.5000      0.0000    705.3105      3.8869     87.1659
  1565.7500      0.0000    704.9792      3.9896     87.7697
  1566.0000      0.0000    704.7127      4.0877     91.5636
