~Version Information
VERS.                      2.0: CWLS Log ASCII Standard - VERSION 2.0
WRAP.                       NO: One line per depth step
~Well Information Block
STRT.FT               880.0000: 
STOP.FT              1996.5000: 
STEP.FT                 0.1000: 
NULL.                -999.2500: 
COMP.          Petrogulf Corporation: COMPANY
WELL.          Collister 17-31R: WELL
FLD.           Purgatorie River: FIELD
LOC.           962' FNL & 1520' FEL: LOCATION
PROV.                 Colorado: PROVINCE
CNTY.               Las Animas: COUNTRY
SRVC.                Patterson: SERVICE COMPANY
DATE.          Mon Sep 26 09:28:52 2005: LOG DATE
UWI.                          : UNIQUE WELL ID
~Curve Information Block
DEPT.FT            0 000 00 00: Depth
DCAL.in                       : CDL Caliper
RHOB.g/cc                     : CDL Bulk Density
RHOC.g/cc                     : CDL Density Correction
DPOR.pu                       : CDL Density Porosity
GR.GAPI                       : Gamma Ray
NPOR.pu                       : Neutron Porosity
~Parameter Information Block
~A  Depth       DCAL        RHOB        RHOC        DPOR         GR         NPOR    
# ...
  1619.2000      7.9144      2.5996      0.0593      3.0560    146.5691     27.9275
  1619.3000      7.9149      2.5953      0.0622      3.3169    145.6417     28.2530
  1619.4000      7.9149      2.5791      0.0593      4.2986    144.9675     28.8904
  1619.5000      7.9191      2.5452      0.0426      6.3542    149.7113     29.2494
  1619.6000      7.9191      2.5078     -0.0159      8.6194    157.5941     29.0401
  1619.7000      7.9191      2.4962     -0.0326      9.3202    164.2615     28.6638
  1619.8000      7.9146      2.5140      0.0337      8.2407    172.3267     28.5006
  1619.9000      7.9146      2.5363      0.0203      6.8914    182.7897     28.4177
  1620.0000      7.9290      2.5485      0.0595      6.1538    188.9156     28.1495
  1620.1000      7.9290      2.5476      0.0544      6.2038    187.7615     27.9630
  1620.2000      7.9290      2.5337      0.0534      7.0498    183.2323     28.2417
  1620.3000      7.9323      2.5113      0.0838      8.4060    178.6864     28.7267
  1620.4000      7.9323      2.4861      0.0500      9.9349    176.6987     29.1161
  1620.5000      7.9497      2.4643      0.0306     11.2576    177.0084     29.5423
  1620.6000      7.9497      2.4564      0.0446     11.7305    176.9905     30.0567
  1620.7000      7.9497      2.4687      0.0933     10.9852    177.7847     30.5928
  1620.8000      7.9693      2.4882      0.0747      9.8042    177.6039     30.9880
  1620.9000      7.9693      2.4993      0.0911      9.1311    173.4833     30.8693
  1621.0000      8.0349      2.5033      0.0721      8.8884    170.9874     30.3479
  1621.1000      8.0349      2.5144      0.0673      8.2158    172.5983     30.0848
  1621.2000      8.0349      2.5436      0.1319      6.4507    173.5557     30.2570
  1621.3000      7.9729      2.5812      0.2397      4.1727    171.7945     30.3344
  1621.4000      7.9729      2.6066      0.2400      2.6278    169.1292     30.0991
  1621.5000      7.9733      2.6168      0.2094      2.0125    164.3567     29.8436
  1621.6000      7.9733      2.6283      0.1967      1.3129    156.9793     29.6130
  1621.7000      7.9733      2.6539      0.2427     -0.2391    154.2451     29.2755
  1621.8000      8.0344      2.6824      0.2323     -1.9630    158.4152     29.0480
  1621.9000      8.0344      2.6956      0.2242     -2.7621    161.7912     28.9827
  1622.0000      8.0253      2.6906      0.1922     -2.4619    160.3215     28.6903
  1622.1000      8.0253      2.6776      0.1357     -1.6750    155.7563     28.1706
  1622.2000      8.0253      2.6686      0.1103     -1.1254    151.3972     27.8216
  1622.3000      7.8524      2.6706      0.0833     -1.2493    149.6687     27.8749
  1622.4000      7.8524      2.6763      0.1210     -1.5916    149.5283     28.2103
  1622.5000      7.8199      2.6707      0.1282     -1.2548    148.7581     28.1711
  1622.6000      7.8199      2.6530      0.1382     -0.1807    145.7550     27.3104
  1622.7000      7.8199      2.6254      0.0957      1.4930    139.9681     26.1140
  1622.8000      7.8046      2.5891      0.0822      3.6913    133.7578     25.2891
  1622.9000      7.8046      2.5587      0.0319      5.5355    132.0918     25.0677
  1623.0000      7.8042      2.5494      0.0121      6.0977    134.4185     25.4114
  1623.1000      7.8042      2.5584      0.0596      5.5531    136.1675     26.0320
  1623.2000      7.8042      2.5708      0.0735      4.8015    136.2806     26.7034
  1623.3000      7.8016      2.5803      0.0506      4.2253    134.7241     27.3825
  1623.4000      7.8016      2.5930      0.0624      3.4541    131.5265     27.6742
  1623.5000      7.8128      2.6017      0.0964      2.9248    128.5331     27.2222
  1623.6000      7.8128      2.5930      0.0449      3.4559    125.3602     26.3763
  1623.7000      7.8128      2.5809      0.0076      4.1882    122.4695     25.7424
  1623.8000      7.8330      2.5843      0.0622      3.9795    122.8159     25.2314
  1623.9000      7.8330      2.5955      0.0412      3.3029    124.6752     24.5313
  1624.0000      7.8384      2.6045      0.0274      2.7595    125.8501     24.0842
  1624.1000      7.8384      2.6101      0.0827      2.4155    127.9114     24.2131
  1624.2000      7.8384      2.6064      0.0811      2.6398    130.3809     24.6529
  1624.3000      7.8444      2.5929      0.0112      3.4599    131.1746     25.2252
  1624.4000      7.8444      2.5760      0.0859      4.4851    131.2429     25.8914
  1624.5000      7.8414      2.5650      0.0027      5.1487    131.9175     26.5389
  1624.6000      7.8414      2.5709      0.0464      4.7924    131.7099     26.9958
  1624.7000      7.8414      2.5844      0.0437      3.9736    129.6451     27.1998
  1624.8000      7.8437      2.5879      0.0567      3.7614    127.3409     27.1629
  1624.9000      7.8437      2.5782      0.0218      4.3489    127.2040     26.8948
  1625.0000      7.8500      2.5667      0.0410      5.0471    130.4464     26.6492
  1625.1000      7.8500      2.5727      0.0059      4.6871    133.8065     26.7057
  1625.2000      7.8500      2.6073      0.0059      2.5894    131.9515     26.7987
  1625.3000      7.8448      2.6499      0.0959      0.0039    124.1084     26.5231
  1625.4000      7.8448      2.6676      0.0350     -1.0687    114.7035     26.0982
  1625.5000      7.8084      2.6577      0.0631     -0.4682    109.8587     25.8504
  1625.6000      7.8084      2.6359      0.0792      0.8549    110.9186     25.6657
  1625.7000      7.8084      2.6150      0.0358      2.1239    111.8117     25.5043
  1625.8000      7.8071      2.5968      0.0557      3.2239    109.0887     25.4741
  1625.9000      7.8071      2.5714      0.0353      4.7644    107.0011     25.4364
  1626.0000      7.7805      2.5403     -0.0147      6.6488    108.1760     25.2279
  1626.1000      7.7805      2.5253      0.0123      7.5588    109.9545     25.1019
  1626.2000      7.7805      2.5396      0.0044      6.6906    109.8651     25.2484
  1626.3000      7.7656      2.5787      0.0230      4.3224    108.6477     25.4190
  1626.4000      7.7656      2.6315      0.1178      1.1218    108.5509     25.3658
  1626.5000      7.7704      2.6801      0.1512     -1.8219    108.6312     25.2218
  1626.6000      7.7704      2.7056      0.1671     -3.3668    107.3283     25.3398
  1626.7000      7.7704      2.7056      0.1366     -3.3711    107.7306     25.6845
  1626.8000      7.7667      2.6974      0.0923     -2.8757    110.4294     25.9102
  1626.9000      7.7667      2.6914      0.1057     -2.5102    112.0439     25.9964
  1627.0000      7.7743      2.6734      0.0936     -1.4169    112.0841     25.9968
  1627.1000      7.7743      2.6357      0.0619      0.8638    112.9885     25.7616
  1627.2000      7.7743      2.6065     -0.0325      2.6349    117.0110     25.4377
  1627.3000      7.8159      2.6051      0.0291      2.7205    124.6020     25.1556
  1627.4000      7.8159      2.6035      0.0753      2.8182    134.2563     24.8602
  1627.5000      7.8400      2.5781      0.0520      4.3585    142.8383     25.0450
  1627.6000      7.8400      2.5480      0.0217      6.1826    150.5532     26.0937
  1627.7000      7.8400      2.5359      0.0505      6.9178    159.6081     27.4024
  1627.8000      7.8221      2.5388      0.0766      6.7413    167.4403     28.3844
  1627.9000      7.8221      2.5477      0.0509      6.1982    170.7390     28.9391
  1628.0000      7.8197      2.5532      0.1135      5.8657    172.5390     29.1972
  1628.1000      7.8197      2.5404      0.0840      6.6438    179.5564     29.4004
  1628.2000      7.8197      2.5139      0.0430      8.2465    190.7211     29.6317
  1628.3000      7.8392      2.5019      0.0482      8.9766    197.2428     29.7682
  1628.4000      7.8392      2.5176      0.0233      8.0266    193.7210     29.7945
  1628.5000      7.9083      2.5398      0.0926      6.6767    183.7077     29.6538
  1628.6000      7.9083      2.5421      0.0852      6.5383    172.6795     29.1947
  1628.7000      7.9083      2.5280      0.0274      7.3923    162.6695     28.6237
