~Version Information
VERS.                      2.0: CWLS Log ASCII Standard - VERSION 2.0
WRAP.                       NO: One line per depth step
~Well Information Block
STRT.FT               830.0000: 
STOP.FT              1792.5000: 
STEP.FT                 0.1000: 
NULL.                -999.2500: 
COMP.          Pioneer Natural Resources: COMPANY
WELL.           Rolls 14-14 Tr: WELL
FLD.           Purgatoire River: FIELD
LOC.           473' FSL & 817' FWL: LOCATION
PROV.                 Colorado: PROVINCE
CNTY.               Las Animas: COUNTRY
SRVC.                Patterson: SERVICE COMPANY
DATE.          Wed Aug 03 07:11:37 2005: LOG DATE
UWI.           05 071 08454 00: UNIQUE WELL ID
~Curve Information Block
DEPT.FT            0 000 00 00: Depth
DCAL.in                       : CDL Caliper
RHOB.g/cc                     : CDL Bulk Density
RHOC.g/cc                     : CDL Density Correction
DPOR.pu                       : CDL Density Porosity
GR.GAPI                       : Gamma Ray
NPOR.pu                       : Neutron Porosity
~Parameter Information Block
~A  Depth       DCAL        RHOB        RHOC        DPOR         GR         NPOR    
# ...
  1530.8000      8.0337      2.5224      0.0835      7.7318    134.6604     28.7776
  1530.9000      8.0337      2.5522      0.1571      5.9258    138.7620     28.7992
  1531.0000      8.0357      2.5698      0.1454      4.8618    147.3350     28.1797
  1531.1000      8.0357      2.5787      0.2477      4.3220    152.4342     28.0200
  1531.2000      8.0357      2.5736      0.2559      4.6283    152.0732     28.5257
  1531.3000      8.0473      2.5455      0.2074      6.3350    150.0343     29.3816
  1531.4000      8.0473      2.5050      0.1522      8.7871    150.3569     30.1668
  1531.5000      8.0659      2.4777      0.1024     10.4437    153.6389     30.2397
  1531.6000      8.0659      2.4737      0.1135     10.6844    158.2775     30.0747
  1531.7000      8.0659      2.4794      0.0947     10.3385    160.8382     30.9592
  1531.8000      8.1288      2.4861      0.0798      9.9320    158.8458     32.1900
  1531.9000      8.1288      2.4982      0.0931      9.2013    156.1046     32.0097
  1532.0000      8.1330      2.5170      0.1010      8.0595    155.1719     30.7849
  1532.1000      8.1330      2.5381      0.1300      6.7835    152.2693     29.9556
  1532.2000      8.1330      2.5485      0.1169      6.1502    147.4238     29.5556
  1532.3000      8.0631      2.5356      0.0890      6.9326    146.2287     28.9954
  1532.4000      8.0631      2.5057      0.0472      8.7441    149.0483     28.4835
  1532.5000      8.0580      2.4806      0.0595     10.2688    151.8607     28.2100
  1532.6000      8.0580      2.4747      0.0410     10.6227    153.6188     28.4249
  1532.7000      8.0580      2.4852      0.0747      9.9909    153.7326     29.1173
  1532.8000      8.0534      2.5046      0.0494      8.8123    149.2392     29.3854
  1532.9000      8.0534      2.5305      0.1162      7.2394    143.6055     28.7984
  1533.0000      8.0220      2.5540      0.1097      5.8166    146.3828     28.1023
  1533.1000      8.0220      2.5709      0.1259      4.7940    156.8732     28.1160
  1533.2000      8.0220      2.5847      0.1601      3.9560    162.5982     28.9090
  1533.3000      8.0006      2.5927      0.1687      3.4708    158.1800     29.6372
  1533.4000      8.0006      2.5892      0.1468      3.6852    153.7610     29.9403
  1533.5000      8.0323      2.5685      0.1663      4.9395    156.7121     30.2428
  1533.6000      8.0323      2.5341      0.1041      7.0256    159.4649     30.5579
  1533.7000      8.0323      2.5139      0.0522      8.2507    153.6907     30.9426
  1533.8000      8.0256      2.5301      0.0712      7.2674    145.5775     31.0656
  1533.9000      8.0256      2.5743      0.1499      4.5882    145.1796     30.3103
  1534.0000      8.0513      2.6337      0.1451      0.9850    150.2047     29.2642
  1534.1000      8.0513      2.6919      0.2094     -2.5419    152.7149     28.6575
  1534.2000      8.0513      2.7181      0.2013     -4.1299    152.7546     28.4577
  1534.3000      8.1308      2.7085      0.1272     -3.5427    156.2807     28.1701
  1534.4000      8.1308      2.6963      0.0923     -2.8076    161.0002     27.4664
  1534.5000      8.1766      2.6994      0.1210     -2.9914    159.5193     27.2315
  1534.6000      8.1766      2.6960      0.1249     -2.7886    154.3170     28.3738
  1534.7000      8.1766      2.6692      0.0408     -1.1622    152.1529     30.0666
  1534.8000      8.1649      2.6317      0.0470      1.1065    152.0145     30.7490
  1534.9000      8.1649      2.5969      0.0312      3.2207    148.0743     29.9460
  1535.0000      8.0444      2.5713     -0.0353      4.7685    139.7783     28.5633
  1535.1000      8.0444      2.5568     -0.0261      5.6459    134.6108     28.2401
  1535.2000      8.0444      2.5396      0.0091      6.6912    139.7076     29.1202
  1535.3000      8.0369      2.5142     -0.0061      8.2291    151.0704     29.1019
  1535.4000      8.0369      2.4911      0.0135      9.6293    161.0462     27.3691
  1535.5000      8.1473      2.4726      0.0103     10.7505    168.0235     25.7869
  1535.6000      8.1473      2.4595     -0.0160     11.5467    168.0033     25.9548
  1535.7000      8.1473      2.4672      0.0006     11.0774    158.1714     27.1704
  1535.8000      8.1753      2.5038      0.0805      8.8609    147.5430     28.1361
  1535.9000      8.1753      2.5450      0.0509      6.3629    144.5387     28.1509
  1536.0000      8.1656      2.5644      0.0825      5.1865    144.8099     27.1729
  1536.1000      8.1656      2.5594      0.0532      5.4890    142.7744     26.3957
  1536.2000      8.1656      2.5345      0.0775      6.9983    142.3364     26.2870
  1536.3000      8.1218      2.4936      0.0518      9.4815    148.5160     26.1245
  1536.4000      8.1218      2.4534      0.0006     11.9178    159.6958     25.8890
  1536.5000      8.0746      2.4353      0.0040     13.0100    167.5769     26.1175
  1536.6000      8.0746      2.4439     -0.0219     12.4900    163.1371     26.5907
  1536.7000      8.0746      2.4642      0.0334     11.2628    150.8112     27.0944
  1536.8000      8.0735      2.4799      0.0255     10.3063    142.4956     27.7103
  1536.9000      8.0735      2.4919      0.0270      9.5808    139.8978     27.6368
  1537.0000      8.0558      2.5080      0.0436      8.6053    139.2107     26.5368
  1537.1000      8.0558      2.5286      0.0738      7.3562    139.7182     25.4072
  1537.2000      8.0558      2.5473      0.0897      6.2247    141.1355     24.7627
  1537.3000      8.0393      2.5514      0.1031      5.9787    140.5446     24.3642
  1537.4000      8.0393      2.5350      0.0727      6.9722    138.2065     24.4412
  1537.5000      8.0492      2.5130      0.0532      8.3022    139.9490     25.2290
  1537.6000      8.0492      2.5082      0.0212      8.5911    145.7738     26.0884
  1537.7000      8.0492      2.5262      0.0565      7.5053    149.6334     26.2735
  1537.8000      8.0264      2.5475      0.1288      6.2140    149.1928     25.9066
  1537.9000      8.0264      2.5607      0.0548      5.4116    146.7474     25.7839
  1538.0000      8.0247      2.5748      0.0767      4.5552    144.9032     26.2747
  1538.1000      8.0247      2.5928      0.1083      3.4657    142.6552     26.9752
  1538.2000      8.0247      2.6140      0.1303      2.1835    141.0316     27.7035
  1538.3000      8.0333      2.6375      0.1880      0.7554    140.4425     28.6122
  1538.4000      8.0333      2.6626      0.1314     -0.7629    135.6295     29.1455
  1538.5000      8.0351      2.6868      0.1587     -2.2306    127.5911     28.4222
  1538.6000      8.0351      2.6952      0.1242     -2.7378    123.0682     26.7556
  1538.7000      8.0351      2.6827      0.0679     -1.9831    123.7709     25.4776
  1538.8000      8.0326      2.6685      0.1143     -1.1203    126.6577     25.4655
  1538.9000      8.0326      2.6666      0.0829     -1.0078    128.6366     26.5213
  1539.0000      8.0298      2.6689      0.0790     -1.1455    127.6817     28.0582
  1539.1000      8.0298      2.6595      0.0822     -0.5743    124.7043     29.2474
  1539.2000      8.0298      2.6333      0.0295      1.0108    125.3640     29.2001
  1539.3000      8.0299      2.6005      0.0086      3.0029    131.5118     28.3121
  1539.4000      8.0299      2.5731      0.0321      4.6630    135.9382     28.0123
  1539.5000      8.0358      2.5463      0.0526      6.2838    133.1007     28.5821
  1539.6000      8.0358      2.5091      0.0290      8.5371    127.1662     29.0952
  1539.7000      8.0358      2.4678     -0.0011     11.0433    126.1107     28.9781
  1539.8000      8.0414      2.4376     -0.0643     12.8701    129.2664     28.4661
  1539.9000      8.0414      2.4201     -0.0531     13.9348    129.7794     28.0936
  1540.0000      8.0848      2.4047     -0.0067     14.8664    127.3677     28.1751
  1540.1000      8.0848      2.3846      0.0149     16.0868    124.9152     28.2328
  1540.2000      8.0848      2.3510      0.0535     18.1196    128.6344     27.7455
  1540.3000      8.0997      2.3078     -0.0039     20.7385    141.0716     27.4209
