~Version Information
 VERS.                                  2.0 : CWLS LAS VERSION
 WRAP.                                   NO : WRAPING MODE
 SWARE .                 MController 2.5.0J : SOFTWARE VERSION
~Well Information
 WELL.YWAM 7-32R : WELL
 COMP.                Petrogulf Corporation : COMPANY
 FLD.                      Purgatoire River : FIELD
 LOC.                 SW/NE Sec 7 T33S R67W : LOCATION
 DATE.9/28/05 : DATE(S) LOGGED
 SRVC.       BLANCO Geological Services LLC : SERVICE COMPANY
 STAT.                                   CO : STATE
 CNTY.                           Las Animas : COUNTY
 CTRY.                                  USA : COUNTRY
 API.                       05-071-08518-00 : API NUMBER
 STRT.FT                               1.00 : START DEPTH
 STOP.FT                            2100.00 : STOP DEPTH
 STEP.FT                               1.00 : DEPTH INCREMENT
 NULL.                                -9999 : NULL VALUE
~Curve information
 DEPTH.FT                                   :
 ROP.MIN/FT                                 :
 GAS.UNITS                                  :
~ASCII Log data
# ...
       401.0         0.27          6.7 
       402.0         0.23          7.0 
       403.0         0.33          7.0 
       404.0         0.13          6.8 
       405.0         0.10          6.0 
       406.0         0.17          6.5 
       407.0         0.10          6.0 
       408.0         0.20          6.1 
       409.0         0.23          5.7 
       410.0         0.23          6.0 
       411.0         0.17          5.6 
       412.0         0.25          5.2 
       413.0         0.20          5.5 
       414.0         0.20          5.8 
       415.0         0.37          9.7 
       416.0         1.00         10.8 
       417.0         0.13          7.0 
       418.0         0.13          6.9 
       419.0         0.13          6.4 
       420.0         0.17          6.3 
       421.0         0.20          5.9 
       422.0         0.23          6.1 
       423.0         0.20          5.8 
       424.0         0.28          5.8 
       425.0         0.30          5.8 
       426.0         0.23          5.6 
       427.0         0.23          5.6 
       428.0         0.20          5.5 
       429.0         0.23          5.6 
       430.0         0.20          5.6 
       431.0         0.23          5.6 
       432.0         0.23          5.3 
       433.0         0.27          5.8 
       434.0         0.27          6.0 
       435.0         0.27          5.6 
       436.0         0.28          5.3 
       437.0         0.30          5.6 
       438.0         0.27          5.7 
       439.0         0.27          5.8 
       440.0         0.30          5.6 
       441.0         0.33          5.5 
       442.0         0.37          5.7 
       443.0         0.33          5.6 
       444.0         0.33          5.4 
       445.0         0.35          6.0 
       446.0         1.63         11.4 
       447.0         0.33          7.0 
       448.0         0.27          6.6 
       449.0         0.35          6.5 
       450.0         0.33          6.6 
       451.0         0.23          6.7 
       452.0         0.23          6.6 
       453.0         0.17          6.2 
       454.0         0.20          6.4 
       455.0         0.23          5.8 
       456.0         0.27          5.7 
       457.0         0.23          5.9 
       458.0         0.30          5.8 
       459.0         0.23          5.9 
       460.0         0.30          5.5 
       461.0         0.28          5.5 
       462.0         0.27          5.6 
       463.0         0.20          5.4 
       464.0         0.20          5.3 
       465.0         0.27          5.7 
       466.0         0.27          5.4 
       467.0         0.27          5.7 
       468.0         0.27          5.7 
       469.0         0.27          5.8 
       470.0         0.30          5.7 
       471.0         0.30          5.7 
       472.0         0.52          6.0 
       473.0         0.30          5.6 
       474.0         0.20          5.9 
       475.0         0.33          6.2 
       476.0         1.60         18.9 
       477.0         0.28          6.5 
       478.0         0.20          5.7 
       479.0         0.17          5.6 
       480.0         0.23          5.5 
       481.0         0.30          5.6 
       482.0         0.27          5.3 
       483.0         0.23          5.2 
       484.0         0.27          5.7 
       485.0         0.37          5.3 
       486.0         0.23          5.6 
       487.0         0.23          5.3 
       488.0         0.27          5.4 
       489.0         0.23          5.6 
       490.0         0.25          5.5 
       491.0         0.23          5.3 
       492.0         0.30          5.5 
       493.0         0.23          5.5 
       494.0         0.23          5.6 
       495.0         0.20          5.0 
       496.0         0.20          5.3 
       497.0         0.23          4.9 
       498.0         0.30          5.1 
       499.0         0.30          5.2 
       500.0         0.23          6.0 
       501.0         0.22          5.5 
       502.0         0.20          5.4 
       503.0         0.23          5.2 
       504.0         0.17          5.6 
       505.0         0.13          5.6 
       506.0         1.20         12.2 
       507.0         0.30          7.3 
       508.0         0.30          6.1 
       509.0         0.27          5.7 
       510.0         0.20          5.6 
       511.0         0.22          5.4 
       512.0         0.17          5.9 
       513.0         0.23          5.5 
       514.0         0.27          5.4 
       515.0         0.30          5.3 
       516.0         0.27          5.4 
       517.0         0.17          5.3 
       518.0         0.20          5.4 
       519.0         0.20          5.5 
       520.0         0.23          5.3 
       521.0         0.43          5.9 
       522.0         0.33          5.8 
       523.0         0.30          5.4 
       524.0         0.32          5.5 
       525.0         0.27          5.5 
       526.0         0.20          5.7 
       527.0         0.23          5.6 
       528.0         0.40          5.6 
       529.0         0.33          5.6 
       530.0         0.40          5.4 
       531.0         0.30          5.6 
       532.0         0.30          5.7 
       533.0         0.37          5.8 
       534.0         0.42          5.4 
       535.0         0.37          5.3 
       536.0         2.50         13.8 
       537.0         0.42          5.9 
       538.0         0.30          5.4 
       539.0         0.30          5.5 
       540.0         0.30          5.4 
       541.0         0.27          5.5 
       542.0         0.30          5.5 
       543.0         0.27          6.3 
       544.0         0.27          8.4 
       545.0         0.27          8.8 
       546.0         0.23         12.9 
       547.0         0.23         13.5 
       548.0         0.52         11.2 
       549.0         0.57          6.0 
       550.0         0.27          8.2 
       551.0         0.27         10.4 
       552.0         0.30         12.2 
       553.0         0.27         13.8 
       554.0         0.27         14.4 
       555.0         0.27         15.4 
       556.0         0.33         15.6 
       557.0         0.27         15.8 
       558.0         0.27         16.1 
       559.0         0.28         15.9 
       560.0         0.27         16.7 
       561.0         0.27         15.5 
       562.0         0.20         12.5 
       563.0         0.30         16.4 
       564.0         0.23         20.5 
       565.0         0.30         47.9 
       566.0         1.13         78.8 
       567.0         0.37         37.7 
       568.0         0.38         29.1 
       569.0         0.30         23.4 
       570.0         0.27         22.5 
       571.0         0.27         21.9 
       572.0         0.30         21.0 
       573.0         0.27         19.8 
       574.0         0.30         18.6 
       575.0         0.27         17.4 
       576.0         0.23         16.6 
       577.0         0.23         16.5 
       578.0         0.27         17.1 
       579.0         0.23         15.0 
       580.0         0.25         14.2 
       581.0         0.30         14.3 
       582.0         0.23         15.5 
       583.0         0.20         17.0 
       584.0         0.17         16.6 
       585.0         0.20         16.1 
       586.0         0.27         15.8 
       587.0         0.27         13.9 
       588.0         0.23         14.1 
       589.0         0.20         14.0 
       590.0         0.20         13.9 
       591.0         0.23         10.0 
       592.0         0.23         12.0 
       593.0         0.23         17.4 
       594.0         0.28         28.7 
       595.0         0.23         90.8 
       596.0         0.90        117.6 
       597.0         0.37         44.4 
       598.0         0.33         30.0 
       599.0         0.37         23.6 
       600.0         0.37         21.3 
