~Version Information
VERS.                      2.0: CWLS Log ASCII Standard - VERSION 2.0
WRAP.                       NO: One line per depth step
~Well Information Block
STRT.FT                -9.0000: 
STOP.FT              1841.0000: 
STEP.FT                 0.2500: 
NULL.                -999.2500: 
COMP.          Pioneer Natural Resources: COMPANY
WELL.          Cooper 11-13 Tr: WELL
FLD.           Purgatorie River: FIELD
LOC.           476' FNL & 738' FWL: LOCATION
STAT.                       CO: State
CNTY.               Las Animas: COUNTY
CTRY. USA : Country
SECT. 13 : Section
TOWN. 32S : Township
RANG. 67W : Range
SRVC.          Patterson Wireline: SERVICE COMPANY
DATE.          Thu Sep 29 08:59:13 2005: LOG DATE
API.           05 071 08525 00: UNIQUE WELL ID
~Curve Information Block
DEPT.FT            0 000 00 00: Depth
CCL.                          : Casing Collar Locator
TT3.usec                      : CBL 3' Travel Time
AMP3.mV                       : CBL 3' Amplitude
GR.GAPI                       : Gamma Ray
~Parameter Information Block
~A  Depth       CCL         TT3         AMP3         GR     
# ...
   359.5000      0.0000    920.4112      3.2170     44.1833
   359.7500      0.0000    920.6372      3.2562     43.2924
   360.0000      0.0000    920.6195      3.3214     43.2414
   360.2500      0.0000    919.8444      3.4297     44.0137
   360.5000      0.0000    917.4435      3.5939     45.2103
   360.7500      0.0000    912.4225      3.8160     46.7469
   361.0000      0.0000    904.0978      4.0874     48.8735
   361.2500      0.0000    892.0353      4.3975     51.6081
   361.5000      0.0000    875.2787      4.7421     54.6214
   361.7500      0.0000    852.3718      5.1202     57.6660
   362.0000      0.0000    823.5023      5.5253     60.7145
   362.2500      0.0000    792.5886      5.9443     63.6668
   362.5000      0.0000    765.6119      6.3659     66.3446
   362.7500      0.0000    746.1933      6.7860     68.9114
   363.0000      0.0000    733.7557      7.2007     72.0536
   363.2500      0.0000    726.0894      7.5974     76.5010
   363.5000      0.0000    722.2592      7.9554     82.2295
   363.7500      0.0000    722.4285      8.2573     88.3093
   364.0000      0.0000    726.0056      8.4995     93.8784
   364.2500      0.0000    731.1154      8.6882     99.1437
   364.5000      0.0000    735.9476      8.8260    105.0019
   364.7500      0.0000    739.9985      8.9080    111.7559
   365.0000      0.0000    743.6508      8.9324    118.6218
   365.2500      0.0000    746.9958      8.9093    124.5002
   365.5000      0.0000    749.6057      8.8541    128.9979
   365.7500      0.0000    751.1726      8.7780    132.4932
   366.0000      0.0000    751.8528      8.6925    135.2367
   366.2500      0.0000    752.0251      8.6162    136.7654
   366.5000      0.0000    751.9899      8.5687    136.5249
   366.7500      0.0000    751.8978      8.5576    134.8565
   367.0000      0.0000    751.8065      8.5740    133.0728
   367.2500      0.0000    751.7402      8.6040    132.6076
   367.5000      0.0000    751.7175      8.6410    133.9282
   367.7500      0.0000    751.7479      8.6874    135.8698
   368.0000      0.0000    751.8223      8.7487    136.1015
   368.2500      0.0000    751.9124      8.8278    132.8750
   368.5000      0.0000    751.9877      8.9214    126.6301
   368.7500      0.0000    752.0363      9.0170    119.7141
   369.0000      0.0000    752.0667      9.0951    114.5058
   369.2500      0.0000    752.0920      9.1430    112.1122
   369.5000      0.0000    752.1136      9.1680    112.6185
   369.7500      0.0000    752.1119      9.1928    115.3938
   370.0000      0.0000    752.0485      9.2336    118.8537
   370.2500      0.0000    751.8599      9.2858    121.1753
   370.5000      0.0000    751.4346      9.3333    121.9255
   370.7500      0.0000    750.6370      9.3679    122.2031
   371.0000      0.0000    749.5286      9.3950    122.8536
   371.2500      0.0000    748.8615      9.4222    123.4426
   371.5000      0.0000    750.1689      9.4507    123.4479
   371.7500      0.0000    754.4374      9.4820    123.6741
   372.0000      0.0000    760.0716      9.5281    125.5887
   372.2500      0.0000    763.1005      9.6062    129.3203
   372.5000      0.0000    760.6257      9.7196    132.8561
   372.7500      0.0000    753.6595      9.8446    133.5719
   373.0000      0.0000    745.7166      9.9430    130.6608
   373.2500      0.0000    739.3670      9.9891    125.9666
   373.5000      0.0000    735.2283      9.9864    122.2519
   373.7500      0.0000    733.4462      9.9567    120.7339
   374.0000      0.0000    734.2831      9.9194    120.6721
   374.2500      0.0000    736.9138      9.8836    121.1913
   374.5000      0.0000    738.9120      9.8555    122.6456
   374.7500      0.0000    737.8226      9.8454    125.6394
   375.0000      0.0000    733.1881      9.8620    129.3173
   375.2500      0.0000    726.9691      9.9040    131.5482
   375.5000      0.0000    722.1205      9.9611    130.8212
   375.7500      0.0000    720.6495     10.0274    127.5572
   376.0000      0.0000    722.7728     10.1064    123.6373
   376.2500      0.0000    727.3665     10.1879    120.7808
   376.5000      0.0000    732.5449     10.2058    119.1191
   376.7500      0.0000    736.0378     10.0380    117.3614
   377.0000      0.0000    737.0139      9.6000    114.6280
   377.2500      0.0000    738.6874      8.9619    111.7731
   377.5000      0.0000    746.9459      8.3440    110.3098
   377.7500      0.0000    763.9023      7.9567    110.3367
   378.0000      0.0000    784.2663      7.8476    110.1464
   378.2500      0.0000    800.7092      7.9109    107.7384
   378.5000      2.0000    812.2662      8.0143    102.3952
   378.7500      2.0000    824.3615      8.0911     95.0421
   379.0000      0.0000    839.5410      8.1390     87.5185
   379.2500      0.0000    850.8656      8.1925     81.5723
   379.5000      0.0000    847.4271      8.3234     78.2705
   379.7500      0.0000    825.6815      8.6246     77.8166
   380.0000      0.0000    793.0049      9.1261     79.5102
   380.2500      0.0000    760.8077      9.7202     82.1122
   380.5000      0.0000    736.6436     10.2202     84.6881
   380.7500      0.0000    722.0950     10.5092     86.9613
   381.0000      0.0000    715.0040     10.6064     88.6108
   381.2500      0.0000    712.2706     10.6038     88.7663
   381.5000      0.0000    711.4998     10.5775     86.8188
   381.7500      0.0000    711.4042     10.5572     83.4208
   382.0000      0.0000    711.6003     10.5417     80.0364
   382.2500      0.0000    712.3011     10.5238     77.5926
   382.5000      0.0000    714.0768     10.5022     76.0065
   382.7500      0.0000    717.4263     10.4804     74.8772
   383.0000      0.0000    722.3502     10.4612     74.1013
   383.2500      0.0000    728.2883     10.4448     73.7532
   383.5000      0.0000    734.4843     10.4291     73.8378
   383.7500      0.0000    740.2581     10.4114     74.3781
   384.0000      0.0000    745.0106     10.3910     75.5367
   384.2500      0.0000    748.3295     10.3715     77.4778
   384.5000      0.0000    750.2274     10.3605     80.1710
   384.7500      0.0000    751.1152     10.3659     83.5201
   385.0000      0.0000    751.4839     10.3913     87.7245
   385.2500      0.0000    751.6076     10.4297     93.1633
   385.5000      0.0000    751.4139     10.4626     99.6303
   385.7500      0.0000    750.4407     10.4620    105.9258
   386.0000      0.0000    747.8958     10.3973    110.5614
   386.2500      0.0000    743.0479     10.2474    112.7195
   386.5000      0.0000    735.9345     10.0138    112.2483
   386.7500      0.0000    727.7623      9.7234    109.0296
   387.0000      0.0000    720.3290      9.4117    102.8924
   387.2500      0.0000    714.8790      9.1029     94.2487
   387.5000      0.0000    711.5485      8.8027     84.5617
   387.7500      0.0000    709.8120      8.5062     75.8118
   388.0000      0.0000    709.3375      8.2117     69.1740
   388.2500      0.0000    710.6658      7.9241     64.2175
   388.5000      0.0000    715.5127      7.6494     59.6341
   388.7500      0.0000    726.1917      7.3894     54.7832
   389.0000      0.0000    743.5894      7.1485     50.4051
   389.2500      0.0000    764.5445      6.9420     47.8833
   389.5000      0.0000    781.4852      6.7912     47.9938
   389.7500      0.0000    786.3550      6.7075     50.3357
   390.0000      0.0000    776.4648      6.6835     53.7319
   390.2500      0.0000    756.7769      6.7036     56.9072
   390.5000      0.0000    736.0963      6.7613     59.0058
   390.7500      0.0000    720.9465      6.8636     60.0217
   391.0000      0.0000    712.7653      7.0222     60.7996
   391.2500      0.0000    709.5581      7.2411     62.1972
   391.5000      0.0000    708.8099      7.5099     64.1695
   391.7500      0.0000    708.9551      7.8044     65.9492
   392.0000      0.0000    709.3434      8.0939     67.0916
   392.2500      0.0000    709.7501      8.3483     68.1069
   392.5000      0.0000    710.0883      8.5389     70.0508
   392.7500      0.0000    710.3882      8.6442     73.5399
