~Version Information
VERS.                      2.0: CWLS Log ASCII Standard - VERSION 2.0
WRAP.                       NO: One line per depth step
~Well Information Block
STRT.FT               196.3000: 
STOP.FT              1631.0000: 
STEP.FT                 0.1000: 
NULL.                -999.2500: 
COMP.          Petrogulf Corporation: COMPANY
WELL.             State 16-44R: WELL
FLD.           Purgatoire River: FIELD
LOC.           632' FSL & 223' FEL--: LOCATION
PROV.                 Colorado: PROVINCE
CNTY.               Las Animas: COUNTRY
SRVC.                Patterson: SERVICE COMPANY
DATE.          Fri Oct 21 14:20:18 2005: LOG DATE
UWI.           05 071 08457 00: UNIQUE WELL ID
~Curve Information Block
DEPT.FT            0 000 00 00: Depth
DCAL.in                       : CDL Caliper
RHOB.g/cc                     : CDL Bulk Density
RHOC.g/cc                     : CDL Density Correction
DPOR.pu                       : CDL Density Porosity
NPOR.pu                       : Neutron Porosity
GR.GAPI                       : Gamma Ray
~Parameter Information Block
~A  Depth       DCAL        RHOB        RHOC        DPOR        NPOR         GR     
# ...
   762.7000      8.0998      2.4972      0.0290      9.2587     29.5405    122.5968
   762.8000      8.0990      2.5048      0.0312      8.8017     28.9682    123.9956
   762.9000      8.0990      2.5160      0.0472      8.1196     28.7767    124.9644
   763.0000      8.0979      2.5186      0.0720      7.9627     29.1112    124.2626
   763.1000      8.0979      2.5129      0.0487      8.3111     29.6299    122.8806
   763.2000      8.0979      2.5080      0.0589      8.6052     29.6054    122.8174
   763.3000      8.0993      2.5033      0.0696      8.8921     28.9004    122.9956
   763.4000      8.0993      2.4973      0.0625      9.2528     27.9757    122.4773
   763.5000      8.1026      2.5062      0.0255      8.7129     27.4088    121.4433
   763.6000      8.1026      2.5406      0.0829      6.6301     27.5005    119.2092
   763.7000      8.1026      2.5835      0.1025      4.0329     27.8926    116.1913
   763.8000      8.1035      2.6180      0.0971      1.9415     28.1171    117.8895
   763.9000      8.1035      2.6454      0.0919      0.2770     28.1205    124.9756
   764.0000      8.1011      2.6701      0.1217     -1.2206     28.1091    127.1117
   764.1000      8.1011      2.6836      0.1234     -2.0388     28.2223    120.3946
   764.2000      8.1011      2.6719      0.0719     -1.3256     28.3252    114.2395
   764.3000      8.0994      2.6379      0.0478      0.7351     28.1716    115.1444
   764.4000      8.0994      2.5987      0.0250      3.1119     27.9777    121.4698
   764.5000      8.1008      2.5654      0.0159      5.1287     28.3200    128.8340
   764.6000      8.1008      2.5396     -0.0140      6.6923     29.2807    130.8772
   764.7000      8.1008      2.5209      0.0226      7.8238     30.3252    125.9012
   764.8000      8.1023      2.5062      0.0240      8.7181     30.7673    121.2322
   764.9000      8.1023      2.4882      0.0423      9.8034     30.6045    122.6099
   765.0000      8.1018      2.4678     -0.0019     11.0446     30.3499    129.1364
   765.1000      8.1018      2.4516      0.0249     12.0233     30.2541    136.2845
   765.2000      8.1018      2.4389      0.0203     12.7923     30.3519    139.3974
   765.3000      8.1012      2.4263      0.0364     13.5584     30.5847    137.0449
   765.4000      8.1012      2.4128      0.0132     14.3764     30.6750    131.3218
   765.5000      8.1005      2.3992      0.0341     15.1987     30.5297    126.2346
   765.6000      8.1005      2.3820      0.0323     16.2406     30.2165    123.0603
   765.7000      8.1005      2.3649      0.0178     17.2810     29.8322    120.3490
   765.8000      8.0989      2.3653      0.0287     17.2561     29.5472    115.8939
   765.9000      8.0989      2.3910      0.0506     15.6950     29.2424    111.2110
   766.0000      8.0973      2.4313      0.0764     13.2516     28.7084    110.4506
   766.1000      8.0973      2.4689      0.1117     10.9730     28.1525    111.4700
   766.2000      8.0973      2.4958      0.1019      9.3465     27.9827    110.7845
   766.3000      8.0977      2.5199      0.0793      7.8870     28.2601    110.4908
   766.4000      8.0977      2.5478      0.0831      6.1947     28.5729    111.9347
   766.5000      8.1002      2.5723      0.1150      4.7077     28.5119    112.1752
   766.6000      8.1002      2.5867      0.0867      3.8350     28.1742    109.5311
   766.7000      8.1002      2.5927      0.0855      3.4701     27.8783    107.1728
   766.8000      8.1024      2.5891      0.0837      3.6919     27.8851    107.6259
   766.9000      8.1024      2.5758      0.0252      4.4953     28.3462    109.3453
   767.0000      8.1020      2.5540      0.0341      5.8176     29.0553    108.4146
   767.1000      8.1020      2.5135      0.0294      8.2713     29.6451    105.2463
   767.2000      8.1020      2.4455      0.0045     12.3911     30.0665    103.3044
   767.3000      8.1013      2.3498     -0.0148     18.1910     30.4187    103.4147
   767.4000      8.1013      2.2345     -0.0782     25.1838     30.9497    101.7250
   767.5000      8.1079      2.1134     -0.0816     32.5227     31.9031     93.3795
   767.6000      8.1079      1.9903     -0.1114     39.9807     32.7992     80.6269
   767.7000      8.1079      1.8704     -0.1416     47.2498     33.0769     68.9821
   767.8000      8.1279      1.7667     -0.1213     53.5307     32.8837     61.4505
   767.9000      8.1279      1.6780     -0.0770     58.9086     32.6403     58.7637
   768.0000      8.1698      1.5948     -0.0924     63.9521     32.6966     58.4409
   768.1000      8.1698      1.5220     -0.0730     68.3655     33.2897     56.9824
   768.2000      8.1698      1.4657      0.0072     71.7762     34.2904     52.7086
   768.3000      8.2395      1.4235      0.0398     74.3306     35.2167     46.3413
   768.4000      8.2395      1.3991      0.0505     75.8106     35.7462     42.2200
   768.5000      8.3303      1.3983      0.0412     75.8618     35.7422     42.9223
   768.6000      8.3303      1.4121      0.0788     75.0255     35.2125     44.3644
   768.7000      8.3303      1.4231      0.0763     74.3584     34.5542     45.0448
   768.8000      8.4273      1.4243      0.0732     74.2847     34.1557     47.7387
   768.9000      8.4273      1.4174      0.0632     74.7014     34.1112     51.0497
   769.0000      8.4959      1.4065      0.0451     75.3638     34.3069     53.3743
   769.1000      8.4959      1.3989      0.0269     75.8265     34.4654     53.8670
   769.2000      8.4959      1.3992      0.0379     75.8052     34.4971     51.6821
   769.3000      8.5291      1.4069      0.0305     75.3388     34.5658     49.8556
   769.4000      8.5291      1.4251      0.0015     74.2379     34.6842     48.9932
   769.5000      8.5655      1.4630      0.0221     71.9399     34.5910     47.9453
   769.6000      8.5655      1.5279      0.0462     68.0068     34.0906     48.5301
   769.7000      8.5655      1.6193      0.1063     62.4673     33.2150     53.4496
   769.8000      8.6028      1.7292      0.1752     55.8041     32.3311     63.9319
   769.9000      8.6028      1.8448      0.2176     48.8023     31.8178     75.1753
   770.0000      8.5223      1.9506      0.2369     42.3889     31.5502     84.1337
   770.1000      8.5223      2.0409      0.2038     36.9122     31.1007     95.9043
   770.2000      8.5223      2.1261      0.1765     31.7526     30.4878    110.0585
   770.3000      8.2983      2.2108      0.1908     26.6185     30.0895    115.2734
   770.4000      8.2983      2.2809      0.1603     22.3726     29.8335    110.3754
   770.5000      8.1225      2.3266      0.1155     19.5977     29.5803    111.4780
   770.6000      8.1225      2.3607      0.0509     17.5314     29.5049    126.2273
   770.7000      8.1225      2.3973      0.0789     15.3155     29.5340    143.1653
   770.8000      8.0596      2.4325      0.0819     13.1804     29.4376    148.3547
   770.9000      8.0596      2.4625      0.0680     11.3630     29.1494    140.9497
   771.0000      8.0448      2.4880      0.0687      9.8158     28.7096    131.8371
   771.1000      8.0448      2.4998      0.0731      9.1002     28.3630    129.2417
   771.2000      8.0448      2.4936      0.0518      9.4798     28.1754    135.0849
   771.3000      8.0402      2.4809      0.0600     10.2464     28.1495    146.5620
   771.4000      8.0402      2.4712      0.0290     10.8366     28.2851    151.6073
   771.5000      8.0393      2.4687     -0.0070     10.9895     28.2466    144.7152
   771.6000      8.0393      2.4772      0.0394     10.4711     27.9154    139.5497
   771.7000      8.0393      2.4975      0.0164      9.2414     27.6940    141.8335
   771.8000      8.0421      2.5235      0.0679      7.6685     27.9329    142.6537
   771.9000      8.0421      2.5381      0.0772      6.7829     28.2577    142.6396
   772.0000      8.0452      2.5375      0.0448      6.8155     28.2451    144.2406
   772.1000      8.0452      2.5355      0.0669      6.9364     28.1373    141.1911
   772.2000      8.0452      2.5381      0.0488      6.7848     28.1819    133.8508
