~Version Information
VERS.                      2.0: CWLS Log ASCII Standard - VERSION 2.0
WRAP.                       NO: One line per depth step
~Well Information Block
STRT.FT               585.0000: 
STOP.FT              2277.5000: 
STEP.FT                 0.1000: 
NULL.                -999.2500: 
COMP.          Pioneer Natural Resources: COMPANY
WELL.          Interceptor 43-13 Tr: WELL
FLD.           Purgatoire River: FIELD
LOC.           2006' FSL & 438' FEL: LOCATION
PROV.                 Colorado: PROVINCE
CNTY.               Las Animas: COUNTRY
SRVC.                Patterson: SERVICE COMPANY
DATE.          Mon Oct 17 07:15:06 2005: LOG DATE
UWI.           05 071 08549 00: UNIQUE WELL ID
~Curve Information Block
DEPT.FT            0 000 00 00: Depth
DCAL.in                       : CDL Caliper
RHOB.g/cc                     : CDL Bulk Density
RHOC.g/cc                     : CDL Density Correction
DPOR.pu                       : CDL Density Porosity
GR.GAPI                       : Gamma Ray
NPOR.pu                       : Neutron Porosity
~Parameter Information Block
~A  Depth       DCAL        RHOB        RHOC        DPOR         GR         NPOR    
# ...
  1141.8000      7.9718      2.5971      0.0865      3.2032     92.6531     25.4330
  1141.9000      7.9718      2.6039      0.1043      2.7917    100.4665     25.4636
  1142.0000      7.9515      2.5916      0.0793      3.5390    108.9272     24.9395
  1142.1000      7.9515      2.5680      0.0146      4.9717    113.2933     24.5274
  1142.2000      7.9515      2.5630     -0.0110      5.2700    112.7202     24.6583
  1142.3000      7.9361      2.5855     -0.0178      3.9081    111.2886     24.8697
  1142.4000      7.9361      2.6070      0.0951      2.6062    111.0796     24.8551
  1142.5000      7.9607      2.6001      0.0842      3.0272    109.0909     24.7371
  1142.6000      7.9607      2.5704      0.0358      4.8233    103.8611     24.5295
  1142.7000      7.9607      2.5334      0.0200      7.0645     99.5174     24.3014
  1142.8000      7.9929      2.4979     -0.0381      9.2189    100.8218     24.4090
  1142.9000      7.9929      2.4782     -0.0421     10.4116    107.3182     24.8705
  1143.0000      7.9990      2.4797      0.0012     10.3242    114.5366     25.1802
  1143.1000      7.9990      2.4936     -0.0268      9.4774    117.4462     25.0979
  1143.2000      7.9990      2.5191      0.0051      7.9346    115.9698     24.9534
  1143.3000      8.0096      2.5530      0.0271      5.8784    114.3364     24.9802
  1143.4000      8.0096      2.5743      0.0763      4.5883    113.4382     25.1751
  1143.5000      8.0175      2.5645      0.0928      5.1845    114.8197     25.4497
  1143.6000      8.0175      2.5342      0.0233      7.0189    121.1201     25.5654
  1143.7000      8.0175      2.5087     -0.0210      8.5613    127.8263     25.4603
  1143.8000      7.9972      2.4984      0.0128      9.1877    128.8296     25.5184
  1143.9000      7.9972      2.5006      0.0036      9.0543    125.4358     26.0033
  1144.0000      7.9741      2.5096      0.0143      8.5098    125.3105     26.5813
  1144.1000      7.9741      2.5153      0.0066      8.1648    133.6483     26.8392
  1144.2000      7.9741      2.5126      0.0006      8.3277    145.7598     27.0341
  1144.3000      7.9969      2.5072     -0.0344      8.6553    153.1732     27.3502
  1144.4000      7.9969      2.5063     -0.0292      8.7107    154.1544     27.4893
  1144.5000      8.0100      2.5070     -0.0201      8.6673    149.2148     27.4777
  1144.6000      8.0100      2.4975      0.0245      9.2428    140.5137     27.2665
  1144.7000      8.0100      2.4778     -0.0450     10.4390    136.1662     26.5331
  1144.8000      8.0183      2.4672     -0.0588     11.0783    137.3824     25.6250
  1144.9000      8.0183      2.4756     -0.0253     10.5722    136.0248     25.3245
  1145.0000      8.0142      2.4909      0.0249      9.6414    132.2104     25.9503
  1145.1000      8.0142      2.5056      0.0030      8.7525    130.6835     27.0058
  1145.2000      8.0142      2.5236      0.0686      7.6597    130.7841     27.6181
  1145.3000      7.9932      2.5405      0.0629      6.6369    130.5373     27.8146
  1145.4000      7.9932      2.5459      0.0910      6.3111    131.0117     28.3475
  1145.5000      8.0118      2.5386      0.0866      6.7505    133.3911     29.2683
  1145.6000      8.0118      2.5263      0.0748      7.4961    136.9396     29.7729
  1145.7000      8.0118      2.5143      0.0860      8.2227    139.5863     29.3145
  1145.8000      8.0032      2.5084      0.0700      8.5811    140.0327     28.5368
  1145.9000      8.0032      2.5170      0.0855      8.0605    138.8681     28.3420
  1146.0000      7.9913      2.5340      0.1360      7.0297    136.4495     28.5405
  1146.1000      7.9913      2.5473      0.0994      6.2264    133.4520     28.3608
  1146.2000      7.9913      2.5597      0.0626      5.4699    131.8682     27.7827
  1146.3000      7.9056      2.5732      0.0864      4.6571    131.5921     27.3323
  1146.4000      7.9056      2.5687      0.1363      4.9269    129.8510     27.0710
  1146.5000      7.8940      2.5386      0.0442      6.7485    124.1185     26.7336
  1146.6000      7.8940      2.5084      0.0271      8.5843    114.6110     26.3918
  1146.7000      7.8940      2.4970      0.0501      9.2726    104.3075     26.1959
  1146.8000      7.8805      2.4967      0.0874      9.2889     95.9727     26.0873
  1146.9000      7.8805      2.4952      0.1158      9.3816     92.3914     26.0570
  1147.0000      7.8243      2.4988      0.0290      9.1629     94.5554     26.1467
  1147.1000      7.8243      2.5197      0.1151      7.8950     98.2407     26.5798
  1147.2000      7.8243      2.5515      0.1317      5.9683     99.7626     27.2842
  1147.3000      7.8011      2.5850      0.1617      3.9404     99.6757     27.1946
  1147.4000      7.8011      2.6179      0.1935      1.9454     98.8569     26.0364
  1147.5000      7.7936      2.6472      0.2088      0.1700     99.4600     25.2033
  1147.6000      7.7936      2.6677      0.2087     -1.0756    106.9116     25.3730
  1147.7000      7.7936      2.6746      0.1849     -1.4922    119.4378     25.8704
  1147.8000      7.8208      2.6683      0.1409     -1.1069    125.9916     26.0653
  1147.9000      7.8208      2.6491      0.1442      0.0574    121.8879     26.0141
  1148.0000      7.8343      2.6189      0.0365      1.8872    115.3324     25.9435
  1148.1000      7.8343      2.5908      0.0661      3.5892    114.4231     25.8177
  1148.2000      7.8343      2.5726      0.0738      4.6882    118.5368     25.6167
  1148.3000      7.8629      2.5591      0.0621      5.5120    122.5989     25.5394
  1148.4000      7.8629      2.5503      0.0107      6.0422    123.8233     25.8656
  1148.5000      7.8924      2.5479      0.0719      6.1861    124.5186     26.6022
  1148.6000      7.8924      2.5407      0.0358      6.6237    125.3841     27.1433
  1148.7000      7.8924      2.5275      0.0206      7.4236    125.6732     27.1474
  1148.8000      7.9097      2.5204      0.0354      7.8528    127.0327     27.3178
  1148.9000      7.9097      2.5263      0.0014      7.4987    132.4897     28.1351
  1149.0000      7.9137      2.5418      0.0556      6.5574    141.9101     28.8607
  1149.1000      7.9137      2.5523      0.1268      5.9239    148.8997     28.8061
  1149.2000      7.9137      2.5549      0.0632      5.7655    150.2431     28.3896
  1149.3000      7.9181      2.5614      0.1011      5.3716    148.4435     28.2169
  1149.4000      7.9181      2.5633      0.0774      5.2571    147.4311     28.3167
  1149.5000      7.9170      2.5524      0.0209      5.9129    150.4755     28.4942
  1149.6000      7.9170      2.5415      0.0184      6.5736    156.3539     28.6529
  1149.7000      7.9170      2.5367      0.0254      6.8655    159.6361     28.5710
  1149.8000      7.9768      2.5354      0.0081      6.9453    156.4201     28.0432
  1149.9000      7.9768      2.5395      0.0454      6.6963    148.2147     27.3193
  1150.0000      7.9792      2.5400      0.1187      6.6654    139.7899     26.8476
  1150.1000      7.9792      2.5248      0.0603      7.5853    132.6703     26.5805
  1150.2000      7.9792      2.5164      0.0075      8.0966    126.6908     26.5437
  1150.3000      7.9282      2.5388      0.0431      6.7412    121.2080     26.7327
  1150.4000      7.9282      2.5698      0.0528      4.8608    117.0149     26.6008
  1150.5000      7.8864      2.5768      0.0500      4.4340    116.3365     25.8731
  1150.6000      7.8864      2.5619     -0.0150      5.3397    117.8877     25.0830
  1150.7000      7.8864      2.5437      0.0603      6.4415    117.3737     24.9123
  1150.8000      7.8756      2.5291     -0.0335      7.3287    114.8621     25.2898
  1150.9000      7.8756      2.5171      0.0057      8.0547    112.8862     25.4116
  1151.0000      7.8873      2.5083     -0.0298      8.5893    109.9692     25.0644
  1151.1000      7.8873      2.5116     -0.0195      8.3855    105.0737     24.9310
  1151.2000      7.8873      2.5289      0.0250      7.3399    100.8077     25.2617
  1151.3000      7.8929      2.5500      0.0244      6.0624    101.0521     25.4849
