~Version Information
VERS.                      2.0: CWLS Log ASCII Standard - VERSION 2.0
WRAP.                       NO: One line per depth step
~Well Information Block
STRT.FT               400.0000: 
STOP.FT              1804.7000: 
STEP.FT                 0.1000: 
NULL.                -999.2500: 
COMP.          Pioneer Natural Resources: COMPANY
WELL.           Lynch 43-30 Tr: WELL
FLD.           Purgatoire River: FIELD
LOC.           1431' FSL & 296' FEL--: LOCATION
PROV.                 Colorado: PROVINCE
CNTY.               Las Animas: COUNTRY
SRVC.                Patterson: SERVICE COMPANY
DATE.          Thu Jul 28 10:43:37 2005: LOG DATE
UWI.           05 071 08447 00: UNIQUE WELL ID
~Curve Information Block
DEPT.FT            0 000 00 00: Depth
DCAL.in                       : CDL Caliper
RHOB.g/cc                     : CDL Bulk Density
RHOC.g/cc                     : CDL Density Correction
DPOR.pu                       : CDL Density Porosity
NPOR.pu                       : Neutron Porosity
GR.GAPI                       : Gamma Ray
~Parameter Information Block
~A  Depth       DCAL        RHOB        RHOC        DPOR        NPOR         GR     
# ...
  1494.4000      7.8870      2.5431      0.0590      6.4786     26.9068    127.2734
  1494.5000      7.8872      2.5367      0.0535      6.8682     26.7737    130.4424
  1494.6000      7.8872      2.5264      0.0235      7.4888     27.1409    130.4294
  1494.7000      7.8872      2.5267      0.0512      7.4733     27.8599    128.2058
  1494.8000      7.8896      2.5354      0.0353      6.9454     28.4522    127.5871
  1494.9000      7.8896      2.5498      0.0486      6.0731     28.5804    128.7936
  1495.0000      7.8905      2.5659      0.0578      5.0990     28.6160    129.7964
  1495.1000      7.8905      2.5718      0.0668      4.7384     29.0254    130.7421
  1495.2000      7.8905      2.5541      0.0700      5.8133     29.5882    131.2970
  1495.3000      7.8894      2.5033      0.0648      8.8905     29.9961    129.4686
  1495.4000      7.8894      2.4216      0.0394     13.8427     30.4486    126.2828
  1495.5000      7.8885      2.3197      0.0253     20.0180     31.2042    124.7328
  1495.6000      7.8885      2.2085      0.0112     26.7573     31.9142    124.9312
  1495.7000      7.8885      2.1043     -0.0229     33.0741     32.1887    124.0355
  1495.8000      7.8908      2.0146      0.0054     38.5098     31.7131    120.0781
  1495.9000      7.8908      1.9200      0.0122     44.2416     30.0809    113.0895
  1496.0000      7.9049      1.8062     -0.0099     51.1424     27.1506    104.4414
  1496.1000      7.9049      1.6738     -0.0008     59.1654     22.7869     95.2282
  1496.2000      7.9049      1.5180     -0.0065     68.6050     17.1040     85.0685
  1496.3000      7.9486      1.3624     -0.0662     78.0385     11.2549     75.0332
  1496.4000      7.9486      1.2850     -0.0788     82.7297      6.6772     67.0303
  1496.5000      8.0441      1.3710     -0.0362     77.5181      3.6487     61.6382
  1496.6000      8.0441      1.6712      0.0895     59.3208      1.6357     57.6053
  1496.7000      8.0441      2.2244      0.2794     25.7920     -0.0934     53.8013
  1496.8000      8.2222      3.0916      0.5171    -26.7650     -1.6309     51.4580
  1496.9000      8.2222      4.2087      0.9539    -94.4673     -2.2452     51.0340
  1497.0000      8.5355      5.0415      1.6536   -144.9422     -1.4506     50.9913
  1497.1000      8.5355      4.7794      1.9234   -129.0546      0.1601     52.1188
  1497.2000      8.5355      3.4346      0.5427    -47.5518      1.9354     57.6522
  1497.3000      9.0037      2.0625      0.0381     35.6088      3.9736     64.8949
  1497.4000      9.0037      1.3954      0.0683     76.0394      6.8627     67.2988
  1497.5000      9.4259      1.2972      0.0943     81.9897     10.6324     66.1646
  1497.6000      9.4259      1.4323      0.1470     73.8012     14.2565     68.6691
  1497.7000      9.4259      1.6295      0.2331     61.8494     16.9759     75.0987
  1497.8000      9.3801      1.8277      0.2691     49.8390     18.9197     81.2157
  1497.9000      9.3801      2.0247      0.2950     37.8945     20.0748     87.7485
  1498.0000      8.7942      2.2275      0.3648     25.6065     20.3362     96.1751
  1498.1000      8.7942      2.4148      0.4002     14.2544     19.9698    104.9127
  1498.2000      8.7942      2.5667      0.4083      5.0507     19.8192    111.8530
  1498.3000      8.2313      2.6775      0.4207     -1.6660     20.4537    115.6912
  1498.4000      8.2313      2.7395      0.4046     -5.4219     21.2008    118.5484
  1498.5000      8.0058      2.7531      0.3666     -6.2513     21.1346    123.3684
  1498.6000      8.0058      2.7422      0.3000     -5.5852     20.4889    126.2770
  1498.7000      8.0058      2.7293      0.2806     -4.8044     20.0583    123.5028
  1498.8000      7.9644      2.7134      0.2362     -3.8445     20.1278    119.2535
  1498.9000      7.9644      2.6909      0.1945     -2.4807     20.6859    118.7469
  1499.0000      7.9598      2.6687      0.1606     -1.1329     21.4836    122.3699
  1499.1000      7.9598      2.6537      0.1303     -0.2221     22.2621    127.6982
  1499.2000      7.9598      2.6454      0.1165      0.2764     23.0941    132.7507
  1499.3000      7.9588      2.6387      0.1006      0.6867     23.9280    134.9303
  1499.4000      7.9588      2.6344      0.0796      0.9444     24.5721    134.2677
  1499.5000      7.9559      2.6369      0.0753      0.7928     25.0180    134.0572
  1499.6000      7.9559      2.6389      0.0849      0.6755     25.4528    135.6445
  1499.7000      7.9559      2.6329      0.0565      1.0346     25.8675    135.2305
  1499.8000      7.9496      2.6233      0.0633      1.6206     26.1936    131.8593
  1499.9000      7.9496      2.6121      0.0518      2.2977     26.6453    130.6110
  1500.0000      7.9450      2.6028      0.0423      2.8592     27.1128    134.3470
  1500.1000      7.9450      2.6020      0.0376      2.9096     27.1654    139.1915
  1500.2000      7.9450      2.6053      0.0543      2.7116     26.9192    139.6409
  1500.3000      7.9451      2.6052      0.0384      2.7124     26.7206    134.1776
  1500.4000      7.9451      2.6082      0.0369      2.5352     26.6834    124.9379
  1500.5000      7.9480      2.6183      0.0494      1.9185     27.0035    119.7268
  1500.6000      7.9480      2.6271      0.0512      1.3875     27.5261    124.0173
  1500.7000      7.9480      2.6264      0.0515      1.4317     27.6841    132.1074
  1500.8000      7.9503      2.6162      0.0497      2.0482     27.5700    135.1104
  1500.9000      7.9503      2.6053      0.0345      2.7069     27.6742    133.2962
  1501.0000      7.9521      2.6033      0.0423      2.8333     27.8791    131.5345
  1501.1000      7.9521      2.6074      0.0479      2.5848     28.0460    129.4679
  1501.2000      7.9521      2.6091      0.0469      2.4815     28.1379    126.4361
  1501.3000      7.9532      2.6035      0.0513      2.8174     27.8406    127.2728
  1501.4000      7.9532      2.5915      0.0435      3.5437     27.1138    132.8291
  1501.5000      7.9538      2.5800      0.0345      4.2447     26.1415    136.7024
  1501.6000      7.9538      2.5709      0.0489      4.7941     25.1995    136.3275
  1501.7000      7.9538      2.5603      0.0340      5.4340     24.7134    134.3738
  1501.8000      7.9534      2.5505      0.0375      6.0301     24.7567    131.8649
  1501.9000      7.9534      2.5469      0.0366      6.2508     24.9693    129.1612
  1502.0000      7.9529      2.5573      0.0359      5.6195     25.1897    126.6762
  1502.1000      7.9529      2.5908      0.0460      3.5881     25.6366    124.1301
  1502.2000      7.9529      2.6412      0.0806      0.5330     26.4527    118.5586
  1502.3000      7.9530      2.6875      0.1006     -2.2699     27.4680    110.1709
  1502.4000      7.9530      2.7178      0.0992     -4.1068     28.1954    105.9540
  1502.5000      7.9535      2.7294      0.1233     -4.8141     28.5653    106.8947
  1502.6000      7.9535      2.7192      0.1119     -4.1958     29.0074    107.8130
  1502.7000      7.9535      2.6974      0.0950     -2.8711     29.3777    109.2014
  1502.8000      7.9539      2.6798      0.0994     -1.8062     29.6481    110.5625
  1502.9000      7.9539      2.6695      0.0979     -1.1794     30.1886    108.7789
  1503.0000      7.9587      2.6644      0.0920     -0.8714     30.5791    106.5400
  1503.1000      7.9587      2.6624      0.1042     -0.7523     30.3665    106.7161
  1503.2000      7.9587      2.6586      0.0961     -0.5200     30.0311    110.6765
  1503.3000      7.9659      2.6508      0.1020     -0.0503     29.8581    118.0607
  1503.4000      7.9659      2.6408      0.0887      0.5556     29.6424    121.7015
  1503.5000      7.9704      2.6287      0.0971      1.2926     29.4060    120.0075
  1503.6000      7.9704      2.6124      0.0842      2.2775     29.0162    121.3134
  1503.7000      7.9704      2.5989      0.0727      3.0950     28.2859    126.6648
  1503.8000      7.9726      2.6001      0.0704      3.0220     27.5272    128.9283
  1503.9000      7.9726      2.6170      0.0807      1.9982     27.0041    127.3713
