~Version Information
VERS.                      2.0: CWLS Log ASCII Standard - VERSION 2.0
WRAP.                       NO: One line per depth step
~Well Information Block
STRT.FT               240.0000: 
STOP.FT              1159.2500: 
STEP.FT                 0.2500: 
NULL.                -999.2500: 
COMP.          Pioneer Natural Resources: COMPANY
WELL.               Ryan 41-17: WELL
FLD.           Purgatoire River: FIELD
LOC.           822' FNL & 532' FEL--: LOCATION
CNTY.               Las Animas: COUNTY
SRVC.                Patterson: SERVICE COMPANY
DATE.          Thu Mar 16 16:50:09 2006: LOG DATE
UWI.           05 071 08719 00: UNIQUE WELL ID
STAT.                 Colorado: STATE
~Curve Information Block
DEPT.FT            0 000 00 00: Depth
SN.Ohm-m                      : IEL Short Normal
SP.mV                         : IEL Spontaneous Potential
DIR.Ohm-m                     : IEL Induction Resistivity
GR.GAPI                       : Gamma Ray
~Parameter Information Block
~A  Depth        SN          SP         DIR          GR     
# ...
   575.0000   2000.0000   2000.0000      8.2153    154.5186
   575.2500   2000.0000   2000.0000      8.3838    154.5037
   575.5000   2000.0000   2000.0000      8.5915    152.3507
   575.7500   2000.0000   2000.0000      8.8511    149.2027
   576.0000   2000.0000   2000.0000      9.1739    142.3298
   576.2500   2000.0000   2000.0000      9.5688    137.1356
   576.5000   2000.0000   2000.0000     10.0427    129.7470
   576.7500   2000.0000   2000.0000     10.6000    125.3731
   577.0000   2000.0000   2000.0000     11.2373    119.4546
   577.2500   2000.0000   2000.0000     11.9333    115.6889
   577.5000   2000.0000   2000.0000     12.6385    109.9761
   577.7500   2000.0000   2000.0000     13.2735    106.2460
   578.0000   2000.0000   2000.0000     13.7498    101.9553
   578.2500   2000.0000   2000.0000     14.0040    101.0975
   578.5000   2000.0000   2000.0000     14.0244    104.2870
   578.7500   2000.0000   2000.0000     13.8494    109.2783
   579.0000   2000.0000   2000.0000     13.5430    119.2601
   579.2500   2000.0000   2000.0000     13.1713    126.3467
   579.5000   2000.0000   2000.0000     12.7901    136.0768
   579.7500   2000.0000   2000.0000     12.4435    141.1864
   580.0000   2000.0000   2000.0000     12.1660    145.4344
   580.2500   2000.0000   2000.0000     11.9843    145.5603
   580.5000   2000.0000   2000.0000     11.9188    142.1927
   580.7500   2000.0000   2000.0000     11.9830    138.4503
   581.0000   2000.0000   2000.0000     12.1825    132.1796
   581.2500   2000.0000   2000.0000     12.5125    128.0137
   581.5000   2000.0000   2000.0000     12.9542    121.4382
   581.7500   2000.0000   2000.0000     13.4726    116.4262
   582.0000   2000.0000   2000.0000     14.0190    108.2112
   582.2500   2000.0000   2000.0000     14.5412    103.2224
   582.5000   2000.0000   2000.0000     14.9986     98.8000
   582.7500   2000.0000   2000.0000     15.3727     98.9989
   583.0000   2000.0000   2000.0000     15.6641    104.3669
   583.2500   2000.0000   2000.0000     15.8799    110.3224
   583.5000   2000.0000   2000.0000     16.0227    119.6149
   583.7500   2000.0000   2000.0000     16.0898    124.2534
   584.0000   2000.0000   2000.0000     16.0820    127.6057
   584.2500   2000.0000   2000.0000     16.0139    127.8843
   584.5000   2000.0000   2000.0000     15.9175    126.8725
   584.7500   2000.0000   2000.0000     15.8369    125.7227
   585.0000   2000.0000   2000.0000     15.8180    122.9085
   585.2500   2000.0000   2000.0000     15.8961    119.7535
   585.5000   2000.0000   2000.0000     16.0883    112.6464
   585.7500   2000.0000   2000.0000     16.3907    106.6412
   586.0000   2000.0000   2000.0000     16.7818     97.0428
   586.2500   2000.0000   2000.0000     17.2271     91.1746
   586.5000   2000.0000   2000.0000     17.6828     84.5880
   586.7500   2000.0000   2000.0000     18.0955     82.1945
   587.0000   2000.0000   2000.0000     18.4053     81.7043
   587.2500   2000.0000   2000.0000     18.5541     83.1827
   587.5000   2000.0000   2000.0000     18.5025     87.6839
   587.7500   2000.0000   2000.0000     18.2450     92.1147
   588.0000   2000.0000   2000.0000     17.8148    100.6668
   588.2500   2000.0000   2000.0000     17.2721    107.1692
   588.5000   2000.0000   2000.0000     16.6823    116.5578
   588.7500   2000.0000   2000.0000     16.0990    121.4499
   589.0000   2000.0000   2000.0000     15.5584    125.3344
   589.2500   2000.0000   2000.0000     15.0814    125.5041
   589.5000   2000.0000   2000.0000     14.6782    123.2441
   589.7500   2000.0000   2000.0000     14.3533    121.1813
   590.0000   2000.0000   2000.0000     14.1083    118.8929
   590.2500   2000.0000   2000.0000     13.9452    118.1448
   590.5000   2000.0000   2000.0000     13.8633    117.3041
   590.7500   2000.0000   2000.0000     13.8540    116.2623
   591.0000   2000.0000   2000.0000     13.8968    113.7998
   591.2500   2000.0000   2000.0000     13.9625    112.1107
   591.5000   2000.0000   2000.0000     14.0248    110.7802
   591.7500   2000.0000   2000.0000     14.0727    111.1920
   592.0000   2000.0000   2000.0000     14.1161    113.9781
   592.2500   2000.0000   2000.0000     14.1798    117.1043
   592.5000   2000.0000   2000.0000     14.2904    122.7887
   592.7500   2000.0000   2000.0000     14.4664    126.1959
   593.0000   2000.0000   2000.0000     14.7125    128.3495
   593.2500   2000.0000   2000.0000     15.0206    126.8580
   593.5000   2000.0000   2000.0000     15.3755    120.8292
   593.7500   2000.0000   2000.0000     15.7623    115.8160
   594.0000   2000.0000   2000.0000     16.1721    109.5793
   594.2500   2000.0000   2000.0000     16.6023    107.1023
   594.5000   2000.0000   2000.0000     17.0522    106.0065
   594.7500   2000.0000   2000.0000     17.5157    106.8260
   595.0000   2000.0000   2000.0000     17.9761    109.9288
   595.2500   2000.0000   2000.0000     18.4085    112.7294
   595.5000   2000.0000   2000.0000     18.7878    116.8501
   595.7500   2000.0000   2000.0000     19.0989    119.0805
   596.0000   2000.0000   2000.0000     19.3402    121.4565
   596.2500   2000.0000   2000.0000     19.5204    122.3027
   596.5000   2000.0000   2000.0000     19.6536    121.9046
   596.7500   2000.0000   2000.0000     19.7581    120.1421
   597.0000   2000.0000   2000.0000     19.8573    115.2271
   597.2500   2000.0000   2000.0000     19.9783    111.0354
   597.5000   2000.0000   2000.0000     20.1463    105.0306
   597.7500   2000.0000   2000.0000     20.3819    101.9309
   598.0000   2000.0000   2000.0000     20.6977     98.5528
   598.2500   2000.0000   2000.0000     21.0969     96.5049
   598.5000   2000.0000   2000.0000     21.5673     92.7772
   598.7500   2000.0000   2000.0000     22.0769     89.7863
   599.0000   2000.0000   2000.0000     22.5759     85.0619
   599.2500   2000.0000   2000.0000     23.0089     82.1487
   599.5000   2000.0000   2000.0000     23.3354     78.7671
   599.7500   2000.0000   2000.0000     23.5448     77.4363
   600.0000   2000.0000   2000.0000     23.6521     76.7491
   600.2500   2000.0000   2000.0000     23.6702     76.7737
   600.5000   2000.0000   2000.0000     23.5793     76.7643
   600.7500   2000.0000   2000.0000     23.3185     76.5263
   601.0000   2000.0000   2000.0000     22.8170     76.1176
   601.2500   2000.0000   2000.0000     22.0446     76.3639
   601.5000   2000.0000   2000.0000     21.0411     78.9161
   601.7500   2000.0000   2000.0000     19.8982     82.8000
   602.0000   2000.0000   2000.0000     18.7197     92.0890
   602.2500   2000.0000   2000.0000     17.5911     99.9451
   602.5000   2000.0000   2000.0000     16.5700    112.5116
   602.7500   2000.0000   2000.0000     15.6892    120.5109
   603.0000   2000.0000   2000.0000     14.9611    130.8381
   603.2500   2000.0000   2000.0000     14.3840    136.1463
   603.5000   2000.0000   2000.0000     13.9507    141.0101
   603.7500   2000.0000   2000.0000     13.6584    141.6746
   604.0000   2000.0000   2000.0000     13.5136    138.0598
   604.2500   2000.0000   2000.0000     13.5303    132.7209
   604.5000   2000.0000   2000.0000     13.7237    122.1115
   604.7500   2000.0000   2000.0000     14.1020    114.7932
   605.0000   2000.0000   2000.0000     14.6611    105.1208
   605.2500   2000.0000   2000.0000     15.3823     99.6002
   605.5000   2000.0000   2000.0000     16.2313     92.0363
   605.7500   2000.0000   2000.0000     17.1575     87.2823
   606.0000   2000.0000   2000.0000     18.0960     80.8728
   606.2500   2000.0000   2000.0000     18.9777     77.3046
   606.5000   2000.0000   2000.0000     19.7480     73.1088
   606.7500   2000.0000   2000.0000     20.3843     71.0766
   607.0000   2000.0000   2000.0000     20.8972     69.4118
   607.2500   2000.0000   2000.0000     21.3114     69.4814
   607.5000   2000.0000   2000.0000     21.6393     71.4015
   607.7500   2000.0000   2000.0000     21.8627     73.4405
   608.0000   2000.0000   2000.0000     21.9310     76.5938
   608.2500   2000.0000   2000.0000     21.7799     78.6448
