~Version Information
VERS.                      2.0: CWLS Log ASCII Standard - VERSION 2.0
WRAP.                       NO: One line per depth step
~Well Information Block
STRT.FT               830.0000: 
STOP.FT              2368.5000: 
STEP.FT                 0.1000: 
NULL.                -999.2500: 
COMP.          Pioneer Natural Resources: COMPANY
WELL.              Rolls 14-14: WELL
FLD.           Purgatoire River: FIELD
LOC.           572' FSL & 856' FWL: LOCATION
PROV.                 Colorado: PROVINCE
CNTY.               Las Animas: COUNTRY
SRVC.                Patterson: SERVICE COMPANY
DATE.          Mon Aug 01 05:48:31 2005: LOG DATE
UWI.           05 071 08455 00: UNIQUE WELL ID
~Curve Information Block
DEPT.FT            0 000 00 00: Depth
DCAL.in                       : CDL Caliper
RHOB.g/cc                     : CDL Bulk Density
RHOC.g/cc                     : CDL Density Correction
DPOR.pu                       : CDL Density Porosity
GR.GAPI                       : Gamma Ray
NPOR.pu                       : Neutron Porosity
~Parameter Information Block
~A  Depth       DCAL        RHOB        RHOC        DPOR         GR         NPOR    
# ...
  2154.8000      8.0400      1.4132      0.0020     74.9591     55.7698     33.6658
  2154.9000      8.0400      1.3563     -0.0802     78.4048     57.8062     33.9995
  2155.0000      8.1733      1.3205     -0.0570     80.5754     58.2623     33.5161
  2155.1000      8.1733      1.3182     -0.0178     80.7125     55.1381     32.9062
  2155.2000      8.1733      1.3499      0.0223     78.7920     50.2094     32.9896
  2155.3000      8.5523      1.4158      0.0468     74.7997     46.8319     33.4950
  2155.4000      8.5523      1.5111      0.0578     69.0257     45.7094     33.5314
  2155.5000      8.6189      1.6267      0.0692     62.0196     47.1237     33.0153
  2155.6000      8.6189      1.7675      0.0847     53.4855     52.6543     32.6524
  2155.7000      8.6189      1.9422      0.1649     42.8955     59.9292     32.5784
  2155.8000      8.4644      2.1265      0.2663     31.7260     65.6365     32.4824
  2155.9000      8.4644      2.2713      0.2858     22.9495     72.0706     32.6073
  2156.0000      8.2325      2.3570      0.2445     17.7591     81.8148     32.8432
  2156.1000      8.2325      2.4080      0.1657     14.6647     93.2263     32.4777
  2156.2000      8.2325      2.4482      0.1525     12.2294    104.0850     31.8065
  2156.3000      8.1543      2.4723      0.1102     10.7692    109.2513     31.0723
  2156.4000      8.1543      2.4673      0.0906     11.0744    105.1813     29.8627
  2156.5000      8.0300      2.4420     -0.0310     12.6072     99.4304     28.4664
  2156.6000      8.0300      2.4248      0.0048     13.6456     99.5121     27.9635
  2156.7000      8.0300      2.4334     -0.0106     13.1297    103.6329     28.5461
  2156.8000      8.0530      2.4647     -0.0013     11.2331    108.2520     29.1630
  2156.9000      8.0530      2.5050      0.0054      8.7850    110.8463     29.1156
  2157.0000      8.0509      2.5397      0.0827      6.6860    109.5460     28.6241
  2157.1000      8.0509      2.5553      0.1010      5.7387    104.3365     28.1552
  2157.2000      8.0509      2.5452      0.1131      6.3534     97.6367     28.0011
  2157.3000      8.0385      2.5211      0.0325      7.8138     93.9063     28.0763
  2157.4000      8.0385      2.5068      0.0573      8.6782     96.4488     27.8240
  2157.5000      8.0094      2.5074      0.0589      8.6445    103.3918     27.2261
  2157.6000      8.0094      2.5062      0.0957      8.7141    107.6525     27.0740
  2157.7000      8.0094      2.4940      0.0417      9.4535    105.5903     27.4093
  2157.8000      8.0127      2.4772      0.0607     10.4725    101.3976     27.6790
  2157.9000      8.0127      2.4626      0.0353     11.3579     99.3797     27.6773
  2158.0000      7.9888      2.4582      0.0197     11.6225     99.8311     27.1180
  2158.1000      7.9888      2.4707      0.0569     10.8652    103.2412     26.1770
  2158.2000      7.9888      2.4953      0.1003      9.3735    109.3498     25.7915
  2158.3000      7.9893      2.5188      0.1208      7.9493    112.2852     26.0815
  2158.4000      7.9893      2.5327      0.0677      7.1116    108.0353     25.9125
  2158.5000      7.9965      2.5425      0.0671      6.5174     97.1321     25.0730
  2158.6000      7.9965      2.5648      0.0436      5.1631     81.2832     24.4681
  2158.7000      7.9965      2.6043      0.1342      2.7703     67.7142     24.3256
  2158.8000      8.0011      2.6451      0.0881      0.2961     64.8960     24.2130
  2158.9000      8.0011      2.6693      0.1360     -1.1675     70.2278     24.2956
  2159.0000      7.9717      2.6602      0.1578     -0.6198     72.8187     24.5183
  2159.1000      7.9717      2.6222      0.0591      1.6858     68.9311     24.2741
  2159.2000      7.9717      2.5872      0.0258      3.8042     63.8649     23.4065
  2159.3000      7.9619      2.5678      0.0947      4.9793     63.5160     22.2107
  2159.4000      7.9619      2.5507      0.0911      6.0184     69.0493     21.2570
  2159.5000      7.9467      2.5387     -0.0033      6.7439     78.0424     20.9433
  2159.6000      7.9467      2.5423      0.0379      6.5271     86.6549     21.2586
  2159.7000      7.9467      2.5429      0.0336      6.4900     87.3874     21.8147
  2159.8000      7.9412      2.5250      0.0248      7.5748     79.0767     22.3061
  2159.9000      7.9412      2.5113      0.0035      8.4073     73.6227     22.8449
  2160.0000      7.9300      2.5199      0.0400      7.8847     75.6725     23.4934
  2160.1000      7.9300      2.5408      0.0175      6.6205     76.9283     23.8403
  2160.2000      7.9300      2.5604      0.0660      5.4288     73.9446     23.4421
  2160.3000      7.9900      2.5724      0.0582      4.7009     69.1412     22.3784
  2160.4000      7.9900      2.5807      0.0999      4.1988     64.1145     21.4686
  2160.5000      8.0217      2.5888      0.0784      3.7118     61.9450     21.4023
  2160.6000      8.0217      2.6003      0.0547      3.0106     61.9192     21.6777
  2160.7000      8.0217      2.6203      0.0940      1.8026     59.2308     21.7626
  2160.8000      8.0473      2.6386      0.1242      0.6883     54.8701     21.8321
  2160.9000      8.0473      2.6405      0.1224      0.5772     53.4244     21.5820
  2161.0000      7.9551      2.6348      0.0668      0.9187     56.9770     20.8363
  2161.1000      7.9551      2.6395      0.0970      0.6352     66.2930     20.1723
  2161.2000      7.9551      2.6425      0.0828      0.4562     75.4496     20.2163
  2161.3000      7.9449      2.6344     -0.0281      0.9483     76.2505     20.7582
  2161.4000      7.9449      2.6320      0.0787      1.0899     69.9431     20.7977
  2161.5000      7.9655      2.6286      0.1129      1.2965     62.3515     20.3611
  2161.6000      7.9655      2.6064      0.0764      2.6405     57.5234     20.0408
  2161.7000      7.9655      2.5808      0.0692      4.1927     55.9662     19.9142
  2161.8000      7.9846      2.5722      0.0622      4.7144     56.2346     20.0072
  2161.9000      7.9846      2.5797      0.0080      4.2587     57.6329     20.5691
  2162.0000      7.9616      2.5909      0.0939      3.5823     60.6624     21.2732
  2162.1000      7.9616      2.5888      0.0495      3.7104     64.3203     21.2631
  2162.2000      7.9616      2.5705      0.0867      4.8152     63.7209     20.8845
  2162.3000      7.9576      2.5547      0.0400      5.7760     56.9002     21.1491
  2162.4000      7.9576      2.5679      0.0018      4.9738     49.6485     21.6366
  2162.5000      7.9712      2.6188      0.0540      1.8895     48.6222     21.6051
  2162.6000      7.9712      2.6713      0.1335     -1.2916     53.0653     21.5527
  2162.7000      7.9712      2.6849      0.1481     -2.1133     57.9697     21.7753
  2162.8000      7.9573      2.6651      0.0872     -0.9166     61.3219     21.8069
  2162.9000      7.9573      2.6410      0.0365      0.5428     64.5046     21.5514
  2163.0000      7.9411      2.6196      0.1010      1.8410     68.2490     21.3543
  2163.1000      7.9411      2.5964      0.0398      3.2470     68.8562     21.3329
  2163.2000      7.9411      2.5808      0.0443      4.1938     65.9746     21.2013
  2163.3000      7.9485      2.5760      0.0557      4.4848     65.7213     20.8088
  2163.4000      7.9485      2.5727      0.0422      4.6838     68.9094     20.3723
  2163.5000      7.9779      2.5601      0.0596      5.4513     71.6229     20.1644
  2163.6000      7.9779      2.5406     -0.0051      6.6280     74.2873     20.2733
  2163.7000      7.9779      2.5357     -0.0451      6.9256     78.4499     20.5805
  2163.8000      7.9890      2.5536      0.0101      5.8418     84.3308     21.0675
  2163.9000      7.9890      2.5788      0.0379      4.3165     92.3298     21.6568
  2164.0000      7.9927      2.5964      0.0759      3.2472     99.2181     21.8363
  2164.1000      7.9927      2.6012      0.0293      2.9565    100.5512     21.3972
  2164.2000      7.9927      2.5970      0.0829      3.2123     96.7746     20.9624
  2164.3000      7.9906      2.5928      0.0517      3.4642     92.8184     21.0193
