~Version Information
VERS.                      2.0: CWLS Log ASCII Standard - VERSION 2.0
WRAP.                       NO: One line per depth step
~Well Information Block
STRT.FT               555.0000: 
STOP.FT              2283.0000: 
STEP.FT                 0.2500: 
NULL.                -999.2500: 
COMP.          Pioneer Natural Resources: COMPANY
WELL.          Roadster 41-33 Kv: WELL
FLD.           Purgatoire River: FIELD
LOC.           903' FNL & 248' FEL: LOCATION
PROV.                 Colorado: PROVINCE
CNTY.               Las Animas: COUNTRY
SRVC.                Patterson: SERVICE COMPANY
DATE.          Wed Dec 14 23:52:42 2005: LOG DATE
UWI.           05 071 08615 00: UNIQUE WELL ID
~Curve Information Block
DEPT.FT            0 000 00 00: Depth
SN.Ohm-m                      : IEL Short Normal
SP.mV                         : IEL Spontaneous Potential
DIR.Ohm-m                     : IEL Induction Resistivity
GR.GAPI                       : Gamma Ray
~Parameter Information Block
~A  Depth        SN          SP         DIR          GR     
# ...
  2263.5000     16.3538     54.7966     17.0043    139.3857
  2263.7500     16.7620     54.7726     16.9876    134.3184
  2264.0000     17.2365     54.7708     17.0341    126.0379
  2264.2500     17.6769     54.8006     17.1607    121.0901
  2264.5000     18.1315     54.8577     17.3624    116.2015
  2264.7500     18.7383     54.9316     17.6159    114.7617
  2265.0000     19.5595     55.0115     17.8912    113.6378
  2265.2500     20.5153     55.0903     18.1610    112.1475
  2265.5000     21.4617     55.1638     18.4019    107.5647
  2265.7500     22.2612     55.2274     18.5923    103.4970
  2266.0000     22.8095     55.2736     18.7105     98.3280
  2266.2500     23.0746     55.2938     18.7337     96.8930
  2266.5000     23.0799     55.2841     18.6399     98.6417
  2266.7500     22.8454     55.2517     18.4155    101.9033
  2267.0000     22.3718     55.2149     18.0658    108.1886
  2267.2500     21.6685     55.1980     17.6194    112.3882
  2267.5000     20.7989     55.2223     17.1214    117.7169
  2267.7500     19.8860     55.2983     16.6194    120.2735
  2268.0000     19.0582     55.4221     16.1510    122.4237
  2268.2500     18.3885     55.5777     15.7378    123.0268
  2268.5000     17.8569     55.7469     15.3824    123.6045
  2268.7500     17.3670     55.9217     15.0698    124.0412
  2269.0000     16.8307     56.1123     14.7746    124.0397
  2269.2500     16.2338     56.3397     14.4747    122.3946
  2269.5000     15.6290     56.6186     14.1660    114.3161
  2269.7500     15.1145     56.9444     13.8661    103.3835
  2270.0000     14.7962     57.2941     13.6245     78.2771
  2270.2500     14.7278     57.6368     13.4264     58.2379
  2270.5000     14.8840     57.9450     13.3054     30.5416
  2270.7500     15.1534     58.2006     13.2575     17.0799
  2271.0000     15.3605     58.3982     13.2657      5.5802
  2271.2500     15.3690     58.5432     13.3096      2.2257
  2271.5000     15.1922     58.6490     13.3783      0.4263
  2271.7500     14.9825     58.7310     13.4809      0.1163
  2272.0000     14.9061     58.8020     13.6462      0.0108
  2272.2500     15.0209     58.8696     13.9165      0.0000
  2272.5000     15.2529     58.9366     14.3501   -999.2500
  2272.7500     15.4871     59.0028     15.0473   -999.2500
  2273.0000     15.6886     59.0670     16.2005   -999.2500
  2273.2500     15.9515     59.1263     18.1687   -999.2500
  2273.5000     16.4430     59.1736     21.5526   -999.2500
  2273.7500     17.2652     59.1976     27.6981   -999.2500
  2274.0000     18.3302     59.1870     39.1805   -999.2500
  2274.2500     19.4013     59.1376     62.0696   -999.2500
  2274.5000     20.2724     59.0545    112.4113   -999.2500
  2274.7500     20.8623     58.9499    242.3570   -999.2500
  2275.0000     21.1707     58.8393    721.5116   -999.2500
  2275.2500     21.2224     58.7389 100000.0000   -999.2500
  2275.5000     21.0420     58.6628 100000.0000   -999.2500
  2275.7500     20.6479     58.6197 100000.0000   -999.2500
  2276.0000     20.0463     58.6107 100000.0000   -999.2500
  2276.2500     19.2362     58.6303 100000.0000   -999.2500
  2276.5000     18.2644     58.6698 100000.0000   -999.2500
  2276.7500     17.2639     58.7220 100000.0000   -999.2500
  2277.0000     16.3912     58.7847 100000.0000   -999.2500
  2277.2500     15.7207     58.8610 100000.0000   -999.2500
  2277.5000     15.2218     58.9568 100000.0000   -999.2500
  2277.7500     14.8316     59.0727 100000.0000   -999.2500
  2278.0000     14.5210     59.1870 100000.0000   -999.2500
  2278.2500     14.2993     59.1836 100000.0000   -999.2500
  2278.5000     14.2066     58.6693 100000.0000   -999.2500
  2278.7500     14.3150     56.6898 100000.0000   -999.2500
  2279.0000     14.6856     51.6588 100000.0000   -999.2500
  2279.2500     15.2092     42.0795 100000.0000   -999.2500
  2279.5000     15.3224     28.0406 100000.0000   -999.2500
  2279.7500     13.9166     12.0833 100000.0000   -999.2500
  2280.0000     10.2172     -2.0193 100000.0000   -999.2500
  2280.2500      5.1962    -11.7190 100000.0000   -999.2500
  2280.5000      1.0489    -16.9130 100000.0000   -999.2500
  2280.7500     -1.1102    -19.0786 100000.0000   -999.2500
  2281.0000     -1.8260    -19.7818 100000.0000   -999.2500
  2281.2500     -1.9776    -19.9596 100000.0000   -999.2500
  2281.5000     -1.9982    -19.9946 100000.0000   -999.2500
  2281.7500   -999.2500   -999.2500  17540.4551   -999.2500
  2282.0000   -999.2500   -999.2500  11970.7314   -999.2500
  2282.2500   -999.2500   -999.2500  10764.9727   -999.2500
  2282.5000   -999.2500   -999.2500  10448.6943   -999.2500
  2282.7500   -999.2500   -999.2500  10370.6211   -999.2500
  2283.0000   -999.2500   -999.2500 100000.0000   -999.2500
