~Version Information
VERS.                      2.0: CWLS Log ASCII Standard - VERSION 2.0
WRAP.                       NO: One line per depth step
~Well Information Block
STRT.FT               673.2000: 
STOP.FT              1510.5000: 
STEP.FT                 0.1000: 
NULL.                -999.2500: 
COMP.          Pioneer Natural Resources: COMPANY
WELL.          Hammerhead 24-24 Tr: WELL
FLD.           Purgatoire River: FIELD
LOC.           953' FSL & 1922' FWL: LOCATION
PROV.                 Colorado: PROVINCE
CNTY.               Las Animas: COUNTRY
SRVC.                Patterson: SERVICE COMPANY
DATE.          Mon Jan 30 07:27:57 2006: LOG DATE
UWI.           05 071 08669 00: UNIQUE WELL ID
~Curve Information Block
DEPT.FT            0 000 00 00: Depth
DCAL.in                       : CDL Caliper
RHOB.g/cc                     : CDL Bulk Density
RHOC.g/cc                     : CDL Density Correction
DPOR.pu                       : CDL Density Porosity
GR.GAPI                       : Gamma Ray
~Parameter Information Block
~A  Depth       DCAL        RHOB        RHOC        DPOR         GR     
# ...
  1177.2000      7.9709      2.5353      0.0580      6.9494    123.5343
  1177.3000      7.9686      2.5587      0.0547      5.5316    116.9349
  1177.4000      7.9686      2.5728      0.0742      4.6798    110.6537
  1177.5000      7.9666      2.5831      0.0914      4.0570    112.4048
  1177.6000      7.9666      2.5944      0.1351      3.3713    121.7209
  1177.7000      7.9666      2.5981      0.1174      3.1472    126.7059
  1177.8000      7.9660      2.5932      0.0733      3.4400    124.7497
  1177.9000      7.9660      2.5872      0.0846      3.8074    124.5450
  1178.0000      7.9677      2.5803      0.0296      4.2227    127.6256
  1178.1000      7.9677      2.5721      0.0745      4.7226    126.3914
  1178.2000      7.9677      2.5589      0.0587      5.5214    118.7889
  1178.3000      7.9712      2.5416      0.0292      6.5711    111.5210
  1178.4000      7.9712      2.5295      0.0069      7.3017    110.8360
  1178.5000      7.9744      2.5259      0.0133      7.5217    115.0727
  1178.6000      7.9744      2.5227      0.0237      7.7168    120.6876
  1178.7000      7.9744      2.5138      0.0471      8.2534    127.4432
  1178.8000      7.9770      2.5048      0.0006      8.7971    133.3521
  1178.9000      7.9770      2.5037      0.0483      8.8661    135.6930
  1179.0000      7.9789      2.5131      0.0203      8.2995    135.1536
  1179.1000      7.9789      2.5349      0.0911      6.9741    133.0498
  1179.2000      7.9789      2.5599      0.0514      5.4605    127.4937
  1179.3000      7.9797      2.5723      0.0402      4.7070    118.9412
  1179.4000      7.9797      2.5695      0.0594      4.8783    112.8790
  1179.5000      7.9805      2.5659      0.0509      5.0953    111.2612
  1179.6000      7.9805      2.5723      0.0757      4.7072    110.0037
  1179.7000      7.9805      2.5762      0.1316      4.4705    106.9328
  1179.8000      7.9817      2.5656      0.0768      5.1130    104.2518
  1179.9000      7.9817      2.5561      0.0570      5.6916    102.6894
  1180.0000      7.9815      2.5630      0.0490      5.2716    103.0794
  1180.1000      7.9815      2.5728      0.0738      4.6767    106.2404
  1180.2000      7.9815      2.5686      0.0524      4.9305    110.3025
  1180.3000      7.9803      2.5577      0.0405      5.5958    112.5768
  1180.4000      7.9803      2.5522      0.0535      5.9273    111.0140
  1180.5000      7.9785      2.5506      0.0767      6.0261    107.8087
  1180.6000      7.9785      2.5463      0.1000      6.2853    107.7792
  1180.7000      7.9785      2.5397      0.0877      6.6864    108.4568
  1180.8000      7.9772      2.5393      0.0653      6.7105    105.4351
  1180.9000      7.9772      2.5561      0.0535      5.6933    104.4295
  1181.0000      7.9775      2.5810      0.1086      4.1812    107.7037
  1181.1000      7.9775      2.5881      0.0954      3.7530    108.1569
  1181.2000      7.9775      2.5756      0.0600      4.5072    106.3942
  1181.3000      7.9780      2.5633      0.0864      5.2546    107.1709
  1181.4000      7.9780      2.5558      0.0944      5.7079    108.6543
  1181.5000      7.9782      2.5526      0.0261      5.9057    108.8331
  1181.6000      7.9782      2.5588      0.0604      5.5263    108.4970
  1181.7000      7.9782      2.5671      0.0590      5.0213    107.2826
  1181.8000      7.9780      2.5649      0.0683      5.1587    105.5957
  1181.9000      7.9780      2.5516      0.0750      5.9623    104.4468
  1182.0000      7.9772      2.5364      0.0180      6.8827    103.1218
  1182.1000      7.9772      2.5296      0.0126      7.2943    103.5321
  1182.2000      7.9772      2.5327      0.0429      7.1119    107.0774
  1182.3000      7.9766      2.5359      0.0465      6.9166    112.2790
  1182.4000      7.9766      2.5304      0.0177      7.2503    118.5705
  1182.5000      7.9754      2.5170      0.0047      8.0630    123.5743
  1182.6000      7.9754      2.5034     -0.0014      8.8873    126.1503
  1182.7000      7.9754      2.4897     -0.0028      9.7141    127.9784
  1182.8000      7.9727      2.4652      0.0693     11.2012    127.6533
  1182.9000      7.9727      2.4407     -0.0066     12.6841    125.8507
  1183.0000      7.9685      2.4501      0.0157     12.1127    126.4292
  1183.1000      7.9685      2.4928      0.0936      9.5295    128.8462
  1183.2000      7.9685      2.5335      0.1110      7.0579    130.8147
  1183.3000      7.9625      2.5535      0.0928      5.8498    130.9961
  1183.4000      7.9625      2.5530      0.1441      5.8767    130.0215
  1183.5000      7.9594      2.5372      0.1559      6.8371    132.2396
  1183.6000      7.9594      2.5159      0.1474      8.1252    138.4079
  1183.7000      7.9594      2.4915      0.1389      9.6083    144.2274
  1183.8000      7.9692      2.4645      0.0814     11.2407    146.5300
  1183.9000      7.9692      2.4481      0.0736     12.2390    142.2604
  1184.0000      7.9878      2.4479      0.0891     12.2505    134.7085
  1184.1000      7.9878      2.4578      0.0882     11.6495    133.4529
  1184.2000      7.9878      2.4774      0.1032     10.4588    141.0853
  1184.3000      7.9986      2.5089      0.1950      8.5505    149.2727
  1184.4000      7.9986      2.5338      0.3004      7.0412    146.9330
  1184.5000      8.0019      2.5218      0.3134      7.7683    134.6748
  1184.6000      8.0019      2.4713      0.2234     10.8292    124.7562
  1184.7000      8.0019      2.4184      0.1168     14.0384    125.1482
  1184.8000      8.0050      2.3976      0.0819     15.2987    133.8997
  1184.9000      8.0050      2.4002      0.1625     15.1372    142.0055
  1185.0000      8.0081      2.3912      0.0959     15.6851    145.3477
  1185.1000      8.0081      2.3633      0.0332     17.3767    145.6523
  1185.2000      8.0081      2.3390      0.0176     18.8476    143.8149
  1185.3000      8.0088      2.3346      0.0410     19.1163    144.4941
  1185.4000      8.0088      2.3458      0.0495     18.4386    149.7941
  1185.5000      8.0087      2.3568      0.0681     17.7667    154.2485
  1185.6000      8.0087      2.3577      0.0260     17.7144    155.0239
  1185.7000      8.0087      2.3508      0.0567     18.1356    153.1668
  1185.8000      8.0095      2.3398      0.0402     18.8026    150.8668
  1185.9000      8.0095      2.3245      0.0133     19.7261    151.1570
  1186.0000      8.0100      2.2977      0.0516     21.3508    151.4963
  1186.1000      8.0100      2.2500      0.0545     24.2400    146.0489
  1186.2000      8.0100      2.1877      0.0113     28.0154    139.5264
  1186.3000      8.0099      2.1289     -0.0092     31.5832    139.3647
  1186.4000      8.0099      2.0868     -0.0507     34.1324    139.9986
  1186.5000      8.0102      2.0831     -0.0356     34.3603    135.7123
  1186.6000      8.0102      2.1453     -0.0309     30.5892    131.6884
  1186.7000      8.0102      2.2612      0.1920     23.5663    135.2005
  1186.8000      8.0101      2.3750      0.2790     16.6684    143.8421
  1186.9000      8.0101      2.4473      0.4100     12.2851    147.9897
  1187.0000      8.0095      2.4692      0.5214     10.9580    143.1955
  1187.1000      8.0095      2.4515      0.4522     12.0330    132.3086
  1187.2000      8.0095      2.4218      0.3787     13.8323    121.1190
  1187.3000      8.0095      2.4009      0.2413     15.0979    115.9478
  1187.4000      8.0095      2.3875      0.1054     15.9076    122.0037
  1187.5000      8.0093      2.3615      0.1719     17.4866    135.3740
  1187.6000      8.0093      2.3132      0.1858     20.4115    145.9766
  1187.7000      8.0093      2.2863      0.2121     22.0401    148.2611
  1187.8000      8.0088      2.3312      0.3285     19.3212    146.3033
  1187.9000      8.0088      2.4325      0.3944     13.1836    144.7949
  1188.0000      8.0083      2.5222      0.4190      7.7432    140.5340
  1188.1000      8.0083      2.5495      0.3960      6.0909    133.5123
  1188.2000      8.0083      2.5491      0.2431      6.1179    127.7189
  1188.3000      8.0060      2.5902      0.4054      3.6254    121.5957
