~Version Information
VERS.                      2.0: CWLS Log ASCII Standard - VERSION 2.0
WRAP.                       NO: One line per depth step
~Well Information Block
STRT.FT               615.0000: 
STOP.FT              2807.0000: 
STEP.FT                 0.1000: 
NULL.                -999.2500: 
COMP.          Pioneer Natural Resources: COMPANY
WELL.              Loews 41-32: WELL
FLD.           Purgatoire River: FIELD
LOC.           751' FNL & 128' FEL: LOCATION
CNTY.               Las Animas: COUNTY
SRVC.                Patterson: SERVICE COMPANY
DATE.          Mon Feb 13 07:19:27 2006: LOG DATE
UWI.           05 071 08693 00: UNIQUE WELL ID
STAT.                 Colorado: STATE
~Curve Information Block
DEPT.FT            0 000 00 00: Depth
DCAL.in                       : CDL Caliper
RHOB.g/cc                     : CDL Bulk Density
RHOC.g/cc                     : CDL Density Correction
DPOR.pu                       : CDL Density Porosity
GR.GAPI                       : Gamma Ray
NPOR.pu                       : Neutron Porosity
~Parameter Information Block
~A  Depth       DCAL        RHOB        RHOC        DPOR         GR         NPOR    
# ...
  1776.6000      8.1218      2.6381     -0.0599      0.7187     93.9142     27.0322
  1776.7000      8.1218      2.5392     -0.0600      6.7138     93.1911     27.5771
  1776.8000      8.1218      2.4898     -0.0291      9.7071     90.9678     27.8394
  1776.9000      8.1218      2.4735     -0.0162     10.6976     89.1712     27.5131
  1777.0000      8.1153      2.4724     -0.0250     10.7621     90.9384     27.1572
  1777.1000      8.1153      2.4874      0.0399      9.8563     94.8902     27.2928
  1777.2000      8.1153      2.5209      0.0911      7.8232    100.4642     27.7360
  1777.3000      8.1457      2.5612      0.1231      5.3829    109.0357     28.2120
  1777.4000      8.1457      2.5881      0.1566      3.7507    119.8384     28.4815
  1777.5000      8.1703      2.5944      0.1461      3.3716    130.8533     28.2957
  1777.6000      8.1703      2.5882      0.1576      3.7458    138.5132     27.8623
  1777.7000      8.1703      2.5771      0.0783      4.4198    139.0711     27.5558
  1777.8000      8.1195      2.5673      0.0526      5.0093    134.3914     27.3546
  1777.9000      8.1195      2.5672      0.0275      5.0193    129.5954     27.2019
  1778.0000      8.0968      2.5809      0.0496      4.1870    126.0648     27.3781
  1778.1000      8.0968      2.6051      0.0470      2.7240    122.1917     27.8860
  1778.2000      8.0968      2.6313      0.0862      1.1312    120.1783     28.3838
  1778.3000      8.0978      2.6475      0.0431      0.1512    122.6543     28.7159
  1778.4000      8.0978      2.6443      0.0719      0.3473    124.7070     28.5834
  1778.5000      8.1016      2.6325     -0.0029      1.0600    119.9199     27.9077
  1778.6000      8.1016      2.6396      0.0520      0.6317    109.1668     27.3035
  1778.7000      8.1016      2.6606      0.1183     -0.6432     97.6992     27.0595
  1778.8000      8.1040      2.6660      0.0638     -0.9709     91.6762     27.0180
  1778.9000      8.1040      2.6537      0.0398     -0.2240     96.7194     27.2006
  1779.0000      8.0983      2.6421     -0.0057      0.4793    108.4116     27.8523
  1779.1000      8.0983      2.6390      0.0176      0.6678    116.0666     28.8713
  1779.2000      8.0983      2.6321      0.0514      1.0870    115.4527     29.6017
  1779.3000      8.0959      2.6144      0.0453      2.1570    108.0807     29.5236
  1779.4000      8.0959      2.5943      0.0310      3.3781    101.6661     28.7993
  1779.5000      8.0963      2.5769      0.0310      4.4282    104.1182     27.8724
  1779.6000      8.0963      2.5644      0.0217      5.1887    112.4672     26.9335
  1779.7000      8.0963      2.5621      0.0269      5.3293    121.1051     26.2866
  1779.8000      8.1022      2.5740      0.0241      4.6042    129.0663     26.3702
  1779.9000      8.1022      2.5927      0.0541      3.4710    133.9455     26.8673
  1780.0000      8.1141      2.6030      0.0720      2.8493    133.7660     27.1020
  1780.1000      8.1141      2.5957      0.0275      3.2925    132.2674     27.3828
  1780.2000      8.1141      2.5760      0.0349      4.4838    137.3152     28.1953
  1780.3000      8.1327      2.5584      0.0074      5.5512    151.7932     29.0100
  1780.4000      8.1327      2.5503      0.0265      6.0409    165.2610     29.2361
  1780.5000      8.1140      2.5488      0.0559      6.1317    169.0982     29.1872
  1780.6000      8.1140      2.5575     -0.0030      5.6058    167.3255     29.2148
  1780.7000      8.1140      2.5763      0.0706      4.4665    165.8655     29.0073
  1780.8000      8.1092      2.5859      0.0408      3.8822    164.7325     28.3295
  1780.9000      8.1092      2.5769      0.0044      4.4273    160.7334     27.7037
  1781.0000      8.0985      2.5701     -0.0179      4.8430    153.8570     27.6949
  1781.1000      8.0985      2.5847      0.0473      3.9560    149.6601     27.8063
  1781.2000      8.0985      2.6069      0.0562      2.6134    150.4189     27.0599
  1781.3000      8.1031      2.6183      0.0555      1.9241    152.1993     25.4585
  1781.4000      8.1031      2.6230      0.0374      1.6382    151.2233     24.2126
  1781.5000      8.1036      2.6275      0.0656      1.3648    147.3675     23.9062
  1781.6000      8.1036      2.6286      0.0687      1.2979    147.3995     23.9439
  1781.7000      8.1036      2.6280      0.0148      1.3311    152.4677     24.1268
  1781.8000      8.1100      2.6300      0.0479      1.2143    149.0735     24.5430
  1781.9000      8.1100      2.6278      0.0573      1.3480    130.7698     24.7683
  1782.0000      8.1182      2.6183      0.0089      1.9224    110.6738     24.7219
  1782.1000      8.1182      2.6095     -0.0115      2.4573    100.8181     24.6836
  1782.2000      8.1182      2.6034      0.0520      2.8260     98.2851     24.3037
  1782.3000      8.1194      2.5958      0.0026      3.2861     97.8690     23.4264
  1782.4000      8.1194      2.5918     -0.0499      3.5259     97.6025     22.5390
  1782.5000      8.1198      2.5945      0.0212      3.3657     94.8651     21.9262
  1782.6000      8.1198      2.5925      0.0185      3.4872     89.6072     21.6110
  1782.7000      8.1198      2.5830      0.0489      4.0593     82.4609     21.6285
  1782.8000      8.1259      2.5761     -0.0159      4.4768     75.2352     21.9640
  1782.9000      8.1259      2.5678      0.0284      4.9829     72.6033     22.3076
  1783.0000      8.1228      2.5456     -0.0175      6.3251     77.4276     21.8975
  1783.1000      8.1228      2.5315     -0.0582      7.1848     82.2413     20.6238
  1783.2000      8.1228      2.5513     -0.0219      5.9826     78.4472     19.8029
  1783.3000      8.1177      2.5919     -0.0015      3.5219     72.1245     20.1352
  1783.4000      8.1177      2.6260      0.0445      1.4541     70.4167     20.7596
  1783.5000      8.1168      2.6371      0.0219      0.7824     72.1488     20.9548
  1783.6000      8.1168      2.6268      0.0202      1.4037     75.2065     21.0256
  1783.7000      8.1168      2.6091      0.0174      2.4769     77.9754     20.8130
  1783.8000      8.1150      2.5993     -0.0215      3.0698     78.6138     19.9905
  1783.9000      8.1150      2.6021      0.0348      2.9013     77.0987     19.4174
  1784.0000      8.1137      2.6118     -0.0093      2.3131     75.1679     19.7112
  1784.1000      8.1137      2.6243      0.0513      1.5585     75.6896     20.4660
  1784.2000      8.1137      2.6306      0.0255      1.1768     77.9779     20.9294
  1784.3000      8.1123      2.6253      0.0230      1.4975     77.0298     20.8548
  1784.4000      8.1123      2.6111      0.0149      2.3588     74.0154     21.0293
  1784.5000      8.1047      2.5954      0.0024      3.3070     72.6541     21.6328
  1784.6000      8.1047      2.5869      0.0083      3.8245     69.9833     21.9402
  1784.7000      8.1047      2.5784      0.0399      4.3423     64.2933     21.9030
  1784.8000      8.1008      2.5580     -0.0100      5.5734     61.0840     21.6362
  1784.9000      8.1008      2.5387     -0.0679      6.7481     62.4379     20.8331
  1785.0000      8.0991      2.5420     -0.0255      6.5464     62.7846     19.8439
  1785.1000      8.0991      2.5703     -0.0240      4.8284     61.0270     19.3161
  1785.2000      8.0991      2.6101      0.0322      2.4179     61.7531     19.2160
  1785.3000      8.0999      2.6380      0.0668      0.7271     64.3486     19.0855
  1785.4000      8.0999      2.6417      0.0309      0.5034     63.9042     19.1297
  1785.5000      8.1006      2.6378      0.0092      0.7379     60.7514     19.8737
  1785.6000      8.1006      2.6383      0.0716      0.7106     58.9198     20.7601
  1785.7000      8.1006      2.6367      0.0448      0.8075     59.2470     21.2061
  1785.8000      8.0994      2.6376      0.0261      0.7540     62.7242     21.5205
  1785.9000      8.0994      2.6417      0.0298      0.5030     70.3515     21.6614
  1786.0000      8.0993      2.6325      0.0539      1.0622     74.4965     21.6552
  1786.1000      8.0993      2.6098      0.0258      2.4357     69.8892     22.1340
