~Version Information
VERS.                      2.0: CWLS Log ASCII Standard - VERSION 2.0
WRAP.                       NO: One line per depth step
~Well Information Block
STRT.FT                -1.5000: 
STOP.FT              2898.5000: 
STEP.FT                 0.2500: 
NULL.                -999.2500: 
COMP.          Pioneer Natural Resources: COMPANY
WELL.          Hanginstone 21-27: WELL
FLD.           Purgatoire River: FIELD
LOC.           1186' FNL & 1606' FWL--: LOCATION
PROV.                 Colorado: PROVINCE
CNTY.               Las Animas: COUNTRY
SRVC.                Patterson: SERVICE COMPANY
DATE.          Mon Jan 23 11:03:53 2006: LOG DATE
UWI.           05 071 08632 00: UNIQUE WELL ID
~Curve Information Block
DEPT.FT            0 000 00 00: Depth
CCL.                          : Casing Collar Locator
TT3.usec                      : CBL 3' Travel Time
AMP3.mV                       : CBL 3' Amplitude
GR.GAPI                       : Gamma Ray
~Parameter Information Block
~A  Depth       CCL         TT3         AMP3         GR     
    -1.5000   -999.2500   -999.2500   -999.2500     56.3458
    -1.2500   -999.2500   -999.2500   -999.2500     50.6541
    -1.0000   -999.2500   -999.2500   -999.2500     45.2802
    -0.7500   -999.2500   -999.2500   -999.2500     40.4852
    -0.5000   -999.2500   -999.2500   -999.2500     35.3469
    -0.2500   -999.2500   -999.2500   -999.2500     29.1110
     0.0000   -999.2500   -999.2500   -999.2500     22.3934
     0.2500   -999.2500   -999.2500   -999.2500     14.7588
     0.5000   -999.2500   -999.2500   -999.2500     16.4000
     0.7500   -999.2500   -999.2500   -999.2500     21.0497
     1.0000   -999.2500   -999.2500   -999.2500     26.8012
     1.2500   -999.2500   -999.2500   -999.2500     31.8357
     1.5000   -999.2500   -999.2500   -999.2500     35.1456
     1.7500   -999.2500   -999.2500   -999.2500     36.5514
     2.0000   -999.2500   -999.2500   -999.2500     36.5229
     2.2500   -999.2500   -999.2500   -999.2500     36.0112
     2.5000   -999.2500   -999.2500   -999.2500     36.0018
     2.7500   -999.2500   -999.2500   -999.2500     36.9846
     3.0000   -999.2500   -999.2500   -999.2500     38.7918
     3.2500   -999.2500   1497.0000      1.3787     40.6514
     3.5000   -999.2500   1497.0000      1.3847     41.3326
     3.7500   -999.2500   1497.0000      1.3937     39.8975
     4.0000   -999.2500   1497.0000      1.4022     36.7991
     4.2500   -999.2500   1497.0000      1.4065     33.8810
     4.5000   -999.2500   1497.0000      1.4059     32.9978
     4.7500   -999.2500   1497.0000      1.4031     34.7574
     5.0000   -999.2500   1497.0000      1.3998     38.4120
     5.2500   -999.2500   1497.0000      1.3969     42.4135
     5.5000   -999.2500   1497.0000      1.3973     45.0841
     5.7500   -999.2500   1497.0000      1.4065     45.4746
     6.0000   -999.2500   1497.0000      1.4263     44.1369
     6.2500   -999.2500   1497.0000      1.4496     42.8440
     6.5000   -999.2500   1497.0000      1.4645     43.0188
     6.7500   -999.2500   1497.0000      1.4635     44.2935
     7.0000   -999.2500   1497.0000      1.4479     44.8523
     7.2500   -999.2500   1497.0000      1.4244     43.3944
     7.5000   -999.2500   1497.0000      1.4007     40.6255
     7.7500   -999.2500   1497.0000      1.3818     38.6059
     8.0000   -999.2500   1497.0000      1.3700     38.6479
     8.2500   -999.2500   1497.0000      1.3680     40.0474
     8.5000   -999.2500   1497.0000      1.3791     40.8767
     8.7500   -999.2500   1497.0000      1.4017     39.7766
     9.0000      0.0000   1497.0000      1.4271     36.9588
     9.2500      0.0000   1497.0000      1.4426     33.7886
     9.5000      0.0000   1497.0000      1.4388     31.6369
     9.7500      0.0000   1497.0000      1.4155     31.0242
    10.0000      0.0000   1497.0000      1.3837     31.7313
    10.2500      0.0000   1497.0000      1.3596     33.6496
    10.5000      0.0000   1497.0000      1.3532     37.1289
    10.7500      0.0000   1497.0000      1.3643     42.0990
    11.0000      0.0000   1497.0000      1.3859     47.1027
    11.2500      0.0000   1497.0000      1.4074     49.8751
    11.5000      0.0000   1497.0000      1.4194     49.1959
    11.7500      0.0000   1497.0000      1.4194     46.0816
    12.0000      0.0000   1497.0000      1.4117     42.9592
    12.2500      0.0000   1497.0000      1.4018     41.5856
    12.5000      0.0000   1497.0000      1.3932     41.8609
    12.7500      0.0000   1497.0000      1.3888     42.5621
    13.0000      0.0000   1497.0000      1.3905     42.7618
    13.2500     -2.0000   1497.0000      1.3980     42.3792
    13.5000      0.0000   1497.0000      1.4098     41.7921
    13.7500      0.0000   1497.0000      1.4236     41.2184
    14.0000      0.0000   1497.0000      1.4352     40.5030
    14.2500      0.0000   1497.0000      1.4394     39.6569
    14.5000      0.0000   1497.0000      1.4358     39.6541
    14.7500      0.0000   1497.0000      1.4295     42.0036
    15.0000      0.0000   1497.0000      1.4235     46.8362
    15.2500      0.0000   1497.0000      1.4171     51.9184
    15.5000      0.0000   1497.0000      1.4115     54.6043
    15.7500      0.0000   1497.0000      1.4112     54.8158
    16.0000      0.0000   1497.0000      1.4172     55.2687
    16.2500      0.0000   1497.0000      1.4247     58.5524
    16.5000      0.0000   1497.0000      1.4293     64.6492
    16.7500      0.0000   1497.0000      1.4339     71.5193
    17.0000      0.0000   1497.0000      1.4574     77.3128
    17.2500      0.0000   1497.0000      1.5548     81.3528
    17.5000      0.0000   1497.0000      1.8446     83.3658
    17.7500      0.0000   1496.9399      2.5135     82.7842
    18.0000      0.0000   1496.5293      3.7615     79.3006
    18.2500      0.0000   1494.4160      5.6940     73.5253
    18.5000      2.0000   1485.9172      8.2439     66.6088
    18.7500      0.0000   1459.1805     11.2103     59.6898
    19.0000      0.0000   1393.3157     14.4012     54.0375
    19.2500      0.0000   1266.0792     17.7519     50.9341
    19.5000      0.0000   1072.9784     21.3185     50.6870
    19.7500      0.0000    842.1111     25.1802     52.0875
    20.0000      0.0000    623.6509     29.3506     53.3855
    20.2500      0.0000    458.5679     33.7318     53.6992
    20.5000      0.0000    357.1234     38.0959     53.2572
    20.7500      0.0000    304.6281     42.1292     52.5980
    21.0000      0.0000    280.4488     45.5674     52.0406
    21.2500      0.0000    269.9497     48.3360     52.0198
    21.5000      0.0000    265.5533     50.5687     53.5006
    21.7500      0.0000    263.7809     52.4973     57.3653
    22.0000      0.0000    263.0525     54.3136     63.1008
    22.2500      0.0000    262.6707     56.0919     68.3791
    22.5000      0.0000    262.3887     57.7988     70.3809
    22.7500      0.0000    262.1436     59.3589     67.6958
    23.0000      0.0000    261.9291     60.7155     61.0892
    23.2500      0.0000    261.7498     61.8498     52.9070
    23.5000      0.0000    261.6096     62.7743     45.8951
    23.7500      0.0000    261.5058     63.5216     41.9810
    24.0000      0.0000    261.4296     64.1299     41.5376
    24.2500      0.0000    261.3696     64.6338     43.4659
    24.5000      0.0000    261.3156     65.0664     45.9223
    24.7500      0.0000    261.2606     65.4494     47.4670
    25.0000      0.0000    261.2018     65.7752     48.1649
    25.2500      0.0000    261.1425     66.0206     49.5858
    25.5000      0.0000    261.0936     66.1841     53.2575
    25.7500      0.0000    261.0656     66.2963     58.9262
    26.0000      0.0000    261.0561     66.4013     64.5221
    26.2500      0.0000    261.0467     66.5313     67.7866
    26.5000      0.0000    261.0192     66.6872     67.7806
    26.7500      0.0000    260.9714     66.8453     65.0685
    27.0000      0.0000    260.9175     66.9915     61.1452
    27.2500      0.0000    260.8751     67.1343     57.8506
    27.5000      0.0000    260.8527     67.2761     56.4873
    27.7500      0.0000    260.8459     67.4034     56.7989
    28.0000      0.0000    260.8437     67.5130     57.1925
    28.2500      0.0000    260.8372     67.6276     56.4875
    28.5000      0.0000    260.8246     67.7788     55.1908
    28.7500      0.0000    260.8095     67.9801     54.6353
    29.0000      0.0000    260.7986     68.2095     55.2417
    29.2500      0.0000    260.7976     68.4221     56.2619
    29.5000      0.0000    260.8081     68.5908     57.0454
    29.7500      0.0000    260.8266     68.7221     57.7650
    30.0000      0.0000    260.8466     68.8329     58.7329
    30.2500      0.0000    260.8605     68.9381     59.6311
    30.5000      0.0000    260.8621     69.0592     59.6419
    30.7500      0.0000    260.8522     69.2095     58.0676
    31.0000      0.0000    260.8396     69.3690     54.9620
    31.2500      0.0000    260.8361     69.4942     51.4179
    31.5000      0.0000    260.8484     69.5501     49.0270
    31.7500      0.0000    260.8703     69.5373     48.6559
