~Version Information
VERS.                      2.0: CWLS Log ASCII Standard - VERSION 2.0
WRAP.                       NO: One line per depth step
~Well Information Block
STRT.FT                -4.7500: 
STOP.FT              2723.2500: 
STEP.FT                 0.2500: 
NULL.                -999.2500: 
COMP.          Pioneer Natural Resources: COMPANY
WELL.           Dolzanie 34-12: WELL
FLD.           Purgatorie River: FIELD
LOC.           1001' FSL & 1750' FEL: LOCATION
PROV.                 Colorado: PROVINCE
CNTY.               Las Animas: COUNTRY
SRVC.                Patterson: SERVICE COMPANY
DATE.          Wed Jul 27 14:23:29 2005: LOG DATE
UWI.                          : UNIQUE WELL ID
~Curve Information Block
DEPT.FT            0 000 00 00: Depth
GR.GAPI                       : Gamma Ray
CCL.                          : Casing Collar Locator
TT3.usec                      : CBL 3' Travel Time
AMP3.mV                       : CBL 3' Amplitude
~Parameter Information Block
~A  Depth        GR         CCL         TT3         AMP3    
# ...
  1234.7500    124.6839      0.0000    791.6410     10.2766
  1235.0000    128.8064      0.0000    785.4689     10.3175
  1235.2500    131.3242      0.0000    775.7566     10.3760
  1235.5000    132.3666      0.0000    769.0219     10.3971
  1235.7500    133.6484      0.0000    771.5344     10.3747
  1236.0000    136.4481      0.0000    779.8955     10.3374
  1236.2500    140.4696      0.0000    785.2515     10.3028
  1236.5000    144.2914      0.0000    784.7582     10.2730
  1236.7500    146.4935      0.0000    783.5005     10.2407
  1237.0000    146.5013      0.0000    786.0762     10.2043
  1237.2500    144.6996      0.0000    790.8323     10.1924
  1237.5000    141.8905      0.0000    794.1852     10.2493
  1237.7500    138.7736      0.0000    795.4332     10.3878
  1238.0000    136.0066      0.0000    795.6037     10.5704
  1238.2500    134.2818      0.0000    795.4312     10.7286
  1238.5000    133.6670      0.0000    795.2044     10.7964
  1238.7500    132.9127      0.0000    795.1965     10.7306
  1239.0000    130.1536      0.0000    795.8408     10.5407
  1239.2500    124.7027      0.0000    796.9612     10.3073
  1239.5000    117.7578      0.0000    796.1040     10.1268
  1239.7500    111.1679      0.0000    790.5327     10.0475
  1240.0000    105.8691      0.0000    783.2142     10.0926
  1240.2500    101.4924      0.0000    779.6432     10.2871
  1240.5000     96.9990      0.0000    778.5811     10.6168
  1240.7500     91.5792      0.0000    775.1652     11.0157
  1241.0000     85.3162      0.0000    766.1710     11.4181
  1241.2500     79.3841      0.0000    748.0193     11.7569
  1241.5000     75.5602      0.0000    722.8875     11.9373
  1241.7500     74.9868      0.0000    706.5891     11.9012
  1242.0000     76.9731      0.0000    715.0676     11.7001
  1242.2500     79.1863      0.0000    743.2980     11.4372
  1242.5000     79.4243      0.0000    770.6630     11.1379
  1242.7500     77.4234      0.0000    783.5923     10.7472
  1243.0000     75.0184      0.0000    780.8790     10.2578
  1243.2500     74.3312      0.0000    765.6452      9.7646
  1243.5000     75.5877      0.0000    743.3027      9.3870
  1243.7500     76.9789      0.0000    719.8118      9.1761
  1244.0000     76.8811      0.0000    698.1785      9.1091
  1244.2500     75.6917      0.0000    682.3476      9.1276
  1244.5000     75.0177      0.0000    678.7054      9.1479
  1244.7500     75.5159      0.0000    689.2998      9.1054
  1245.0000     76.2130      0.0000    710.0779      9.0249
  1245.2500     75.7586      0.0000    731.5923      8.9936
  1245.5000     73.7198      0.0000    741.2949      9.0474
  1245.7500     70.6258      0.0000    737.1984      9.1572
  1246.0000     67.3001      0.0000    733.2745      9.3321
  1246.2500     64.5363      0.0000    741.3121      9.6344
  1246.5000     63.0955      0.0000    757.9443     10.0930
  1246.7500     63.3710      0.0000    775.0756     10.6549
  1247.0000     65.0480      0.0000    788.0479     11.1897
  1247.2500     67.4921      0.0000    793.4590     11.5616
  1247.5000     70.3583      0.0000    792.9902     11.7335
  1247.7500     73.4638      0.0000    793.6294     11.7897
  1248.0000     76.3998      0.0000    797.1006     11.8373
  1248.2500     78.7353      0.0000    800.4262     11.8795
  1248.5000     80.4097      0.0000    804.9207     11.8567
  1248.7500     81.5588      0.0000    810.8169     11.7992
  1249.0000     82.1633      0.0000    811.3375     11.8218
  1249.2500     82.1736      0.0000    801.6636     11.9821
  1249.5000     81.9652      0.0000    784.4731     12.2075
  1249.7500     82.4087      0.0000    765.5197     12.3426
  1250.0000     84.2516      0.0000    751.1288     12.2733
  1250.2500     87.3643      0.0000    748.2836     12.0259
  1250.5000     90.7495      0.0000    762.3608     11.7521
  1250.7500     93.3426      0.0000    789.6880     11.6130
  1251.0000     94.7306      0.0000    815.6201     11.6428
  1251.2500     95.2930      0.0000    827.3950     11.7340
  1251.5000     95.9907      0.0000    822.2887     11.7740
  1251.7500     98.0312      0.0000    805.7550     11.7465
  1252.0000    102.4665      0.0000    791.0110     11.6715
  1252.2500    109.7686      0.0000    788.7830     11.5109
  1252.5000    119.3801      0.0000    791.8659     11.1939
  1252.7500    129.4461      0.0000    786.1296     10.7360
  1253.0000    137.1918      0.0000    773.6166     10.2825
  1253.2500    140.1748      0.0000    767.4723      9.9836
  1253.5000    137.8944      0.0000    773.8308      9.8718
  1253.7500    132.3864      0.0000    786.7840      9.8880
  1254.0000    126.8916      0.0000    793.9907      9.9477
  1254.2500    123.6434      0.0000    791.1935      9.9811
  1254.5000    122.8688      0.0000    783.2620      9.9719
  1254.7500    123.5602      0.0000    768.1917      9.9342
  1255.0000    124.7459      0.0000    739.0819      9.8596
  1255.2500    126.0621      0.0000    701.6598      9.7473
  1255.5000    127.5674      0.0000    673.0515      9.6315
  1255.7500    129.2654      0.0000    662.5475      9.5322
  1256.0000    130.7106      0.0000    662.2764      9.4332
  1256.2500    131.1121      0.0000    656.2057      9.3308
  1256.5000    130.1210      0.0000    638.7557      9.2497
  1256.7500    128.4697      0.0000    622.2109      9.2027
  1257.0000    127.4163      0.0000    620.3436      9.1833
  1257.2500    127.5493      0.0000    630.0581      9.1933
  1257.5000    128.3744      0.0000    632.6613      9.2300
  1257.7500    128.9278      0.0000    615.6894      9.2634
  1258.0000    128.5513      0.0000    588.7566      9.2629
  1258.2500    127.3910      0.0000    568.3706      9.2269
  1258.5000    126.6197      0.0000    558.8631      9.1757
  1258.7500    127.9652      0.0000    555.5140      9.1349
  1259.0000    132.3603      0.0000    554.2319      9.1293
  1259.2500    138.7898      0.0000    553.6895      9.1749
  1259.5000    144.6450      0.0000    553.4777      9.2501
  1259.7500    147.4135      0.0000    553.3019      9.3018
  1260.0000    146.2567      0.0000    553.8938      9.3220
  1260.2500    142.2084      0.0000    558.1979      9.3744
  1260.5000    137.0530      0.0000    569.9975      9.5010
  1260.7500    132.1289      0.0000    589.5584      9.6510
  1261.0000    127.9973      0.0000    612.6808      9.7376
  1261.2500    124.5124      0.0000    635.5897      9.7339
  1261.5000    120.7026      0.0000    658.2183      9.6920
  1261.7500    115.2187      0.0000    683.9583      9.6862
  1262.0000    107.7675      0.0000    716.7412      9.7459
  1262.2500    100.0221      0.0000    754.0831      9.8315
  1262.5000     94.5637      0.0000    787.3528      9.8737
  1262.7500     92.7925      0.0000    810.8969      9.8458
  1263.0000     94.0662      0.0000    825.3093      9.7830
  1263.2500     96.8576      0.0000    835.1182      9.7229
  1263.5000    100.2895      0.0000    840.9761      9.6713
  1263.7500    104.1801      0.0000    835.2725      9.6363
  1264.0000    107.9664      0.0000    816.6071      9.6224
  1264.2500    110.3654      0.0000    796.3414      9.5933
  1264.5000    110.4858      0.0000    784.1270      9.5119
  1264.7500    108.9138      0.0000    779.0554      9.3941
  1265.0000    107.2287      0.0000    770.2098      9.2427
  1265.2500    106.4873      0.0000    746.8809      8.9279
  1265.5000    106.3475      0.0000    718.1197      8.3446
  1265.7500    105.5750      0.0000    703.8878      7.7735
  1266.0000    103.3799      0.0000    703.8991      7.5729
  1266.2500    100.3209      0.0000    703.8175      7.4865
  1266.5000     97.7036      0.0000    704.0272      7.1116
  1266.7500     96.1759      0.0000    711.1622      6.6622
  1267.0000     95.3872      0.0000    709.9156      6.4580
  1267.2500     94.9261      0.0000    679.0466      6.4166
  1267.5000     94.9597     -2.0000    629.5722      6.3877
  1267.7500     95.9679     -2.0000    599.6197      6.4035
  1268.0000     98.3829      0.0000    610.9989      6.5784
