~Version Information
VERS.                      2.0: CWLS Log ASCII Standard - VERSION 2.0
WRAP.                       NO: One line per depth step
~Well Information Block
STRT.FT               875.0000: 
STOP.FT              2947.2000: 
STEP.FT                 0.1000: 
NULL.                -999.2500: 
COMP.          Pioneer Natural Resources: COMPANY
WELL.          Hanginstone 21-27: WELL
FLD.           Purgatoire River: FIELD
LOC.           1186' FNL & 1606' FWL--: LOCATION
PROV.                 Colorado: PROVINCE
CNTY.               Las Animas: COUNTRY
SRVC.                Patterson: SERVICE COMPANY
DATE.          Mon Jan 09 07:31:45 2006: LOG DATE
UWI.           05 071 08632 00: UNIQUE WELL ID
~Curve Information Block
DEPT.FT            0 000 00 00: Depth
DCAL.in                       : CDL Caliper
RHOB.g/cc                     : CDL Bulk Density
RHOC.g/cc                     : CDL Density Correction
DPOR.pu                       : CDL Density Porosity
NPOR.pu                       : Neutron Porosity
GR.GAPI                       : Gamma Ray
~Parameter Information Block
~A  Depth       DCAL        RHOB        RHOC        DPOR        NPOR         GR     
# ...
  2919.8000      7.5760      2.4974      0.0338      9.2514     17.0068   -999.2500
  2919.9000      7.5760      2.5026      0.0260      8.9324     16.9435   -999.2500
  2920.0000      7.5754      2.5107      0.0128      8.4433     17.1799   -999.2500
  2920.1000      7.5754      2.5206      0.0379      7.8396     17.6613   -999.2500
  2920.2000      7.5754      2.5233      0.0692      7.6797     18.0419   -999.2500
  2920.3000      7.5751      2.5145      0.0496      8.2123     18.3783   -999.2500
  2920.4000      7.5751      2.5058      0.0077      8.7374     20.6977   -999.2500
  2920.5000      7.5756      2.5131      0.0039      8.2981     27.9262   -999.2500
  2920.6000      7.5756      2.5310      0.0518      7.2148     38.4726   -999.2500
  2920.7000      7.5756      2.5388      0.0549      6.7386     45.9851   -999.2500
  2920.8000      7.5755      2.5336      0.0571      7.0562     48.7431   -999.2500
  2920.9000      7.5755      2.5330      0.0265      7.0880     49.2880   -999.2500
  2921.0000      7.5746      2.5431      0.0843      6.4806     49.3456   -999.2500
  2921.1000      7.5746      2.5480      0.0638      6.1806     49.3489   -999.2500
  2921.2000      7.5746      2.5399      0.0683      6.6740   -999.2500   -999.2500
  2921.3000      7.5724      2.5224      0.0664      7.7325   -999.2500   -999.2500
  2921.4000      7.5724      2.5039      0.0115      8.8530   -999.2500   -999.2500
  2921.5000      7.5701      2.4956      0.0130      9.3559   -999.2500   -999.2500
  2921.6000      7.5701      2.4944      0.0435      9.4303   -999.2500   -999.2500
  2921.7000      7.5701      2.4886      0.0240      9.7798   -999.2500   -999.2500
  2921.8000      7.5712      2.4831      0.0192     10.1163   -999.2500   -999.2500
  2921.9000      7.5712      2.4927     -0.0023      9.5348   -999.2500   -999.2500
  2922.0000      7.5734      2.5193      0.0245      7.9200   -999.2500   -999.2500
  2922.1000      7.5734      2.5436      0.0764      6.4481   -999.2500   -999.2500
  2922.2000      7.5734      2.5510      0.0277      6.0028   -999.2500   -999.2500
  2922.3000      7.5727      2.5510      0.0554      5.9977   -999.2500   -999.2500
  2922.4000      7.5727      2.5544      0.0381      5.7952   -999.2500   -999.2500
  2922.5000      7.5717      2.5597      0.0641      5.4747   -999.2500   -999.2500
  2922.6000      7.5717      2.5578      0.0902      5.5874   -999.2500   -999.2500
  2922.7000      7.5717      2.5393      0.0762      6.7119   -999.2500   -999.2500
  2922.8000      7.5730      2.5112      0.0142      8.4115   -999.2500   -999.2500
  2922.9000      7.5730      2.4967     -0.0030      9.2922   -999.2500   -999.2500
  2923.0000      7.5741      2.4985      0.0477      9.1830   -999.2500   -999.2500
  2923.1000      7.5741      2.4959      0.0407      9.3412   -999.2500   -999.2500
  2923.2000      7.5741      2.4883      0.0248      9.8018   -999.2500   -999.2500
  2923.3000      7.5733      2.4897      0.0332      9.7143   -999.2500   -999.2500
  2923.4000      7.5733      2.4919      0.0775      9.5848   -999.2500   -999.2500
  2923.5000      7.5735      2.4785      0.0129     10.3959   -999.2500   -999.2500
  2923.6000      7.5735      2.4534      0.0223     11.9142   -999.2500   -999.2500
  2923.7000      7.5735      2.4396     -0.0428     12.7520   -999.2500   -999.2500
  2923.8000      7.5741      2.4547      0.0100     11.8349   -999.2500   -999.2500
  2923.9000      7.5741      2.4789      0.0530     10.3721   -999.2500   -999.2500
  2924.0000      7.5730      2.4798      0.0484     10.3166   -999.2500   -999.2500
  2924.1000      7.5730      2.4619      0.0233     11.3993   -999.2500   -999.2500
  2924.2000      7.5730      2.4465      0.0665     12.3344   -999.2500   -999.2500
  2924.3000      7.5703      2.4388      0.0156     12.8027   -999.2500   -999.2500
  2924.4000      7.5703      2.4443      0.0118     12.4646   -999.2500   -999.2500
  2924.5000      7.5687      2.4608      0.0288     11.4664   -999.2500   -999.2500
  2924.6000      7.5687      2.4701      0.0613     10.9033   -999.2500   -999.2500
  2924.7000      7.5687      2.4646      0.0408     11.2380   -999.2500   -999.2500
  2924.8000      7.5688      2.4532      0.0342     11.9247   -999.2500   -999.2500
  2924.9000      7.5688      2.4485      0.0090     12.2093   -999.2500   -999.2500
  2925.0000      7.5690      2.4547      0.0292     11.8338   -999.2500   -999.2500
  2925.1000      7.5690      2.4644      0.0199     11.2467   -999.2500   -999.2500
  2925.2000      7.5690      2.4707      0.0374     10.8690   -999.2500   -999.2500
  2925.3000      7.5693      2.4756      0.0525     10.5711   -999.2500   -999.2500
  2925.4000      7.5693      2.4855      0.0296      9.9703   -999.2500   -999.2500
  2925.5000      7.5713      2.4961      0.0796      9.3243   -999.2500   -999.2500
  2925.6000      7.5713      2.4980      0.0439      9.2122   -999.2500   -999.2500
  2925.7000      7.5713      2.4932      0.0416      9.5010   -999.2500   -999.2500
  2925.8000      7.5728      2.4834      0.0691     10.0960   -999.2500   -999.2500
  2925.9000      7.5728      2.4677      0.0282     11.0505   -999.2500   -999.2500
  2926.0000      7.5721      2.4536      0.0115     11.9048   -999.2500   -999.2500
  2926.1000      7.5721      2.4485      0.0376     12.2135   -999.2500   -999.2500
  2926.2000      7.5721      2.4530      0.0364     11.9401   -999.2500   -999.2500
  2926.3000      7.5712      2.4656      0.0351     11.1734   -999.2500   -999.2500
  2926.4000      7.5712      2.4818      0.0442     10.1961   -999.2500   -999.2500
  2926.5000      7.5680      2.4948      0.0669      9.4051   -999.2500   -999.2500
  2926.6000      7.5680      2.5056      0.0393      8.7525   -999.2500   -999.2500
  2926.7000      7.5680      2.5144      0.0784      8.2204   -999.2500   -999.2500
  2926.8000      7.5601      2.5136      0.0657      8.2640   -999.2500   -999.2500
  2926.9000      7.5601      2.5084      0.0280      8.5842   -999.2500   -999.2500
  2927.0000      7.5524      2.5061      0.0359      8.7225   -999.2500   -999.2500
  2927.1000      7.5524      2.5016      0.0220      8.9968   -999.2500   -999.2500
  2927.2000      7.5524      2.4984      0.0231      9.1896   -999.2500   -999.2500
  2927.3000      7.5491      2.5111      0.0257      8.4174   -999.2500   -999.2500
  2927.4000      7.5491      2.5366      0.0558      6.8746   -999.2500   -999.2500
  2927.5000      7.5445      2.5569      0.0342      5.6449   -999.2500   -999.2500
  2927.6000      7.5445      2.5640      0.0609      5.2117   -999.2500   -999.2500
  2927.7000      7.5445      2.5581      0.0731      5.5678   -999.2500   -999.2500
  2927.8000      7.5298      2.5511      0.0299      5.9914   -999.2500   -999.2500
  2927.9000      7.5298      2.5769      0.0390      4.4333   -999.2500   -999.2500
  2928.0000      7.4681      2.6688      0.0621     -1.1397   -999.2500   -999.2500
  2928.1000      7.4681      2.6975      0.0863     -2.8792   -999.2500   -999.2500
  2928.2000      7.4681      2.2484      0.6094     24.3410   -999.2500   -999.2500
  2928.3000      6.9971      1.2721      0.0900     83.5093   -999.2500   -999.2500
  2928.4000      6.9971      0.4303      0.0900    134.5263   -999.2500   -999.2500
  2928.5000      5.0285      0.0816   -999.2500    155.6608   -999.2500   -999.2500
  2928.6000      5.0285      0.0084   -999.2500    160.0967   -999.2500   -999.2500
  2928.7000      5.0285      0.0005   -999.2500    160.5784   -999.2500   -999.2500
  2928.8000      1.8265      0.0000   -999.2500    160.6061   -999.2500   -999.2500
  2928.9000      1.8265      0.0000   -999.2500    160.6061   -999.2500   -999.2500
  2929.0000     -0.1088   -999.2500   -999.2500   -999.2500   -999.2500   -999.2500
  2929.1000     -0.1088   -999.2500   -999.2500   -999.2500   -999.2500   -999.2500
  2929.2000     -0.1088   -999.2500   -999.2500   -999.2500   -999.2500   -999.2500
  2929.3000     -0.5402   -999.2500   -999.2500   -999.2500   -999.2500   -999.2500
