~Version Information
VERS.                      2.0: CWLS Log ASCII Standard - VERSION 2.0
WRAP.                       NO: One line per depth step
~Well Information Block
STRT.FT              1186.0000: 
STOP.FT              1577.0000: 
STEP.FT                 0.2500: 
NULL.                -999.2500: 
COMP.          XTO Energy Inc.: COMPANY
WELL.          Golden Eagle 19-10: WELL
FLD.           Purgatorie River: FIELD
LOC.           2684' FSL & 1825' FEL--: LOCATION
CNTY.               Las Animas: COUNTY
SRVC.          Superior Well Services: SERVICE COMPANY
DATE.          Mon Dec 11 16:19:11 2006: LOG DATE
UWI.           05 071 08697 00: UNIQUE WELL ID
STAT.                       CO: STATE
~Curve Information Block
DEPT.FT            0 000 00 00: Depth
CCL.                          : Casing Collar Locator
TT3.usec                      : CBL 3' Travel Time
AMP3.mV                       : CBL 3' Amplitude
GR.GAPI                       : Gamma Ray
~Parameter Information Block
~A  Depth       CCL         TT3         AMP3         GR     
# ...
  1253.0000      0.0000    261.4087     73.9745    133.3969
  1253.2500      0.0000    261.3974     73.9139    125.6043
  1253.5000      0.0000    261.3936     73.8795    118.2721
  1253.7500      0.0000    261.3959     73.8834    112.3327
  1254.0000      0.0000    261.4041     73.9064    108.2009
  1254.2500      0.0000    261.4178     73.9162    105.7891
  1254.5000      0.0000    261.4347     73.8981    104.7109
  1254.7500      0.0000    261.4481     73.8643    104.3628
  1255.0000      0.0000    261.4489     73.8333    103.9240
  1255.2500      0.0000    261.4307     73.8066    102.5028
  1255.5000      0.0000    261.3956     73.7696     99.3276
  1255.7500      0.0000    261.3547     73.7127     93.8915
  1256.0000      0.0000    261.3209     73.6457     86.2175
  1256.2500      0.0000    261.3022     73.5958     77.1236
  1256.5000      0.0000    261.2985     73.5946     67.9341
  1256.7500      0.0000    261.3037     73.6634     59.7011
  1257.0000      0.0000    261.3107     73.8031     52.8316
  1257.2500      0.0000    261.3152     73.9884     47.3882
  1257.5000      0.0000    261.3182     74.1657     43.2784
  1257.7500      0.0000    261.3244     74.2627     40.0839
  1258.0000      0.0000    261.3383     74.2177     37.3053
  1258.2500      0.0000    261.3609     74.0118     35.1478
  1258.5000      0.0000    261.3882     73.6846     34.7070
  1258.7500      0.0000    261.4140     73.3216     36.9830
  1259.0000      0.0000    261.4324     73.0208     41.9749
  1259.2500      0.0000    261.4390     72.8496     49.2532
  1259.5000      0.0000    261.4323     72.8216     59.3600
  1259.7500      0.0000    261.4149     72.9071     74.1076
  1260.0000      0.0000    261.3923     73.0623     95.1192
  1260.2500      0.0000    261.3705     73.2473    121.8910
  1260.5000      0.0000    261.3539     73.4287    151.0658
  1260.7500      0.0000    261.3446     73.5784    177.4778
  1261.0000      0.0000    261.3443     73.6725    196.3008
  1261.2500      0.0000    261.3533     73.6918    205.1409
  1261.5000      0.0000    261.3683     73.6311    204.8846
  1261.7500      0.0000    261.3818     73.5096    198.7700
  1262.0000      0.0000    261.3864     73.3621    190.4175
  1262.2500      0.0000    261.3792     73.2120    182.3636
  1262.5000      0.0000    261.3636     73.0557    175.9850
  1262.7500      0.0000    261.3474     72.8703    172.2470
  1263.0000      0.0000    261.3386     72.6321    171.9295
  1263.2500      0.0000    261.3411     72.3383    174.9063
  1263.5000      0.0000    261.3531     72.0280    179.4710
  1263.7500      0.0000    261.3681     71.7761    182.7315
  1264.0000      0.0000    261.3788     71.6515    181.9491
  1264.2500      0.0000    261.3799     71.6726    176.0872
  1264.5000      0.0000    261.3705     71.7976    166.5996
  1264.7500      0.0000    261.3538     71.9428    156.4351
  1265.0000      0.0000    261.3362     72.0143    147.8942
  1265.2500      0.0000    261.3242     71.9493    141.5611
  1265.5000      0.0000    261.3217     71.7481    136.9301
  1265.7500      0.0000    261.3291     71.4629    133.2029
  1266.0000      0.0000    261.3453     71.1548    129.4924
  1266.2500      0.0000    261.3683     70.8720    125.1282
  1266.5000      0.0000    261.3932     70.6615    120.2595
  1266.7500      0.0000    261.4125     70.5708    115.8243
  1267.0000      0.0000    261.4196     70.6237    112.4280
  1267.2500      0.0000    261.4128     70.8060    109.2498
  1267.5000      0.0000    261.3964     71.0746    104.4712
  1267.7500      0.0000    261.3785     71.3682     96.9982
  1268.0000      0.0000    261.3678     71.6225     87.4643
  1268.2500      0.0000    261.3683     71.8001     77.4275
  1268.5000      0.0000    261.3761     71.9120     68.0943
  1268.7500      0.0000    261.3823     71.9939     60.0592
  1269.0000      0.0000    261.3811     72.0648     53.7255
  1269.2500      0.0000    261.3746     72.1189     49.4786
  1269.5000      0.0000    261.3691     72.1599     47.5798
  1269.7500      0.0000    261.3702     72.2242     48.1166
  1270.0000      0.0000    261.3788     72.3613     50.8968
  1270.2500      0.0000    261.3919     72.5869     55.1889
  1270.5000      0.0000    261.4051     72.8587     59.7936
  1270.7500      0.0000    261.4157     73.1043     63.7663
  1271.0000      0.0000    261.4230     73.2724     67.2656
  1271.2500      0.0000    261.4263     73.3533     71.8198
  1271.5000      0.0000    261.4233     73.3621     79.7635
  1271.7500      0.0000    261.4112     73.3132     92.8833
  1272.0000      0.0000    261.3892     73.2135    110.8704
  1272.2500      0.0000    261.3622     73.0772    130.9739
  1272.5000      0.0000    261.3401     72.9413    149.5781
  1272.7500      0.0000    261.3321     72.8518    164.2018
  1273.0000      0.0000    261.3405     72.8237    173.9622
  1273.2500      0.0000    261.3602     72.8215    178.8536
  1273.5000      0.0000    261.3839     72.7938    179.6203
  1273.7500      0.0000    261.4052     72.7217    178.1026
  1274.0000      0.0000    261.4199     72.6267    176.5386
  1274.2500      0.0000    261.4242     72.5396    176.2180
  1274.5000      0.0000    261.4170     72.4741    177.3444
  1274.7500      0.0000    261.4005     72.4238    179.8450
  1275.0000      0.0000    261.3796     72.3757    183.3039
  1275.2500      0.0000    261.3597     72.3251    186.2512
  1275.5000      0.0000    261.3441     72.2768    186.3203
  1275.7500      0.0000    261.3336     72.2319    181.3164
  1276.0000      0.0000    261.3272     72.1787    170.3164
  1276.2500      0.0000    261.3239     72.1070    154.4244
  1276.5000      0.0000    261.3227     72.0262    136.7526
  1276.7500      0.0000    261.3229     71.9613    121.1432
  1277.0000      0.0000    261.3231     71.9308    110.3404
  1277.2500      0.0000    261.3212     71.9324    105.0760
  1277.5000      0.0000    261.3155     71.9503    104.4040
  1277.7500      0.0000    261.3064     71.9722    106.3741
  1278.0000      0.0000    261.2966     71.9975    108.5097
  1278.2500      0.0000    261.2898     72.0350    108.3720
  1278.5000      0.0000    261.2884     72.0934    104.3924
  1278.7500      0.0000    261.2924     72.1729     96.4682
  1279.0000      0.0000    261.3008     72.2630     85.8220
  1279.2500      0.0000    261.3127     72.3388     74.3761
  1279.5000      0.0000    261.3301     72.3467     64.1367
  1279.7500      0.0000    261.3627     72.1779     56.7571
  1280.0000      0.0000    261.4435     71.6696     53.1893
  1280.2500      0.0000    261.6544     70.6822     53.5560
  1280.5000      0.0000    262.1405     69.1693     57.3848
  1280.7500      0.0000    263.0649     67.0758     63.9759
  1281.0000      0.0000    264.4925     64.1880     72.6111
  1281.2500      0.0000    266.2838     60.3441     82.7106
  1281.5000      0.0000    268.1170     55.9182     93.9127
  1281.7500      0.0000    269.6503     51.8466    105.8264
  1282.0000      0.0000    270.6931     48.9783    117.6249
  1282.2500      0.0000    271.2885     47.4865    128.4061
  1282.5000      0.0000    271.7020     46.9355    138.2022
  1282.7500      0.0000    272.3728     46.7441    147.7599
  1283.0000      0.0000    273.7607     46.5973    156.7964
  1283.2500      0.0000    276.0017     46.6386    163.5852
  1283.5000      0.0000    278.5371     47.3887    167.0347
  1283.7500      0.0000    280.1743     49.3805    168.2029
  1284.0000      0.0000    279.7645     52.7629    168.9803
  1284.2500      0.0000    276.9969     57.2054    169.8833
  1284.5000      0.0000    272.6523     62.0413    169.5698
  1284.7500      0.0000    268.1321     66.4540    166.1915
  1285.0000      0.0000    264.6175     69.7589    159.2133
  1285.2500      0.0000    262.5079     71.7218    150.1803
  1285.5000      0.0000    261.5161     72.6013    141.6173
  1285.7500      0.0000    261.1422     72.8645    135.1290
  1286.0000      0.0000    261.0205     72.8869    130.6462
  1286.2500      0.0000    260.9789     72.8518    127.2879
