~Version Information
VERS.                      2.0: CWLS Log ASCII Standard - VERSION 2.0
WRAP.                       NO: One line per depth step
~Well Information Block
STRT.FT               400.0000: 
STOP.FT              1804.7000: 
STEP.FT                 0.1000: 
NULL.                -999.2500: 
COMP.          Pioneer Natural Resources: COMPANY
WELL.           Lynch 43-30 Tr: WELL
FLD.           Purgatoire River: FIELD
LOC.           1431' FSL & 296' FEL--: LOCATION
PROV.                 Colorado: PROVINCE
CNTY.               Las Animas: COUNTRY
SRVC.                Patterson: SERVICE COMPANY
DATE.          Thu Jul 28 10:43:37 2005: LOG DATE
UWI.           05 071 08447 00: UNIQUE WELL ID
~Curve Information Block
DEPT.FT            0 000 00 00: Depth
DCAL.in                       : CDL Caliper
RHOB.g/cc                     : CDL Bulk Density
RHOC.g/cc                     : CDL Density Correction
DPOR.pu                       : CDL Density Porosity
NPOR.pu                       : Neutron Porosity
GR.GAPI                       : Gamma Ray
~Parameter Information Block
~A  Depth       DCAL        RHOB        RHOC        DPOR        NPOR         GR     
# ...
  1408.0000      8.0238      2.5740      0.0635      4.6036     28.4347    115.7989
  1408.1000      8.0238      2.5682      0.0549      4.9588     27.9005    116.0448
  1408.2000      8.0238      2.5572      0.0548      5.6236     27.3044    116.8847
  1408.3000      8.0272      2.5467      0.0536      6.2626     26.9456    119.6765
  1408.4000      8.0272      2.5456      0.0390      6.3287     26.6794    122.4598
  1408.5000      8.0276      2.5586      0.0583      5.5373     26.4910    122.5045
  1408.6000      8.0276      2.5715      0.0748      4.7565     26.7253    121.0085
  1408.7000      8.0276      2.5720      0.0563      4.7292     27.0856    120.4439
  1408.8000      8.0278      2.5652      0.0669      5.1400     27.0484    119.5715
  1408.9000      8.0278      2.5581      0.0532      5.5686     27.0322    117.0867
  1409.0000      8.0269      2.5526      0.0597      5.9014     27.5852    115.6270
  1409.1000      8.0269      2.5453      0.0565      6.3437     28.4373    114.7244
  1409.2000      8.0269      2.5360      0.0518      6.9107     29.0160    112.0434
  1409.3000      8.0209      2.5367      0.0363      6.8668     29.1198    111.9767
  1409.4000      8.0209      2.5576      0.0555      5.6014     28.9516    117.4027
  1409.5000      8.0114      2.5878      0.0671      3.7704     28.4919    123.0327
  1409.6000      8.0114      2.6066      0.0813      2.6276     27.7942    124.9944
  1409.7000      8.0114      2.6071      0.0669      2.6000     27.2426    122.2769
  1409.8000      8.0055      2.5990      0.0624      3.0911     26.7388    115.5846
  1409.9000      8.0055      2.5914      0.0662      3.5494     26.2507    111.0554
  1410.0000      8.0027      2.5883      0.0489      3.7398     26.1606    112.1856
  1410.1000      8.0027      2.5872      0.0695      3.8074     26.2748    115.1657
  1410.2000      8.0027      2.5736      0.0613      4.6302     26.2297    117.1726
  1410.3000      8.0035      2.5391      0.0546      6.7207     26.2983    119.0040
  1410.4000      8.0035      2.4995      0.0263      9.1226     26.5948    120.7400
  1410.5000      8.0215      2.4861      0.0178      9.9347     26.7456    122.5967
  1410.6000      8.0215      2.5116      0.0459      8.3870     26.4643    126.5719
  1410.7000      8.0215      2.5527      0.0773      5.8991     25.5491    129.6480
  1410.8000      8.0528      2.5769      0.0958      4.4298     24.3293    127.0082
  1410.9000      8.0528      2.5773      0.0905      4.4074     23.7177    119.4385
  1411.0000      8.0648      2.5724      0.0882      4.7028     23.9438    112.2079
  1411.1000      8.0648      2.5742      0.1015      4.5929     24.3396    107.4160
  1411.2000      8.0648      2.5693      0.1237      4.8906     24.7731    103.4855
  1411.3000      8.0529      2.5531      0.0959      5.8712     25.5452    104.0486
  1411.4000      8.0529      2.5593      0.0733      5.4959     26.1737    111.1698
  1411.5000      8.0385      2.6114      0.1220      2.3403     26.3209    116.9188
  1411.6000      8.0385      2.6819      0.1392     -1.9363     26.7750    116.6363
  1411.7000      8.0385      2.7268      0.1669     -4.6556     27.6534    114.3956
  1411.8000      8.0326      2.7259      0.1435     -4.6011     27.9388    114.6581
  1411.9000      8.0326      2.6962      0.1112     -2.8017     27.3714    118.9027
  1412.0000      8.0325      2.6665      0.0965     -1.0005     26.5577    123.7883
  1412.1000      8.0325      2.6466      0.0854      0.2091     25.8449    123.7775
  1412.2000      8.0325      2.6317      0.0754      1.1101     25.2893    121.4615
  1412.3000      8.0326      2.6185      0.0639      1.9101     25.1090    125.1119
  1412.4000      8.0326      2.6060      0.0581      2.6656     25.0738    134.2674
  1412.5000      8.0315      2.5924      0.0575      3.4888     24.8171    140.6641
  1412.6000      8.0315      2.5834      0.0373      4.0359     24.5858    138.2295
  1412.7000      8.0315      2.5889      0.0432      3.7003     24.4069    127.0985
  1412.8000      8.0303      2.5999      0.0698      3.0339     24.2578    114.6828
  1412.9000      8.0303      2.5995      0.0508      3.0596     24.4749    109.2725
  1413.0000      8.0309      2.5889      0.0561      3.7010     24.8618    111.7076
  1413.1000      8.0309      2.5760      0.0482      4.4862     25.1310    117.2626
  1413.2000      8.0309      2.5626      0.0484      5.2999     25.3979    123.1914
  1413.3000      8.0313      2.5460      0.0494      6.3028     25.4860    126.3574
  1413.4000      8.0313      2.5279      0.0376      7.3996     25.2608    125.2914
  1413.5000      8.0297      2.5178      0.0304      8.0141     25.2176    125.0656
  1413.6000      8.0297      2.5182      0.0539      7.9852     25.6865    128.2920
  1413.7000      8.0297      2.5280      0.0337      7.3956     26.2816    129.7458
  1413.8000      8.0270      2.5497      0.0589      6.0767     26.6113    125.9594
  1413.9000      8.0270      2.5716      0.0800      4.7509     26.6207    122.5685
  1414.0000      8.0263      2.5777      0.0731      4.3824     26.2158    123.7308
  1414.1000      8.0263      2.5707      0.0710      4.8066     25.4606    124.8269
  1414.2000      8.0263      2.5603      0.0736      5.4390     24.4664    122.7479
  1414.3000      8.0273      2.5552      0.0586      5.7461     23.4041    122.1938
  1414.4000      8.0273      2.5623      0.0711      5.3149     22.8414    124.9962
  1414.5000      8.0273      2.5773      0.0763      4.4086     22.8598    124.3045
  1414.6000      8.0273      2.5924      0.0792      3.4913     22.9680    117.4328
  1414.7000      8.0273      2.6071      0.0770      2.6003     23.2683    112.8933
  1414.8000      8.0276      2.6200      0.0858      1.8183     23.9134    115.1324
  1414.9000      8.0276      2.6259      0.0874      1.4633     24.6204    119.1789
  1415.0000      8.0291      2.6293      0.0624      1.2530     25.2528    119.9967
  1415.1000      8.0291      2.6367      0.0854      0.8044     25.7445    116.0599
  1415.2000      8.0291      2.6408      0.0742      0.5564     25.9231    110.2751
  1415.3000      8.0301      2.6414      0.0627      0.5192     26.0235    107.9870
  1415.4000      8.0301      2.6484      0.0618      0.0997     26.4439    110.5974
  1415.5000      8.0299      2.6586      0.0705     -0.5199     27.2174    116.1180
  1415.6000      8.0299      2.6588      0.0690     -0.5310     28.2688    119.4778
  1415.7000      8.0299      2.6470      0.0481      0.1824     28.9005    116.3002
  1415.8000      8.0287      2.6334      0.0515      1.0085     28.3759    111.7974
  1415.9000      8.0287      2.6262      0.0326      1.4440     27.1351    111.5160
  1416.0000      8.0263      2.6268      0.0492      1.4045     26.1074    111.9896
  1416.1000      8.0263      2.6304      0.0405      1.1886     25.4509    110.5866
  1416.2000      8.0263      2.6323      0.0455      1.0739     24.5989    110.4356
  1416.3000      8.0183      2.6254      0.0579      1.4898     23.5432    111.8359
  1416.4000      8.0183      2.6078      0.0331      2.5565     22.9126    113.0478
  1416.5000      8.0078      2.5900      0.0398      3.6368     22.7794    115.7269
  1416.6000      8.0078      2.5785      0.0346      4.3312     22.6332    120.6442
  1416.7000      8.0078      2.5740      0.0380      4.6051     22.3086    123.2110
  1416.8000      8.0032      2.5784      0.0361      4.3406     22.1013    119.4468
  1416.9000      8.0032      2.5902      0.0499      3.6247     22.1623    111.9174
  1417.0000      8.0024      2.6001      0.0576      3.0236     22.2087    106.3517
  1417.1000      8.0024      2.6008      0.0558      2.9847     21.9901    103.5944
  1417.2000      8.0024      2.5957      0.0540      3.2888     21.7944    100.9876
  1417.3000      8.0009      2.5947      0.0458      3.3510     21.8921     97.8344
  1417.4000      8.0009      2.5997      0.0611      3.0486     22.0555     95.8730
  1417.5000      8.0011      2.6036      0.0609      2.8146     22.0859     97.6040
