~Version Information
VERS.                      2.0: CWLS Log ASCII Standard - VERSION 2.0
WRAP.                       NO: One line per depth step
~Well Information Block
STRT.FT                -6.7500: 
STOP.FT              2034.2500: 
STEP.FT                 0.2500: 
NULL.                -999.2500: 
COMP.          Evergreen Operating Corp.: COMPANY
WELL.           Big Pine 32-15: WELL
FLD.           Purgatorie River: FIELD
LOC.           2590 FNL & 1442 FEL--: LOCATION
STAT.                       CO: State
CNTY.               Las Animas: COUNTY
CTRY. USA : Country
SECT. 15 : Section
TOWN. 33S : township
RANG. 67W : Range
SRVC.          Patterson Wireline, Inc.: SERVICE COMPANY
DATE.          Mon Mar 24 12:45:01 2003: LOG DATE
API.           05 071 07772 00: UNIQUE WELL ID
~Curve Information Block
DEPT.FT            0 000 00 00: Depth
HVOLTA.V                      : Head Voltage Apparent
CCL.                          : Casing Collar Locator
TT3.usec                      : CBL 3' Travel Time
AMP3.mV                       : CBL 3' Amplitude
GR.GAPI                       : Gamma Ray
~Parameter Information Block
~A  Depth      HVOLTA       CCL         TT3         AMP3         GR     
# ...
   133.2500    121.3309      0.0000    728.6450      5.4897    107.3879
   133.5000    121.3035      0.0000    708.8687      6.4864    110.5548
   133.7500    121.2980      0.0000    692.4545      7.3247    112.5772
   134.0000    121.2238      0.0000    669.8965      7.8105    112.5857
   134.2500    121.4415      0.0000    648.9918      8.0757    109.8522
   134.5000    121.2231      0.0000    648.2543      8.2980    104.5933
   134.7500    121.4147      0.0000    664.9002      8.4680     98.3029
   135.0000    121.1380      0.0000    678.8790      8.4414     93.0609
   135.2500    121.3364      0.0000    688.1526      8.2453     90.3700
   135.5000    121.1971      0.0000    704.1615      8.0695     90.4692
   135.7500    121.2726      0.0000    723.9749      7.9718     92.5269
   136.0000    121.1675      0.0000    736.7527      7.8990     95.4624
   136.2500    121.2746      0.0000    740.3016      7.9019     98.6182
   136.5000    121.3062      0.0000    737.9807      8.0866    101.6709
   136.7500    121.2781      0.0000    733.2839      8.4215    104.1133
   137.0000    121.1723      0.0000    730.4365      8.7826    105.3299
   137.2500    121.3049      0.0000    731.9032      9.0584    105.2592
   137.5000    121.2472      0.0000    734.9686      9.1322    104.5672
   137.7500    121.5060      0.0000    735.2304      9.0418    103.9719
   138.0000    121.2238      0.0000    732.4169      9.0219    103.7075
   138.2500    121.6338      0.0000    731.0541      9.1872    103.6558
   138.5000    121.1716      0.0000    735.4047      9.4589    103.4713
   138.7500    121.4161      0.0000    745.1399      9.6812    102.4884
   139.0000    121.2506      0.0000    756.1265      9.6478    100.2930
   139.2500    121.3337      0.0000    763.1295      9.2752     97.6375
   139.5000    121.1435      0.0000    764.8805      8.7242     96.0578
   139.7500    121.3873      0.0000    764.8295      8.2387     96.0882
   140.0000    121.1071      0.0000    762.9583      8.0280     96.3701
   140.2500    121.2513      0.0000    756.4492      8.1970     95.0789
   140.5000    121.2746      0.0000    747.9369      8.5267     92.0931
   140.7500    121.3323      0.0000    742.2037      8.5712     89.4552
   141.0000    121.2005      0.0000    738.8889      8.2055     89.8390
   141.2500    121.2987      0.0000    732.3514      7.7519     94.5755
   141.5000    121.1366      0.0000    716.0101      7.5492    102.6093
   141.7500    121.3083      0.0000    692.9589      7.6966    110.9807
   142.0000    121.2183      0.0000    681.5727      8.0270    116.7271
   142.2500    121.4662      0.0000    694.1528      8.2346    118.7600
   142.5000    121.1696      0.0000    717.9224      8.1978    117.9208
   142.7500    121.3900      0.0000    735.0594      8.0327    115.5861
   143.0000    121.2726      0.0000    744.1804      7.8724    112.7516
   143.2500    121.3323      0.0000    754.1823      7.8019    110.0486
   143.5000    121.2781      0.0000    772.1038      7.8472    107.7349
   143.7500    121.3028      0.0000    797.9549      7.9157    105.5675
   144.0000    121.4154      0.0000    825.0196      7.8843    103.2471
   144.2500    121.3309      0.0000    842.9684      7.7517    101.0099
   144.5000    121.2719      0.0000    842.9693      7.6526     99.2833
   144.7500    121.3921      0.0000    824.7628      7.7561     97.8188
   145.0000    121.2781      0.0000    797.1428      8.0722     95.8814
   145.2500    121.3007      0.0000    770.9239      8.3150     93.4538
   145.5000    121.3110      0.0000    753.1476      8.1760     91.6262
   145.7500    121.3584      0.0000    744.5656      7.7372     91.5199
   146.0000    121.2293      0.0000    741.5123      7.3216     93.2768
   146.2500    121.3598      0.0000    740.5131      7.0542     96.2313
   146.5000    121.2774      0.0000    740.1745      6.8603     99.5750
   146.7500    121.3886      0.0000    740.2552      6.7564    102.6278
   147.0000    121.0906      0.0000    740.6056      6.8344    104.8107
   147.2500    121.4971      0.0000    740.8846      6.9903    105.6997
   147.5000    121.1964      0.0000    740.8659      7.0034    105.1723
   147.7500    121.4168      0.0000    740.6285      6.8606    103.6299
   148.0000    121.1201      0.0000    740.3010      6.7465    102.0958
   148.2500    121.3282      0.0000    739.9066      6.8270    101.7830
   148.5000    121.1435      0.0000    739.5272      7.1080    103.2080
   148.7500    121.3083      0.0000    739.3253      7.3629    105.6232
   149.0000    121.3605      0.0000    739.3766      7.3362    107.3512
   149.2500    121.2540      0.0000    739.9538      7.0594    106.9684
   149.5000    121.2554      0.0000    742.8915      6.7425    104.6929
   149.7500    121.4429      0.0000    752.5015      6.5281    102.6513
   150.0000    121.1682      0.0000    771.2859      6.5194    103.0956
   150.2500    121.3399      0.0000    793.6442      6.6960    106.0251
   150.5000    121.1716      0.0000    812.6196      6.7808    108.9918
   150.7500    121.4120      0.0000    830.7719      6.5552    109.4401
   151.0000    121.1984      0.0000    848.6122      6.1808    106.9709
   151.2500    121.3035      0.0000    854.8531      6.0224    103.3427
   151.5000    121.1456      0.0000    847.6439      6.2835    100.6115
   151.7500    121.2966      0.0000    843.8895      6.7422     99.4418
   152.0000    121.3083      0.0000    851.4260      6.9252     98.9431
   152.2500    121.1689      0.0000    855.6407      6.7074     97.8494
   152.5000    121.2019      0.0000    844.4146      6.4220     95.9087
   152.7500    121.4415      0.0000    823.4822      6.3893     94.2034
   153.0000    121.2836      0.0000    800.9156      6.6184     93.9304
   153.2500    121.2520      0.0000    778.6196      6.8330     94.7933
   153.5000    121.3062      0.0000    762.2181      6.7536     94.9928
   153.7500    121.2788      0.0000    758.9287      6.3953     93.2391
   154.0000    121.2025      0.0000    762.5689      5.9667     90.5110
   154.2500    121.1147      0.0000    747.5695      5.6415     89.2504
   154.5000    121.1133      0.0000    691.4956      5.5357     90.9031
   154.7500    121.2231      0.0000    615.5621      5.6580     94.7390
   155.0000    121.1936      0.0000    579.4951      5.8333     98.8376
   155.2500    121.2554      0.0000    618.2008      5.8607    101.5800
   155.5000    121.1696      0.0000    702.7206      5.7844    102.2188
   155.7500    121.1662      0.0000    775.8061      5.8290    100.7929
   156.0000    121.2300      0.0000    811.0319      5.9725     97.9161
   156.2500    121.3591      0.0000    821.0446      5.8993     94.4702
   156.5000    121.2540      0.0000    824.0302      5.4832     91.3388
   156.7500    121.3886      0.0000    825.4324      4.9256     89.3912
   157.0000    121.2259      0.0000    824.2474      4.4414     89.2905
   157.2500    121.1998      0.0000    818.9941      4.1892     90.8627
   157.5000    121.2568      0.0000    812.3472      4.3590     92.8611
   157.7500    121.4388      0.0000    813.4944      4.9387     93.8609
   158.0000    121.2266      0.0000    825.9294      5.5335     93.5998
   158.2500    121.3378      0.0000    841.0480      5.7024     93.2980
   158.5000    121.2032      0.0000    848.9866      5.3788     94.5267
   158.7500    121.3289      0.0000    847.8454      4.8651     97.7572
   159.0000    121.4703      0.0000    845.6506      4.4895    101.9554
   159.2500    121.4415      0.0000    850.6451      4.3554    105.4898
   159.5000    121.3344      0.0000    858.6640      4.4177    107.3035
   159.7500    121.3859      0.0000    858.7308      4.6063    107.3463
   160.0000    121.3323      0.0000    847.9141      4.7810    106.3319
   160.2500    121.3090      0.0000    834.4803      4.7650    105.2655
   160.5000    121.1710      0.0000    827.8314      4.5050    104.7705
   160.7500    121.3289      0.0000    829.6217      4.0912    104.6407
   161.0000    121.2856      0.0000    834.7499      3.6688    104.2709
