~Version Information
VERS.                      2.0: CWLS Log ASCII Standard - VERSION 2.0
WRAP.                       NO: One line per depth step
~Well Information Block
STRT.FT                -8.5000: 
STOP.FT              2823.2500: 
STEP.FT                 0.2500: 
NULL.                -999.2500: 
COMP.          Pioneer Natural Resources: COMPANY
WELL.                AMX 13-13: WELL
FLD.           Purgatorie River: FIELD
LOC.           2316' FSL & 865' FWL--: LOCATION
PROV.                       CO: PROVINCE
CNTY.               Las Animas: COUNTRY
SRVC.          Patterson Wireline: SERVICE COMPANY
DATE.          Tue Dec 27 10:40:58 2005: LOG DATE
UWI.           05 071 08630 00: UNIQUE WELL ID
~Curve Information Block
DEPT.FT            0 000 00 00: Depth
CCL.                          : Casing Collar Locator
TT3.usec                      : CBL 3' Travel Time
AMP3.mV                       : CBL 3' Amplitude
GR.GAPI                       : Gamma Ray
~Parameter Information Block
~A  Depth       CCL         TT3         AMP3         GR     
# ...
  1298.0000      0.0000    636.4196      7.6683    132.9003
  1298.2500      0.0000    619.5705      7.7199    135.4057
  1298.5000      0.0000    608.5535      7.7274    140.1797
  1298.7500      0.0000    604.4354      7.7072    143.5252
  1299.0000      0.0000    604.9763      7.6837    142.3173
  1299.2500      0.0000    609.0156      7.6728    136.3959
  1299.5000      0.0000    614.6755      7.6796    128.8307
  1299.7500      0.0000    615.2080      7.7046    123.4880
  1300.0000      0.0000    603.7657      7.7461    122.2106
  1300.2500      0.0000    583.6768      7.7954    124.2801
  1300.5000      0.0000    567.7828      7.8355    127.9521
  1300.7500      0.0000    564.8518      7.8492    131.8093
  1301.0000      0.0000    571.3070      7.8274    134.8773
  1301.2500      0.0000    578.2380      7.7706    136.5740
  1301.5000      0.0000    581.8204      7.6850    137.1968
  1301.7500      0.0000    584.8941      7.5833    137.9686
  1302.0000      0.0000    592.5038      7.4838    139.8636
  1302.2500      0.0000    607.6509      7.4067    142.5200
  1302.5000      0.0000    628.7166      7.3671    144.8147
  1302.7500      0.0000    650.0742      7.3689    146.1467
  1303.0000      0.0000    666.2785      7.4021    146.6717
  1303.2500      0.0000    675.6163      7.4459    146.7955
  1303.5000      0.0000    679.7038      7.4788    147.0538
  1303.7500      0.0000    680.9675      7.4885    148.0772
  1304.0000      0.0000    681.0820      7.4754    150.1900
  1304.2500      0.0000    680.7853      7.4491    153.3888
  1304.5000      0.0000    680.1365      7.4231    157.8622
  1304.7500      0.0000    678.6015      7.4091    163.8342
  1305.0000      0.0000    675.0862      7.4146    170.4702
  1305.2500      0.0000    668.2760      7.4419    175.6418
  1305.5000      0.0000    657.7300      7.4865    177.5157
  1305.7500      0.0000    645.6492      7.5389    176.2528
  1306.0000      0.0000    637.8704      7.5874    173.7990
  1306.2500      0.0000    641.6294      7.6240    172.0675
  1306.5000      0.0000    660.0089      7.6488    171.3876
  1306.7500      0.0000    687.5316      7.6697    170.3771
  1307.0000      0.0000    711.4929      7.6975    166.9593
  1307.2500      0.0000    718.5623      7.7371    159.7978
  1307.5000      0.0000    702.6606      7.7824    149.6176
  1307.7500      0.0000    669.2603      7.8194    139.3545
  1308.0000      0.0000    632.2900      7.8353    132.1861
  1308.2500      0.0000    605.1596      7.8247    128.9906
  1308.5000      0.0000    593.3969      7.7894    128.1322
  1308.7500      0.0000    593.9471      7.7365    127.6340
  1309.0000      0.0000    599.0493      7.6797    126.8035
  1309.2500      0.0000    600.8448      7.6355    126.0954
  1309.5000      0.0000    594.8821      7.6147    126.5474
  1309.7500      0.0000    580.5709      7.6166    129.3271
  1310.0000      0.0000    558.6221      7.6356    134.8526
  1310.2500      0.0000    529.3397      7.6697    142.1285
  1310.5000      0.0000    494.5279      7.7181    149.2231
  1310.7500      0.0000    460.2101      7.7698    154.3635
  1311.0000      0.0000    435.2007      7.7979    156.6603
  1311.2500      0.0000    425.5889      7.7745    156.1938
  1311.5000      0.0000    430.7265      7.6977    153.6772
  1311.7500      0.0000    444.7648      7.6031    149.9310
  1312.0000      0.0000    461.6300      7.5409    145.3370
  1312.2500      0.0000    478.0337      7.5362    139.6133
  1312.5000      0.0000    492.4231      7.5766    132.4216
  1312.7500      0.0000    502.4793      7.6356    124.4050
  1313.0000      0.0000    504.1786      7.7017    117.1044
  1313.2500      0.0000    493.4521      7.7808    111.6302
  1313.5000      0.0000    469.9173      7.8727    108.1017
  1313.7500      0.0000    439.4792      7.9557    106.7444
  1314.0000      0.0000    411.7473      8.0012    108.6588
  1314.2500      0.0000    393.7145      8.0020    114.5717
  1314.5000      0.0000    386.4119      7.9811    123.0471
  1314.7500      0.0000    387.6137      7.9706    130.9026
  1315.0000      0.0000    396.1648      7.9878    135.6430
  1315.2500      0.0000    412.6605      8.0301    136.9432
  1315.5000      0.0000    436.3360      8.0853    135.8203
  1315.7500      0.0000    462.3810      8.1449    133.4685
  1316.0000      0.0000    483.2256      8.2071    131.1921
  1316.2500      0.0000    492.9350      8.2707    130.1494
  1316.5000      0.0000    491.3383      8.3286    130.2493
  1316.7500      0.0000    485.5620      8.3690    130.0542
  1317.0000      0.0000    487.1792      8.3819    128.4417
  1317.2500      0.0000    504.0630      8.3651    125.9935
  1317.5000      0.0000    532.4130      8.3236    124.5610
  1317.7500      0.0000    558.8345      8.2686    125.8429
  1318.0000      0.0000    572.9058      8.2147    130.2224
  1318.2500      0.0000    576.1526      8.1700    136.3299
  1318.5000      0.0000    576.9942      8.1228    141.6327
  1318.7500      0.0000    580.4045      8.0383    143.9442
  1319.0000      0.0000    586.6172      7.8850    142.6047
  1319.2500      0.0000    596.6824      7.6780    138.3805
  1319.5000      0.0000    613.1920      7.4819    132.6673
  1319.7500      0.0000    636.2761      7.3423    126.9652
  1320.0000      0.0000    662.9069      7.2312    122.5595
  1320.2500      0.0000    689.2673      7.0965    120.1040
  1320.5000      0.0000    711.8531      6.9443    119.4517
  1320.7500      0.0000    728.7885      6.8305    120.0334
  1321.0000      0.0000    742.8795      6.7906    121.3237
  1321.2500      2.0000    761.6914      6.8133    123.0143
  1321.5000      2.0000    791.1966      6.8684    125.0551
  1321.7500      0.0000    827.9941      6.9407    127.5299
  1322.0000      0.0000    858.6957      7.0441    130.1462
  1322.2500      0.0000    869.1222      7.1963    131.9553
  1322.5000      0.0000    855.4097      7.3663    132.1499
  1322.7500      0.0000    825.4720      7.4729    131.0994
  1323.0000      0.0000    790.4708      7.4709    130.0192
  1323.2500      0.0000    757.4069      7.4070    129.7263
  1323.5000      0.0000    729.2504      7.3595    130.2244
  1323.7500      0.0000    707.8293      7.3575    131.3962
  1324.0000      0.0000    694.2528      7.3864    133.5759
  1324.2500      0.0000    688.1506      7.4332    137.1070
  1324.5000      0.0000    688.2567      7.4984    141.3524
  1324.7500      0.0000    693.5051      7.5779    144.5701
  1325.0000      0.0000    702.8390      7.6489    145.3054
  1325.2500      0.0000    714.0424      7.6780    143.9158
  1325.5000      0.0000    723.4263      7.6408    142.4910
  1325.7500      0.0000    727.3911      7.5387    143.2487
  1326.0000      0.0000    724.5682      7.3972    146.9022
  1326.2500      0.0000    716.4810      7.2510    152.1217
  1326.5000      0.0000    706.4317      7.1279    156.5257
  1326.7500      0.0000    697.9445      7.0448    158.6610
  1327.0000      0.0000    693.7569      7.0080    159.0473
  1327.2500      0.0000    695.2715      7.0147    159.1265
  1327.5000      0.0000    702.1234      7.0521    159.7323
  1327.7500      0.0000    712.0251      7.0988    160.9180
  1328.0000      0.0000    721.9102      7.1296    162.3304
  1328.2500      0.0000    730.2676      7.1246    163.0828
  1328.5000      0.0000    738.0414      7.0794    162.0565
  1328.7500      0.0000    746.3998      7.0086    159.1248
  1329.0000      0.0000    754.2038      6.9379    155.6766
  1329.2500      0.0000    759.1584      6.8908    153.3056
  1329.5000      0.0000    761.2095      6.8762    152.2768
  1329.7500      0.0000    762.8131      6.8868    151.6516
  1330.0000      0.0000    765.2213      6.9084    150.4751
  1330.2500      0.0000    766.2260      6.9306    148.4133
  1330.5000      0.0000    762.5272      6.9477    145.8605
  1330.7500      0.0000    753.3495      6.9552    144.0511
  1331.0000      0.0000    741.4395      6.9534    144.5333
  1331.2500      0.0000    731.0761      6.9548    147.6924
