~Version Information
VERS.                      2.0: CWLS Log ASCII Standard - VERSION 2.0
WRAP.                       NO: One line per depth step
~Well Information Block
STRT.FT                -6.5000: 
STOP.FT              1636.7500: 
STEP.FT                 0.2500: 
NULL.                -999.2500: 
COMP.          Pioneer Natural Resources: COMPANY
WELL.          Stock Canyon 34-33: WELL
FLD.           Purgatorie River: FIELD
LOC.           980' FSL & 2191' FEL--: LOCATION
PROV.                       CO: PROVINCE
CNTY.               Las Animas: COUNTRY
SRVC.          Patterson Wireline: SERVICE COMPANY
DATE.          Mon Dec 12 09:29:49 2005: LOG DATE
UWI.           05 071 08601 00: UNIQUE WELL ID
~Curve Information Block
DEPT.FT            0 000 00 00: Depth
CCL.                          : Casing Collar Locator
TT3.usec                      : CBL 3' Travel Time
AMP3.mV                       : CBL 3' Amplitude
GR.GAPI                       : Gamma Ray
~Parameter Information Block
~A  Depth       CCL         TT3         AMP3         GR     
# ...
   730.5000      0.0000    279.6391     82.2009    179.7044
   730.7500      0.0000    279.5789     82.1553    179.2248
   731.0000      0.0000    279.5536     82.1088    177.7864
   731.2500      0.0000    279.5446     82.0646    177.3647
   731.5000      0.0000    279.5434     82.0292    178.8321
   731.7500      0.0000    279.5471     82.0074    180.9771
   732.0000      0.0000    279.5537     81.9996    181.2179
   732.2500      0.0000    279.5605     82.0000    177.4690
   732.5000      0.0000    279.5652     81.9987    169.5907
   732.7500      0.0000    279.5665     81.9911    159.0907
   733.0000      0.0000    279.5645     81.9838    147.6797
   733.2500      0.0000    279.5607     81.9858    136.5835
   733.5000      0.0000    279.5558     81.9981    127.1921
   733.7500      0.0000    279.5487     82.0164    121.5408
   734.0000      0.0000    279.5380     82.0382    121.2798
   734.2500      0.0000    279.5250     82.0609    126.0131
   734.5000      0.0000    279.5127     82.0796    132.9115
   734.7500      0.0000    279.5042     82.0923    138.3719
   735.0000      0.0000    279.5012     82.1047    140.4623
   735.2500      0.0000    279.5036     82.1244    139.8565
   735.5000      0.0000    279.5100     82.1511    138.3860
   735.7500      0.0000    279.5183     82.1752    137.0437
   736.0000      0.0000    279.5252     82.1851    135.7728
   736.2500      0.0000    279.5275     82.1751    134.7000
   736.5000      0.0000    279.5232     82.1448    134.5385
   736.7500      0.0000    279.5125     82.0949    135.6262
   737.0000      0.0000    279.4969     82.0274    137.3950
   737.2500      0.0000    279.4773     81.9496    139.0504
   737.5000      0.0000    279.4552     81.8752    140.0976
   737.7500      0.0000    279.4330     81.8186    140.0794
   738.0000      0.0000    279.4144     81.7868    138.7664
   738.2500      0.0000    279.4039     81.7727    137.0245
   738.5000      0.0000    279.4073     81.7533    136.5755
   738.7500      0.0000    279.4418     81.6755    138.3383
   739.0000      0.0000    279.5556     81.4107    141.3759
   739.2500      0.0000    279.8479     80.6694    143.8858
   739.5000      0.0000    280.4493     79.0131    145.0946
   739.7500      0.0000    281.4402     76.1722    145.8804
   740.0000      0.0000    282.7477     72.5399    147.4348
   740.2500      0.0000    284.1334     69.2090    149.4823
   740.5000      0.0000    285.3153     67.2345    150.0779
   740.7500      0.0000    286.1259     66.8311    147.4134
   741.0000      0.0000    286.5703     67.3731    141.8202
   741.2500      0.0000    286.7633     68.0603    135.6871
   741.5000      0.0000    286.8279     68.4508    131.2741
   741.7500      0.0000    286.8197     68.4929    129.0364
   742.0000      2.0000    286.6872     68.2737    128.2243
   742.2500      0.0000    286.2354     67.8780    128.1793
   742.5000      0.0000    285.1595     67.5344    128.3137
   742.7500      0.0000    283.2903     67.8004    127.5753
   743.0000      0.0000    280.9611     69.2916    124.9402
   743.2500      0.0000    278.9963     72.0067    120.4016
   743.5000      0.0000    278.0841     75.1360    115.2260
   743.7500      0.0000    278.1913     77.7430    111.5053
   744.0000      0.0000    278.7394     79.4660    111.3052
   744.2500      0.0000    279.2172     80.4773    115.3423
   744.5000      0.0000    279.4714     81.0578    121.9324
   744.7500      0.0000    279.5675     81.3827    127.5036
   745.0000      0.0000    279.5930     81.5492    128.8007
   745.2500      0.0000    279.5930     81.6284    125.1226
   745.5000      0.0000    279.5854     81.6729    118.5973
   745.7500      0.0000    279.5780     81.7162    112.3789
   746.0000      0.0000    279.5756     81.7714    108.5865
   746.2500      0.0000    279.5784     81.8378    107.4611
   746.5000      0.0000    279.5852     81.9069    107.6626
   746.7500      0.0000    279.5949     81.9702    107.1560
   747.0000      0.0000    279.6071     82.0223    104.4374
   747.2500      0.0000    279.6201     82.0607     99.4238
   747.5000      0.0000    279.6314     82.0812     93.3282
   747.7500      0.0000    279.6387     82.0787     87.7212
   748.0000      0.0000    279.6413     82.0518     83.5506
   748.2500      0.0000    279.6396     82.0111     80.7518
   748.5000      0.0000    279.6346     81.9790     78.7406
   748.7500      0.0000    279.6277     81.9747     77.4124
   749.0000      0.0000    279.6213     81.9946     77.6897
   749.2500      0.0000    279.6182     82.0139     80.6999
   749.5000      0.0000    279.6206     82.0118     86.1144
   749.7500      0.0000    279.6282     81.9928     91.7237
   750.0000      0.0000    279.6383     81.9791     95.2533
   750.2500      0.0000    279.6477     81.9858     96.5466
   750.5000      0.0000    279.6551     82.0069     97.6815
   750.7500      0.0000    279.6614     82.0230    101.0733
   751.0000      0.0000    279.6674     82.0206    107.5729
   751.2500      0.0000    279.6717     82.0053    115.9796
   751.5000      0.0000    279.6716     81.9944    123.8607
   751.7500      0.0000    279.6667     81.9972    128.9408
   752.0000      0.0000    279.6589     82.0079    130.2602
   752.2500      0.0000    279.6508     82.0155    128.4820
   752.5000      0.0000    279.6441     82.0148    125.1678
   752.7500      0.0000    279.6398     82.0084    121.5122
   753.0000      0.0000    279.6384     82.0023    117.4126
   753.2500      0.0000    279.6397     81.9988    111.7347
   753.5000      0.0000    279.6427     81.9927    103.8302
   753.7500      0.0000    279.6463     81.9745     94.9090
   754.0000      0.0000    279.6497     81.9420     87.6629
   754.2500      0.0000    279.6521     81.9070     84.2418
   754.5000      0.0000    279.6526     81.8883     84.5095
   754.7500      0.0000    279.6492     81.8948     86.2371
   755.0000      0.0000    279.6399     81.9176     87.0277
   755.2500      0.0000    279.6248     81.9372     86.2338
   755.5000      0.0000    279.6078     81.9397     85.1742
   755.7500      0.0000    279.5948     81.9249     85.6183
   756.0000      0.0000    279.5908     81.9011     88.1012
   756.2500      0.0000    279.5968     81.8779     91.6012
   756.5000      0.0000    279.6102     81.8671     94.6487
   756.7500      0.0000    279.6267     81.8831     96.8929
   757.0000      0.0000    279.6427     81.9331     99.7981
   757.2500      0.0000    279.6565     82.0036    105.5519
   757.5000      0.0000    279.6673     82.0645    114.9705
   757.7500      0.0000    279.6740     82.0868    126.7953
   758.0000      0.0000    279.6748     82.0591    139.2548
   758.2500      0.0000    279.6692     81.9910    151.4694
   758.5000      0.0000    279.6588     81.9074    162.7989
   758.7500      0.0000    279.6469     81.8335    171.8688
   759.0000      0.0000    279.6350     81.7812    177.3875
   759.2500      0.0000    279.6229     81.7495    179.5255
   759.5000      0.0000    279.6111     81.7347    179.5896
   759.7500      0.0000    279.6024     81.7368    178.4966
   760.0000      0.0000    279.6006     81.7563    176.1198
   760.2500      0.0000    279.6071     81.7891    172.0821
   760.5000      0.0000    279.6193     81.8276    166.9443
   760.7500      0.0000    279.6322     81.8654    162.5235
   761.0000      0.0000    279.6396     81.8973    161.0383
   761.2500      0.0000    279.6377     81.9166    163.7934
   761.5000      0.0000    279.6270     81.9171    170.2513
   761.7500      0.0000    279.6121     81.9003    178.0524
   762.0000      0.0000    279.5967     81.8754    184.2639
   762.2500      0.0000    279.5823     81.8505    187.1752
   762.5000      0.0000    279.5699     81.8268    187.1693
   762.7500      0.0000    279.5636     81.8022    185.9938
   763.0000      0.0000    279.5685     81.7810    185.3808
   763.2500      0.0000    279.5845     81.7724    186.2143
   763.5000      0.0000    279.6038     81.7785    188.2143
   763.7500      0.0000    279.6164     81.7864    189.7723
