~Version Information
VERS.                      2.0: CWLS Log ASCII Standard - VERSION 2.0
WRAP.                       NO: One line per depth step
~Well Information Block
STRT.FT                 0.0000: 
STOP.FT              2072.7500: 
STEP.FT                 0.2500: 
NULL.                -999.2500: 
COMP.          Pioneer Natural Resources: COMPANY
WELL.          Greenwood 43-29 Tr: WELL
FLD.           Purgatorie River: FIELD
LOC.           1478' FSL & 744' FEL: LOCATION
STAT.                 Colorado: State
CNTY.               Las Animas: COUNTY
CTRY. USA : Country
SECT. 29 : Section
TOWN. 32S : Township
RANG. 67W : Range
SRVC.                Patterson: SERVICE COMPANY
DATE.          Tue Sep 06 12:54:40 2005: LOG DATE
API. 05-071-08478                          : UNIQUE WELL ID
~Curve Information Block
DEPT.FT            0 000 00 00: Depth
GR.GAPI                       : Gamma Ray
CCL.                          : Casing Collar Locator
TT3.usec                      : CBL 3' Travel Time
AMP3.mV                       : CBL 3' Amplitude
~Parameter Information Block
~A  Depth        GR         CCL         TT3         AMP3    
# ...
   402.0000     86.6185      0.0000    881.5038      9.9521
   402.2500     89.5601      0.0000    867.3237     10.1536
   402.5000     91.2585      0.0000    833.6613     10.3844
   402.7500     91.8206      0.0000    789.3615     10.5923
   403.0000     92.0357      0.0000    773.0555     10.6064
   403.2500     92.3461      0.0000    815.6547     10.1778
   403.5000     92.5981      0.0000    893.6015      9.2702
   403.7500     92.5788      0.0000    949.3762      8.2709
   404.0000     92.4494      0.0000    959.3103      7.6435
   404.2500     92.5994      0.0000    960.4879      7.4635
   404.5000     93.2376      0.0000    992.8538      7.5125
   404.7500     94.2601      1.0000   1036.0059      7.6102
   405.0000     95.4201      1.0000   1039.3837      7.7085
   405.2500     96.4486      0.0000    996.9341      7.9019
   405.5000     97.0347      0.0000    946.2762      8.5241
   405.7500     96.8405      0.0000    911.2013      9.9065
   406.0000     95.5399      0.0000    889.5269     11.6559
   406.2500     92.9442      0.0000    878.4990     12.7490
   406.5000     89.3874      0.0000    879.2421     12.7916
   406.7500     85.9112      0.0000    886.8898     12.3510
   407.0000     83.5683      0.0000    892.2734     11.9856
   407.2500     82.4047      0.0000    891.2076     11.7870
   407.5000     81.5318      0.0000    886.9431     11.6708
   407.7500     80.4454      0.0000    883.8362     11.5839
   408.0000     79.8921      0.0000    882.8243     11.5129
   408.2500     81.0537      0.0000    882.8687     11.4505
   408.5000     84.0756      0.0000    882.9475     11.3728
   408.7500     87.7564      0.0000    882.1508     11.2593
   409.0000     90.5616      0.0000    879.6191     11.1313
   409.2500     91.6623      0.0000    875.9332     11.0401
   409.5000     91.1456      0.0000    873.9662     11.0066
   409.7500     89.7121      0.0000    875.6600     10.9965
   410.0000     88.3775      0.0000    879.1057     10.9745
   410.2500     88.0770      0.0000    881.5320     10.9524
   410.5000     89.0056      0.0000    882.5429     10.9596
   410.7500     90.2570      0.0000    883.0568     10.9883
   411.0000     90.4998      0.0000    883.5907     10.9997
   411.2500     89.1173      0.0000    884.1566     10.9720
   411.5000     86.3829      0.0000    884.7203     10.9146
   411.7500     82.7176      0.0000    885.2805     10.8489
   412.0000     78.4328      0.0000    885.6645     10.7922
   412.2500     74.2726      0.0000    885.6841     10.7408
   412.5000     71.6253      0.0000    885.4473     10.6751
   412.7500     71.8362      0.0000    885.1634     10.5826
   413.0000     75.2591      0.0000    884.8782     10.4679
   413.2500     80.8858      0.0000    884.5688     10.3507
   413.5000     86.8231      0.0000    884.0746     10.2492
   413.7500     91.2791      0.0000    882.6209     10.1718
   414.0000     93.3678      0.0000    878.6143     10.1304
   414.2500     93.2165      0.0000    871.0521     10.1310
   414.5000     91.5369      0.0000    861.9412     10.1542
   414.7500     89.1268      0.0000    855.7916     10.1803
   415.0000     86.5717      0.0000    856.1724     10.2208
   415.2500     84.2247      0.0000    863.8244     10.2955
   415.5000     82.4140      0.0000    876.5507     10.4060
   415.7500     81.5030      0.0000    890.0611     10.5448
   416.0000     81.4820      0.0000    900.7850     10.7062
   416.2500     81.6562      0.0000    908.5811     10.8913
   416.5000     81.1639      0.0000    915.1944     11.1027
   416.7500     79.8586      0.0000    920.5797     11.3325
   417.0000     78.3760      0.0000    923.6356     11.5670
   417.2500     77.3013      0.0000    924.6347     11.7919
   417.5000     76.6362      0.0000    924.6768     11.9945
   417.7500     76.2442      0.0000    924.4607     12.1710
   418.0000     76.5193      0.0000    924.2594     12.3102
   418.2500     78.1878      0.0000    924.2079     12.3891
   418.5000     81.2460      0.0000    924.2894     12.4099
   418.7500     84.2433      0.0000    924.3116     12.4068
   419.0000     85.0161      0.0000    924.0764     12.4084
   419.2500     82.4304      0.0000    923.5977     12.4155
   419.5000     77.3547      0.0000    923.1403     12.4130
   419.7500     71.7143      0.0000    922.8995     12.4052
   420.0000     66.7056      0.0000    922.7634     12.4173
   420.2500     62.2367      0.0000    922.5793     12.4558
   420.5000     57.9664      0.0000    922.3892     12.5135
   420.7500     54.3603      0.0000    922.2812     12.5968
   421.0000     52.4449      0.0000    922.2561     12.7110
   421.2500     52.7319      0.0000    922.2827     12.8383
   421.5000     54.6524      0.0000    922.3995     12.9391
   421.7500     56.9499      0.0000    922.6832     12.9594
   422.0000     58.4492      0.0000    923.0975     12.8584
   422.2500     58.6446      0.0000    923.5139     12.6456
   422.5000     57.8852      0.0000    923.8317     12.3733
   422.7500     56.9753      0.0000    924.0067     12.0911
   423.0000     56.3865      0.0000    924.0997     11.8252
   423.2500     55.8709      0.0000    924.2717     11.5803
   423.5000     54.8929      0.0000    924.6093     11.3486
   423.7500     53.2924      0.0000    925.0043     11.1300
   424.0000     51.4086      0.0000    925.2900     10.9324
   424.2500     49.6779      0.0000    925.2489     10.7513
   424.5000     48.3267      0.0000    924.0201     10.5875
   424.7500     47.5091      0.0000    919.7549     10.4576
   425.0000     47.4897      0.0000    911.1180     10.3611
   425.2500     48.3124      0.0000    899.3387     10.2706
   425.5000     49.2629      0.0000    886.7631     10.1603
   425.7500     49.0741      0.0000    874.0970     10.0297
   426.0000     47.0282      0.0000    862.0527      9.9065
   426.2500     43.8390      0.0000    852.9523      9.8303
   426.5000     41.1822      0.0000    848.0230      9.8227
   426.7500     40.1891      0.0000    846.0764      9.8612
   427.0000     40.4490      0.0000    845.4354      9.8910
   427.2500     40.5546      0.0000    845.2441      9.8851
   427.5000     39.5832      0.0000    845.2922      9.8857
   427.7500     37.9393      0.0000    845.7588      9.9534
   428.0000     36.7132      0.0000    847.5057     10.0845
   428.2500     36.4202      0.0000    852.2073     10.2184
   428.5000     36.6773      0.0000    860.6782     10.3025
   428.7500     37.0384      0.0000    870.1902     10.3152
   429.0000     37.6545      0.0000    875.7605     10.2595
   429.2500     38.8818      0.0000    875.9169     10.1902
   429.5000     40.5759      0.0000    874.1985     10.2159
   429.7500     42.1145      0.0000    872.8530     10.3777
   430.0000     42.9810      0.0000    870.1482     10.5750
   430.2500     43.0981      0.0000    866.8560     10.7015
   430.5000     42.6911      0.0000    867.6851     10.7695
   430.7500     42.0723      0.0000    873.5590     10.8457
   431.0000     41.5588      0.0000    879.9434     10.9356
   431.2500     41.4240      0.0000    883.4091     10.9948
   431.5000     41.8052      0.0000    884.4147     10.9996
   431.7500     42.5998      0.0000    884.7256     10.9665
   432.0000     43.4569      0.0000    885.8641     10.9261
   432.2500     43.9446      0.0000    889.6348     10.8943
   432.5000     43.8665      0.0000    897.3492     10.8720
   432.7500     43.4999      0.0000    907.3445     10.8580
   433.0000     43.4842      0.0000    915.5947     10.8493
   433.2500     44.3525      0.0000    919.6107     10.8344
   433.5000     46.1340      0.0000    918.8136     10.8019
   433.7500     48.4796      0.0000    911.8294     10.7562
   434.0000     51.1891      0.0000    898.4423     10.7098
   434.2500     54.4281      0.0000    884.7565     10.6613
   434.5000     58.2322      0.0000    879.2542     10.6079
   434.7500     61.9368      0.0000    883.1086     10.5531
   435.0000     64.4710      0.0000    892.3033     10.4870
   435.2500     65.3576      0.0000    903.8823     10.4044
