~Version Information
 VERS.                                  2.0 : CWLS LAS VERSION
 WRAP.                                   NO : WRAPING MODE
 SWARE .                 MController 2.5.0N : SOFTWARE VERSION
~Well Information
 WELL.                      Beinville 31-28 : WELL
 COMP.       Pioneer Natural Resources, USA : COMPANY
 FLD.                       Purgatory River : FIELD
 LOC.                 NW/NE Sec28 T33S R65W : LOCATION
 DATE.                              1/16/05 : DATE(S) LOGGED
 SRVC.      Blanco Geological Services, LLC : SERVICE COMPANY
 STAT.                             Colorado : STATE
 CNTY.                           Las Animas : COUNTY
 CTRY.                                  USA : COUNTRY
 API.                       05-071-08666-00 : API NUMBER
 STRT.FT                             185.00 : START DEPTH
 STOP.FT                             900.00 : STOP DEPTH
 STEP.FT                               1.00 : DEPTH INCREMENT
 NULL.                                -9999 : NULL VALUE
~Curve information
 DEPTH.FT                                   :
 ROP.MIN/FT                                 :
 GAS.UNITS                                  :
~ASCII Log data
       185.0     -9999.00         12.0 
       186.0         9.87         17.8 
       187.0         1.00          3.5 
       188.0         0.20          3.5 
       189.0         0.27          3.6 
       190.0         0.63          4.0 
       191.0         0.10          4.5 
       192.0         0.23          4.6 
       193.0         0.13          5.0 
       194.0         0.52          5.5 
       195.0         0.47          4.5 
       196.0         0.23          4.8 
       197.0         0.47          4.8 
       198.0         0.63          4.9 
       199.0         0.37          4.5 
       200.0         0.47          5.8 
       201.0         0.10          4.5 
       202.0         0.07          3.9 
       203.0         0.15          5.6 
       204.0         0.10          5.1 
       205.0         1.13          5.7 
       206.0         0.07          4.8 
       207.0         0.10          4.5 
       208.0         0.07          4.8 
       209.0         0.10          5.5 
       210.0         0.07          5.4 
       211.0         0.10          4.5 
       212.0         0.10          4.6 
       213.0         0.13          4.6 
       214.0         0.13          5.8 
       215.0         0.13          5.4 
       216.0         0.13          5.6 
       217.0         0.13          5.0 
       218.0         0.10          6.0 
       219.0         0.10          5.2 
       220.0         0.07          4.9 
       221.0         0.10          5.5 
       222.0         0.10          5.1 
       223.0         0.07          4.4 
       224.0         0.10          5.4 
       225.0         0.10          4.7 
       226.0         0.07          4.7 
       227.0         0.12          5.5 
       228.0         0.10          3.8 
       229.0         0.10          5.2 
       230.0         0.07          5.2 
       231.0         0.10          5.1 
       232.0         0.10          4.4 
       233.0         0.10          4.4 
       234.0         0.07          4.4 
       235.0         0.10          5.1 
       236.0         1.60          5.7 
       237.0         0.17          4.5 
       238.0         0.17          5.8 
       239.0         0.13          5.2 
       240.0         0.13          6.0 
       241.0         0.10          4.4 
       242.0         0.10          4.8 
       243.0         0.10          5.5 
       244.0         0.08          4.9 
       245.0         0.10          5.0 
       246.0         0.10          4.9 
       247.0         0.07          4.9 
       248.0         0.10          5.0 
       249.0         0.10          5.1 
       250.0         0.10          4.5 
       251.0         0.07          4.5 
       252.0         0.10          4.6 
       253.0         0.10          5.8 
       254.0         0.10          6.3 
       255.0         0.07          6.3 
       256.0         0.10          5.5 
       257.0         0.10          6.4 
       258.0         0.10          6.5 
       259.0         0.10          3.9 
       260.0         0.10          4.6 
       261.0         0.10          5.1 
       262.0         0.10          5.7 
       263.0         0.13          4.0 
       264.0         0.10          4.0 
       265.0         0.10          5.9 
       266.0         1.78          6.3 
       267.0         0.27          5.7 
       268.0         0.20          6.2 
       269.0         0.23          5.0 
       270.0         0.20          4.4 
       271.0         0.23          4.2 
       272.0         0.20          4.6 
       273.0         0.20          4.3 
       274.0         0.20          5.5 
       275.0         0.20          4.9 
       276.0         0.17          3.7 
       277.0         0.20          3.8 
       278.0         0.20          4.3 
       279.0         0.17          4.7 
       280.0         0.22          3.6 
       281.0         0.17          4.0 
       282.0         0.20          1.9 
       283.0         0.17          2.7 
       284.0         0.20          4.0 
       285.0         0.17          2.4 
       286.0         0.17          1.5 
       287.0         0.20          3.5 
       288.0         0.17          4.0 
       289.0         0.17          4.2 
       290.0         0.20          5.1 
       291.0         0.20          4.2 
       292.0         0.23          2.4 
       293.0         0.20          3.7 
       294.0         0.13          3.4 
       295.0         0.13          3.7 
       296.0         1.48          3.2 
       297.0         0.30          3.2 
       298.0         0.20          2.1 
       299.0         0.23          2.7 
       300.0         0.23          2.4 
       301.0         0.20          2.3 
       302.0         0.17          3.2 
       303.0         0.20          3.3 
       304.0         0.20          4.3 
       305.0         0.20          2.5 
       306.0         0.20          3.6 
       307.0         0.27          2.6 
       308.0         0.28          3.2 
       309.0         0.27          2.9 
       310.0         0.23          3.2 
       311.0         0.17          2.2 
       312.0         0.17          2.9 
       313.0         0.23          3.4 
       314.0         0.27          4.4 
       315.0         0.20          3.4 
       316.0         0.20          3.4 
       317.0         0.20          3.1 
       318.0         0.27          3.5 
       319.0         0.20          3.3 
       320.0         0.20          3.6 
       321.0         0.23          3.4 
       322.0         0.17          3.2 
       323.0         0.22          3.3 
       324.0         0.20          3.4 
       325.0         0.30          3.6 
       326.0         1.17          4.0 
       327.0         0.27          2.4 
       328.0         0.27          3.7 
       329.0         0.23          3.1 
       330.0         0.20          2.1 
       331.0         0.20          1.6 
       332.0         0.20          3.9 
       333.0         0.25          3.0 
       334.0         0.27          2.8 
       335.0         0.23          3.6 
       336.0         0.20          2.6 
       337.0         0.20          3.6 
       338.0         0.17          4.3 
       339.0         0.13          3.2 
       340.0         0.13          2.5 
       341.0         0.10          2.5 
       342.0         0.13          2.9 
       343.0         0.17          3.5 
       344.0         0.13          3.1 
       345.0         0.20          5.7 
       346.0         0.27          8.6 
       347.0         0.23         12.0 
       348.0         0.20         13.1 
       349.0         0.17         13.0 
       350.0         0.13         13.4 
       351.0         0.22         13.2 
       352.0         0.30         13.7 
       353.0         0.33         15.1 
       354.0         0.23         15.8 
       355.0         0.20         15.1 
       356.0         2.00         30.6 
       357.0         0.28         33.4 
       358.0         0.33         62.7 
       359.0         0.23         91.3 
       360.0         0.23         84.8 
       361.0         0.23         62.9 
       362.0         0.20         38.8 
       363.0         0.27         20.6 
       364.0         0.20         19.5 
       365.0         0.23         14.2 
       366.0         0.23         11.5 
       367.0         0.23         10.9 
       368.0         0.17          9.8 
       369.0         0.20          9.6 
       370.0         0.23          8.0 
       371.0         0.13          7.6 
       372.0         0.13          9.4 
       373.0         0.18          9.0 
       374.0         0.33          8.7 
       375.0         0.20         10.1 
       376.0         0.17         11.4 
       377.0         0.27         13.3 
       378.0         0.17         13.7 
       379.0         0.13         13.1 
       380.0         0.10         14.1 
       381.0         0.13         14.1 
       382.0         0.10         12.9 
       383.0         0.23         12.8 
       384.0         0.23         16.5 
