~Version Information
VERS.                      2.0: CWLS Log ASCII Standard - VERSION 2.0
WRAP.                       NO: One line per depth step
~Well Information Block
STRT.FT                10.0000: 
STOP.FT               959.2500: 
STEP.FT                 0.2500: 
NULL.                -999.2500: 
COMP.          XTO Energy Inc.: COMPANY
WELL.          Golden Eagle 20-04: WELL
FLD.           Purgatrorie River: FIELD
LOC.           702' FNL & 487' FWL--: LOCATION
STAT.                       CO: State
CNTY.               Las Animas: COUNTY
CTRY. USA : Country
SECT. 20 : Section
TOWN. 33S : Township
RANG. 67W : Range
SRVC.          Patterson Wireline: SERVICE COMPANY
DATE.          Mon Dec 05 08:42:44 2005: LOG DATE
API.           05 071 08599 00: UNIQUE WELL ID
~Curve Information Block
DEPT.FT            0 000 00 00: Depth
TEMP.degF                     : Downhole Temperature
DTMP.degF                     : Delta Temperature
~Parameter Information Block
~A  Depth       TEMP        DTMP    
# ...
   233.0000     55.6904      0.0033
   233.2500     55.6911      0.0035
   233.5000     55.6921      0.0036
   233.7500     55.6930      0.0039
   234.0000     55.6938      0.0040
   234.2500     55.6949      0.0043
   234.5000     55.6961      0.0044
   234.7500     55.6973      0.0047
   235.0000     55.6983      0.0051
   235.2500     55.6997      0.0052
   235.5000     55.7008      0.0056
   235.7500     55.7024      0.0059
   236.0000     55.7041      0.0061
   236.2500     55.7054      0.0065
   236.5000     55.7072      0.0067
   236.7500     55.7091      0.0071
   237.0000     55.7106      0.0072
   237.2500     55.7127      0.0078
   237.5000     55.7143      0.0079
   237.7500     55.7166      0.0083
   238.0000     55.7184      0.0090
   238.2500     55.7209      0.0091
   238.5000     55.7229      0.0099
   238.7500     55.7257      0.0104
   239.0000     55.7286      0.0107
   239.2500     55.7309      0.0112
   239.5000     55.7340      0.0120
   239.7500     55.7373      0.0120
   240.0000     55.7398      0.0124
   240.2500     55.7433      0.0132
   240.5000     55.7469      0.0136
   240.7500     55.7497      0.0134
   241.0000     55.7534      0.0142
   241.2500     55.7573      0.0140
   241.5000     55.7612      0.0143
   241.7500     55.7642      0.0145
   242.0000     55.7683      0.0148
   242.2500     55.7713      0.0151
   242.5000     55.7755      0.0148
   242.7500     55.7787      0.0156
   243.0000     55.7831      0.0153
   243.2500     55.7875      0.0161
   243.5000     55.7908      0.0164
   243.7500     55.7954      0.0167
   244.0000     55.7988      0.0170
   244.2500     55.8035      0.0174
   244.5000     55.8084      0.0177
   244.7500     55.8120      0.0181
   245.0000     55.8171      0.0184
   245.2500     55.8223      0.0189
   245.5000     55.8262      0.0194
   245.7500     55.8316      0.0197
   246.0000     55.8357      0.0202
   246.2500     55.8413      0.0207
   246.5000     55.8471      0.0211
   246.7500     55.8515      0.0217
   247.0000     55.8575      0.0221
   247.2500     55.8637      0.0226
   247.5000     55.8684      0.0232
   247.7500     55.8749      0.0247
   248.0000     55.8798      0.0244
   248.2500     55.8866      0.0251
   248.5000     55.8936      0.0257
   248.7500     55.9008      0.0265
   249.0000     55.9064      0.0270
   249.2500     55.9140      0.0279
   249.5000     55.9198      0.0286
   249.7500     55.9278      0.0283
   250.0000     55.9339      0.0299
   250.2500     55.9423      0.0295
   250.5000     55.9508      0.0312
   250.7500     55.9574      0.0318
   251.0000     55.9662      0.0323
   251.2500     55.9730      0.0328
   251.5000     55.9822      0.0334
   251.7500     55.9914      0.0337
   252.0000     55.9985      0.0341
   252.2500     56.0080      0.0344
   252.5000     56.0176      0.0348
   252.7500     56.0248      0.0351
   253.0000     56.0345      0.0365
   253.2500     56.0418      0.0355
   253.5000     56.0517      0.0357
   253.7500     56.0616      0.0371
   254.0000     56.0715      0.0360
   254.2500     56.0790      0.0373
   254.5000     56.0890      0.0374
   254.7500     56.0990      0.0361
   255.0000     56.1065      0.0361
   255.2500     56.1165      0.0360
   255.5000     56.1264      0.0359
   255.7500     56.1338      0.0356
   256.0000     56.1437      0.0354
   256.2500     56.1510      0.0351
   256.5000     56.1607      0.0335
   256.7500     56.1703      0.0344
   257.0000     56.1773      0.0339
   257.2500     56.1866      0.0346
   257.5000     56.1935      0.0330
   257.7500     56.2026      0.0324
   258.0000     56.2115      0.0320
   258.2500     56.2203      0.0313
   258.5000     56.2267      0.0317
   258.7500     56.2350      0.0299
   259.0000     56.2412      0.0290
   259.2500     56.2492      0.0281
   259.5000     56.2569      0.0281
   259.7500     56.2624      0.0263
   260.0000     56.2695      0.0262
   260.2500     56.2764      0.0243
   260.5000     56.2828      0.0232
   260.7500     56.2876      0.0230
   261.0000     56.2936      0.0213
   261.2500     56.2978      0.0202
   261.5000     56.3033      0.0187
   261.7500     56.3084      0.0184
   262.0000     56.3122      0.0169
   262.2500     56.3168      0.0166
   262.5000     56.3202      0.0155
   262.7500     56.3244      0.0141
   263.0000     56.3273      0.0136
   263.2500     56.3310      0.0123
   263.5000     56.3344      0.0117
   263.7500     56.3367      0.0105
   264.0000     56.3394      0.0096
   264.2500     56.3414      0.0084
   264.5000     56.3435      0.0071
   264.7500     56.3454      0.0062
   265.0000     56.3466      0.0049
   265.2500     56.3478      0.0039
   265.5000     56.3485      0.0027
   265.7500     56.3492      0.0014
   266.0000     56.3493      0.0004
   266.2500     56.3492     -0.0007
   266.5000     56.3490     -0.0018
   266.7500     56.3483     -0.0028
   267.0000     56.3473     -0.0039
   267.2500     56.3464     -0.0047
   267.5000     56.3449     -0.0058
   267.7500     56.3435     -0.0069
   268.0000     56.3415     -0.0075
   268.2500     56.3398     -0.0087
   268.5000     56.3373     -0.0096
   268.7500     56.3345     -0.0103
   269.0000     56.3323     -0.0112
   269.2500     56.3290     -0.0124
   269.5000     56.3256     -0.0127
   269.7500     56.3229     -0.0134
   270.0000     56.3191     -0.0145
   270.2500     56.3151     -0.0145
   270.5000     56.3120     -0.0151
   270.7500     56.3077     -0.0161
   271.0000     56.3033     -0.0159
   271.2500     56.2999     -0.0163
   271.5000     56.2953     -0.0172
   271.7500     56.2907     -0.0168
   272.0000     56.2872     -0.0170
   272.2500     56.2825     -0.0171
   272.5000     56.2777     -0.0171
   272.7500     56.2741     -0.0166
   273.0000     56.2694     -0.0172
   273.2500     56.2658     -0.0171
   273.5000     56.2611     -0.0164
   273.7500     56.2575     -0.0168
   274.0000     56.2529     -0.0161
   274.2500     56.2483     -0.0164
   274.5000     56.2449     -0.0161
   274.7500     56.2405     -0.0164
   275.0000     56.2372     -0.0155
   275.2500     56.2329     -0.0150
   275.5000     56.2288     -0.0150
   275.7500     56.2248     -0.0141
   276.0000     56.2219     -0.0139
   276.2500     56.2183     -0.0129
   276.5000     56.2148     -0.0121
   276.7500     56.2123     -0.0110
   277.0000     56.2093     -0.0106
   277.2500     56.2071     -0.0097
   277.5000     56.2045     -0.0087
   277.7500     56.2028     -0.0080
   278.0000     56.2007     -0.0069
   278.2500     56.1989     -0.0061
   278.5000     56.1974     -0.0051
   278.7500     56.1964     -0.0043
   279.0000     56.1955     -0.0032
   279.2500     56.1949     -0.0021
   279.5000     56.1944     -0.0011
   279.7500     56.1942     -0.0003
   280.0000     56.1943      0.0008
   280.2500     56.1946      0.0017
   280.5000     56.1952      0.0028
   280.7500     56.1959      0.0040
   281.0000     56.1971      0.0049
   281.2500     56.1982      0.0062
   281.5000     56.2001      0.0074
   281.7500     56.2023      0.0083
   282.0000     56.2041      0.0096
   282.2500     56.2069      0.0105
   282.5000     56.2101      0.0117
   282.7500     56.2126      0.0129
   283.0000     56.2163      0.0138
   283.2500     56.2192      0.0150
   283.5000     56.2234      0.0163
   283.7500     56.2280      0.0172
   284.0000     56.2317      0.0186
   284.2500     56.2369      0.0205
   284.5000     56.2426      0.0211
   284.7500     56.2470      0.0226
   285.0000     56.2534      0.0248
   285.2500     56.2603      0.0253
   285.5000     56.2657      0.0268
   285.7500     56.2731      0.0280
   286.0000     56.2812      0.0296
   286.2500     56.2874      0.0299
   286.5000     56.2962      0.0325
   286.7500     56.3030      0.0342
   287.0000     56.3126      0.0359
   287.2500     56.3201      0.0373
   287.5000     56.3306      0.0391
   287.7500     56.3415      0.0404
   288.0000     56.3530      0.0422
   288.2500     56.3620      0.0454
   288.5000     56.3743      0.0472
