~Version Information
VERS.                      2.0: CWLS Log ASCII Standard - VERSION 2.0
WRAP.                       NO: One line per depth step
~Well Information Block
STRT.FT               770.0000: 
STOP.FT              2171.0000: 
STEP.FT                 0.1000: 
NULL.                -999.2500: 
COMP.          Pioneer Natural Resources: COMPANY
WELL.              Kermit 32-7: WELL
FLD.           Purgatoire River: FIELD
LOC.           2002' FNL & 2103' FEL: LOCATION
PROV.                 Colorado: PROVINCE
CNTY.               Las Animas: COUNTRY
SRVC.                Patterson: SERVICE COMPANY
DATE.          Thu Jan 12 03:02:28 2006: LOG DATE
UWI.           05 071 08647 00: UNIQUE WELL ID
~Curve Information Block
DEPT.FT            0 000 00 00: Depth
DCAL.in                       : CDL Caliper
RHOB.g/cc                     : CDL Bulk Density
RHOC.g/cc                     : CDL Density Correction
DPOR.pu                       : CDL Density Porosity
GR.GAPI                       : Gamma Ray
NPOR.pu                       : Neutron Porosity
~Parameter Information Block
~A  Depth       DCAL        RHOB        RHOC        DPOR         GR         NPOR    
# ...
  1874.0000      7.9146      2.6061      0.1203      2.6622    121.0305     27.6237
  1874.1000      7.9146      2.6222      0.1074      1.6854    126.3829     26.5305
  1874.2000      7.9146      2.6238      0.1066      1.5853    126.9888     25.5890
  1874.3000      7.9159      2.6107      0.0693      2.3791    121.0611     20.8878
  1874.4000      7.9159      2.5975      0.0661      3.1789    112.9291     21.0434
  1874.5000      7.9166      2.5934      0.0808      3.4277    104.7835     21.1389
  1874.6000      7.9166      2.5916      0.1002      3.5375     95.5124     20.0524
  1874.7000      7.9166      2.5844      0.1139      3.9733     88.6761     18.7692
  1874.8000      7.8991      2.5762      0.0223      4.4733     87.0208     18.0171
  1874.9000      7.8991      2.5814      0.1035      4.1553     86.8645     17.4208
  1875.0000      7.8543      2.5950      0.1221      3.3323     83.1780     17.3155
  1875.1000      7.8543      2.5968      0.1702      3.2254     75.9547     18.1194
  1875.2000      7.8543      2.5778      0.1478      4.3734     72.4000     19.4380
  1875.3000      7.8474      2.5489      0.0801      6.1268     76.6218     20.3593
  1875.4000      7.8474      2.5251      0.0898      7.5697     85.0597     20.0775
  1875.5000      7.8289      2.5071      0.1003      8.6603     90.4046     19.2554
  1875.6000      7.8289      2.4957      0.0536      9.3485     90.5753     19.3064
  1875.7000      7.8289      2.4954      0.0924      9.3724     91.8231     20.4818
  1875.8000      7.8154      2.5018      0.0719      8.9829     94.5822     21.8749
  1875.9000      7.8154      2.5113      0.0722      8.4070     93.3966     22.3614
  1876.0000      7.8330      2.5170      0.1289      8.0609     90.0476     21.8030
  1876.1000      7.8330      2.5099      0.1386      8.4903     91.7965     20.6298
  1876.2000      7.8330      2.4911      0.1035      9.6302    101.5942     19.4058
  1876.3000      7.8473      2.4716      0.0962     10.8135    114.4032     19.4927
  1876.4000      7.8473      2.4630      0.0653     11.3319    124.0748     21.9193
  1876.5000      7.8650      2.4628      0.0884     11.3462    128.1425     25.1816
  1876.6000      7.8650      2.4616      0.0636     11.4194    128.5149     26.7159
  1876.7000      7.8650      2.4675      0.0393     11.0613    127.2206     26.2027
  1876.8000      7.8729      2.4863      0.0916      9.9203    124.3107     24.8817
  1876.9000      7.8729      2.5024      0.1500      8.9431    122.8792     24.1424
  1877.0000      7.8939      2.5113      0.0619      8.4055    126.5343     24.4675
  1877.1000      7.8939      2.5215      0.1623      7.7880    133.0019     24.9820
  1877.2000      7.8939      2.5247      0.1110      7.5920    136.3438     24.7239
  1877.3000      7.8742      2.5174      0.0952      8.0382    132.3273     23.8280
  1877.4000      7.8742      2.5117      0.1331      8.3802    125.6756     23.0466
  1877.5000      7.8337      2.5231      0.1086      7.6898    124.9099     22.8619
  1877.6000      7.8337      2.5526      0.1734      5.9017    129.6259     23.3181
  1877.7000      7.8337      2.5798      0.1600      4.2547    133.1585     23.8765
  1877.8000      7.8505      2.5881      0.1506      3.7519    132.7700     23.2856
  1877.9000      7.8505      2.5760      0.1392      4.4828    131.6094     21.4570
  1878.0000      7.8575      2.5550      0.1098      5.7560    130.1548     20.1435
  1878.1000      7.8575      2.5446      0.0686      6.3877    127.9094     20.4333
  1878.2000      7.8575      2.5528      0.1129      5.8925    125.3805     21.9190
  1878.3000      7.8481      2.5699      0.0661      4.8516    120.8689     23.0843
  1878.4000      7.8481      2.5890      0.0815      3.6968    116.1991     22.8368
  1878.5000      7.8643      2.6086      0.0963      2.5079    120.1579     22.0239
  1878.6000      7.8643      2.6286      0.1000      1.2957    130.2938     22.0708
  1878.7000      7.8643      2.6460      0.1422      0.2450    130.7134     22.8600
  1878.8000      7.8484      2.6469      0.1516      0.1868    119.9668     22.9741
  1878.9000      7.8484      2.6344      0.0646      0.9450    107.5409     22.4223
  1879.0000      7.8174      2.6244      0.1030      1.5485     98.3925     22.3451
  1879.1000      7.8174      2.6075      0.1123      2.5771     96.4067     22.5040
  1879.2000      7.8174      2.5787      0.0573      4.3219    101.8479     21.8419
  1879.3000      7.8178      2.5603      0.0284      5.4380    108.6554     20.5580
  1879.4000      7.8178      2.5569      0.0708      5.6416    111.2841     19.4977
  1879.5000      7.8208      2.5521      0.0283      5.9335    107.0903     18.6251
  1879.6000      7.8208      2.5423      0.0354      6.5295    101.4198     17.8750
  1879.7000      7.8208      2.5339      0.0262      7.0358    102.6171     17.9958
  1879.8000      7.8381      2.5358     -0.0140      6.9219    107.7391     18.8589
  1879.9000      7.8381      2.5556      0.0666      5.7237    111.3744     19.1145
  1880.0000      7.8372      2.5854      0.0804      3.9158    111.1661     18.5702
  1880.1000      7.8372      2.6034      0.1087      2.8233    101.6621     18.3592
  1880.2000      7.8372      2.6015      0.1007      2.9377     86.3938     18.8713
  1880.3000      7.8554      2.5923      0.1219      3.4996     81.1657     19.6820
  1880.4000      7.8554      2.5854      0.0845      3.9144     92.0071     20.2399
  1880.5000      7.8457      2.5884      0.0795      3.7336    105.6803     20.0934
  1880.6000      7.8457      2.6032      0.0930      2.8379    110.7433     19.8046
  1880.7000      7.8457      2.6166      0.1090      2.0224    106.6173     20.0607
  1880.8000      7.8514      2.6181      0.0994      1.9357     97.0915     20.2921
  1880.9000      7.8514      2.6098      0.0889      2.4385     91.0538     20.0467
  1881.0000      7.8682      2.6024      0.0679      2.8820     91.6913     19.5232
  1881.1000      7.8682      2.6090      0.1424      2.4868     93.1941     18.7242
  1881.2000      7.8682      2.6345      0.1310      0.9382     94.1553     18.2855
  1881.3000      7.8925      2.6683      0.1571     -1.1085     96.1266     18.8668
  1881.4000      7.8925      2.6824      0.1926     -1.9618     95.8733     19.7189
  1881.5000      7.8606      2.6615      0.1152     -0.6959     92.8700     19.9124
  1881.6000      7.8606      2.6255      0.0915      1.4839     90.4956     19.4509
  1881.7000      7.8606      2.5991      0.0333      3.0841     90.2819     18.9981
  1881.8000      7.8605      2.5815      0.0781      4.1486     93.7812     19.4337
  1881.9000      7.8605      2.5624      0.0200      5.3085     98.8404     20.6074
  1882.0000      7.8838      2.5435      0.0467      6.4548     99.4621     21.3923
  1882.1000      7.8838      2.5311      0.0163      7.2040     95.9899     21.3411
  1882.2000      7.8838      2.5375     -0.0297      6.8205     93.4168     20.8434
  1882.3000      7.8993      2.5639      0.0381      5.2208     93.9884     20.5244
  1882.4000      7.8993      2.5893      0.0578      3.6773     98.8906     20.8843
  1882.5000      7.9182      2.6014      0.0845      2.9481    105.5298     21.5719
  1882.6000      7.9182      2.6029      0.0743      2.8517    107.2421     21.8109
  1882.7000      7.9182      2.5987      0.0553      3.1084    103.9679     21.1888
  1882.8000      7.9140      2.5907      0.0637      3.5953    100.4584     19.8085
  1882.9000      7.9140      2.5847      0.0107      3.9556     97.6474     18.6546
  1883.0000      7.9045      2.5894      0.0874      3.6729     94.6942     18.9066
  1883.1000      7.9045      2.6015      0.0767      2.9377     92.6800     20.4649
  1883.2000      7.9045      2.6074      0.0924      2.5845     94.6448     21.9485
  1883.3000      7.9086      2.5979      0.0903      3.1547    100.1223     22.1325
  1883.4000      7.9086      2.5750      0.0715      4.5465    104.2269     21.5865
  1883.5000      7.8917      2.5401      0.0892      6.6594    105.5026     21.8698
