~Version Information
VERS.                      2.0: CWLS Log ASCII Standard - VERSION 2.0
WRAP.                       NO: One line per depth step
~Well Information Block
STRT.FT               360.0000: 
STOP.FT              1349.5000: 
STEP.FT                 0.1000: 
NULL.                -999.2500: 
COMP.          Pioneer Natural Resources: COMPANY
WELL.          Challenger 31-29: WELL
FLD.           Purgatoire River: FIELD
LOC.           51' FNL & 1923' FEL: LOCATION
STAT.                 Colorado: State
CNTY.               Las Animas: COUNTY
CTRY. USA : Country
SECT. 29 : Section
TOWN. 33S : Township
RANG. 65W : Range
SRVC.                Patterson: SERVICE COMPANY
DATE.          Thu Sep 15 13:35:50 2005: LOG DATE
API.           05 071 08514 00: UNIQUE WELL ID
~Curve Information Block
DEPT.FT            0 000 00 00: Depth
DCAL.in                       : CDL Caliper
RHOB.g/cc                     : CDL Bulk Density
RHOC.g/cc                     : CDL Density Correction
DPOR.pu                       : CDL Density Porosity
GR.GAPI                       : Gamma Ray
NPOR.pu                       : Neutron Porosity
~Parameter Information Block
~A  Depth       DCAL        RHOB        RHOC        DPOR         GR         NPOR    
# ...
   552.0000      8.0080      2.6230      0.0841      1.6358     79.8085     19.0263
   552.1000      8.0080      2.6540      0.1465     -0.2422     79.0291     18.5557
   552.2000      8.0080      2.6499      0.0935      0.0081     79.1059     18.5152
   552.3000      8.0159      2.6266      0.1041      1.4175     76.6155     18.5450
   552.4000      8.0159      2.5998      0.1349      3.0448     72.3640     18.4180
   552.5000      8.0092      2.5644      0.0893      5.1866     70.9528     18.3418
   552.6000      8.0092      2.5272      0.0520      7.4424     72.5607     18.0971
   552.7000      8.0092      2.5105      0.0220      8.4536     77.0137     17.6252
   552.8000      8.0096      2.5167      0.0776      8.0797     83.9740     17.5967
   552.9000      8.0096      2.5257      0.0870      7.5307     88.2910     18.1511
   553.0000      8.0160      2.5327      0.0687      7.1114     85.2859     18.9150
   553.1000      8.0160      2.5502      0.0785      6.0497     79.4460     19.5003
   553.2000      8.0160      2.5789      0.1131      4.3115     78.2465     19.5395
   553.3000      8.0085      2.6082      0.1608      2.5332     79.9475     19.1088
   553.4000      8.0085      2.6327      0.2103      1.0501     80.2216     18.7505
   553.5000      7.9824      2.6490      0.2013      0.0635     79.4264     18.9315
   553.6000      7.9824      2.6549      0.1662     -0.2964     80.1793     19.7116
   553.7000      7.9824      2.6450      0.1523      0.3049     85.0739     20.6333
   553.8000      7.9671      2.6098      0.1346      2.4367     90.3399     21.0765
   553.9000      7.9671      2.5549      0.0838      5.7653     90.1556     20.8976
   554.0000      7.9674      2.5099      0.0371      8.4909     88.1358     20.4973
   554.1000      7.9674      2.4959      0.0920      9.3396     88.5491     20.4356
   554.2000      7.9674      2.4981      0.0580      9.2033     89.1084     20.8373
   554.3000      8.0203      2.4988      0.0203      9.1615     89.4132     21.4163
   554.4000      8.0203      2.5012      0.0361      9.0210     91.1794     21.8441
   554.5000      8.0231      2.5123      0.0289      8.3453     93.3778     21.9114
   554.6000      8.0231      2.5266      0.0661      7.4795     96.1888     21.7750
   554.7000      8.0231      2.5335      0.0970      7.0608     99.9791     21.7540
   554.8000      8.0625      2.5353      0.0634      6.9534    103.2460     21.5538
   554.9000      8.0625      2.5402      0.1519      6.6547    104.0706     21.0407
   555.0000      8.1227      2.5507      0.1180      6.0170    101.6262     21.0230
   555.1000      8.1227      2.5657      0.1401      5.1098    100.8002     21.7643
   555.2000      8.1227      2.5711      0.1504      4.7827    105.0423     22.4096
   555.3000      8.0459      2.5537      0.1235      5.8381    110.4687     22.6007
   555.4000      8.0459      2.5243      0.1107      7.6190    113.1944     22.9710
   555.5000      8.0372      2.5033      0.0865      8.8914    114.2577     23.7330
   555.6000      8.0372      2.5032      0.0450      8.8977    117.3760     24.3652
   555.7000      8.0372      2.5166      0.1485      8.0843    122.5776     25.0318
   555.8000      8.0658      2.5190      0.1067      7.9377    126.8129     26.1451
   555.9000      8.0658      2.5041      0.1035      8.8397    130.6269     26.6761
   556.0000      8.0713      2.4839      0.0929     10.0662    134.4792     25.8455
   556.1000      8.0713      2.4702      0.0907     10.8965    137.9010     25.0003
   556.2000      8.0713      2.4719      0.0676     10.7959    141.3312     25.6073
   556.3000      8.0733      2.4967      0.0531      9.2931    141.9599     26.7381
   556.4000      8.0733      2.5391      0.1101      6.7214    139.9079     26.6706
   556.5000      8.0782      2.5707      0.0897      4.8041    141.3447     25.6881
   556.6000      8.0782      2.5734      0.0897      4.6453    146.7368     24.9317
   556.7000      8.0782      2.5556      0.0828      5.7197    150.4909     24.8904
   556.8000      8.0985      2.5293      0.1080      7.3151    152.0844     25.6697
   556.9000      8.0985      2.4944      0.1220      9.4310    153.2188     26.7821
   557.0000      8.1377      2.4450      0.1237     12.4242    149.8825     27.3962
   557.1000      8.1377      2.3874      0.0831     15.9163    141.4127     27.2729
   557.2000      8.1377      2.3512      0.0449     18.1082    133.6496     27.0046
   557.3000      8.0630      2.3612      0.0943     17.5010    131.9462     27.0199
   557.4000      8.0630      2.4090      0.1317     14.6043    136.3390     26.9515
   557.5000      8.0006      2.4771      0.1385     10.4789    141.9196     26.6375
   557.6000      8.0006      2.5632      0.1744      5.2617    145.9179     26.5470
   557.7000      8.0006      2.6564      0.3010     -0.3895    147.9727     26.7969
   557.8000      7.9890      2.7185      0.3841     -4.1511    149.6382     26.9081
   557.9000      7.9890      2.7217      0.3583     -4.3464    153.8215     26.7809
   558.0000      7.9965      2.6887      0.2704     -2.3463    156.6643     26.6029
   558.1000      7.9965      2.6561      0.2109     -0.3715    150.7890     26.1125
   558.2000      7.9965      2.6201      0.1956      1.8108    135.0638     25.1383
   558.3000      8.0018      2.5648      0.1037      5.1663    117.5136     24.3127
   558.4000      8.0018      2.5131     -0.0242      8.2991    108.3261     23.9626
   558.5000      7.9941      2.4965      0.0241      9.3044    108.1532     23.7517
   558.6000      7.9941      2.5129      0.0541      8.3111    109.6546     23.6502
   558.7000      7.9941      2.5436      0.0881      6.4455    110.6561     23.4663
   558.8000      8.0077      2.5733      0.1384      4.6510    112.8470     22.9039
   558.9000      8.0077      2.6002      0.1423      3.0210    112.7383     22.5601
   559.0000      8.0457      2.6347      0.1380      0.9303    110.7979     22.6995
   559.1000      8.0457      2.6708      0.1823     -1.2579    113.3430     23.1470
   559.2000      8.0457      2.6849      0.2540     -2.1173    119.0526     24.0356
   559.3000      8.0417      2.6761      0.1579     -1.5814    123.0326     24.6948
   559.4000      8.0417      2.6697      0.1654     -1.1943    124.4699     24.4729
   559.5000      8.0470      2.6671      0.2190     -1.0391    122.9332     23.8402
   559.6000      8.0470      2.6512      0.1675     -0.0744    120.3066     23.1630
   559.7000      8.0470      2.6252      0.1363      1.5005    121.8250     22.6850
   559.8000      8.0624      2.6029      0.0676      2.8519    127.4986     22.9026
   559.9000      8.0624      2.5956      0.0678      3.2965    129.0135     23.7306
   560.0000      8.0681      2.6112      0.0501      2.3517    123.1153     24.4816
   560.1000      8.0681      2.6387      0.0898      0.6840    115.7259     24.6939
   560.2000      8.0681      2.6496      0.1134      0.0218    110.5037     24.3714
   560.3000      8.0849      2.6379      0.0864      0.7307    108.4876     23.6122
   560.4000      8.0849      2.6187      0.0752      1.8987    108.1019     22.8740
   560.5000      8.0805      2.5944      0.1155      3.3716    105.7144     22.6616
   560.6000      8.0805      2.5700      0.0006      4.8487    101.1580     22.6148
   560.7000      8.0805      2.5636      0.0310      5.2342     97.3940     22.4120
   560.8000      8.0482      2.5732      0.0485      4.6525     96.5773     22.5388
   560.9000      8.0482      2.5795      0.0640      4.2725     98.6423     22.9989
   561.0000      8.0636      2.5751     -0.0023      4.5408    103.3367     23.1665
   561.1000      8.0636      2.5619      0.0675      5.3375    108.5172     22.8344
   561.2000      8.0636      2.5412      0.0298      6.5963    109.9833     22.1563
   561.3000      8.0471      2.5225     -0.0017      7.7251    109.9227     21.0636
   561.4000      8.0471      2.5170     -0.0131      8.0581    111.0584     19.8536
   561.5000      8.0563      2.5226     -0.0031      7.7228    107.8378     19.5131
