~Version Information
VERS.                      2.0: CWLS Log ASCII Standard - VERSION 2.0
WRAP.                       NO: One line per depth step
~Well Information Block
STRT.FT               555.0000: 
STOP.FT              1158.0000: 
STEP.FT                 0.1000: 
NULL.                -999.2500: 
COMP.          Pioneer Natural Resources: COMPANY
WELL.              Draco 31-21: WELL
FLD.           Purgatoire River: FIELD
LOC.           491' FNL & 2446' FEL: LOCATION
CNTY.               Las Animas: COUNTY
SRVC.                Patterson: SERVICE COMPANY
DATE.          Wed Feb 01 07:01:32 2006: LOG DATE
UWI.           05 071 08672 00: UNIQUE WELL ID
STAT.                 Colorado: STATE
~Curve Information Block
DEPT.FT            0 000 00 00: Depth
DCAL.in                       : CDL Caliper
RHOB.g/cc                     : CDL Bulk Density
RHOC.g/cc                     : CDL Density Correction
DPOR.pu                       : CDL Density Porosity
GR.GAPI                       : Gamma Ray
NPOR.pu                       : Neutron Porosity
~Parameter Information Block
~A  Depth       DCAL        RHOB        RHOC        DPOR         GR         NPOR    
# ...
   708.6000      7.9388      2.5352      0.0755      6.9552    125.7567     23.5516
   708.7000      7.9388      2.5108      0.0508      8.4393    121.4010     23.1321
   708.8000      7.9398      2.4745      0.0073     10.6353    124.8330     23.5134
   708.9000      7.9398      2.4563      0.0165     11.7382    131.9480     24.0941
   709.0000      7.9420      2.4599      0.0132     11.5187    137.7896     24.3999
   709.1000      7.9420      2.4704      0.0132     10.8853    139.6255     24.6889
   709.2000      7.9420      2.4784      0.0128     10.3984    134.8472     24.6209
   709.3000      7.9380      2.4819      0.0205     10.1875    127.5566     24.0305
   709.4000      7.9380      2.4787      0.0361     10.3845    124.2895     23.3866
   709.5000      7.9395      2.4762      0.0083     10.5318    127.7757     22.9834
   709.6000      7.9395      2.4897      0.0312      9.7153    133.9987     22.9541
   709.7000      7.9395      2.5084      0.0919      8.5833    136.2703     23.2280
   709.8000      7.9398      2.5035      0.0846      8.8787    129.6620     23.3087
   709.9000      7.9398      2.4754      0.0545     10.5842    116.5388     23.0135
   710.0000      7.9418      2.4500      0.0292     12.1189    111.0140     23.0580
   710.1000      7.9418      2.4435      0.0410     12.5135    118.7197     23.5806
   710.2000      7.9418      2.4532      0.0190     11.9244    129.4478     23.8750
   710.3000      7.9410      2.4695      0.0396     10.9416    135.6373     23.9136
   710.4000      7.9410      2.4876      0.0436      9.8403    135.8040     23.9660
   710.5000      7.9400      2.5071      0.0808      8.6580    131.7417     24.2025
   710.6000      7.9400      2.5188      0.1122      7.9532    128.6965     24.2989
   710.7000      7.9400      2.5182      0.0637      7.9865    126.6108     23.8671
   710.8000      7.9399      2.5144      0.0919      8.2203    120.1853     23.4700
   710.9000      7.9399      2.5134      0.0647      8.2774    111.8932     23.4874
   711.0000      7.9383      2.5134      0.0595      8.2791    109.5399     23.2331
   711.1000      7.9383      2.5086      0.0306      8.5678    112.6047     22.3428
   711.2000      7.9383      2.4995      0.0347      9.1238    114.5974     21.5607
   711.3000      7.9409      2.4933      0.0405      9.4968    114.7833     21.4946
   711.4000      7.9409      2.4983      0.0094      9.1911    115.5745     21.6697
   711.5000      7.9339      2.5145      0.0489      8.2147    116.9417     21.7912
   711.6000      7.9339      2.5288      0.0508      7.3435    118.4623     22.3008
   711.7000      7.9339      2.5290      0.0500      7.3342    122.7630     22.8549
   711.8000      7.9368      2.5197      0.0403      7.8956    126.3105     23.0376
   711.9000      7.9368      2.5139      0.0380      8.2459    122.4137     22.9557
   712.0000      7.9373      2.5095      0.0846      8.5138    115.7864     22.6574
   712.1000      7.9373      2.4982      0.0565      9.1974    111.8659     22.2961
   712.2000      7.9373      2.4897      0.0163      9.7143    110.6305     22.1553
   712.3000      7.9388      2.4881      0.0609      9.8095    113.9154     22.2028
   712.4000      7.9388      2.4771      0.0621     10.4763    123.4872     22.3269
   712.5000      7.9388      2.4561      0.0031     11.7516    133.7480     22.1439
   712.6000      7.9388      2.4437      0.0089     12.5048    135.9955     21.2639
   712.7000      7.9388      2.4509      0.0065     12.0668    130.0414     20.4352
   712.8000      7.9396      2.4703      0.0580     10.8918    123.0397     20.9128
   712.9000      7.9396      2.4783      0.0803     10.4048    120.8845     22.2668
   713.0000      7.9387      2.4697      0.0402     10.9279    126.0190     23.1612
   713.1000      7.9387      2.4663      0.0523     11.1330    133.2571     23.5705
   713.2000      7.9387      2.4792      0.0465     10.3543    132.4128     23.8255
   713.3000      7.9383      2.4922      0.0860      9.5637    124.2531     23.7820
   713.4000      7.9383      2.4861      0.0389      9.9339    121.2497     23.8421
   713.5000      7.9382      2.4693     -0.0172     10.9492    127.6204     24.2707
   713.6000      7.9382      2.4613      0.0361     11.4369    132.9616     24.5256
   713.7000      7.9382      2.4641     -0.0081     11.2684    129.8242     24.0558
   713.8000      7.9380      2.4729      0.0214     10.7309    127.0421     23.2721
   713.9000      7.9380      2.4796      0.0316     10.3262    132.7843     22.9809
   714.0000      7.9387      2.4697      0.0772     10.9280    139.1689     23.3036
   714.1000      7.9387      2.4444     -0.0045     12.4600    137.5637     23.8699
   714.2000      7.9387      2.4305     -0.0218     13.3010    131.4353     24.0162
   714.3000      7.9397      2.4409     -0.0047     12.6706    129.1246     23.4870
   714.4000      7.9397      2.4547      0.0223     11.8349    133.0108     23.1649
   714.5000      7.9403      2.4538     -0.0000     11.8930    136.6674     23.4240
   714.6000      7.9403      2.4488      0.0014     12.1916    135.6385     23.6093
   714.7000      7.9403      2.4576      0.0253     11.6597    133.4615     23.4876
   714.8000      7.9406      2.4819      0.0168     10.1872    132.4661     23.4817
   714.9000      7.9406      2.5092      0.0660      8.5359    131.2406     23.6357
   715.0000      7.9381      2.5309      0.0474      7.2179    129.4327     23.6661
   715.1000      7.9381      2.5539      0.0559      5.8218    125.4758     23.3325
   715.2000      7.9381      2.5766      0.1244      4.4477    117.8770     22.4955
   715.3000      7.9337      2.5891      0.0682      3.6934    109.6590     21.4851
   715.4000      7.9337      2.5920      0.0708      3.5143    106.1756     20.4868
   715.5000      7.9249      2.5809      0.0903      4.1904    107.8214     19.3636
   715.6000      7.9249      2.5615     -0.0179      5.3651    109.6009     18.5047
   715.7000      7.9249      2.5597      0.0049      5.4735    106.7130     18.4605
   715.8000      7.9324      2.5741      0.0128      4.5989     99.1237     19.0016
   715.9000      7.9324      2.5837      0.0204      4.0161     90.3457     19.3956
   716.0000      7.9319      2.5863      0.0307      3.8606     84.2642     19.2397
   716.1000      7.9319      2.5853      0.0568      3.9186     84.1665     18.8156
   716.2000      7.9319      2.5773      0.0297      4.4081     87.4481     18.5139
   716.3000      7.9330      2.5679      0.0099      4.9759     89.6194     18.4362
   716.4000      7.9330      2.5710     -0.0047      4.7899     89.8786     18.0728
   716.5000      7.9310      2.5871      0.0555      3.8092     88.7804     17.1505
   716.6000      7.9310      2.6030      0.0573      2.8502     88.5934     16.7285
   716.7000      7.9310      2.6127      0.0428      2.2601     92.3160     17.5423
   716.8000      7.9318      2.6219      0.0617      1.7003     99.4776     18.8962
   716.9000      7.9318      2.6290      0.0732      1.2708    107.5527     19.7740
   717.0000      7.9369      2.6230      0.0594      1.6340    116.6991     19.4650
   717.1000      7.9369      2.6019      0.0458      2.9128    123.1140     18.0327
   717.2000      7.9369      2.5785      0.0422      4.3333    119.8979     16.4825
   717.3000      7.9368      2.5604      0.0406      5.4289    110.5460     15.8296
   717.4000      7.9368      2.5432      0.0320      6.4737    105.8810     16.1423
   717.5000      7.9395      2.5259     -0.0017      7.5229    108.5209     16.8876
   717.6000      7.9395      2.5093      0.0068      8.5253    110.5999     17.7130
   717.7000      7.9395      2.4937     -0.0035      9.4737    108.6133     18.5604
   717.8000      7.9405      2.4860     -0.0355      9.9389    106.9940     19.3282
   717.9000      7.9405      2.4925     -0.0258      9.5436    106.8298     19.9211
   718.0000      7.9425      2.5114     -0.0193      8.3976    106.5588     20.2225
   718.1000      7.9425      2.5336      0.0231      7.0517    106.2590     19.8836
