~Version Information
VERS.                      2.0: CWLS Log ASCII Standard - VERSION 2.0
WRAP.                       NO: One line per depth step
~Well Information Block
STRT.FT               370.0000: 
STOP.FT              1259.0000: 
STEP.FT                 0.1000: 
NULL.                -999.2500: 
COMP.          Pioneer Natural Resources: COMPANY
WELL.           Tennis 7-12 Tr: WELL
FLD.           Purgatoire River: FIELD
LOC.           1794' FNL & 1563' FEL: LOCATION
PROV.                 Colorado: PROVINCE
CNTY.               Las Animas: COUNTRY
SRVC.                Patterson: SERVICE COMPANY
DATE.          Tue Dec 20 13:35:40 2005: LOG DATE
UWI.           05 071 08635 00: UNIQUE WELL ID
~Curve Information Block
DEPT.FT            0 000 00 00: Depth
DCAL.in                       : CDL Caliper
RHOB.g/cc                     : CDL Bulk Density
RHOC.g/cc                     : CDL Density Correction
DPOR.pu                       : CDL Density Porosity
GR.GAPI                       : Gamma Ray
~Parameter Information Block
~A  Depth       DCAL        RHOB        RHOC        DPOR         GR     
# ...
   426.0000      7.8469      2.5435      0.1795      6.4540    154.4945
   426.1000      7.8469      2.4974      0.1456      9.2473    157.4489
   426.2000      7.8469      2.4307      0.0958     13.2905    157.0374
   426.3000      7.8472      2.3647      0.0358     17.2934    156.5075
   426.4000      7.8472      2.3193     -0.0179     20.0443    155.3174
   426.5000      7.8464      2.3065     -0.0046     20.8174    151.3770
   426.6000      7.8464      2.3214      0.0575     19.9172    144.1691
   426.7000      7.8464      2.3506      0.0593     18.1455    140.1782
   426.8000      7.8461      2.3919      0.1051     15.6411    146.2391
   426.9000      7.8461      2.4366      0.1971     12.9348    154.8552
   427.0000      7.8470      2.4584      0.2497     11.6094    157.0603
   427.1000      7.8470      2.4486      0.2232     12.2069    156.9729
   427.2000      7.8470      2.4291      0.1677     13.3880    157.8347
   427.3000      7.8483      2.4176      0.1619     14.0838    158.6655
   427.4000      7.8483      2.4076      0.1336     14.6905    159.5033
   427.5000      7.8486      2.3922      0.0972     15.6230    159.0477
   427.6000      7.8486      2.3734      0.1104     16.7620    159.3760
   427.7000      7.8486      2.3561      0.0244     17.8111    164.4413
   427.8000      7.8472      2.3532      0.0277     17.9853    171.2083
   427.9000      7.8472      2.3741      0.0575     16.7239    176.8668
   428.0000      7.8454      2.4126      0.0813     14.3863    179.9138
   428.1000      7.8454      2.4553      0.1451     11.8013    183.1682
   428.2000      7.8454      2.4890      0.1995      9.7561    193.2607
   428.3000      7.8425      2.5077      0.1898      8.6270    200.6641
   428.4000      7.8425      2.5126      0.2066      8.3297    194.0617
   428.5000      7.8355      2.5088      0.1731      8.5572    180.5670
   428.6000      7.8355      2.4951      0.2042      9.3852    171.9680
   428.7000      7.8355      2.4695      0.1133     10.9414    169.9407
   428.8000      7.8099      2.4531      0.0312     11.9328    169.7917
   428.9000      7.8099      2.4657      0.0655     11.1723    172.8832
   429.0000      7.7649      2.4897      0.0902      9.7152    179.0601
   429.1000      7.7649      2.4964      0.0956      9.3084    182.6204
   429.2000      7.7649      2.4867      0.0469      9.8997    182.6463
   429.3000      7.7359      2.4810      0.0519     10.2432    181.0912
   429.4000      7.7359      2.4801      0.0859     10.2952    178.1167
   429.5000      7.7265      2.4687      0.0624     10.9901    176.9558
   429.6000      7.7265      2.4452      0.0121     12.4147    180.0686
   429.7000      7.7265      2.4235      0.0037     13.7250    184.1565
   429.8000      7.7200      2.4162     -0.0042     14.1676    184.5425
   429.9000      7.7200      2.4267      0.0296     13.5333    181.0754
   430.0000      7.7107      2.4503      0.0279     12.1015    175.1888
   430.1000      7.7107      2.4828      0.0317     10.1357    168.7745
   430.2000      7.7107      2.5201      0.1078      7.8714    168.6738
   430.3000      7.6989      2.5518      0.1290      5.9526    173.8695
   430.4000      7.6989      2.5678      0.1601      4.9819    177.2993
   430.5000      7.6928      2.5708      0.1430      4.8027    176.8046
   430.6000      7.6928      2.5683      0.1200      4.9503    175.7108
   430.7000      7.6928      2.5577      0.1260      5.5913    179.4187
   430.8000      7.6918      2.5450      0.0481      6.3653    187.5376
   430.9000      7.6918      2.5547      0.0442      5.7773    190.6247
   431.0000      7.8414      2.5837      0.1005      4.0189    181.1537
   431.1000      7.8414      2.5993      0.0786      3.0738    167.0821
   431.2000      7.8414      2.5920      0.0653      3.5150    160.7348
   431.3000      7.8412      2.5768      0.0573      4.4344    160.7011
   431.4000      7.8412      2.5624      0.0258      5.3065    158.3098
   431.5000      7.8412      2.5464      0.0172      6.2807    154.0874
   431.6000      7.8412      2.5296      0.0156      7.2970    156.0483
   431.7000      7.8412      2.5172      0.0316      8.0475    165.5891
   431.8000      7.8410      2.5103      0.0254      8.4697    175.4502
   431.9000      7.8410      2.5079      0.0505      8.6103    178.4857
   432.0000      7.8408      2.5106      0.0495      8.4500    175.1774
   432.1000      7.8408      2.5184      0.0573      7.9786    170.6956
   432.2000      7.8408      2.5248      0.0783      7.5873    165.1261
   432.3000      7.8405      2.5249      0.0108      7.5805    158.1529
   432.4000      7.8405      2.5288      0.0208      7.3437    154.5396
   432.5000      7.8404      2.5459      0.0316      6.3081    155.4292
   432.6000      7.8404      2.5699      0.0541      4.8545    159.0407
   432.7000      7.8404      2.5891      0.0851      3.6924    165.4203
   432.8000      7.8405      2.5954      0.1100      3.3094    167.6477
   432.9000      7.8405      2.5827      0.0981      4.0774    162.8099
   433.0000      7.8405      2.5598      0.0402      5.4646    161.2346
   433.1000      7.8405      2.5473      0.0085      6.2270    163.7164
   433.2000      7.8405      2.5464      0.0455      6.2793    163.2905
   433.3000      7.8404      2.5444      0.0158      6.3998    161.8549
   433.4000      7.8404      2.5473      0.0095      6.2268    162.5058
   433.5000      7.8405      2.5629      0.0193      5.2766    162.5372
   433.6000      7.8405      2.5758      0.0531      4.4985    160.4625
   433.7000      7.8405      2.5758      0.0078      4.4977    159.5859
   433.8000      7.8404      2.5757      0.0113      4.5056    160.9824
   433.9000      7.8404      2.5846      0.0311      3.9637    164.1915
   434.0000      7.8395      2.5956      0.0797      3.2998    168.6432
   434.1000      7.8395      2.5971      0.0651      3.2065    169.7061
   434.2000      7.8395      2.5906      0.0504      3.5978    165.7051
   434.3000      7.8392      2.5828      0.0618      4.0720    163.2768
   434.4000      7.8392      2.5740      0.0804      4.6062    166.2231
   434.5000      7.8392      2.5670      0.0305      5.0331    170.3903
   434.6000      7.8392      2.5656      0.0473      5.1146    169.2562
   434.7000      7.8392      2.5617      0.0465      5.3521    162.5312
   434.8000      7.8391      2.5477      0.0340      6.2026    157.3176
   434.9000      7.8391      2.5314     -0.0062      7.1851    155.5604
   435.0000      7.8393      2.5236     -0.0110      7.6630    154.5547
   435.1000      7.8393      2.5215      0.0119      7.7870    155.9918
   435.2000      7.8393      2.5175     -0.0083      8.0314    163.6333
   435.3000      7.8399      2.5113     -0.0004      8.4079    174.1201
   435.4000      7.8399      2.5064      0.0060      8.7040    177.1545
   435.5000      7.8412      2.4995      0.0231      9.1220    170.2343
   435.6000      7.8412      2.4877     -0.0237      9.8388    161.1498
   435.7000      7.8412      2.4788     -0.0111     10.3764    154.6418
   435.8000      7.8453      2.4774     -0.0116     10.4624    148.4379
   435.9000      7.8453      2.4781     -0.0152     10.4208    141.8980
   436.0000      7.8488      2.4787      0.0064     10.3809    138.2322
   436.1000      7.8488      2.4818     -0.0071     10.1913    138.3481
   436.2000      7.8488      2.4886     -0.0149      9.7841    142.1555
   436.3000      7.8460      2.4971      0.0333      9.2655    148.9524
   436.4000      7.8460      2.5085      0.0139      8.5763    157.5130
   436.5000      7.8425      2.5265      0.0255      7.4846    163.2075
   436.6000      7.8425      2.5446      0.0692      6.3892    161.0746
   436.7000      7.8425      2.5519      0.0591      5.9433    154.5488
   436.8000      7.8403      2.5550      0.0339      5.7559    146.6649
   436.9000      7.8403      2.5623      0.0907      5.3128    139.8627
   437.0000      7.8386      2.5658      0.0520      5.1023    136.9995
   437.1000      7.8386      2.5605      0.0516      5.4226    134.7116
