~Version Information
VERS.                      2.0: CWLS Log ASCII Standard - VERSION 2.0
WRAP.                       NO: One line per depth step
~Well Information Block
STRT.FT               440.0000: 
STOP.FT              1300.5000: 
STEP.FT                 0.1000: 
NULL.                -999.2500: 
COMP.          Pioneer Natural Resources: COMPANY
WELL.              Yoshi 14-30: WELL
FLD.           Purgatoire River: FIELD
LOC.           993' FSL & 823' FWL: LOCATION
CNTY.               Las Animas: COUNTY
SRVC.                Patterson: SERVICE COMPANY
DATE.          Fri Feb 17 14:59:28 2006: LOG DATE
UWI.           05 071 08699 00: UNIQUE WELL ID
STAT.                 Colorado: STATE
~Curve Information Block
DEPT.FT            0 000 00 00: Depth
DCAL.in                       : CDL Caliper
RHOB.g/cc                     : CDL Bulk Density
RHOC.g/cc                     : CDL Density Correction
DPOR.pu                       : CDL Density Porosity
GR.GAPI                       : Gamma Ray
NPOR.pu                       : Neutron Porosity
~Parameter Information Block
~A  Depth       DCAL        RHOB        RHOC        DPOR         GR         NPOR    
# ...
  1112.0000      8.0420      2.5366      0.0199      6.8750     86.4536     20.5008
  1112.1000      8.0420      2.5615      0.0379      5.3627     83.5655     21.1852
  1112.2000      8.0420      2.5896      0.0344      3.6588     81.2049     21.2335
  1112.3000      8.0380      2.6080      0.0629      2.5456     77.9596     20.9197
  1112.4000      8.0380      2.6089      0.0443      2.4912     74.0451     20.5548
  1112.5000      8.0334      2.5911      0.0465      3.5692     70.2567     19.9947
  1112.6000      8.0334      2.5608      0.0488      5.4083     66.9404     19.3713
  1112.7000      8.0334      2.5315      0.0310      7.1809     66.0951     19.4788
  1112.8000      8.0284      2.5191     -0.0172      7.9346     69.4106     20.3870
  1112.9000      8.0284      2.5265      0.0656      7.4848     74.6773     20.9571
  1113.0000      8.0268      2.5378      0.0497      6.7985     78.6643     20.7765
  1113.1000      8.0268      2.5470      0.0048      6.2415     80.0708     20.6476
  1113.2000      8.0268      2.5640      0.0821      5.2143     79.9916     20.8146
  1113.3000      8.0290      2.5914      0.0661      3.5525     80.4132     20.7778
  1113.4000      8.0290      2.6229      0.0892      1.6431     81.5579     20.5801
  1113.5000      8.0318      2.6397      0.1343      0.6272     82.4578     20.3082
  1113.6000      8.0318      2.6298      0.0593      1.2233     82.1474     19.6561
  1113.7000      8.0318      2.6084      0.0778      2.5223     79.8537     19.0997
  1113.8000      8.0350      2.5878      0.0677      3.7697     76.5189     19.0478
  1113.9000      8.0350      2.5663      0.0601      5.0737     73.9973     19.0356
  1114.0000      8.0383      2.5446      0.0272      6.3858     72.7556     19.1553
  1114.1000      8.0383      2.5326     -0.0079      7.1170     72.9941     19.7055
  1114.2000      8.0383      2.5379      0.0456      6.7924     73.1967     20.2093
  1114.3000      8.0403      2.5543      0.0399      5.8017     72.3405     20.1764
  1114.4000      8.0403      2.5673      0.0441      5.0128     74.0637     19.7447
  1114.5000      8.0422      2.5662      0.0495      5.0786     79.4622     19.5404
  1114.6000      8.0422      2.5517      0.0208      5.9595     82.9205     19.8287
  1114.7000      8.0422      2.5397      0.0377      6.6878     81.0232     20.0733
  1114.8000      8.0411      2.5448      0.0317      6.3769     77.1529     19.9645
  1114.9000      8.0411      2.5611      0.0546      5.3875     76.8329     19.6213
  1115.0000      8.0377      2.5699      0.0472      4.8537     79.9336     19.1459
  1115.1000      8.0377      2.5695      0.0261      4.8803     79.8787     18.9133
  1115.2000      8.0377      2.5724      0.0389      4.7042     73.9543     19.2442
  1115.3000      8.0348      2.5759      0.0317      4.4928     69.1824     20.0213
  1115.4000      8.0348      2.5716      0.0367      4.7514     70.1616     20.6115
  1115.5000      8.0327      2.5610      0.0426      5.3921     71.4460     20.6261
  1115.6000      8.0327      2.5488      0.0286      6.1330     68.9327     20.3541
  1115.7000      8.0327      2.5421      0.0161      6.5368     63.1290     19.9965
  1115.8000      8.0304      2.5444      0.0442      6.3981     56.1166     19.7281
  1115.9000      8.0304      2.5548      0.0340      5.7699     51.7536     19.8288
  1116.0000      8.0266      2.5695      0.0554      4.8779     50.7214     20.0270
  1116.1000      8.0266      2.5746      0.1098      4.5678     49.5609     19.9785
  1116.2000      8.0266      2.5603      0.0453      5.4339     48.2924     19.9219
  1116.3000      8.0246      2.5372     -0.0088      6.8346     50.0719     20.1904
  1116.4000      8.0246      2.5230      0.0082      7.6943     54.6696     20.6375
  1116.5000      8.0295      2.5267      0.0324      7.4720     59.7078     20.7435
  1116.6000      8.0295      2.5424      0.0638      6.5233     63.2595     20.3674
  1116.7000      8.0295      2.5599      0.0278      5.4629     65.1331     19.9251
  1116.8000      8.0360      2.5719      0.0813      4.7348     65.1334     19.7869
  1116.9000      8.0360      2.5723      0.0630      4.7082     61.6397     20.0092
  1117.0000      8.0385      2.5704      0.0606      4.8255     56.8011     20.3082
  1117.1000      8.0385      2.5794      0.0647      4.2769     56.5778     20.1291
  1117.2000      8.0385      2.5920      0.0941      3.5180     59.1872     19.4409
  1117.3000      8.0372      2.5953      0.0334      3.3172     58.5035     18.9591
  1117.4000      8.0372      2.5919      0.0673      3.5184     56.1752     19.2142
  1117.5000      8.0329      2.5856      0.0486      3.9000     56.0894     19.9556
  1117.6000      8.0329      2.5786      0.0370      4.3293     57.7890     20.4057
  1117.7000      8.0329      2.5707      0.0639      4.8055     59.0303     20.3344
  1117.8000      8.0272      2.5574      0.0523      5.6117     58.8616     20.0763
  1117.9000      8.0272      2.5449      0.0160      6.3706     58.8231     19.8153
  1118.0000      8.0220      2.5468     -0.0085      6.2523     61.7681     19.7822
  1118.1000      8.0220      2.5601      0.0466      5.4509     67.0176     19.9666
  1118.2000      8.0220      2.5678      0.0550      4.9802     70.9890     19.9220
  1118.3000      8.0176      2.5626      0.0592      5.2971     74.6911     19.8048
  1118.4000      8.0176      2.5456      0.0733      6.3292     80.9205     20.1570
  1118.5000      8.0160      2.5200      0.0673      7.8798     88.7146     20.9464
  1118.6000      8.0160      2.4946      0.0492      9.4181     95.6106     21.4683
  1118.7000      8.0160      2.4817      0.0186     10.1999    100.5689     21.3246
  1118.8000      8.0192      2.4822      0.0659     10.1717    104.8340     20.9810
  1118.9000      8.0192      2.4839      0.0446     10.0695    111.6213     20.8019
  1119.0000      8.0261      2.4805      0.0327     10.2750    120.1821     20.7632
  1119.1000      8.0261      2.4735      0.0376     10.6981    124.7458     21.0209
  1119.2000      8.0261      2.4647      0.0346     11.2297    123.6700     21.3401
  1119.3000      8.0320      2.4561      0.0346     11.7526    122.0900     21.1724
  1119.4000      8.0320      2.4497     -0.0046     12.1384    123.3096     20.6972
  1119.5000      8.0379      2.4458      0.0220     12.3774    125.1059     20.2000
  1119.6000      8.0379      2.4410      0.0024     12.6686    128.5248     19.7517
  1119.7000      8.0379      2.4378     -0.0012     12.8592    133.1605     19.6120
  1119.8000      8.0444      2.4409      0.0076     12.6714    133.1619     19.7217
  1119.9000      8.0444      2.4420      0.0435     12.6086    128.7866     19.7958
  1120.0000      8.0470      2.4365      0.0001     12.9414    125.7355     19.9075
  1120.1000      8.0470      2.4333      0.0453     13.1361    122.2005     20.3166
  1120.2000      8.0470      2.4321      0.0153     13.2090    117.9749     20.9497
  1120.3000      8.0458      2.4242      0.0427     13.6822    121.9322     21.2860
  1120.4000      8.0458      2.4034      0.0647     14.9458    132.1318     21.2301
  1120.5000      8.0444      2.3769     -0.0111     16.5513    135.8130     21.1890
  1120.6000      8.0444      2.3623     -0.0016     17.4377    130.0925     21.2165
  1120.7000      8.0444      2.3596      0.0272     17.5992    123.5795     20.8632
  1120.8000      8.0443      2.3578      0.0410     17.7095    119.7778     20.2152
  1120.9000      8.0443      2.3528      0.0411     18.0132    115.7034     19.8475
  1121.0000      8.0424      2.3405      0.0395     18.7588    114.6758     19.6069
  1121.1000      8.0424      2.3148      0.0244     20.3122    118.7043     19.1149
  1121.2000      8.0424      2.2764      0.0252     22.6428    122.6323     18.7376
  1121.3000      8.0377      2.2325      0.0008     25.3056    123.4040     18.7810
  1121.4000      8.0377      2.1893     -0.0243     27.9196    120.9528     18.6422
  1121.5000      8.0343      2.1433     -0.0138     30.7093    117.0361     17.6019
