~Version Information
VERS.                      2.0: CWLS Log ASCII Standard - VERSION 2.0
WRAP.                       NO: One line per depth step
~Well Information Block
STRT.FT                 0.0000: 
STOP.FT              1238.2500: 
STEP.FT                 0.2500: 
NULL.                -999.2500: 
COMP.          Pioneer Natural Resources: COMPANY
WELL.                 Ray 34-6: WELL
FLD.           Purgatoire River: FIELD
LOC.           684' FSL & 2254' FEL: LOCATION
CNTY.               Las Animas: COUNTY
SRVC.                         : SERVICE COMPANY
DATE.          Fri Jun 23 09:23:24 2006: LOG DATE
UWI.           05 071 08695 00: UNIQUE WELL ID
STAT.                       CO: STATE
~Curve Information Block
DEPT.FT            0 000 00 00: Depth
GR.GAPI                       : Gamma Ray
CCL.                          : Casing Collar Locator
TT3.usec                      : CBL 3' Travel Time
AMP3.mV                       : CBL 3' Amplitude
~Parameter Information Block
~A  Depth        GR         CCL         TT3         AMP3    
# ...
  1139.0000     76.4325      0.0000    580.2058      7.9210
  1139.2500     74.6739      0.0000    625.3253      8.0346
  1139.5000     72.0399      0.0000    673.9061      8.1230
  1139.7500     68.7253      0.0000    710.9745      8.1775
  1140.0000     65.6840      0.0000    732.0651      8.2129
  1140.2500     63.9928      0.0000    740.8801      8.2457
  1140.5000     63.9660      0.0000    742.7920      8.2718
  1140.7500     65.0735      0.0000    741.2684      8.2795
  1141.0000     66.6100      0.0000    737.7883      8.2727
  1141.2500     68.0487      0.0000    732.2056      8.2681
  1141.5000     68.7978      0.0000    723.0269      8.2740
  1141.7500     68.2482      0.0000    709.3543      8.2827
  1142.0000     66.4299      0.0000    694.0267      8.2859
  1142.2500     64.2107      0.0000    683.4337      8.2867
  1142.5000     62.4324      0.0000    682.1837      8.2954
  1142.7500     61.0307      0.0000    688.6667      8.3139
  1143.0000     59.4440      0.0000    697.1873      8.3310
  1143.2500     57.8236      0.0000    703.3600      8.3353
  1143.5000     57.2012      0.0000    706.3582      8.3282
  1143.7500     58.2431      0.0000    707.3813      8.3201
  1144.0000     60.4608      0.0000    707.6932      8.3196
  1144.2500     62.8890      0.0000    707.9807      8.3296
  1144.5000     64.9215      0.0000    708.5938      8.3495
  1144.7500     66.1980      0.0000    709.9401      8.3741
  1145.0000     66.2585      0.0000    712.7051      8.3919
  1145.2500     64.7808      0.0000    717.5640      8.3874
  1145.5000     62.1814      0.0000    724.4340      8.3503
  1145.7500     59.8878      0.0000    731.9282      8.2807
  1146.0000     59.6347      0.0000    737.7844      8.1890
  1146.2500     61.8656      0.0000    740.0580      8.0961
  1146.5000     65.0030      0.0000    738.1407      8.0302
  1146.7500     66.9035      0.0000    733.1141      8.0123
  1147.0000     66.7749      0.0000    727.3405      8.0396
  1147.2500     65.1726      0.0000    723.1730      8.0889
  1147.5000     62.8005      0.0000    721.5147      8.1364
  1147.7500     60.1744      0.0000    721.6838      8.1700
  1148.0000     57.9776      0.0000    722.6980      8.1820
  1148.2500     56.7856      0.0000    724.2322      8.1615
  1148.5000     56.4182      0.0000    726.1798      8.1019
  1148.7500     56.0607      0.0000    727.8066      8.0143
  1149.0000     55.2004      0.0000    727.7761      7.9275
  1149.2500     54.3336      0.0000    725.1276      7.8709
  1149.5000     54.5502      0.0000    720.2472      7.8535
  1149.7500     56.3502      0.0000    714.7314      7.8569
  1150.0000     59.0183      0.0000    710.1931      7.8496
  1150.2500     61.1699      0.0000    707.3063      7.8085
  1150.5000     61.7102      0.0000    705.8632      7.7294
  1150.7500     60.4005      0.0000    705.3546      7.6232
  1151.0000     58.0095      0.0000    705.3851      7.5097
  1151.2500     55.9762      0.0000    705.8315      7.4102
  1151.5000     55.4262      0.0000    706.7478      7.3408
  1151.7500     56.2241      0.0000    707.9147      7.3065
  1152.0000     57.1197      0.0000    707.8951      7.3019
  1152.2500     56.9122      0.0000    703.4213      7.3158
  1152.5000     55.4890      0.0000    690.6133      7.3340
  1152.7500     53.8023      0.0000    668.0823      7.3349
  1153.0000     52.9565      0.0000    638.9937      7.2853
  1153.2500     53.3812      0.0000    609.9504      7.1553
  1153.5000     54.7095      0.0000    588.1407      6.9490
  1153.7500     56.1365      0.0000    578.3861      6.7198
  1154.0000     56.8417      0.0000    580.9633      6.5414
  1154.2500     56.4850      0.0000    592.7269      6.4492
  1154.5000     55.6476      0.0000    611.0842      6.4040
  1154.7500     55.5321      0.0000    634.6509      6.3268
  1155.0000     56.7159      0.0000    659.7053      6.1954
  1155.2500     58.2024      0.0000    680.4298      6.1038
  1155.5000     58.1636      0.0000    694.3331      6.1867
  1155.7500     55.7623      0.0000    703.8924      6.4807
  1156.0000     51.9562      0.0000    711.9124      6.8891
  1156.2500     48.5487      2.0000    718.3431      7.2714
  1156.5000     46.8772      1.7111    721.8879      7.5280
  1156.7500     47.4263      0.0000    721.6859      7.6349
  1157.0000     50.0612      0.0000    717.3157      7.6652
  1157.2500     54.1175      0.0000    710.1893      7.7469
  1157.5000     58.5102      0.0000    705.5131      7.9358
  1157.7500     62.3161      0.0000    710.0077      8.1715
  1158.0000     65.3449      0.0000    725.6762      8.4144
  1158.2500     67.8225      0.0000    746.9861      8.7387
  1158.5000     69.5647      0.0000    765.6326      9.2023
  1158.7500     69.9105      0.0000    777.1404      9.7019
  1159.0000     68.5987      0.0000    782.1813     10.0528
  1159.2500     66.3135      0.0000    783.3741     10.1651
  1159.5000     64.0711      0.0000    782.3304     10.0853
  1159.7500     62.1722      0.0000    779.1016      9.9090
  1160.0000     60.0457      0.0000    773.2743      9.7101
  1160.2500     57.1844      0.0000    765.2684      9.5339
  1160.5000     54.0272      0.0000    756.6987      9.4048
  1160.7500     51.8081      0.0000    749.4045      9.3243
  1161.0000     51.5815      0.0000    744.2605      9.2776
  1161.2500     53.3818      0.0000    740.8768      9.2527
  1161.5000     56.2494      0.0000    738.6008      9.2456
  1161.7500     58.9059      0.0000    738.2675      9.2503
  1162.0000     60.2904      0.0000    742.7296      9.2591
  1162.2500     59.7593      0.0000    754.5117      9.2764
  1162.5000     57.4585      0.0000    772.5004      9.3220
  1162.7500     54.7150      0.0000    791.7194      9.4064
  1163.0000     53.4948      0.0000    806.7476      9.5041
  1163.2500     54.8886      0.0000    815.0632      9.5657
  1163.5000     58.1602      0.0000    817.4956      9.5661
  1163.7500     61.4748      0.0000    816.6243      9.5290
  1164.0000     63.4127      0.0000    814.9921      9.5007
  1164.2500     63.7329      0.0000    814.0598      9.5120
  1164.5000     63.1688      0.0000    814.1696      9.5657
  1164.7500     62.8563      0.0000    815.0809      9.6388
  1165.0000     63.7690      0.0000    816.2214      9.6920
  1165.2500     66.3126      0.0000    816.8173      9.6953
  1165.5000     70.1185      0.0000    816.4906      9.6503
  1165.7500     74.0585      0.0000    815.6649      9.5814
  1166.0000     76.7438      0.0000    815.1143      9.5087
  1166.2500     77.4862      0.0000    815.4770      9.4387
  1166.5000     76.9696      0.0000    817.5551      9.3745
  1166.7500     76.9772      0.0000    822.8113      9.3249
  1167.0000     79.1683      0.0000    833.6959      9.2997
  1167.2500     83.5971      0.0000    853.1561      9.2975
  1167.5000     88.2664      0.0000    881.4560      9.3009
  1167.7500     90.6292      0.0000    911.5434      9.2848
  1168.0000     89.7702      0.0000    929.6415      9.2333
  1168.2500     86.9026      0.0000    924.4063      9.1518
  1168.5000     83.8051      0.0000    896.1974      9.0604
  1168.7500     81.2803      0.0000    856.4916      8.9747
  1169.0000     79.1709      0.0000    819.4132      8.8933
  1169.2500     77.0925      0.0000    794.0836      8.8032
  1169.5000     74.6981      0.0000    781.3102      8.6947
  1169.7500     71.8511      0.0000    774.1401      8.5710
  1170.0000     69.1392      0.0000    762.8942      8.4480
  1170.2500     67.8363      0.0000    743.0932      8.3506
  1170.5000     68.8961      0.0000    719.1683      8.2996
  1170.7500     72.1028      0.0000    699.2806      8.2885
  1171.0000     76.1288      0.0000    687.6714      8.2727
  1171.2500     79.1882      0.0000    683.7687      8.1941
  1171.5000     80.0063      0.0000    687.0394      8.0278
  1171.7500     78.6671      0.0000    698.4122      7.8068
  1172.0000     76.3210      0.0000    715.0364      7.5962
  1172.2500     73.9244      0.0000    726.4521      7.4359
