~Version Information
 VERS.                                  2.0 : CWLS LAS VERSION
 WRAP.                                   NO : WRAPING MODE
 SWARE .                 MController 2.5.0N : SOFTWARE VERSION
~Well Information
 WELL.               Bear Cub Federal 11-23 : WELL
 COMP.    Pioneer Natural Resources USA Inc : COMPANY
 FLD.                      Purgatoire River : FIELD
 LOC.                 NW/NW Sec23 T33S R67W : LOCATION
 DATE.                          06/18-19/06 : DATE(S) LOGGED
 SRVC.       Blanco Geological Services LLC : SERVICE COMPANY
 STAT.                             Colorado : STATE
 CNTY.                           Las Animas : COUNTY
 CTRY.                                  USA : COUNTRY
 API.                       05-071-08509-00 : API NUMBER
 STRT.FT                             475.00 : START DEPTH
 STOP.FT                            2220.00 : STOP DEPTH
 STEP.FT                               1.00 : DEPTH INCREMENT
 NULL.                                -9999 : NULL VALUE
~Curve information
 DEPTH.FT                                   :
 ROP.MIN/FT                                 :
 GAS.UNITS                                  :
~ASCII Log data
# ...
      1475.0         0.17         35.5 
      1476.0         0.20         35.3 
      1477.0         0.20         34.0 
      1478.0         0.17         34.3 
      1479.0         0.17         34.3 
      1480.0         0.23         35.4 
      1481.0         0.30         35.2 
      1482.0         0.30         35.3 
      1483.0         0.30         35.2 
      1484.0         0.28         35.5 
      1485.0         0.33         35.0 
      1486.0         0.30         35.5 
      1487.0         0.33         33.6 
      1488.0         0.33         29.4 
      1489.0         0.30         21.9 
      1490.0         0.23         22.1 
      1491.0         0.27         16.9 
      1492.0         0.27         16.7 
      1493.0         0.27         25.1 
      1494.0         0.30         60.1 
      1495.0         0.48         73.8 
      1496.0         1.50         76.3 
      1497.0         0.27         43.5 
      1498.0         0.33         38.7 
      1499.0         0.40         36.0 
      1500.0         0.33         35.5 
      1501.0         0.33         34.4 
      1502.0         0.32         33.9 
      1503.0         0.33         33.0 
      1504.0         0.30         34.6 
      1505.0         0.27         35.8 
      1506.0         0.33         36.6 
      1507.0         0.27         32.5 
      1508.0         0.33         30.7 
      1509.0         0.30         27.2 
      1510.0         0.33         29.5 
      1511.0         0.37         36.0 
      1512.0         0.38         35.7 
      1513.0         0.33         35.3 
      1514.0         0.33         33.8 
      1515.0         0.27         40.6 
      1516.0         0.30         42.4 
      1517.0         0.27         34.6 
      1518.0         0.30         26.6 
      1519.0         0.30         17.0 
      1520.0         0.30         15.9 
      1521.0         0.23         15.7 
      1522.0         0.23         17.4 
      1523.0         0.23         16.1 
      1524.0         0.25         18.2 
      1525.0         0.47         34.2 
      1526.0         2.00        116.5 
      1527.0         0.37         63.7 
      1528.0         0.33         55.8 
      1529.0         0.22         41.6 
      1530.0         0.33         41.0 
      1531.0         0.33         39.7 
      1532.0         0.37         39.6 
      1533.0         0.23         38.2 
      1534.0         0.27         36.3 
      1535.0         0.27         37.3 
      1536.0         0.27         38.1 
      1537.0         0.30         39.3 
      1538.0         0.30         36.3 
      1539.0         0.33         31.5 
      1540.0         0.28         29.5 
      1541.0         0.30         32.1 
      1542.0         0.33         41.8 
      1543.0         0.37         43.8 
      1544.0         0.30         43.0 
      1545.0         0.27         40.2 
      1546.0         0.27         41.2 
      1547.0         0.23         40.5 
      1548.0         0.33         38.8 
      1549.0         0.33         39.7 
      1550.0         0.33         31.9 
      1551.0         0.32         26.4 
      1552.0         0.30         22.1 
      1553.0         0.33         21.4 
      1554.0         0.33         18.8 
      1555.0         0.27         18.1 
      1556.0         2.55         71.3 
      1557.0         0.27         56.6 
      1558.0         0.33         46.9 
      1559.0         0.27         43.1 
      1560.0         0.20         41.6 
      1561.0         0.37         37.9 
      1562.0         0.33         36.7 
      1563.0         0.27         34.1 
      1564.0         0.13         33.8 
      1565.0         0.23         34.6 
      1566.0         0.17         34.3 
      1567.0         0.17         33.8 
      1568.0         0.18         32.8 
      1569.0         0.17         32.8 
      1570.0         0.17         32.2 
      1571.0         0.27         34.3 
      1572.0         0.20         33.4 
      1573.0         0.17         32.2 
      1574.0         0.20         32.2 
      1575.0         0.20         34.2 
      1576.0         0.20         34.1 
      1577.0         0.23         31.5 
      1578.0         0.22         29.4 
      1579.0         0.27         20.0 
      1580.0         0.20         18.9 
      1581.0         0.27         16.9 
      1582.0         0.23         15.5 
      1583.0         0.27         16.1 
      1584.0         0.30         18.5 
      1585.0         0.17         18.5 
      1586.0         2.12         70.9 
      1587.0         0.30         30.4 
      1588.0         0.37         28.2 
      1589.0         0.40         36.0 
      1590.0         0.40         41.3 
      1591.0         0.43         47.1 
      1592.0         0.37         40.9 
      1593.0         0.33         34.0 
      1594.0         0.45         35.5 
      1595.0         0.57         34.3 
      1596.0         0.50         33.5 
      1597.0         0.50         34.2 
      1598.0         0.47         34.1 
      1599.0         0.43         31.4 
      1600.0         0.43         33.8 
      1601.0         0.45         34.5 
      1602.0         0.43         37.5 
      1603.0         0.40         41.2 
      1604.0         0.40         46.2 
      1605.0         0.40         41.4 
      1606.0         0.43         77.5 
      1607.0         0.37         34.2 
      1608.0         0.23         25.6 
      1609.0         0.20         25.0 
      1610.0         0.18         23.1 
      1611.0         0.23         26.0 
      1612.0         0.20         27.5 
      1613.0         0.27         36.0 
      1614.0         0.23         58.5 
      1615.0         0.30        102.3 
      1616.0         0.53        147.6 
      1617.0         0.23         88.6 
      1618.0         0.20         73.4 
      1619.0         0.17         69.1 
      1620.0         0.13         55.4 
      1621.0         0.17         53.5 
      1622.0         0.20         52.2 
      1623.0         0.27         51.9 
      1624.0         0.22         49.7 
      1625.0         0.20         40.5 
      1626.0         0.13         58.0 
      1627.0         0.20         59.7 
      1628.0         0.40         51.5 
      1629.0         0.23         51.2 
      1630.0         0.17         45.6 
      1631.0         0.17         44.0 
      1632.0         0.17         43.3 
      1633.0         0.13         43.1 
      1634.0         0.13         43.1 
      1635.0         0.17         42.8 
      1636.0         0.23         41.5 
      1637.0         0.17         40.7 
      1638.0         0.23         25.6 
      1639.0         0.30         24.2 
      1640.0         0.32         22.7 
      1641.0         0.27         17.8 
      1642.0         0.30         15.5 
      1643.0         0.17         12.6 
      1644.0         0.23         16.0 
      1645.0         0.47         26.0 
      1646.0         1.33         79.3 
      1647.0         0.33         53.2 
      1648.0         0.35         53.5 
      1649.0         0.30         45.3 
      1650.0         0.23         43.5 
      1651.0         0.27         42.5 
      1652.0         0.17         40.2 
      1653.0         0.17         41.4 
      1654.0         0.17         41.4 
      1655.0         0.17         42.4 
      1656.0         0.17         41.3 
      1657.0         0.20         41.0 
      1658.0         0.20         36.8 
      1659.0         0.23         40.1 
      1660.0         0.27         46.4 
      1661.0         0.30         46.2 
      1662.0         0.32         44.8 
      1663.0         0.27         43.6 
      1664.0         0.27         41.8 
      1665.0         0.20         41.2 
      1666.0         0.20         26.5 
      1667.0         0.20         24.7 
      1668.0         0.23         23.2 
      1669.0         0.20         21.7 
      1670.0         0.23         20.7 
      1671.0         0.23         20.0 
      1672.0         0.23         21.0 
      1673.0         0.27         21.9 
      1674.0         0.40         30.2 
