~Version Information
VERS.                      2.0: CWLS Log ASCII Standard - VERSION 2.0
WRAP.                       NO: One line per depth step
~Well Information Block
STRT.FT               330.0000: 
STOP.FT              2874.7000: 
STEP.FT                 0.1000: 
NULL.                -999.2500: 
COMP.          Pioneer Natural Resources: COMPANY
WELL.                AMX 13-13: WELL
FLD.           Purgatoire River: FIELD
LOC.           2316' FSL & 865' FWL--: LOCATION
PROV.                 Colorado: PROVINCE
CNTY.               Las Animas: COUNTRY
SRVC.                Patterson: SERVICE COMPANY
DATE.          Tue Dec 20 09:57:28 2005: LOG DATE
UWI.           05 071 08630 00: UNIQUE WELL ID
~Curve Information Block
DEPT.FT            0 000 00 00: Depth
DCAL.in                       : CDL Caliper
RHOB.g/cc                     : CDL Bulk Density
RHOC.g/cc                     : CDL Density Correction
DPOR.pu                       : CDL Density Porosity
NPOR.pu                       : Neutron Porosity
GR.GAPI                       : Gamma Ray
~Parameter Information Block
~A  Depth       DCAL        RHOB        RHOC        DPOR        NPOR         GR     
# ...
  1837.2000      8.3580      2.4471      0.1952     12.2945     26.4627    138.9522
  1837.3000      8.2244      2.4361      0.1737     12.9639     26.0786    149.7065
  1837.4000      8.2244      2.4417      0.1826     12.6270     25.5683    154.1048
  1837.5000      8.1686      2.4352      0.2084     13.0207     24.9713    150.1724
  1837.6000      8.1686      2.3892      0.1384     15.8081     24.5752    144.2453
  1837.7000      8.1686      2.3115      0.0658     20.5163     24.5641    141.2057
  1837.8000      8.1805      2.2393      0.0472     24.8915     24.4268    139.8539
  1837.9000      8.1805      2.2063      0.0446     26.8913     23.8398    138.7272
  1838.0000      8.1288      2.2055      0.2125     26.9365     22.9309    137.1228
  1838.1000      8.1288      2.2067      0.1831     26.8650     21.9888    137.9266
  1838.2000      8.1288      2.2180      0.1584     26.1825     21.5007    145.1586
  1838.3000      8.0089      2.2634      0.2445     23.4285     21.8595    154.2899
  1838.4000      8.0089      2.3374      0.3175     18.9430     22.8245    160.0581
  1838.5000      7.9410      2.4292      0.3629     13.3843     23.6990    162.6489
  1838.6000      7.9410      2.5360      0.3899      6.9112     23.7726    157.3985
  1838.7000      7.9410      2.6353      0.4708      0.8925     22.8631    138.7551
  1838.8000      7.9422      2.6924      0.4841     -2.5705     21.9335    119.9553
  1838.9000      7.9422      2.7112      0.3767     -3.7074     21.9624    117.9305
  1839.0000      7.9603      2.7174      0.3890     -4.0841     22.5731    128.8943
  1839.1000      7.9603      2.7062      0.3764     -3.4065     22.7374    142.3841
  1839.2000      7.9603      2.6701      0.2370     -1.2201     22.4543    155.0709
  1839.3000      7.9729      2.6333      0.1240      1.0126     22.5523    164.8488
  1839.4000      7.9729      2.6144      0.1156      2.1602     23.0859    169.6968
  1839.5000      7.9786      2.5999      0.1090      3.0345     23.5151    168.9649
  1839.6000      7.9786      2.5735      0.0433      4.6346     23.6370    163.2317
  1839.7000      7.9786      2.5384      0.0151      6.7621     23.4969    155.2430
  1839.8000      7.9768      2.5091      0.0561      8.5422     23.1713    150.5515
  1839.9000      7.9768      2.5033      0.0494      8.8922     22.8467    150.3778
  1840.0000      7.9715      2.5256      0.0735      7.5421     22.9212    149.4636
  1840.1000      7.9715      2.5588      0.1083      5.5271     23.4725    147.8119
  1840.2000      7.9715      2.5810      0.1927      4.1792     24.0059    149.1726
  1840.3000      7.9687      2.5821      0.1537      4.1144     24.1081    148.4072
  1840.4000      7.9687      2.5723      0.1433      4.7063     23.7471    141.4596
  1840.5000      7.9696      2.5629      0.1399      5.2797     23.2845    133.2888
  1840.6000      7.9696      2.5502      0.1178      6.0470     22.9214    129.2892
  1840.7000      7.9696      2.5360      0.0510      6.9096     22.4819    131.9568
  1840.8000      7.9707      2.5352      0.0532      6.9570     22.0561    139.3788
  1840.9000      7.9707      2.5479      0.0913      6.1857     22.0025    147.0195
  1841.0000      7.9722      2.5632      0.0805      5.2629     22.3224    151.4344
  1841.1000      7.9722      2.5762      0.1347      4.4700     22.8231    148.5164
  1841.2000      7.9722      2.5771      0.1212      4.4157     23.3852    139.2209
  1841.3000      7.9737      2.5616      0.1156      5.3600     23.7363    132.0203
  1841.4000      7.9737      2.5485      0.0782      6.1489     23.9482    132.9873
  1841.5000      7.9722      2.5549      0.1463      5.7629     24.2539    138.5766
  1841.6000      7.9722      2.5680      0.1142      4.9672     24.3394    145.2485
  1841.7000      7.9722      2.5737      0.1223      4.6268     23.9463    153.4537
  1841.8000      7.9711      2.5812      0.1012      4.1721     23.4918    158.2587
  1841.9000      7.9711      2.6036      0.1611      2.8114     23.5512    155.8109
  1842.0000      7.9755      2.6274      0.1848      1.3722     23.9584    150.0313
  1842.1000      7.9755      2.6277      0.2034      1.3540     24.0514    146.0484
  1842.2000      7.9755      2.6064      0.1700      2.6424     23.7618    148.9426
  1842.3000      7.9858      2.5867      0.1634      3.8389     23.5917    156.7706
  1842.4000      7.9858      2.5750      0.1558      4.5463     23.8020    159.7881
  1842.5000      7.9914      2.5600      0.1200      5.4535     23.9325    152.9659
  1842.6000      7.9914      2.5399      0.0615      6.6729     23.2960    143.4688
  1842.7000      7.9914      2.5272      0.0417      7.4398     21.9988    142.2469
  1842.8000      7.9801      2.5281      0.0721      7.3879     21.0995    144.6526
  1842.9000      7.9801      2.5369      0.0867      6.8547     21.0770    139.2319
  1843.0000      7.9578      2.5491      0.0564      6.1171     21.1772    132.5177
  1843.1000      7.9578      2.5562      0.0889      5.6877     20.9890    132.0623
  1843.2000      7.9578      2.5466      0.0698      6.2663     20.8203    131.1961
  1843.3000      7.9378      2.5317      0.0198      7.1709     20.6066    127.4754
  1843.4000      7.9378      2.5342      0.0529      7.0184     20.1938    125.5080
  1843.5000      7.9198      2.5581      0.0911      5.5698     19.6748    122.9817
  1843.6000      7.9198      2.5906      0.0766      3.5999     19.0774    115.7481
  1843.7000      7.9198      2.6120      0.0699      2.3041     18.7535    110.1701
  1843.8000      7.9071      2.6080      0.0803      2.5429     19.0504    112.7809
  1843.9000      7.9071      2.5909      0.0460      3.5811     19.4889    117.8945
  1844.0000      7.8997      2.5914      0.0341      3.5510     19.2061    115.4923
  1844.1000      7.8997      2.6186      0.1062      1.9053     18.4843    105.9781
  1844.2000      7.8997      2.6481      0.1097      0.1135     18.2903     96.3656
  1844.3000      7.8926      2.6671      0.1159     -1.0373     18.7338     90.0564
  1844.4000      7.8926      2.6901      0.1311     -2.4277     19.4241     85.8885
  1844.5000      7.8858      2.7191      0.1442     -4.1880     20.1709     82.6440
  1844.6000      7.8858      2.7326      0.1391     -5.0080     20.7657     80.6822
  1844.7000      7.8858      2.7229      0.0703     -4.4170     21.1616     79.6317
  1844.8000      7.8837      2.7031      0.0515     -3.2204     21.5496     79.9384
  1844.9000      7.8837      2.6872      0.0321     -2.2559     21.9118     82.4999
  1845.0000      7.8867      2.6843      0.0321     -2.0794     21.9328     86.1238
  1845.1000      7.8867      2.6842      0.0534     -2.0757     21.4523     89.6065
  1845.2000      7.8867      2.6634      0.0727     -0.8141     20.6321     91.9175
  1845.3000      7.8937      2.6226      0.0570      1.6595     19.7115     92.7474
  1845.4000      7.8937      2.5850      0.0510      3.9392     19.3160     95.7917
  1845.5000      7.9088      2.5658      0.0595      5.1057     19.6875    101.3982
  1845.6000      7.9088      2.5687      0.0778      4.9297     20.1311    104.6724
  1845.7000      7.9088      2.5885      0.1135      3.7267     20.3574    105.6656
  1845.8000      7.9294      2.6108      0.0914      2.3781     20.4920    107.1650
  1845.9000      7.9294      2.6145      0.1267      2.1540     20.5456    108.9018
  1846.0000      7.9418      2.5809      0.1113      4.1879     20.4869    110.2629
  1846.1000      7.9418      2.5225      0.0255      7.7294     20.1486    109.7065
  1846.2000      7.9418      2.4784      0.0287     10.3995     19.6604    107.4912
  1846.3000      7.9454      2.4696      0.0452     10.9363     19.3214    106.8459
  1846.4000      7.9454      2.4890      0.0526      9.7576     19.0083    108.9321
  1846.5000      7.9456      2.5132      0.1188      8.2905     18.6158    112.6440
  1846.6000      7.9456      2.5274      0.0991      7.4276     18.4774    114.1715
  1846.7000      7.9456      2.5463      0.0870      6.2873     18.6517    112.8253
