~Version Information
VERS.                      2.0: CWLS Log ASCII Standard - VERSION 2.0
WRAP.                       NO: One line per depth step
~Well Information Block
STRT.FT               800.0000: 
STOP.FT              3500.0000: 
STEP.FT                 0.2500: 
NULL.                -999.2500: 
COMP.          Pioneer Natural Resources: COMPANY
WELL.          Cordillera 34-7: WELL
FLD.           Purgatoire River: FIELD
LOC.           598' FSL & 1770' FEL--: LOCATION
PROV.                 Colorado: PROVINCE
CNTY.               Las Animas: COUNTRY
SRVC.                Patterson: SERVICE COMPANY
DATE.          Thu Oct 27 20:08:30 2005: LOG DATE
UWI.           05 071 08552 00: UNIQUE WELL ID
~Curve Information Block
DEPT.FT            0 000 00 00: Depth
SN.Ohm-m                      : IEL Short Normal
SP.mV                         : IEL Spontaneous Potential
DIR.Ohm-m                     : IEL Induction Resistivity
GR.GAPI                       : Gamma Ray
~Parameter Information Block
~A  Depth        SN          SP         DIR          GR     
# ...
  1503.5000     18.2554    117.2566     19.6493    123.8745
  1503.7500     18.2076    117.2318     19.3615    124.5477
  1504.0000     18.2259    117.2639     19.1796    125.1928
  1504.2500     18.3212    117.3688     19.1292    125.5003
  1504.5000     18.4917    117.5161     19.2027    126.4164
  1504.7500     18.7161    117.6644     19.3734    127.3500
  1505.0000     18.9717    117.7949     19.6162    128.2824
  1505.2500     19.2588    117.9257     19.9203    127.9405
  1505.5000     19.5984    118.0960     20.2848    125.6656
  1505.7500     20.0140    118.3311     20.7093    123.0960
  1506.0000     20.5265    118.6082     21.1903    117.4444
  1506.2500     21.1540    118.8495     21.7265    112.0860
  1506.5000     21.9020    118.9664     22.3230    101.6487
  1506.7500     22.7522    118.9310     22.9869     93.9266
  1507.0000     23.6554    118.8140     23.7143     83.5317
  1507.2500     24.5439    118.7417     24.4804     78.4601
  1507.5000     25.3607    118.8049     25.2434     73.8489
  1507.7500     26.0919    118.9982     25.9635     71.9854
  1508.0000     26.7643    119.2335     26.6200     69.2273
  1508.2500     27.4034    119.4085     27.2121     66.8519
  1508.5000     28.0055    119.4793     27.7454     62.9670
  1508.7500     28.5468    119.4918     28.2221     60.9206
  1509.0000     29.0096    119.5451     28.6407     59.3383
  1509.2500     29.4072    119.7113     28.9985     58.9401
  1509.5000     29.7887    119.9796     29.2907     58.3981
  1509.7500     30.1948    120.2736     29.5149     57.9861
  1510.0000     30.6023    120.5171     29.6805     57.8596
  1510.2500     30.9423    120.6818     29.8121     58.2831
  1510.5000     31.1778    120.7835     29.9392     59.2342
  1510.7500     31.3464    120.8436     30.0792     59.6666
  1511.0000     31.5221    120.8629     30.2299     59.7348
  1511.2500     31.7438    120.8345     30.3769     59.5751
  1511.5000     31.9914    120.7716     30.5078     59.6366
  1511.7500     32.2206    120.7011     30.6213     60.1611
  1512.0000     32.4114    120.6239     30.7242     61.6621
  1512.2500     32.5884    120.4948     30.8206     62.8612
  1512.5000     32.7886    120.2540     30.9069     64.4691
  1512.7500     33.0221    119.8890     30.9797     65.3136
  1513.0000     33.2780    119.4635     31.0475     66.2637
  1513.2500     33.5549    119.0758     31.1293     66.7008
  1513.5000     33.8683    118.7833     31.2410     67.0889
  1513.7500     34.2415    118.5662     31.3875     67.1701
  1514.0000     34.6852    118.3619     31.5731     66.8986
  1514.2500     35.1745    118.1313     31.8126     66.4142
  1514.5000     35.6696    117.8946     32.1249     65.6238
  1514.7500     36.1779    117.7097     32.5110     65.5416
  1515.0000     36.7518    117.6135     32.9378     66.7224
  1515.2500     37.4091    117.5727     33.3484     68.2190
  1515.5000     38.1010    117.4840     33.6909     70.2085
  1515.7500     38.7646    117.2284     33.9474     70.4356
  1516.0000     39.3648    116.7493     34.1388     68.4976
  1516.2500     39.8853    116.0990     34.3060     66.1633
  1516.5000     40.3246    115.4164     34.4841     62.6720
  1516.7500     40.7133    114.8393     34.6884     61.0724
  1517.0000     41.1011    114.4097     34.9170     60.0910
  1517.2500     41.5157    114.0558     35.1580     60.1515
  1517.5000     41.9508    113.6838     35.3934     60.6716
  1517.7500     42.3849    113.2941     35.6039     60.9517
  1518.0000     42.7912    112.9972     35.7807     60.8116
  1518.2500     43.1413    112.9114     35.9342     60.2273
  1518.5000     43.4221    113.0516     36.0861     58.9114
  1518.7500     43.6570    113.3168     36.2515     58.2586
  1519.0000     43.8907    113.5743     36.4286     58.6260
  1519.2500     44.1450    113.7512     36.6048     59.9991
  1519.5000     44.4028    113.8493     36.7677     63.2800
  1519.7500     44.6324    113.8920     36.9074     65.7778
  1520.0000     44.8044    113.8891     37.0100     69.2815
  1520.2500     44.8875    113.8535     37.0543     71.1683
  1520.5000     44.8517    113.8222     37.0169     73.0628
  1520.7500     44.6952    113.8404     36.8857     73.8155
  1521.0000     44.4595    113.9453     36.6728     74.7624
  1521.2500     44.1966    114.1711     36.4180     75.4929
  1521.5000     43.9255    114.5353     36.1747     76.3987
  1521.7500     43.6342    115.0001     35.9875     76.4282
  1522.0000     43.3201    115.4715     35.8758     75.2298
  1522.2500     43.0120    115.8577     35.8302     73.8444
  1522.5000     42.7550    116.1202     35.8195     71.8453
  1522.7500     42.5901    116.2669     35.8023     71.1408
  1523.0000     42.5468    116.3279     35.7478     71.5316
  1523.2500     42.6258    116.3566     35.6546     72.6084
  1523.5000     42.7928    116.4294     35.5549     74.5299
  1523.7500     43.0265    116.6103     35.4971     75.4270
  1524.0000     43.3622    116.9010     35.5179     75.6848
  1524.2500     43.8452    117.2331     35.6248     75.1390
  1524.5000     44.4588    117.5123     35.7952     73.5269
  1524.7500     45.1283    117.6773     35.9880     72.1912
  1525.0000     45.7964    117.7260     36.1584     70.3466
  1525.2500     46.4707    117.7026     36.2733     69.4811
  1525.5000     47.1802    117.6646     36.3236     69.0389
  1525.7500     47.9087    117.6626     36.3297     69.4694
  1526.0000     48.6024    117.7389     36.3348     71.3214
  1526.2500     49.2202    117.9256     36.3892     73.1822
  1526.5000     49.7613    118.2263     36.5295     76.1250
  1526.7500     50.2707    118.6000     36.7640     77.6596
  1527.0000     50.8202    118.9745     37.0696     78.9657
  1527.2500     51.4454    119.2859     37.4033     79.4373
  1527.5000     52.1108    119.5160     37.7228     80.2817
  1527.7500     52.7823    119.6918     38.0045     81.0803
  1528.0000     53.5064    119.8438     38.2492     82.1484
  1528.2500     54.3621    119.9681     38.4746     82.3187
  1528.5000     55.3682    120.0346     38.7035     81.2444
  1528.7500     56.4875    120.0326     38.9553     79.5821
  1529.0000     57.6977    119.9970     39.2444     75.8493
  1529.2500     59.0156    119.9830     39.5866     72.7989
  1529.5000     60.4552    120.0173     40.0018     68.1876
  1529.7500     61.9746    120.0814     40.5036     65.6237
  1530.0000     63.4701    120.1352     41.0822     62.9477
  1530.2500     64.8337    120.1507     41.6993     61.7885
  1530.5000     66.0201    120.1257     42.3062     60.5825
  1530.7500     67.0546    120.0782     42.8680     60.0694
  1531.0000     67.9856    120.0338     43.3687     59.7843
  1531.2500     68.8418    120.0154     43.7952     59.8752
  1531.5000     69.6180    120.0374     44.1269     60.2218
  1531.7500     70.2809    120.1020     44.3471     60.4312
  1532.0000     70.7900    120.1962     44.4631     60.3547
  1532.2500     71.1210    120.2980     44.5152     59.8357
  1532.5000     71.2859    120.3930     44.5638     58.3363
  1532.7500     71.3365    120.4888     44.6673     57.1798
  1533.0000     71.3399    120.6039     44.8589     56.1300
  1533.2500     71.3617    120.7364     45.1309     56.2670
  1533.5000     71.4556    120.8513     45.4318     57.5397
  1533.7500     71.6226    120.9041     45.6824     58.5731
  1534.0000     71.7863    120.8787     45.8081     59.6217
  1534.2500     71.8449    120.8142     45.7708     59.9782
  1534.5000     71.7441    120.8083     45.5716     60.4950
  1534.7500     71.4958    120.9809     45.2160     60.9571
  1535.0000     71.1412    121.4021     44.6703     61.4095
  1535.2500     70.6869    122.0386     43.8569     61.2208
  1535.5000     70.0638    122.7698     42.7036     60.1553
  1535.7500     69.1419    123.4583     41.1986     59.2041
  1536.0000     67.7637    124.0175     39.4042     57.9511
  1536.2500     65.7537    124.4440     37.4270     57.3860
  1536.5000     62.9316    124.8147     35.3823     56.9408
  1536.7500     59.1468    125.2529     33.3747     56.8169
