~Version Information
VERS.                      2.0: CWLS Log ASCII Standard - VERSION 2.0
WRAP.                       NO: One line per depth step
~Well Information Block
STRT.FT                 8.2500: 
STOP.FT              1156.2500: 
STEP.FT                 0.2500: 
NULL.                -999.2500: 
COMP.          Pioneer Natural Resources: COMPANY
WELL.              Davida 34-8: WELL
FLD.           Purgatoire River: FIELD
LOC.           418' FSL & 1923' FEL: LOCATION
CNTY.               Las Animas: COUNTY
SRVC.                Patterson: SERVICE COMPANY
DATE.          Thu Mar 30 09:09:42 2006: LOG DATE
UWI.           05 071 08722 00: UNIQUE WELL ID
STAT.                 Colorado: STATE
~Curve Information Block
DEPT.FT            0 000 00 00: Depth
GR.GAPI                       : Gamma Ray
CCL.                          : Casing Collar Locator
TT3.usec                      : CBL 3' Travel Time
AMP3.mV                       : CBL 3' Amplitude
~Parameter Information Block
~A  Depth        GR         CCL         TT3         AMP3    
# ...
  1046.7500     57.7605      0.0000    611.7838      7.4199
  1047.0000     57.8186      0.0000    595.5809      7.2823
  1047.2500     57.7100      0.0000    588.9582      7.1636
  1047.5000     58.0460      0.0000    588.4791      7.0522
  1047.7500     58.9734      0.0000    589.1025      6.9290
  1048.0000     60.1914      0.0000    588.2972      6.7849
  1048.2500     61.2785      0.0000    587.6223      6.6378
  1048.5000     61.9349      0.0000    590.1718      6.5226
  1048.7500     62.0481      0.0000    595.8812      6.4452
  1049.0000     61.5592      0.0000    599.3961      6.3507
  1049.2500     60.2817      0.0000    592.3964      6.1746
  1049.5000     58.0492      0.0000    567.9467      5.9401
  1049.7500     55.1572      0.0000    525.0250      5.7683
  1050.0000     52.4737      0.0000    471.4958      5.7665
  1050.2500     51.0027      0.0000    421.3863      5.9210
  1050.5000     51.3221      0.0000    386.8806      6.1127
  1050.7500     53.2464      0.0000    372.7723      6.2131
  1051.0000     55.8340      0.0000    378.1689      6.1652
  1051.2500     57.8428      0.0000    401.3062      6.0088
  1051.5000     58.3884      0.0000    440.5926      5.8453
  1051.7500     57.2885      0.0000    491.0703      5.7642
  1052.0000     54.9440      0.0000    541.8853      5.8018
  1052.2500     52.0663      0.0000    580.2360      5.9691
  1052.5000     49.4915      0.0000    599.2444      6.2760
  1052.7500     48.0305      0.0000    601.3667      6.6936
  1053.0000     48.1465      0.0000    593.3635      7.1314
  1053.2500     49.5376      0.0000    579.1763      7.4945
  1053.5000     51.1812      0.0000    559.5768      7.7464
  1053.7500     52.1211      0.0000    536.7109      7.8966
  1054.0000     52.1590      0.0000    513.7151      7.9577
  1054.2500     51.5678      0.0000    490.5855      7.9404
  1054.5000     50.3880      0.0000    466.6066      7.8747
  1054.7500     48.5449      0.0000    447.2703      7.8085
  1055.0000     46.5831      0.0000    443.5621      7.7791
  1055.2500     45.6642      0.0000    462.3458      7.7921
  1055.5000     46.5143      0.0000    497.8598      7.8245
  1055.7500     48.6510      0.0000    532.3020      7.8460
  1056.0000     50.8443      0.0000    546.1135      7.8403
  1056.2500     52.1287      0.0000    531.1774      7.8145
  1056.5000     52.3124      0.0000    496.0856      7.7956
  1056.7500     51.9081      0.0000    459.3067      7.8152
  1057.0000     51.8970      0.0000    438.1910      7.8937
  1057.2500     53.2709      0.0000    443.1461      8.0319
  1057.5000     56.3609      0.0000    476.3365      8.2106
  1057.7500     60.5964      0.0000    530.0338      8.3948
  1058.0000     64.9824      0.0000    587.1441      8.5432
  1058.2500     68.6067      0.0000    629.8330      8.6238
  1058.5000     70.7666      0.0000    651.4517      8.6276
  1058.7500     71.1369      0.0000    658.5850      8.5767
  1059.0000     70.0598      0.0000    660.2289      8.5234
  1059.2500     68.4634      0.0000    657.3609      8.5270
  1059.5000     67.3930      0.0000    644.7369      8.6136
  1059.7500     67.5744      0.0000    621.0309      8.7535
  1060.0000     69.1144      0.0000    594.9874      8.8814
  1060.2500     71.4177      0.0000    581.2239      8.9361
  1060.5000     73.6330      0.0000    589.7554      8.8850
  1060.7500     75.4081      0.0000    618.4017      8.7221
  1061.0000     77.0444      0.0000    654.4778      8.4617
  1061.2500     78.7677      0.0000    684.0068      8.1356
  1061.5000     80.0255      0.0000    700.2473      7.7869
  1061.7500     79.7445      0.0000    704.9274      7.4569
  1062.0000     77.2884      0.0000    703.5997      7.1712
  1062.2500     72.9944      0.0000    700.9528      6.9343
  1062.5000     67.8059      0.0000    699.4128      6.7333
  1062.7500     62.6012      0.0000    700.2799      6.5471
  1063.0000     57.7781      0.0000    705.0414      6.3562
  1063.2500     53.1914      0.0000    715.2115      6.1446
  1063.5000     48.4923      0.0000    730.7451      5.8976
  1063.7500     43.6890      0.0000    748.8770      5.6074
  1064.0000     39.3556      0.0000    765.1439      5.2893
  1064.2500     36.1988      0.0000    775.7759      4.9867
  1064.5000     34.4846      0.0000    779.3492      4.7531
  1064.7500     33.9904      0.0000    777.0866      4.6311
  1065.0000     34.4494      0.0000    772.3023      4.6470
  1065.2500     35.8370      0.0000    768.7758      4.8142
  1065.5000     38.1646      0.0000    768.3293      5.1378
  1065.7500     41.2823      0.0000    769.4268      5.6216
  1066.0000     45.1399      0.0000    768.2086      6.2708
  1066.2500     50.1199      0.0000    761.2653      7.0797
  1066.5000     56.8093      0.0000    748.1811      8.0156
  1066.7500     65.2917      0.0000    732.0493      9.0157
  1067.0000     74.6089      0.0000    717.3992     10.0024
  1067.2500     82.9846      0.0000    707.2036     10.8968
  1067.5000     88.7952      0.0000    701.6164     11.6238
  1067.7500     91.5489      0.0000    699.0609     12.1159
  1068.0000     92.0504      0.0000    697.9086     12.3259
  1068.2500     91.6418      0.0000    697.2338     12.2472
  1068.5000     91.2330      0.0000    696.6965     11.9255
  1068.7500     91.0421      0.0000    696.2314     11.4502
  1069.0000     91.0757      0.0000    695.8604     10.9290
  1069.2500     91.4679      0.0000    695.6147     10.4568
  1069.5000     92.3141      0.0000    695.5192     10.0912
  1069.7500     93.5311      0.0000    695.5950      9.8400
  1070.0000     94.9230      0.0000    695.8564      9.6667
  1070.2500     96.1255      0.0000    696.2892      9.5173
  1070.5000     96.5981      0.0000    696.8341      9.3560
  1070.7500     95.9818      0.0000    697.3923      9.1886
  1071.0000     94.3873      0.0000    697.8465      9.0556
  1071.2500     92.2085      0.0000    698.1001      8.9946
  1071.5000     89.8989      0.0000    698.1308      9.0028
  1071.7500     88.0019      0.0000    698.0164      9.0290
  1072.0000     87.0538      0.0000    697.8972      9.0030
  1072.2500     87.2346      0.0000    697.8943      8.8781
  1072.5000     88.1752      0.0000    698.0344      8.6561
  1072.7500     89.1565      0.0000    698.2220      8.3831
  1073.0000     89.6230      0.0000    698.2880      8.1252
  1073.2500     89.6707      0.0000    698.1069      7.9387
  1073.5000     89.8803      0.0000    697.6892      7.8503
  1073.7500     90.5055      0.0000    697.1567      7.8550
  1074.0000     91.1034      0.0000    696.6392      7.9303
  1074.2500     91.1317      0.0000    696.2216      8.0568
  1074.5000     90.5537      0.0000    695.9780      8.2371
  1074.7500     89.6494      0.0000    696.0421      8.4989
  1075.0000     88.5923      0.0000    696.6472      8.8721
  1075.2500     87.3871      0.0000    697.9761      9.3566
  1075.5000     85.8732      0.0000    699.3392      9.9098
  1075.7500     83.6803      0.0000    697.5498     10.4596
  1076.0000     80.5359      0.0000    686.4050     10.9331
  1076.2500     76.6534      0.0000    660.9409     11.2939
  1076.5000     72.4826      0.0000    625.5263     11.5634
  1076.7500     68.0797      0.0000    596.0557     11.8043
  1077.0000     63.1126      0.0000    588.7305     12.0774
  1077.2500     57.6843      0.0000    605.0355     12.4160
  1077.5000     52.9632      0.0000    630.4970     12.8292
  1077.7500     50.5833      0.0000    647.8844     13.3131
  1078.0000     51.1996      0.0000    648.4188     13.8656
  1078.2500     53.8284      0.0000    631.6735     14.5144
  1078.5000     56.8264      0.0000    600.7960     15.3461
  1078.7500     59.3231      0.0000    560.3676     16.5125
  1079.0000     61.5573      0.0000    515.5746     18.1978
  1079.2500     64.1083      0.0000    470.5191     20.5386
  1079.5000     67.1072      0.0000    427.8963     23.5211
  1079.7500     70.1601      0.0000    390.6975     26.9123
  1080.0000     72.9595      0.0000    362.8402     30.2677
