~Version Information
VERS.                      2.0: CWLS Log ASCII Standard - VERSION 2.0
WRAP.                       NO: One line per depth step
~Well Information Block
STRT.FT               491.0000: 
STOP.FT              1909.5000: 
STEP.FT                 0.1000: 
NULL.                -999.2500: 
COMP.          Pioneer Natural Resources: COMPANY
WELL.            Corazon 13-10: WELL
FLD.           Purgatoire River: FIELD
LOC.           2510' FSL & 439' FWL: LOCATION
PROV.                 Colorado: PROVINCE
CNTY.               Las Animas: COUNTRY
SRVC.                Patterson: SERVICE COMPANY
DATE.          Thu Dec 01 07:28:46 2005: LOG DATE
UWI.           05 071 08613 00: UNIQUE WELL ID
~Curve Information Block
DEPT.FT            0 000 00 00: Depth
DCAL.in                       : CDL Caliper
RHOB.g/cc                     : CDL Bulk Density
RHOC.g/cc                     : CDL Density Correction
DPOR.pu                       : CDL Density Porosity
GR.GAPI                       : Gamma Ray
NPOR.pu                       : Neutron Porosity
~Parameter Information Block
~A  Depth       DCAL        RHOB        RHOC        DPOR         GR         NPOR    
# ...
   961.4000      8.4604      2.4642      0.0361     11.2578    122.8541     28.6184
   961.5000      8.4633      2.4514      0.0027     12.0347    128.2467     29.2906
   961.6000      8.4633      2.4336     -0.0165     13.1141    135.8343     28.8387
   961.7000      8.4633      2.4242     -0.0615     13.6854    139.4574     27.6169
   961.8000      8.4665      2.4269     -0.0221     13.5217    137.6499     26.6585
   961.9000      8.4665      2.4291     -0.0240     13.3871    133.6297     27.0897
   962.0000      8.4639      2.4264     -0.0124     13.5529    131.2095     28.4621
   962.1000      8.4639      2.4270     -0.0082     13.5141    135.0375     29.4260
   962.2000      8.4639      2.4237      0.0100     13.7139    140.9956     30.0356
   962.3000      8.4618      2.4065     -0.0658     14.7553    139.6180     30.2458
   962.4000      8.4618      2.3864     -0.0838     15.9729    133.3825     29.4197
   962.5000      8.4630      2.3686      0.0134     17.0542    129.7978     28.0313
   962.6000      8.4630      2.3451     -0.0071     18.4759    128.9041     27.3148
   962.7000      8.4630      2.3184     -0.0121     20.0959    128.7517     27.7386
   962.8000      8.4675      2.2960     -0.0512     21.4524    130.5030     28.9098
   962.9000      8.4675      2.2767     -0.0009     22.6240    135.2310     30.2928
   963.0000      8.4686      2.2510     -0.0521     24.1848    138.1693     30.9892
   963.1000      8.4686      2.2172     -0.0229     26.2324    135.2730     30.3870
   963.2000      8.4686      2.1848     -0.0416     28.1968    131.5837     29.1368
   963.3000      8.4619      2.1636     -0.0317     29.4789    131.9611     28.0004
   963.4000      8.4619      2.1442      0.0289     30.6562    132.4783     27.6910
   963.5000      8.4575      2.0984      0.0727     33.4320    130.2855     28.4861
   963.6000      8.4575      2.0195      0.0735     38.2104    125.5764     29.4544
   963.7000      8.4575      1.9242      0.0642     43.9852    117.7673     30.2591
   963.8000      8.4820      1.8154     -0.0062     50.5816    109.5093     31.1416
   963.9000      8.4820      1.6907     -0.0003     58.1386    102.8085     31.7324
   964.0000      8.5155      1.5691     -0.0602     65.5115     97.2233     32.2009
   964.1000      8.5155      1.4730     -0.0654     71.3313     94.2016     33.0215
   964.2000      8.5155      1.4013     -0.0427     75.6782     92.5139     33.7009
   964.3000      8.5105      1.3508     -0.0850     78.7408     88.4725     33.3324
   964.4000      8.5105      1.3402     -0.0849     79.3789     82.6833     32.6478
   964.5000      8.6114      1.3857     -0.0296     76.6224     78.1208     33.1576
   964.6000      8.6114      1.4763      0.0415     71.1313     74.9207     34.4266
   964.7000      8.6114      1.5859      0.0968     64.4919     71.4583     35.0859
   964.8000      8.6972      1.6988      0.1300     57.6498     68.7290     34.9660
   964.9000      8.6972      1.8128      0.2137     50.7415     68.2220     34.8548
   965.0000      8.8764      1.9289      0.2015     43.7019     70.6961     34.8268
   965.1000      8.8764      2.0488      0.2113     36.4370     77.8221     34.4134
   965.2000      8.8764      2.1619      0.2192     29.5808     87.7638     33.4399
   965.3000      9.0738      2.2479      0.1440     24.3697     92.4600     32.1543
   965.4000      9.0738      2.2978      0.0981     21.3436     89.6003     31.1251
   965.5000      8.8335      2.3262      0.0287     19.6255     89.1669     30.8858
   965.6000      8.8335      2.3566      0.0325     17.7791     98.0995     31.3641
   965.7000      8.8335      2.3947      0.0935     15.4721    114.3082     31.7682
   965.8000      8.5113      2.4359      0.0814     12.9739    129.8559     31.3314
   965.9000      8.5113      2.4830      0.1065     10.1192    135.5589     30.1138
   966.0000      8.4618      2.5320      0.1067      7.1498    131.8176     28.7534
   966.1000      8.4618      2.5682      0.1349      4.9580    126.9501     27.7582
   966.2000      8.4618      2.5810      0.1232      4.1795    127.8226     27.5428
   966.3000      8.4566      2.5724      0.1304      4.7058    130.8808     27.9768
   966.4000      8.4566      2.5538      0.0452      5.8277    126.2820     28.5346
   966.5000      8.4522      2.5422      0.0855      6.5328    115.5184     29.0971
   966.6000      8.4522      2.5469      0.0833      6.2511    106.5871     29.6964
   966.7000      8.4522      2.5545      0.1103      5.7874    100.5978     29.6415
   966.8000      8.4529      2.5482      0.0286      6.1679     98.5437     28.4478
   966.9000      8.4529      2.5387      0.0286      6.7470    100.6492     27.0901
   967.0000      8.4479      2.5509     -0.0134      6.0038    101.1629     26.2376
   967.1000      8.4479      2.5861      0.0641      3.8744     98.0837     25.4745
   967.2000      8.4479      2.6039      0.1233      2.7965     97.6936     24.8858
   967.3000      8.4425      2.5712      0.0669      4.7744    102.1222     25.1860
   967.4000      8.4425      2.5075     -0.0390      8.6369    107.1986     26.1427
   967.5000      8.4405      2.4517     -0.0009     12.0196    110.8726     26.5623
   967.6000      8.4405      2.4263     -0.0811     13.5588    110.6831     26.2428
   967.7000      8.4405      2.4352     -0.0426     13.0194    107.3883     25.8926
   967.8000      8.4410      2.4599     -0.0022     11.5192    106.0681     25.6316
   967.9000      8.4410      2.4836     -0.0037     10.0864    103.8883     25.0010
   968.0000      8.4425      2.5103      0.0565      8.4687     97.4157     24.2745
   968.1000      8.4425      2.5409      0.0673      6.6144     93.6149     24.4477
   968.2000      8.4425      2.5691      0.0692      4.9043     97.4494     25.4127
   968.3000      8.4440      2.5903      0.1175      3.6171    103.7312     26.1909
   968.4000      8.4440      2.5898      0.1935      3.6478    104.4009     26.3680
   968.5000      8.4459      2.5580      0.1458      5.5729     98.7838     26.0810
   968.6000      8.4459      2.5109      0.1021      8.4332     94.5764     25.9519
   968.7000      8.4459      2.4632      0.0944     11.3234     95.1304     26.7222
   968.8000      8.4431      2.4177      0.0426     14.0777     95.2797     27.9761
   968.9000      8.4431      2.3907      0.0190     15.7182     92.5763     28.5458
   969.0000      8.4470      2.3950      0.0667     15.4574     94.3517     28.6061
   969.1000      8.4470      2.4128      0.0757     14.3746    105.2629     28.8458
   969.2000      8.4470      2.4197      0.0846     13.9591    117.8719     29.3077
   969.3000      8.4493      2.4137      0.0667     14.3230    122.5430     29.8306
   969.4000      8.4493      2.4083      0.0908     14.6472    118.0136     30.0791
   969.5000      8.4498      2.4142      0.0670     14.2907    114.2435     29.8499
   969.6000      8.4498      2.4309      0.1271     13.2804    117.7911     29.3428
   969.7000      8.4498      2.4447      0.1537     12.4438    122.0565     29.1563
   969.8000      8.4552      2.4485      0.1117     12.2137    122.5285     29.4496
   969.9000      8.4552      2.4498      0.0809     12.1308    123.5381     29.6623
   970.0000      8.4632      2.4516      0.0957     12.0213    127.5987     29.2854
   970.1000      8.4632      2.4472      0.0803     12.2930    134.2578     28.5416
   970.2000      8.4632      2.4335      0.0597     13.1214    142.7852     28.0351
   970.3000      8.4689      2.4139      0.0205     14.3115    148.3110     27.9774
   970.4000      8.4689      2.3971      0.0206     15.3276    147.4961     28.3881
   970.5000      8.4541      2.3967      0.0448     15.3492    143.6093     29.1412
   970.6000      8.4541      2.4138      0.0300     14.3151    138.6689     29.8956
   970.7000      8.4541      2.4334      0.0539     13.1280    132.1826     30.3155
   970.8000      8.4543      2.4477      0.0493     12.2580    127.6332     30.1187
   970.9000      8.4543      2.4642      0.0613     11.2618    127.0974     29.6385
