~Version Information
VERS.                      2.0: CWLS Log ASCII Standard - VERSION 2.0
WRAP.                       NO: One line per depth step
~Well Information Block
STRT.FT               505.0000: 
STOP.FT               770.5000: 
STEP.FT                 0.1000: 
NULL.                -999.2500: 
COMP.          Pioneer Natural Resources: COMPANY
WELL.                Zed 11-23: WELL
FLD.           Purgatoire River: FIELD
LOC.           641' FNL & 952' FWL: LOCATION
CNTY.               Las Animas: COUNTY
SRVC.                Patterson: SERVICE COMPANY
DATE.          Mon Feb 27 07:12:43 2006: LOG DATE
UWI.           05 071 08702 00: UNIQUE WELL ID
STAT.                 Colorado: STATE
~Curve Information Block
DEPT.FT            0 000 00 00: Depth
DCAL.in                       : CDL Caliper
RHOB.g/cc                     : CDL Bulk Density
RHOC.g/cc                     : CDL Density Correction
DPOR.pu                       : CDL Density Porosity
GR.GAPI                       : Gamma Ray
NPOR.pu                       : Neutron Porosity
~Parameter Information Block
~A  Depth       DCAL        RHOB        RHOC        DPOR         GR         NPOR    
# ...
   658.6000      7.9777      2.3475      0.0034     18.3354     65.1660     25.5010
   658.7000      7.9777      2.3369     -0.0058     18.9775     66.8299     25.7022
   658.8000      7.9799      2.3535      0.0502     17.9717     71.5743     25.6318
   658.9000      7.9799      2.3810      0.0390     16.3006     71.6318     25.2577
   659.0000      7.9853      2.4028      0.0724     14.9838     67.1371     24.7239
   659.1000      7.9853      2.4030      0.0938     14.9682     63.6456     24.1391
   659.2000      7.9853      2.3851      0.0424     16.0536     61.4880     23.3476
   659.3000      7.9893      2.3750      0.0695     16.6690     58.7498     22.5900
   659.4000      7.9893      2.3835      0.0924     16.1513     57.6105     22.5107
   659.5000      7.9719      2.4005      0.0663     15.1204     59.2199     22.9180
   659.6000      7.9719      2.4175      0.0946     14.0910     60.3545     23.3071
   659.7000      7.9719      2.4299      0.0766     13.3388     58.9105     23.4832
   659.8000      7.9595      2.4352      0.0816     13.0165     55.5037     23.4841
   659.9000      7.9595      2.4301      0.1287     13.3283     52.2349     23.6612
   660.0000      7.9411      2.4207      0.0296     13.8976     50.9541     24.1744
   660.1000      7.9411      2.4315      0.0075     13.2411     52.8693     24.6017
   660.2000      7.9411      2.4682      0.0751     11.0154     58.5781     24.9637
   660.3000      7.9462      2.5055      0.1142      8.7573     68.4133     25.4608
   660.4000      7.9462      2.5317      0.0715      7.1699     79.8396     25.5057
   660.5000      7.9592      2.5570      0.0742      5.6358     86.6515     25.3796
   660.6000      7.9592      2.5782      0.1093      4.3488     88.7813     25.8031
   660.7000      7.9592      2.5833      0.0562      4.0411     92.6938     26.4191
   660.8000      7.9485      2.5822      0.0093      4.1084     98.6913     26.9238
   660.9000      7.9485      2.5924      0.0798      3.4906    102.9108     27.5334
   661.0000      7.9456      2.6083      0.0870      2.5261    110.0453     28.1933
   661.1000      7.9456      2.6130      0.0158      2.2395    122.8350     28.2328
   661.2000      7.9456      2.5944      0.0746      3.3679    133.3261     27.6168
   661.3000      7.9444      2.5592     -0.0170      5.5014    135.8023     27.1624
   661.4000      7.9444      2.5375     -0.0027      6.8193    131.1117     27.0351
   661.5000      7.9494      2.5420      0.0221      6.5442    125.3302     26.9062
   661.6000      7.9494      2.5581      0.0638      5.5674    124.0276     26.4618
   661.7000      7.9494      2.5705      0.0584      4.8209    124.3289     25.6033
   661.8000      7.9462      2.5737      0.0895      4.6247    122.4224     25.0523
   661.9000      7.9462      2.5651      0.0931      5.1434    117.2923     25.2128
   662.0000      7.9432      2.5415      0.1058      6.5782    111.2660     25.6111
   662.1000      7.9432      2.5096      0.0325      8.5119    107.7192     25.8192
   662.2000      7.9432      2.4898      0.0127      9.7105    102.9524     25.6663
   662.3000      7.9543      2.4929      0.0288      9.5207     93.0551     25.1938
   662.4000      7.9543      2.5078      0.0395      8.6209     80.3834     24.9315
   662.5000      7.9512      2.5177      0.0633      8.0209     69.4162     25.4255
   662.6000      7.9512      2.5152      0.0721      8.1675     62.7132     25.7604
   662.7000      7.9512      2.5002      0.0618      9.0784     59.8708     25.0238
   662.8000      7.9538      2.4773     -0.0046     10.4641     59.0612     23.7620
   662.9000      7.9538      2.4533      0.0311     11.9187     59.8545     22.7220
   663.0000      7.9534      2.4393     -0.0077     12.7704     61.9857     22.4041
   663.1000      7.9534      2.4450      0.0449     12.4257     64.7021     23.0947
   663.2000      7.9534      2.4617     -0.0084     11.4136     68.0273     24.2369
   663.3000      7.9462      2.4749      0.0427     10.6099     71.1077     25.0303
   663.4000      7.9462      2.4729      0.0412     10.7322     73.6193     25.4817
   663.5000      7.9681      2.4520      0.0282     12.0003     74.7144     25.6057
   663.6000      7.9681      2.4289     -0.0379     13.3977     72.0486     25.0826
   663.7000      7.9681      2.4272     -0.0102     13.5015     65.5876     24.1759
   663.8000      7.9665      2.4450      0.0466     12.4269     58.2101     23.6830
   663.9000      7.9665      2.4597      0.0298     11.5311     56.1343     23.8355
   664.0000      7.9552      2.4597      0.0491     11.5325     62.7627     24.1421
   664.1000      7.9552      2.4496      0.0462     12.1465     71.6236     23.8654
   664.2000      7.9552      2.4466     -0.0252     12.3279     74.0814     23.0813
   664.3000      7.9575      2.4639      0.0440     11.2789     67.0655     22.6736
   664.4000      7.9575      2.4862      0.0396      9.9275     55.6710     23.1749
   664.5000      7.9508      2.4934      0.0744      9.4885     50.0812     23.7750
   664.6000      7.9508      2.4908      0.0367      9.6497     52.6343     23.4616
   664.7000      7.9508      2.4902      0.0916      9.6871     56.0999     23.1344
   664.8000      7.9489      2.4888      0.0682      9.7727     57.0660     23.2429
   664.9000      7.9489      2.4903      0.0258      9.6787     58.6406     23.1628
   665.0000      7.9557      2.5010      0.0849      9.0327     61.5111     23.0886
   665.1000      7.9557      2.5098      0.0497      8.4941     63.4052     23.1984
   665.2000      7.9557      2.5078      0.0549      8.6195     62.3779     23.2273
   665.3000      7.9763      2.4998      0.0539      9.1020     58.9250     22.8738
   665.4000      7.9763      2.5014      0.0043      9.0069     57.5163     22.1861
   665.5000      7.9525      2.5188      0.0450      7.9542     60.5888     21.8114
   665.6000      7.9525      2.5428      0.0366      6.4993     64.2793     22.1663
   665.7000      7.9525      2.5665      0.0588      5.0619     64.1523     22.7984
   665.8000      7.9561      2.5822      0.0507      4.1114     61.8451     23.0441
   665.9000      7.9561      2.5794      0.0590      4.2787     63.0110     22.9788
   666.0000      7.9526      2.5630      0.0220      5.2737     69.7099     23.2189
   666.1000      7.9526      2.5523      0.0218      5.9199     78.8958     23.8545
   666.2000      7.9526      2.5531      0.0250      5.8726     87.0030     24.2118
   666.3000      7.9556      2.5549      0.0697      5.7618     91.5119     23.6269
   666.4000      7.9556      2.5553      0.0131      5.7406     90.7107     22.7671
   666.5000      7.9489      2.5525      0.0849      5.9110     84.3874     22.9326
   666.6000      7.9489      2.5361      0.0811      6.9014     76.1262     24.0686
   666.7000      7.9489      2.5138      0.0164      8.2515     71.5441     25.1022
   666.8000      7.9463      2.5028      0.0166      8.9199     73.0492     25.7542
   666.9000      7.9463      2.4987      0.0453      9.1671     77.2916     26.5473
   667.0000      7.9497      2.4876      0.0592      9.8454     81.4297     27.3116
   667.1000      7.9497      2.4660      0.0128     11.1500     84.5036     27.4545
   667.2000      7.9497      2.4428      0.0049     12.5573     83.7221     27.3039
   667.3000      7.9608      2.4335      0.0073     13.1228     79.9310     27.2280
   667.4000      7.9608      2.4487     -0.0079     12.1983     78.9603     26.7200
   667.5000      7.9476      2.4753      0.0621     10.5857     80.4188     25.7260
   667.6000      7.9476      2.4923      0.0084      9.5562     78.2213     24.8309
   667.7000      7.9476      2.4978      0.0513      9.2220     73.5510     24.2809
   667.8000      7.9454      2.4944      0.0549      9.4281     75.5214     24.1331
   667.9000      7.9454      2.4893      0.0158      9.7369     87.2751     24.2667
   668.0000      7.9503      2.4958      0.0578      9.3443     99.3251     24.5921
   668.1000      7.9503      2.5100      0.0768      8.4842    101.7493     25.1457
