~Version Information
VERS.                      2.0: CWLS Log ASCII Standard - VERSION 2.0
WRAP.                       NO: One line per depth step
~Well Information Block
STRT.FT               525.0000: 
STOP.FT              2377.2500: 
STEP.FT                 0.2500: 
NULL.                -999.2500: 
COMP.          Pioneer Natural Resources: COMPANY
WELL.          Sparrowhawk 22-12: WELL
FLD.           Purgatoire River: FIELD
LOC.           2049' FNL & 2060' FWL--: LOCATION
CNTY.               Las Animas: COUNTY
SRVC.                Patterson: SERVICE COMPANY
DATE.          Thu Mar 23 10:52:44 2006: LOG DATE
UWI.           05 071 08484 00: UNIQUE WELL ID
STAT.                 Colorado: STATE
~Curve Information Block
DEPT.FT            0 000 00 00: Depth
SN.Ohm-m                      : IEL Short Normal
SP.mV                         : IEL Spontaneous Potential
DIR.Ohm-m                     : IEL Induction Resistivity
GR.GAPI                       : Gamma Ray
~Parameter Information Block
~A  Depth        SN          SP         DIR          GR     
# ...
   659.0000   2000.0000   1979.0000     40.2260     54.1958
   659.2500   2000.0000   1979.0000     40.4064     54.4218
   659.5000   2000.0000   1979.0000     40.5388     55.0609
   659.7500   2000.0000   1979.0000     40.5759     55.4103
   660.0000   2000.0000   1979.0000     40.4184     55.8992
   660.2500   2000.0000   1979.0000     39.9512     56.3959
   660.5000   2000.0000   1979.0000     39.1073     57.7593
   660.7500   2000.0000   1979.0000     37.9133     59.4067
   661.0000   2000.0000   1979.0000     36.4792     63.8960
   661.2500   2000.0000   1979.0000     34.9471     68.7633
   661.5000   2000.0000   1979.0000     33.4445     79.0853
   661.7500   2000.0000   1979.0000     32.0695     87.4576
   662.0000   2000.0000   1979.0000     30.8903    100.2302
   662.2500   2000.0000   1979.0000     29.9430    107.3014
   662.5000   2000.0000   1979.0000     29.2223    113.4421
   662.7500   2000.0000   1979.0000     28.6818    114.1389
   663.0000   2000.0000   1979.0000     28.2512    111.0771
   663.2500   2000.0000   1979.0000     27.8651    107.2156
   663.5000   2000.0000   1979.0000     27.4914     99.8037
   663.7500   2000.0000   1979.0000     27.1434     94.2379
   664.0000   2000.0000   1979.0000     26.8675     86.0025
   664.2500   2000.0000   1979.0000     26.7153     81.3402
   664.5000   2000.0000   1979.0000     26.7126     76.4906
   664.7500   2000.0000   1979.0000     26.8418     74.7069
   665.0000   2000.0000   1979.0000     27.0451     73.4170
   665.2500   2000.0000   1979.0000     27.2477     72.8690
   665.5000   2000.0000   1979.0000     27.3918     71.8634
   665.7500   2000.0000   1979.0000     27.4622     71.0213
   666.0000   2000.0000   1979.0000     27.4851     69.8432
   666.2500   2000.0000   1979.0000     27.5008     69.5300
   666.5000   2000.0000   1979.0000     27.5309     70.7165
   666.7500   2000.0000   1979.0000     27.5609     73.0603
   667.0000   2000.0000   1979.0000     27.5490     79.0693
   667.2500   2000.0000   1979.0000     27.4528     84.4458
   667.5000   2000.0000   1979.0000     27.2583     93.6258
   667.7500   2000.0000   1979.0000     26.9942     99.8614
   668.0000   2000.0000   1979.0000     26.7202    108.3115
   668.2500   2000.0000   1979.0000     26.4973    112.6016
   668.5000   2000.0000   1979.0000     26.3593    115.5861
   668.7500   2000.0000   1979.0000     26.3050    114.7799
   669.0000   2000.0000   1979.0000     26.3119    109.9719
   669.2500   2000.0000   1979.0000     26.3560    105.4340
   669.5000   2000.0000   1979.0000     26.4233     98.5529
   669.7500   2000.0000   1979.0000     26.5130     94.5975
   670.0000   2000.0000   1979.0000     26.6350     89.9243
   670.2500   2000.0000   1979.0000     26.8040     87.5285
   670.5000   2000.0000   1979.0000     27.0286     84.5682
   670.7500   2000.0000   1979.0000     27.2993     82.6872
   671.0000   2000.0000   1979.0000     27.5854     79.6293
   671.2500   2000.0000   1979.0000     27.8410     77.5257
   671.5000   2000.0000   1979.0000     28.0187     74.8898
   671.7500   2000.0000   1979.0000     28.0851     73.8437
   672.0000   2000.0000   1979.0000     28.0294     73.6356
   672.2500   2000.0000   1979.0000     27.8565     74.3683
   672.5000   2000.0000   1979.0000     27.5691     76.4756
   672.7500   2000.0000   1979.0000     27.1551     78.3123
   673.0000   2000.0000   1979.0000     26.5971     81.3938
   673.2500   2000.0000   1979.0000     25.8984     83.6990
   673.5000   2000.0000   1979.0000     25.1002     88.2052
   673.7500   2000.0000   1979.0000     24.2685     92.5441
   674.0000   2000.0000   1979.0000     23.4613    101.7094
   674.2500   2000.0000   1979.0000     22.7039    109.1444
   674.5000   2000.0000   1979.0000     21.9922    119.8076
   674.7500   2000.0000   1979.0000     21.3146    124.8526
   675.0000   2000.0000   1979.0000     20.6712    127.9687
   675.2500   2000.0000   1979.0000     20.0767    127.7134
   675.5000   2000.0000   1979.0000     19.5502    126.0870
   675.7500   2000.0000   1979.0000     19.1063    125.1892
   676.0000   2000.0000   1979.0000     18.7533    124.7348
   676.2500   2000.0000   1979.0000     18.4946    124.8986
   676.5000   2000.0000   1979.0000     18.3277    125.1339
   676.7500   2000.0000   1979.0000     18.2409    124.7942
   677.0000   2000.0000   1979.0000     18.2098    123.2153
   677.2500   2000.0000   1979.0000     18.2012    121.7893
   677.5000   2000.0000   1979.0000     18.1825    120.1894
   677.7500   2000.0000   1979.0000     18.1326    119.9102
   678.0000   2000.0000   1979.0000     18.0465    120.4949
   678.2500   2000.0000   1979.0000     17.9344    121.1317
   678.5000   2000.0000   1979.0000     17.8160    121.9551
   678.7500   2000.0000   1979.0000     17.7153    122.3947
   679.0000   2000.0000   1979.0000     17.6569    123.0362
   679.2500   2000.0000   1979.0000     17.6628    123.5129
   679.5000   2000.0000   1979.0000     17.7497    124.3111
   679.7500   2000.0000   1979.0000     17.9283    124.7650
   680.0000   2000.0000   1979.0000     18.2041    124.6763
   680.2500   2000.0000   1979.0000     18.5799    123.5810
   680.5000   2000.0000   1979.0000     19.0570    119.8752
   680.7500   2000.0000   1979.0000     19.6338    116.2128
   681.0000   2000.0000   1979.0000     20.3026    109.9775
   681.2500   2000.0000   1979.0000     21.0472    106.0999
   681.5000   2000.0000   1979.0000     21.8427    101.7901
   681.7500   2000.0000   1979.0000     22.6584    100.1569
   682.0000   2000.0000   1979.0000     23.4625     99.0370
   682.2500   2000.0000   1979.0000     24.2300     98.5033
   682.5000   2000.0000   1979.0000     24.9440     97.0722
   682.7500   2000.0000   1979.0000     25.5897     95.5856
   683.0000   2000.0000   1979.0000     26.1445     93.0266
   683.2500   2000.0000   1979.0000     26.5813     91.4736
   683.5000   2000.0000   1979.0000     26.8892     89.6379
   683.7500   2000.0000   1979.0000     27.0968     88.5675
   684.0000   2000.0000   1979.0000     27.2713     86.7198
   684.2500   2000.0000   1979.0000     27.4932     85.3508
   684.5000   2000.0000   1979.0000     27.8235     83.9000
   684.7500   2000.0000   1979.0000     28.2842     83.9664
   685.0000   2000.0000   1979.0000     28.8549     86.1104
   685.2500   2000.0000   1979.0000     29.4833     88.5630
   685.5000   2000.0000   1979.0000     30.0991     92.3636
   685.7500   2000.0000   1979.0000     30.6251     94.1543
   686.0000   2000.0000   1979.0000     30.9823     95.0632
   686.2500   2000.0000   1979.0000     31.0980     94.5726
   686.5000   2000.0000   1979.0000     30.9220     92.9770
   686.7500   2000.0000   1979.0000     30.4459     92.1530
   687.0000   2000.0000   1979.0000     29.7083     92.9906
   687.2500   2000.0000   1979.0000     28.7816     95.6126
   687.5000   2000.0000   1979.0000     27.7468    102.3967
   687.7500   2000.0000   1979.0000     26.6750    107.9270
   688.0000   2000.0000   1979.0000     25.6193    115.9066
   688.2500   2000.0000   1979.0000     24.6161    120.2297
   688.5000   2000.0000   1979.0000     23.6881    124.6269
   688.7500   2000.0000   1979.0000     22.8478    126.2398
   689.0000   2000.0000   1979.0000     22.1026    127.2781
   689.2500   2000.0000   1979.0000     21.4606    127.3897
   689.5000   2000.0000   1979.0000     20.9341    126.9278
   689.7500   2000.0000   1979.0000     20.5385    126.2833
   690.0000   2000.0000   1979.0000     20.2847    125.2621
   690.2500   2000.0000   1979.0000     20.1715    124.8555
   690.5000   2000.0000   1979.0000     20.1808    124.4883
   690.7500   2000.0000   1979.0000     20.2787    123.7993
   691.0000   2000.0000   1979.0000     20.4226    121.1993
   691.2500   2000.0000   1979.0000     20.5701    118.5038
   691.5000   2000.0000   1979.0000     20.6869    113.8403
   691.7500   2000.0000   1979.0000     20.7539    110.7161
   692.0000   2000.0000   1979.0000     20.7748    106.5322
   692.2500   2000.0000   1979.0000     20.7783    104.5479
