~Version Information
VERS.                      2.0: CWLS Log ASCII Standard - VERSION 2.0
WRAP.                       NO: One line per depth step
~Well Information Block
STRT.FT                -3.0000: 
STOP.FT              1123.0000: 
STEP.FT                 0.2500: 
NULL.                -999.2500: 
COMP.          Pioneer Natural Resources: COMPANY
WELL.               Ryan 41-17: WELL
FLD.           Purgatoire River: FIELD
LOC.           822' FNL & 532' FEL--: LOCATION
CNTY.               Las Animas: COUNTY
SRVC.                Patterson: SERVICE COMPANY
DATE.          Mon Mar 27 14:50:31 2006: LOG DATE
UWI.           05 071 08719 00: UNIQUE WELL ID
STAT.                 Colorado: STATE
~Curve Information Block
DEPT.FT            0 000 00 00: Depth
CCL.                          : Casing Collar Locator
TT3.usec                      : CBL 3' Travel Time
AMP3.mV                       : CBL 3' Amplitude
GR.GAPI                       : Gamma Ray
~Parameter Information Block
~A  Depth       CCL         TT3         AMP3         GR     
# ...
   935.0000      0.0000    260.1830     79.5362     79.7281
   935.2500      0.0000    260.1819     79.7230     83.5083
   935.5000      0.0000    260.1766     80.0493     90.4766
   935.7500      0.0000    260.1674     80.2565     94.4652
   936.0000      0.0000    260.1486     80.4610     97.2264
   936.2500      0.0000    260.1377     80.4923     96.3469
   936.5000      0.0000    260.1286     80.4146     91.1605
   936.7500      0.0000    260.1255     80.3484     85.7549
   937.0000      0.0000    260.1191     80.3545     76.8131
   937.2500      0.0000    260.1108     80.4677     72.1410
   937.5000      0.0000    260.0909     80.7852     70.0454
   937.7500      0.0000    260.0745     81.0511     72.3688
   938.0000      0.0000    260.0505     81.4379     78.9013
   938.2500      0.0000    260.0378     81.6434     82.7407
   938.5000      0.0000    260.0239     81.8275     84.6134
   938.7500      0.0000    260.0179     81.8561     83.2430
   939.0000      0.0000    260.0128     81.7617     79.5261
   939.2500      0.0000    260.0110     81.6273     77.4008
   939.5000      0.0000    260.0057     81.3856     76.0298
   939.7500      0.0000    259.9971     81.2455     76.4011
   940.0000      0.0000    259.9745     81.1322     78.5655
   940.2500      0.0000    259.9553     81.1373     80.9546
   940.5000      0.0000    259.9273     81.2593     85.8773
   940.7500      0.0000    259.9110     81.4041     89.6732
   941.0000      0.0000    259.8870     81.6842     94.2352
   941.2500      0.0000    259.8685     81.8841     95.2123
   941.5000      0.0000    259.8368     82.1381     93.3128
   941.7500      0.0000    259.8152     82.2426     91.0317
   942.0000      0.0000    259.7866     82.2747     87.9081
   942.2500      0.0000    259.7726     82.2161     85.6747
   942.5000      0.0000    259.7652     82.0215     80.2040
   942.7500      0.0000    259.7723     81.8238     74.7467
   943.0000      0.0000    259.7997     81.4445     65.5159
   943.2500      0.0000    259.8228     81.1749     60.4492
   943.5000      0.0000    259.8505     80.8414     56.9694
   943.7500      0.0000    259.8595     80.7044     57.7548
   944.0000      0.0000    259.8622     80.6140     62.5914
   944.2500      0.0000    259.8632     80.5904     67.5649
   944.5000      0.0000    259.8729     80.5553     77.2890
   944.7500      0.0000    259.8852     80.5380     85.1655
   945.0000      0.0000    259.9044     80.5963     97.5842
   945.2500      0.0000    259.9122     80.7351    104.4919
   945.5000      0.0000    259.9137     81.0813    109.7777
   945.7500      0.0000    259.9108     81.3373    109.3016
   946.0000      0.0000    259.9071     81.6243    104.3045
   946.2500      0.0000    259.9075     81.7147    100.2160
   946.5000      0.0000    259.9156     81.7337     96.1079
   946.7500      0.0000    259.9266     81.7176     95.1111
   947.0000      0.0000    259.9485     81.7151     94.5602
   947.2500      0.0000    259.9627     81.7321     93.9903
   947.5000      0.0000    259.9770     81.7456     93.5383
   947.7500      0.0000    259.9803     81.7212     94.4543
   948.0000      0.0000    259.9791     81.6226     97.8595
   948.2500      0.0000    259.9773     81.5235    100.6310
   948.5000      0.0000    259.9780     81.3334    103.6946
   948.7500      0.0000    259.9824     81.1753    104.2572
   949.0000      0.0000    259.9961     80.9026    102.4884
   949.2500      0.0000    260.0095     80.7364     99.8681
   949.5000      0.0000    260.0307     80.6115     94.8967
   949.7500      0.0000    260.0393     80.6510     91.6059
   950.0000      0.0000    260.0338     80.8709     87.7205
   950.2500      0.0000    260.0166     81.0644     86.2988
   950.5000      0.0000    259.9788     81.3091     86.5340
   950.7500      0.0000    259.9536     81.4000     88.3670
   951.0000      0.0000    259.9269     81.4194     92.9420
   951.2500      0.0000    259.9177     81.3802     96.3349
   951.5000      0.0000    259.9082     81.3142    100.3831
   951.7500      0.0000    259.8961     81.3043    101.7699
   952.0000      0.0000    259.8610     81.3568    101.2945
   952.2500      0.0000    259.8306     81.4061     99.2392
   952.5000      0.0000    259.7915     81.4160     94.5740
   952.7500      0.0000    259.7770     81.3448     91.5633
   953.0000      0.0000    259.7726     81.1198     88.9016
   953.2500      0.0000    259.7770     80.9166     88.6019
   953.5000      0.0000    259.7863     80.5873     89.4637
   953.7500      0.0000    259.7913     80.3747     90.1163
   954.0000      0.0000    259.7956     80.0764     90.3683
   954.2500      0.0000    259.7985     79.8829     89.9722
   954.5000      0.0000    259.8069     79.5875     88.5725
   954.7500      0.0000    259.8158     79.3955     87.2988
   955.0000      0.0000    259.8322     79.1539     86.3188
   955.2500      0.0000    259.8432     79.0436     87.4709
   955.5000      0.0000    259.8548     78.9583     92.1122
   955.7500      0.0000    259.8568     78.9405     95.4903
   956.0000      0.0000    259.8539     78.9214     97.1442
   956.2500      0.0000    259.8548     78.8684     94.9163
   956.5000      0.0000    259.8737     78.6506     87.7868
   956.7500      0.0000    259.9016     78.3970     82.1175
   957.0000      0.0000    259.9603     77.9093     74.5814
   957.2500      0.0000    260.0031     77.5761     70.8452
   957.5000      0.0000    260.0623     77.1633     67.1656
   957.7500      0.0000    260.0948     76.9869     65.6988
   958.0000      0.0000    260.1288     76.9365     64.7623
   958.2500      0.0000    260.1389     77.0843     65.2526
   958.5000      0.0000    260.1336     77.6012     68.0348
   958.7500      0.0000    260.1190     78.1035     70.6081
   959.0000      0.0000    260.0919     78.9418     72.9613
   959.2500      0.0000    260.0783     79.4490     72.3403
   959.5000      0.0000    260.0773     79.9755     68.3926
   959.7500      0.0000    260.0927     80.1202     64.8215
   960.0000      0.0000    260.1330     80.0374     59.5049
   960.2500      0.0000    260.1606     79.8341     56.2180
   960.5000      0.0000    260.1850     79.4222     51.7076
   960.7500      0.0000    260.1856     79.1358     49.1464
   961.0000      0.0000    260.1677     78.7813     46.3841
   961.2500      0.0000    260.1486     78.6525     45.4364
   961.5000      0.0000    260.1165     78.6863     45.6764
   961.7500      0.0000    260.0955     78.8447     47.0731
   962.0000      0.0000    260.0676     79.1721     50.4399
   962.2500      0.0000    260.0522     79.3773     52.6234
   962.5000      0.0000    260.0352     79.5988     54.3603
   962.7500      0.0000    260.0279     79.6850     54.3556
   963.0000      0.0000    260.0201     79.7458     53.3852
   963.2500      0.0000    260.0135     79.7639     52.4652
   963.5000      0.0000    259.9966     79.8029     50.5648
   963.7500      0.0000    259.9800     79.8520     48.8371
   964.0000      0.0000    259.9517     79.9387     45.9948
   964.2500      0.0000    259.9353     79.9701     44.3591
   964.5000      0.0000    259.9239     79.9233     42.4730
   964.7500      0.0000    259.9287     79.8253     41.3191
   965.0000      0.0000    259.9519     79.6315     39.5391
   965.2500      0.0000    259.9704     79.5210     38.7952
   965.5000      0.0000    259.9883     79.4381     39.6097
   965.7500      0.0000    259.9899     79.4301     41.6002
   966.0000      0.0000    259.9820     79.4240     45.4648
   966.2500      0.0000    259.9770     79.3887     47.6712
   966.5000      0.0000    259.9778     79.2772     50.0985
   966.7500      0.0000    259.9841     79.1752     51.7292
   967.0000      0.0000    259.9991     78.9706     55.0296
   967.2500      0.0000    260.0141     78.7687     57.4639
   967.5000      0.0000    260.0478     78.3459     59.7726
   967.7500      0.0000    260.0754     78.0313     59.4286
   968.0000      0.0000    260.1160     77.6523     55.4647
   968.2500      0.0000    260.1501     77.4907     51.1864
