~Version Information
VERS.                      2.0: CWLS Log ASCII Standard - VERSION 2.0
WRAP.                       NO: One line per depth step
~Well Information Block
STRT.FT                -6.2500: 
STOP.FT              1327.5000: 
STEP.FT                 0.2500: 
NULL.                -999.2500: 
COMP.          Pioneer Natural Resources: COMPANY
WELL.            Avant 14-3 Tr: WELL
FLD.           Purgatorie River: FIELD
LOC.           170' FSL & 1174' FWL--: LOCATION
STAT.                       CO: State
CNTY.               Las Animas: COUNTY
CTRY. USA : Country
SECT. 3 : Section
TOWN. 33S : Township
RANG. 67W : Range
SRVC.          Patterson Wireline: SERVICE COMPANY
DATE.          Tue Aug 23 16:44:25 2005: LOG DATE
API.           05 071 08463 00: UNIQUE WELL ID
~Curve Information Block
DEPT.FT            0 000 00 00: Depth
CCL.                          : Casing Collar Locator
TT3.usec                      : CBL 3' Travel Time
AMP3.mV                       : CBL 3' Amplitude
GR.GAPI                       : Gamma Ray
~Parameter Information Block
~A  Depth       CCL         TT3         AMP3         GR     
# ...
   596.7500      0.0000    848.9997      8.5381     65.3369
   597.0000      0.0000    838.9628      8.9105     66.8272
   597.2500      0.0000    808.9272      9.5143     68.3257
   597.5000      0.0000    759.3669     10.2093     68.6797
   597.7500      0.0000    699.6938     10.7876     68.0579
   598.0000      0.0000    646.1135     11.1400     67.8001
   598.2500      0.0000    611.3163     11.3040     68.7878
   598.5000      0.0000    592.3988     11.3703     70.4628
   598.7500      0.0000    573.1307     11.3962     71.6414
   599.0000      0.0000    541.1460     11.3981     71.7436
   599.2500      0.0000    499.3985     11.3800     70.9620
   599.5000      0.0000    459.7308     11.3482     69.7279
   599.7500      0.0000    430.4935     11.3084     68.3542
   600.0000      0.0000    412.7420     11.2629     67.0130
   600.2500      0.0000    403.7166     11.2115     65.9519
   600.5000      0.0000    400.0928     11.1574     65.6878
   600.7500      0.0000    399.4456     11.1068     66.7622
   601.0000      0.0000    401.6376     11.0661     69.2095
   601.2500      0.0000    409.0748     11.0381     72.4077
   601.5000      0.0000    423.6894     11.0233     75.4499
   601.7500      0.0000    442.6676     11.0254     77.5207
   602.0000      0.0000    458.4148     11.0493     77.9903
   602.2500      0.0000    464.4444     11.0899     76.4219
   602.5000      0.0000    460.7492     11.1270     72.8092
   602.7500      0.0000    452.5023     11.1401     68.0343
   603.0000      0.0000    445.2856     11.1266     63.9237
   603.2500      0.0000    443.4762     11.1030     62.3139
   603.5000      0.0000    451.3686     11.0897     63.7896
   603.7500      0.0000    472.9593     11.0961     67.4661
   604.0000      0.0000    510.4481     11.1168     71.8956
   604.2500      0.0000    563.2781     11.1414     75.8047
   604.5000      0.0000    626.8378     11.1639     78.2558
   604.7500      0.0000    691.4426     11.1870     78.9959
   605.0000      0.0000    745.5651     11.2158     78.7285
   605.2500      0.0000    782.6187     11.2491     78.3419
   605.5000      0.0000    804.3331     11.2758     77.7230
   605.7500      0.0000    817.3322     11.2821     75.7472
   606.0000      0.0000    827.3393     11.2644     71.4523
   606.2500      0.0000    836.3220     11.2321     65.1625
   606.5000      0.0000    843.1945     11.1990     58.6851
   606.7500      0.0000    845.4243     11.1732     54.3432
   607.0000      0.0000    839.1707     11.1565     53.5302
   607.2500      0.0000    818.7562     11.1472     56.2937
   607.5000      0.0000    778.8475     11.1407     62.1637
   607.7500      0.0000    720.2644     11.1300     70.6378
   608.0000      0.0000    653.6757     11.1114     80.4384
   608.2500      0.0000    594.8143     11.0877     88.9560
   608.5000      0.0000    554.5029     11.0684     93.3826
   608.7500      0.0000    533.7289     11.0625     92.6708
   609.0000      0.0000    527.2576     11.0728     88.2793
   609.2500      0.0000    529.4858     11.0945     83.1133
   609.5000      0.0000    536.8547     11.1195     79.6963
   609.7500      0.0000    547.4662     11.1403     78.7848
   610.0000      0.0000    561.0908     11.1508     79.1801
   610.2500      0.0000    579.3694     11.1483     79.0522
   610.5000      0.0000    603.6871     11.1363     77.7872
   610.7500      0.0000    630.9722     11.1230     76.4150
   611.0000      0.0000    652.4125     11.1143     76.1994
   611.2500      0.0000    658.5096     11.1117     77.2954
   611.5000      0.0000    646.7755     11.1160     78.8640
   611.7500      0.0000    624.0516     11.1289     79.9122
   612.0000      0.0000    599.4955     11.1502     79.7722
   612.2500      0.0000    574.6707     11.1757     78.2905
   612.5000      0.0000    543.7267     11.2017     75.8715
   612.7500      0.0000    505.6075     11.2316     73.2509
   613.0000      0.0000    473.0653     11.2773     71.2472
   613.2500      0.0000    466.6015     11.3504     70.6645
   613.5000      0.0000    499.9812     11.4508     72.1282
   613.7500      0.0000    570.0900     11.5628     75.8052
   614.0000      0.0000    657.5338     11.6619     81.1779
   614.2500      0.0000    737.6138     11.7260     86.9413
   614.5000      0.0000    794.1365     11.7463     91.2744
   614.7500      0.0000    824.9563     11.7328     92.7426
   615.0000      0.0000    837.1956     11.7080     91.2841
   615.2500      0.0000    839.6940     11.6895     88.2080
   615.5000      0.0000    838.8770     11.6800     84.9943
   615.7500      0.0000    838.0303     11.6731     82.1573
   616.0000      0.0000    838.2947     11.6651     79.5087
   616.2500      0.0000    839.9081     11.6584     77.2450
   616.5000      0.0000    842.6219     11.6573     75.8783
   616.7500      0.0000    845.2979     11.6652     74.9869
   617.0000      0.0000    845.7850     11.6863     73.1385
   617.2500      0.0000    841.1185     11.7256     69.5708
   617.5000      0.0000    828.1726     11.7845     65.1953
   617.7500      0.0000    805.5436     11.8546     61.5285
   618.0000      0.0000    774.9355     11.9162     59.1756
   618.2500      0.0000    738.6540     11.9464     57.6992
   618.5000      0.0000    696.3893     11.9344     56.5618
   618.7500      0.0000    650.1359     11.8880     55.6886
   619.0000      0.0000    613.5383     11.8260     55.1898
   619.2500      0.0000    608.0013     11.7656     55.1560
   619.5000      0.0000    643.3278     11.7181     56.0687
   619.7500      0.0000    705.8127     11.6871     59.0225
   620.0000      0.0000    769.1748     11.6673     65.0157
   620.2500      0.0000    814.6223     11.6477     73.7547
   620.5000      0.0000    839.0900     11.6176     83.0668
   620.7500      0.0000    849.1902     11.5722     89.8704
   621.0000      0.0000    852.3978     11.5114     92.3254
   621.2500      0.0000    853.1534     11.4407     91.0171
   621.5000      0.0000    853.2180     11.3725     87.8341
   621.7500      0.0000    853.0748     11.3229     84.2811
   622.0000      0.0000    852.8137     11.3012     81.2381
   622.2500      0.0000    852.4855     11.3028     79.3862
   622.5000      0.0000    852.1497     11.3131     78.9744
   622.7500      0.0000    851.8509     11.3213     79.5388
   623.0000      0.0000    851.6030     11.3267     80.2833
   623.2500      0.0000    851.4094     11.3318     80.5156
   623.5000      0.0000    851.2831     11.3329     79.7142
   623.7500      0.0000    851.2416     11.3251     77.8281
   624.0000      0.0000    851.2884     11.3137     75.9466
   624.2500      0.0000    851.4045     11.3147     76.1121
   624.5000      0.0000    851.5601     11.3412     79.5702
   624.7500      0.0000    851.7360     11.3930     85.2468
   625.0000      0.0000    851.9354     11.4580     90.6801
   625.2500      0.0000    852.1743     11.5207     94.4367
   625.5000      0.0000    852.4594     11.5701     96.9118
   625.7500      0.0000    852.7748     11.6062     98.8665
   626.0000      0.0000    853.0795     11.6405    100.0452
   626.2500      0.0000    853.3137     11.6896     99.4988
   626.5000      0.0000    853.4152     11.7683     96.8446
   626.7500      0.0000    853.3446     11.8876     92.9533
   627.0000      0.0000    853.1050     12.0555     89.3131
   627.2500      0.0000    852.7435     12.2745     86.8155
   627.5000      0.0000    852.3370     12.5398     85.3753
   627.7500      0.0000    851.9629     12.8419     84.5236
   628.0000      0.0000    851.6678     13.1713     83.8222
   628.2500      0.0000    851.4573     13.5237     82.8786
   628.5000      0.0000    851.3130     13.9009     81.6794
   628.7500      0.0000    851.2153     14.3089     80.8261
   629.0000      0.0000    851.1478     14.7541     80.7373
   629.2500      0.0000    851.0895     15.2404     80.7186
   629.5000      0.0000    851.0137     15.7662     79.5591
   629.7500      0.0000    850.8975     16.3177     77.0404
   630.0000      0.0000    850.7343     16.8585     74.3369
