~Version Information
VERS.                      2.0: CWLS Log ASCII Standard - VERSION 2.0
WRAP.                       NO: One line per depth step
~Well Information Block
STRT.FT               230.0000: 
STOP.FT               706.5000: 
STEP.FT                 0.1000: 
NULL.                -999.2500: 
COMP.          Pioneer Natural Resources: COMPANY
WELL.          Razor Clam 23-27: WELL
FLD.           Purgatoire River: FIELD
LOC.           2499' FSL & 2636' FWL: LOCATION
CNTY.               Las Animas: COUNTY
SRVC.                Patterson: SERVICE COMPANY
DATE.          Mon Feb 13 07:31:47 2006: LOG DATE
UWI.           05 071 08667 00: UNIQUE WELL ID
STAT.                 Colorado: STATE
~Curve Information Block
DEPT.FT            0 000 00 00: Depth
DCAL.in                       : CDL Caliper
RHOB.g/cc                     : CDL Bulk Density
RHOC.g/cc                     : CDL Density Correction
DPOR.pu                       : CDL Density Porosity
GR.GAPI                       : Gamma Ray
NPOR.pu                       : Neutron Porosity
~Parameter Information Block
~A  Depth       DCAL        RHOB        RHOC        DPOR         GR         NPOR    
   230.0000      4.6999      2.2941      2.0000     -0.0071     90.0180     20.6668
   230.1000      4.6999      2.2844      2.0000     -0.0073     89.8284     21.3899
   230.2000      4.6999      2.2771      2.0000     -0.0075     92.9071     22.2684
   230.3000      4.7015      2.2843      2.0000     -0.0073     92.7407     22.5192
   230.4000      4.7015      2.3019      2.0000     -0.0070     88.9672     21.9375
   230.5000      4.6929      2.3159      2.0000     -0.0067     89.4300     21.5245
   230.6000      4.6929      2.3140      2.0000     -0.0067     93.5079     21.8692
   230.7000      4.6929      2.2926      2.0000     -0.0072     94.3343     22.5196
   230.8000      4.6942      2.2633      2.0000     -0.0077     92.4319     23.2349
   230.9000      4.6942      2.2386      2.0000     -0.0082     91.9971     23.7719
   231.0000      4.6973      2.2183      2.0000     -0.0086     92.2703     23.5357
   231.1000      4.6973      2.2144      2.0000     -0.0087     94.1472     22.7317
   231.2000      4.6973      2.2356      2.0000     -0.0083    102.2074     21.9191
   231.3000      4.6937      2.2573      2.0000     -0.0079    111.6468     20.9466
   231.4000      4.6937      2.2588      2.0000     -0.0078    111.9910     20.1555
   231.5000      4.6928      2.2474      2.0000     -0.0081    106.1025     20.2146
   231.6000      4.6928      2.2368      2.0000     -0.0083    104.8173     20.8286
   231.7000      4.6928      2.2355      2.0000     -0.0083    104.2186     21.4938
   231.8000      4.6969      2.2441      2.0000     -0.0081     93.8289     21.9108
   231.9000      4.6969      2.2497      2.0000     -0.0080     79.0908     21.8171
   232.0000      4.6932      2.2480      2.0000     -0.0080     70.8859     21.3214
   232.1000      4.6932      2.2540      2.0000     -0.0079     70.8872     20.6000
   232.2000      4.6932      2.2680      2.0000     -0.0076     72.1904     19.6555
   232.3000      4.6948      2.2751      2.0000     -0.0075     67.4996     18.5830
   232.4000      4.6948      2.2753      2.0000     -0.0075     60.8871     17.6868
   232.5000      4.6975      2.2754      2.0000     -0.0075     58.3120     17.2229
   232.6000      4.6975      2.2735      0.2762     -0.0075     57.3789     17.2936
   232.7000      4.6975      2.2661      0.2600     -0.0077     58.9299     17.9223
   232.8000      4.6970      2.2519      0.2670     -0.0080     64.7635     18.7116
   232.9000      4.6970      2.2368      0.2176     -0.0083     71.6524     19.3294
   233.0000      4.6956      2.2375      0.2436     -0.0083     75.4391     19.4147
   233.1000      4.6956      2.2591      0.2642     23.6928     74.2408     18.8656
   233.2000      4.6956      2.2857      0.2950     22.0776     70.1926     18.5486
   233.3000      4.6973      2.3015      0.3011     21.1189     65.5788     18.2631
   233.4000      4.6973      2.3087      0.2631     20.6872     63.6653     17.2009
   233.5000      4.6968      2.3096      0.3109     20.6316     65.3776     16.1619
   233.6000      4.6968      2.2993      0.2899     21.2569     67.9363     16.1505
   233.7000      4.6968      2.2874      0.2415     21.9783     70.7154     16.8179
   233.8000      4.6919      2.2912      0.2442     21.7452     71.2680     17.4750
   233.9000      4.6919      2.3086      0.2808     20.6888     67.7404     17.8672
   234.0000      4.6934      2.3204      0.2891     19.9731     64.9420     18.0544
   234.1000      4.6934      2.3220      0.2758     19.8775     65.4632     18.2811
   234.2000      4.6934      2.3287      0.2663     19.4709     68.0266     18.5556
   234.3000      4.6930      2.3467      0.3010     18.3820     74.8406     18.4692
   234.4000      4.6930      2.3610      0.2893     17.5132     84.1790     17.8271
   234.5000      4.6921      2.3524      0.3243     18.0357     88.3978     17.3024
   234.6000      4.6921      2.3202      0.2452     19.9852     85.7399     17.7655
   234.7000      4.6921      2.2899      0.2260     21.8250     84.4602     19.0790
   234.8000      4.6928      2.2788      0.2287     22.4982     88.7448     20.4199
   234.9000      4.6928      2.2761      0.2802     22.6585     90.8866     21.4851
   235.0000      4.6985      2.2685      0.2268     23.1203     87.0848     21.7941
   235.1000      4.6985      2.2566      0.2353     23.8448     84.4085     21.0247
   235.2000      4.6985      2.2435      0.2460     24.6334     89.0142     20.2042
   235.3000      4.6967      2.2377      0.2201     24.9876     98.7643     20.1852
   235.4000      4.6967      2.2463      0.2402     24.4691    106.6783     20.5615
   235.5000      4.6932      2.2620      0.2589     23.5153    110.8377     20.7952
   235.6000      4.6932      2.2750      0.2708     22.7256    114.9522     20.8526
   235.7000      4.6932      2.2820      0.2432     22.3002    117.1690     21.1447
   235.8000      4.6931      2.2866      0.2384     22.0236    114.6436     21.8985
   235.9000      4.6931      2.2904      0.3010     21.7952    108.7262     22.4124
   236.0000      4.6939      2.2885      0.2580     21.9078    104.0356     22.1068
   236.1000      4.6939      2.2838      0.2304     22.1960    102.4620     21.6665
   236.2000      4.6939      2.2830      0.2694     22.2452     94.7094     21.6747
   236.3000      4.6927      2.2880      0.2288     21.9374     79.1777     21.7616
   236.4000      4.6927      2.2976      0.2988     21.3548     70.0791     21.7980
   236.5000      4.6914      2.3037      0.2604     20.9884     76.2803     21.8152
   236.6000      4.6914      2.2984      0.2778     21.3065     90.9745     21.7833
   236.7000      4.6914      2.2840      0.2581     22.1789    102.5049     21.6355
   236.8000      4.7028      2.2709      0.2298     22.9743    105.4839     21.3995
   236.9000      4.7028      2.2631      0.2468     23.4508    101.9314     21.5322
   237.0000      4.6968      2.2556      0.2570     23.9052     99.7063     21.8899
   237.1000      4.6968      2.2499      0.2740     24.2485    102.3257     21.9004
   237.2000      4.6968      2.2533      0.2194     24.0427    106.4817     21.6214
   237.3000      4.6934      2.2662      0.2738     23.2580    108.8571     20.9863
   237.4000      4.6934      2.2798      0.2798     22.4358    109.6172     19.8813
   237.5000      4.6959      2.2907      0.2615     21.7774    111.9179     19.4252
   237.6000      4.6959      2.3001      0.3068     21.2036    115.1762     20.4263
   237.7000      4.6959      2.3012      0.2947     21.1411    117.3666     21.8934
   237.8000      4.7002      2.2890      0.3168     21.8805    118.4886     22.5603
   237.9000      4.7002      2.2723      0.2501     22.8897    118.4980     22.3169
   238.0000      4.6936      2.2634      0.2512     23.4322    119.0487     22.0251
   238.1000      4.6936      2.2647      0.2332     23.3499    120.0612     22.6861
   238.2000      4.6936      2.2739      0.2350     22.7927    115.5550     23.8615
   238.3000      4.6986      2.2873      0.2647     21.9820    107.7017     23.8786
   238.4000      4.6986      2.3030      0.2748     21.0295    104.4963     22.5308
   238.5000      4.6960      2.3134      0.3116     20.3986    102.9889     21.4921
   238.6000      4.6960      2.3080      0.2763     20.7254     98.8606     21.7583
   238.7000      4.6960      2.2955      0.2252     21.4862     96.5659     22.5126
   238.8000      4.6954      2.2891      0.2552     21.8726     98.3075     22.6774
   238.9000      4.6954      2.2891      0.2207     21.8731     99.4091     22.1306
   239.0000      4.6925      2.2936      0.2859     21.6025    100.6225     21.5797
   239.1000      4.6925      2.2973      0.2829     21.3787    104.2987     21.5594
   239.2000      4.6925      2.2967      0.2664     21.4147    104.6398     21.9736
   239.3000      4.6925      2.2951      0.2760     21.5102    100.6928     22.4955
   239.4000      4.6925      2.2916      0.2798     21.7228    100.2202     22.2018
   239.5000      4.6919      2.2835      0.2437     22.2120    104.3083     20.9079
