~Version Information
VERS.                      2.0: CWLS Log ASCII Standard - VERSION 2.0
WRAP.                       NO: One line per depth step
~Well Information Block
STRT.FT               660.0000: 
STOP.FT              2491.0000: 
STEP.FT                 0.2500: 
NULL.                -999.2500: 
COMP.          Petrogulf Corporation: COMPANY
WELL.          Montoya 18-11V-B: WELL
FLD.           Purgatorie River: FIELD
LOC.           848' FNL & 619' FWL: LOCATION
PROV.                 Colorado: PROVINCE
CNTY.               Las Animas: COUNTRY
SRVC.                Patterson: SERVICE COMPANY
DATE.          Wed Oct 05 04:34:17 2005: LOG DATE
UWI.                          : UNIQUE WELL ID
~Curve Information Block
DEPT.FT            0 000 00 00: Depth
SP.mV                         : DIL Spontaneous Potential
RILD.Ohm-m                    : DIL Deep Resistivity
RILM.Ohm-m                    : DIL Medium Resistivity
RLL3.Ohm-m                    : DIL Shallow Resistivity
GR.GAPI                       : Gamma Ray
~Parameter Information Block
~A  Depth        SP         RILD        RILM        RLL3         GR     
# ...
  1612.0000    185.7803      9.8650      9.7409     10.5422    132.0670
  1612.2500    186.2300      9.5317      9.3415     10.3063    136.4318
  1612.5000    186.6645      9.2501      9.0263     10.1186    143.7220
  1612.7500    187.0569      9.0152      8.7826      9.9300    148.6083
  1613.0000    187.3839      8.8213      8.5994      9.7454    154.5320
  1613.2500    187.6268      8.6624      8.4672      9.6127    157.0064
  1613.5000    187.7741      8.5334      8.3769      9.6028    158.6925
  1613.7500    187.8232      8.4313      8.3202      9.7711    158.8492
  1614.0000    187.7816      8.3549      8.2887     10.1133    157.7594
  1614.2500    187.6647      8.3041      8.2747     10.5474    155.9580
  1614.5000    187.4928      8.2789      8.2716     10.9398    151.7658
  1614.7500    187.2886      8.2783      8.2750     11.1604    148.4460
  1615.0000    187.0766      8.2998      8.2829     11.1394    143.5068
  1615.2500    186.8795      8.3381      8.2958     10.9009    140.6720
  1615.5000    186.7131      8.3846      8.3157     10.5556    138.2842
  1615.7500    186.5833      8.4286      8.3440     10.2521    138.7097
  1616.0000    186.4857      8.4580      8.3804     10.1148    142.7662
  1616.2500    186.4055      8.4630      8.4209     10.2079    147.2142
  1616.5000    186.3183      8.4378      8.4578     10.5328    154.6871
  1616.7500    186.1958      8.3831      8.4809     11.0339    158.7928
  1617.0000    186.0133      8.3060      8.4793     11.5938    161.3050
  1617.2500    185.7563      8.2175      8.4450     12.0360    159.9839
  1617.5000    185.4234      8.1293      8.3755     12.1744    154.9033
  1617.7500    185.0249      8.0514      8.2753     11.9074    151.3388
  1618.0000    184.5790      7.9910      8.1547     11.2944    148.9902
  1618.2500    184.1066      7.9522      8.0277     10.5373    150.3661
  1618.5000    183.6272      7.9360      7.9086      9.8656    156.2616
  1618.7500    183.1554      7.9406      7.8103      9.4173    161.6436
  1619.0000    182.6990      7.9618      7.7425      9.2065    169.9155
  1619.2500    182.2608      7.9952      7.7118      9.1799    174.4086
  1619.5000    181.8439      8.0375      7.7219      9.2843    177.3377
  1619.7500    181.4547      8.0871      7.7745      9.4859    175.7840
  1620.0000    181.1034      8.1424      7.8687      9.7579    169.0007
  1620.2500    180.7996      8.2011      8.0017     10.0954    163.4463
  1620.5000    180.5467      8.2599      8.1673     10.5728    156.9448
  1620.7500    180.3372      8.3174      8.3562     11.3686    154.4854
  1621.0000    180.1523      8.3767      8.5551     12.6635    152.3400
  1621.2500    179.9667      8.4450      8.7489     14.4203    150.7810
  1621.5000    179.7565      8.5313      8.9229     16.2205    147.0353
  1621.7500    179.5072      8.6418      9.0669     17.3824    143.4861
  1622.0000    179.2178      8.7775      9.1779     17.3716    137.3540
  1622.2500    178.9010      8.9333      9.2615     16.1943    133.8615
  1622.5000    178.5799      9.0993      9.3291     14.4298    131.9115
  1622.7500    178.2814      9.2618      9.3943     12.8690    133.4073
  1623.0000    178.0283      9.4047      9.4688     12.0488    138.3926
  1623.2500    177.8292      9.5142      9.5600     12.0133    141.8377
  1623.5000    177.6739      9.5830      9.6705     12.4435    144.7463
  1623.7500    177.5405      9.6151      9.7994     13.0050    144.6769
  1624.0000    177.4128      9.6260      9.9438     13.5799    142.4350
  1624.2500    177.2983      9.6399     10.1015     14.1983    140.5844
  1624.5000    177.2338      9.6841     10.2719     14.8292    138.6273
  1624.7500    177.2720      9.7813     10.4567     15.3200    138.0569
  1625.0000    177.4594      9.9429     10.6595     15.5536    138.4298
  1625.2500    177.8198     10.1658     10.8846     15.6312    139.7740
  1625.5000    178.3470     10.4363     11.1363     15.8500    143.3420
  1625.7500    179.0057     10.7375     11.4183     16.4402    145.7742
  1626.0000    179.7358     11.0559     11.7337     17.3034    146.8014
  1626.2500    180.4620     11.3827     12.0854     18.0590    144.5747
  1626.5000    181.1098     11.7116     12.4765     18.3880    137.0163
  1626.7500    181.6245     12.0386     12.9099     18.2986    130.5242
  1627.0000    181.9811     12.3655     13.3875     18.0567    121.8420
  1627.2500    182.1854     12.7039     13.9081     17.9682    118.1061
  1627.5000    182.2655     13.0718     14.4646     18.3034    115.5196
  1627.7500    182.2617     13.4811     15.0422     19.3194    114.6555
  1628.0000    182.2143     13.9253     15.6171     21.1466    112.9087
  1628.2500    182.1525     14.3783     16.1585     23.5433    111.3176
  1628.5000    182.0892     14.8071     16.6348     25.8280    108.8499
  1628.7500    182.0251     15.1921     17.0222     27.2271    107.2209
  1629.0000    181.9614     15.5380     17.3137     27.4218    104.4564
  1629.2500    181.9086     15.8703     17.5238     26.7319    102.3845
  1629.5000    181.8847     16.2193     17.6870     25.6930     99.7506
  1629.7500    181.9047     16.6032     17.8506     24.5131     99.1292
  1630.0000    181.9680     17.0180     18.0646     23.0703    100.8892
  1630.2500    182.0532     17.4368     18.3720     21.4253    103.6350
  1630.5000    182.1245     17.8202     18.7998     20.2334    108.5816
  1630.7500    182.1495     18.1293     19.3515     20.6525    111.5240
  1631.0000    182.1137     18.3340     19.9996     23.8272    114.4207
  1631.2500    182.0222     18.4138     20.6820     30.1321    114.8044
  1631.5000    181.8871     18.3574     21.3039     38.4500    111.9873
  1631.7500    181.7166     18.1667     21.7536     46.1358    107.6454
  1632.0000    181.5148     17.8590     21.9296     50.2185     98.8207
  1632.2500    181.2905     17.4644     21.7694     49.2604     92.9386
  1632.5000    181.0618     17.0163     21.2680     44.2718     86.1814
  1632.7500    180.8505     16.5430     20.4728     37.7889     83.2858
  1633.0000    180.6713     16.0626     19.4650     32.0402     80.9127
  1633.2500    180.5275     15.5844     18.3362     27.8409     80.6966
  1633.5000    180.4136     15.1123     17.1723     24.8079     83.0478
  1633.7500    180.3201     14.6507     16.0438     22.2341     86.4345
  1634.0000    180.2335     14.2079     15.0036     19.7379     93.5403
  1634.2500    180.1359     13.7979     14.0875     17.3624     99.3950
  1634.5000    180.0036     13.4369     13.3166     15.3331    110.1969
  1634.7500    179.8084     13.1391     12.7008     13.8171    118.7637
  1635.0000    179.5219     12.9137     12.2429     12.8412    132.4672
  1635.2500    179.1261     12.7653     11.9419     12.3333    141.0517
  1635.5000    178.6257     12.6974     11.7958     12.1967    151.3487
  1635.7500    178.0524     12.7146     11.8040     12.3722    155.6467
  1636.0000    177.4549     12.8240     11.9686     12.8941    157.3037
  1636.2500    176.8835     13.0337     12.2949     13.9572    155.2880
  1636.5000    176.3810     13.3514     12.7920     15.9744    148.7501
  1636.7500    175.9804     13.7835     13.4717     19.5374    142.8407
  1637.0000    175.7050     14.3360     14.3483     25.1638    132.5058
  1637.2500    175.5681     15.0152     15.4371     32.8381    124.8133
  1637.5000    175.5748     15.8298     16.7527     41.6383    112.0174
  1637.7500    175.7213     16.7897     18.3073     49.8902    102.6835
  1638.0000    175.9941     17.9034     20.1084     55.9336     88.3938
  1638.2500    176.3677     19.1721     22.1552     58.9575     79.7466
  1638.5000    176.8094     20.5813     24.4343     59.2422     69.7651
  1638.7500    177.2862     22.0926     26.9132     57.7483     65.3627
  1639.0000    177.7667     23.6403     29.5332     55.5312     61.4729
  1639.2500    178.2169     25.1392     32.2036     53.3598     60.1721
  1639.5000    178.5975     26.4997     34.8016     51.5689     59.4772
  1639.7500    178.8726     27.6477     37.1820     50.1186     59.4343
