~Version Information
VERS.                      2.0: CWLS Log ASCII Standard - VERSION 2.0
WRAP.                       NO: One line per depth step
~Well Information Block
STRT.FT               555.0000: 
STOP.FT              2322.2500: 
STEP.FT                 0.2500: 
NULL.                -999.2500: 
COMP.          Pioneer Natural Resources: COMPANY
WELL.          Fittipaldi 21-12: WELL
FLD.           Purgatoire River: FIELD
LOC.           207' FNL & 2110' FWL--: LOCATION
CNTY.               Las Animas: COUNTY
SRVC.                Patterson: SERVICE COMPANY
DATE.          Tue Mar 21 10:27:48 2006: LOG DATE
UWI.           05 071 08492 00: UNIQUE WELL ID
STAT.                 Colorado: STATE
~Curve Information Block
DEPT.FT            0 000 00 00: Depth
SN.Ohm-m                      : IEL Short Normal
SP.mV                         : IEL Spontaneous Potential
DIR.Ohm-m                     : IEL Induction Resistivity
GR.GAPI                       : Gamma Ray
~Parameter Information Block
~A  Depth        SN          SP         DIR          GR     
# ...
  2297.0000     25.2816     67.9433     26.3827   -999.2500
  2297.2500     25.1736     68.0233     26.3465   -999.2500
  2297.5000     25.0426     68.1174     26.1996   -999.2500
  2297.7500     24.8764     68.2262     25.9278   -999.2500
  2298.0000     24.6676     68.3491     25.5431   -999.2500
  2298.2500     24.4191     68.4834     25.0803   -999.2500
  2298.5000     24.1455     68.6255     24.5854   -999.2500
  2298.7500     23.8679     68.7710     24.1041   -999.2500
  2299.0000     23.6049     68.9157     23.6778   -999.2500
  2299.2500     23.3652     69.0557     23.3399   -999.2500
  2299.5000     23.1476     69.1884     23.1068   -999.2500
  2299.7500     22.9469     69.3128     22.9677   -999.2500
  2300.0000     22.7588     69.4290     22.8817   -999.2500
  2300.2500     22.5800     69.5383     22.7924   -999.2500
  2300.5000     22.4092     69.6423     22.6559   -999.2500
  2300.7500     22.2502     69.7420     22.4633   -999.2500
  2301.0000     22.1148     69.8374     22.2430   -999.2500
  2301.2500     22.0210     69.9266     22.0427   -999.2500
  2301.5000     21.9854     70.0063     21.9055   -999.2500
  2301.7500     22.0144     70.0718     21.8540   -999.2500
  2302.0000     22.1007     70.1189     21.8872   -999.2500
  2302.2500     22.2247     70.1440     21.9858   -999.2500
  2302.5000     22.3602     70.1456     22.1244   -999.2500
  2302.7500     22.4804     70.1250     22.2816   -999.2500
  2303.0000     22.5657     70.0856     22.4436   -999.2500
  2303.2500     22.6100     70.0333     22.6007   -999.2500
  2303.5000     22.6217     69.9745     22.7423   -999.2500
  2303.7500     22.6159     69.9156     22.8570   -999.2500
  2304.0000     22.6049     69.8611     22.9350   -999.2500
  2304.2500     22.5961     69.8137     22.9707   -999.2500
  2304.5000     22.5984     69.7734     22.9656   -999.2500
  2304.7500     22.6247     69.7387     22.9314   -999.2500
  2305.0000     22.6843     69.7069     22.8880   -999.2500
  2305.2500     22.7691     69.6759     22.8521   -999.2500
  2305.5000     22.8502     69.6448     22.8242   -999.2500
  2305.7500     22.8908     69.6148     22.7844   -999.2500
  2306.0000     22.8667     69.5892     22.7034   -999.2500
  2306.2500     22.7792     69.5732     22.5618   -999.2500
  2306.5000     22.6531     69.5726     22.3660   -999.2500
  2306.7500     22.5233     69.5930     22.1444   -999.2500
  2307.0000     22.4216     69.6381     21.9304   -999.2500
  2307.2500     22.3681     69.7091     21.7458   -999.2500
  2307.5000     22.3654     69.8039     21.5962   -999.2500
  2307.7500     22.3984     69.9169     21.4780   -999.2500
  2308.0000     22.4432     70.0396     21.3857   -999.2500
  2308.2500     22.4821     70.1614     21.3165   -999.2500
  2308.5000     22.5148     70.2709     21.2733   -999.2500
  2308.7500     22.5584     70.3571     21.2674   -999.2500
  2309.0000     22.6340     70.4111     21.3189   -999.2500
  2309.2500     22.7497     70.4271     21.5013   -999.2500
  2309.5000     22.8915     70.4032     21.7247   -999.2500
  2309.7500     23.0296     70.3411     22.0328   -999.2500
  2310.0000     23.1374     70.2456     22.3979   -999.2500
  2310.2500     23.2106     70.1230     22.7790   -999.2500
  2310.5000     23.2738     69.9795     23.1356   -999.2500
  2310.7500     23.3708     69.8197     23.4418   -999.2500
  2311.0000     23.5431     69.6462     23.6949   -999.2500
  2311.2500     23.8088     69.4592     23.9222   -999.2500
  2311.5000     24.1502     69.2579     24.1866   -999.2500
  2311.7500     24.5172     69.0412     24.6056   -999.2500
  2312.0000     24.8443     68.8094     25.3888   -999.2500
  2312.2500     25.0726     68.5649     26.9022   -999.2500
  2312.5000     25.1702     68.3121     29.7755   -999.2500
  2312.7500     25.1420     68.0577     34.9740   -999.2500
  2313.0000     25.0268     67.8089     44.9352   -999.2500
  2313.2500     24.8851     67.5729     64.4285   -999.2500
  2313.5000     24.7795     67.3533    106.3639   -999.2500
  2313.7500     24.7546     67.1518    215.1697   -999.2500
  2314.0000     24.8231     66.9636    671.8612   -999.2500
  2314.2500     24.9659     66.7747 100000.0000   -999.2500
  2314.5000     25.1459     66.5568 100000.0000   -999.2500
  2314.7500     25.3243     66.2612 100000.0000   -999.2500
  2315.0000     25.4704     65.8094 100000.0000   -999.2500
  2315.2500     25.5661     65.0861 100000.0000   -999.2500
  2315.5000     25.6124     63.9346 100000.0000   -999.2500
  2315.7500     25.6313     62.1638 100000.0000   -999.2500
  2316.0000     25.6551     59.5692 100000.0000   -999.2500
  2316.2500     25.7029     55.9702 100000.0000   -999.2500
  2316.5000     25.7454     51.2594 100000.0000   -999.2500
  2316.7500     25.6438     45.4503 100000.0000   -999.2500
  2317.0000     25.0624     38.7076 100000.0000   -999.2500
  2317.2500     23.4523     31.3447 100000.0000   -999.2500
  2317.5000     20.2995     23.7837 100000.0000   -999.2500
  2317.7500     15.6299     16.4836 100000.0000   -999.2500
  2318.0000     10.2989      9.8579 100000.0000   -999.2500
  2318.2500      5.5783      4.2058 100000.0000   -999.2500
  2318.5000      2.3284     -0.3258 100000.0000   -999.2500
  2318.7500      0.5873     -3.7399 100000.0000   -999.2500
  2319.0000     -0.1389     -6.1571 100000.0000   -999.2500
  2319.2500     -0.3748     -7.7651 100000.0000   -999.2500
  2319.5000     -0.4344     -8.7702 100000.0000   -999.2500
  2319.7500     -0.4462     -9.3604 100000.0000   -999.2500
  2320.0000   -999.2500     -9.6861 100000.0000   -999.2500
  2320.2500   -999.2500     -9.8550 100000.0000   -999.2500
  2320.5000   -999.2500     -9.9372 100000.0000   -999.2500
  2320.7500   -999.2500     -9.9748  32307.3555   -999.2500
  2321.0000   -999.2500     -9.9910  13355.1250   -999.2500
  2321.2500   -999.2500     -9.9975  10739.4150   -999.2500
  2321.5000   -999.2500   -999.2500  10043.4766   -999.2500
  2321.7500   -999.2500   -999.2500   9851.1729   -999.2500
  2322.0000   -999.2500   -999.2500   9802.9277   -999.2500
  2322.2500   -999.2500   -999.2500 100000.0000   -999.2500
