~Version Information
VERS.                      2.0: CWLS Log ASCII Standard - VERSION 2.0
WRAP.                       NO: One line per depth step
~Well Information Block
STRT.FT                -5.0000: 
STOP.FT               912.2500: 
STEP.FT                 0.2500: 
NULL.                -999.2500: 
COMP.          Pioneer Natural Resources: COMPANY
WELL.               Ernie 31-6: WELL
FLD.           Purgatoire River: FIELD
LOC.           681' FNL & 2138' FEL: LOCATION
CNTY.               Las Animas: COUNTY
SRVC.                         : SERVICE COMPANY
DATE.          Tue Jun 27 10:36:58 2006: LOG DATE
UWI.           05 071 08716 00: UNIQUE WELL ID
STAT.                       CO: STATE
~Curve Information Block
DEPT.FT            0 000 00 00: Depth
GR.GAPI                       : Gamma Ray
CCL.                          : Casing Collar Locator
TT3.usec                      : CBL 3' Travel Time
AMP3.mV                       : CBL 3' Amplitude
~Parameter Information Block
~A  Depth        GR         CCL         TT3         AMP3    
# ...
   765.5000     57.4228      0.0000    418.4048      9.9302
   765.7500     55.5890      0.0000    421.9401      9.8356
   766.0000     53.2596      0.0000    430.1356      9.6739
   766.2500     50.3190      0.0000    444.9047      9.4917
   766.5000     47.1888      0.0000    462.4599      9.3504
   766.7500     44.7621      0.0000    476.8622      9.2862
   767.0000     43.7094      0.0000    488.9726      9.2819
   767.2500     44.0145      0.0000    508.8626      9.2908
   767.5000     45.1975      0.0000    545.4133      9.2883
   767.7500     46.7705      0.0000    594.9160      9.2891
   768.0000     48.2554      0.0000    643.2650      9.3123
   768.2500     49.0171      0.0000    678.3104      9.3504
   768.5000     48.6623      0.0000    697.5655      9.3791
   768.7500     47.7117      0.0000    705.6856      9.3783
   769.0000     47.3277      0.0000    708.3273      9.3319
   769.2500     48.0842      0.0000    708.9745      9.2260
   769.5000     49.3147      0.0000    709.0426      9.0713
   769.7500     49.8517      0.0000    708.9753      8.9141
   770.0000     49.0911      0.0000    708.9081      8.8071
   770.2500     47.1959      0.0000    708.8897      8.7690
   770.5000     44.6204      0.0000    708.9037      8.7842
   770.7500     41.7632      0.0000    708.9041      8.8302
   771.0000     39.0539      0.0000    708.8582      8.8974
   771.2500     37.0897      0.0000    708.7839      8.9799
   771.5000     36.4524      0.0000    708.7491      9.0560
   771.7500     37.4242      0.0000    708.8238      9.0881
   772.0000     39.9233      0.0000    709.0204      9.0519
   772.2500     43.4682      0.0000    709.2784      8.9614
   772.5000     47.2099      0.0000    709.4951      8.8600
   772.7500     50.4885      0.0000    709.5714      8.7873
   773.0000     53.3415      0.0000    709.4496      8.7543
   773.2500     55.9040      0.0000    709.1389      8.7426
   773.5000     57.4886      0.0000    708.7214      8.7220
   773.7500     56.9982      0.0000    708.3185      8.6750
   774.0000     54.2764      0.0000    708.0295      8.6171
   774.2500     50.5798      0.0000    707.8874      8.6056
   774.5000     47.6426      0.0000    707.8696      8.7290
   774.7500     46.3353      0.0000    707.9484      9.0643
   775.0000     46.0627      0.0000    708.1412      9.6167
   775.2500     45.4855      0.0000    708.5114     10.2940
   775.5000     44.1093      0.0000    709.1046     10.9557
   775.7500     43.1681      0.0000    709.8777     11.5039
   776.0000     44.6612      0.0000    710.7093     11.9353
   776.2500     49.3785      0.0000    711.5227     12.3002
   776.5000     56.0283      0.0000    712.4248     12.6089
   776.7500     62.4365      0.0000    713.7676     12.7860
   777.0000     67.4809      0.0000    716.0197     12.7329
   777.2500     71.6717      0.0000    719.4063     12.4336
   777.5000     76.0159      0.0000    723.5470     11.9833
   777.7500     80.8226      0.0000    727.5739     11.5143
   778.0000     85.6289      0.0000    730.7647     11.1053
   778.2500     89.5219      0.0000    732.8976     10.7571
   778.5000     91.2343      0.0000    733.8094     10.4317
   778.7500     89.7301      0.0000    732.9470     10.0975
   779.0000     85.2869      0.0000    729.9144      9.7447
   779.2500     79.7048      0.0000    725.5061      9.3774
   779.5000     75.2228      0.0000    721.6224      9.0127
   779.7500     73.2219      0.0000    719.7500      8.6826
   780.0000     73.6372      0.0000    719.6443      8.4170
   780.2500     75.2547      0.0000    719.7145      8.2200
   780.5000     76.6686      0.0000    718.6237      8.0744
   780.7500     77.1268      0.0000    716.3514      7.9687
   781.0000     76.5865      0.0000    713.7972      7.9057
   781.2500     75.3236      0.0000    711.8049      7.8805
   781.5000     73.7486      0.0000    710.7728      7.8635
   781.7500     72.3263      0.0000    710.9603      7.8127
   782.0000     71.4151      0.0000    712.8372      7.7065
   782.2500     71.1865      0.0000    716.8893      7.5666
   782.5000     71.6181      0.0000    722.8329      7.4502
   782.7500     72.5162      0.0000    728.9413      7.4147
   783.0000     73.6866      0.0000    732.3857      7.4840
   783.2500     75.0964      0.0000    730.7469      7.6445
   783.5000     76.7485      0.0000    723.7324      7.8694
   783.7500     78.5149      0.0000    713.8646      8.1440
   784.0000     80.3630      0.0000    705.5182      8.4696
   784.2500     82.6173      0.0000    702.8862      8.8440
   784.5000     85.4933      0.0000    708.0945      9.2464
   784.7500     88.3756      0.0000    720.1761      9.6468
   785.0000     90.1799      0.0000    735.3756     10.0295
   785.2500     90.4266      0.0000    749.1928     10.3920
   785.5000     89.3340      0.0000    758.9232     10.7191
   785.7500     87.0750      0.0000    764.1749     10.9746
   786.0000     83.9534      0.0000    764.9875     11.1262
   786.2500     81.2363      0.0000    760.1593     11.1655
   786.5000     80.8182      0.0000    747.9086     11.0926
   786.7500     83.7954      0.0000    728.0536     10.8974
   787.0000     89.6041      0.0000    703.1291     10.5740
   787.2500     96.4396      0.0000    677.2126     10.1488
   787.5000    102.4459      0.0000    654.2119      9.6829
   787.7500    106.5898      0.0000    637.4391      9.2381
   788.0000    108.4990      0.0000    628.7676      8.8461
   788.2500    108.0425      0.0000    625.8260      8.5136
   788.5000    105.7036      0.0000    621.0547      8.2451
   788.7500    102.9416      0.0000    606.9033      8.0475
   789.0000    101.2414      0.0000    582.9260      7.9096
   789.2500    100.6758      0.0000    556.2516      7.7952
   789.5000     99.9078      0.0000    535.3229      7.6656
   789.7500     97.7585      0.0000    525.1121      7.5099
   790.0000     94.5515      0.0000    527.3047      7.3504
   790.2500     91.7623      0.0000    540.9103      7.2215
   790.5000     90.5471      0.0000    561.2327      7.1401
   790.7500     90.9131      0.0000    581.6771      7.0952
   791.0000     92.2531      0.0000    598.9955      7.0628
   791.2500     94.2940      0.0000    613.8463      7.0274
   791.5000     97.2151      0.0000    624.1806      6.9858
   791.7500    100.8746      0.0000    622.2054      6.9367
   792.0000    104.1022      0.0000    601.7156      6.8755
   792.2500    105.0182      0.0000    566.5730      6.7970
   792.5000    102.4207      0.0000    529.4548      6.7019
   792.7500     96.9488      0.0000    503.8524      6.6014
   793.0000     90.7006      0.0000    498.9417      6.5186
   793.2500     85.6989      0.0000    518.5950      6.4734
   793.5000     82.8179      0.0000    559.1777      6.4605
   793.7500     81.9563      0.0000    607.1152      6.4512
   794.0000     82.7763      0.0000    643.8082      6.4304
   794.2500     84.9304      0.0000    658.0685      6.4211
   794.5000     87.6746      0.0000    654.2651      6.4558
   794.7500     89.7219      0.0000    647.1733      6.5275
   795.0000     89.7766      0.0000    649.2403      6.5878
   795.2500     87.1567      0.0000    663.1660      6.5920
   795.5000     82.0353      0.0000    684.2443      6.5366
   795.7500     75.4766     -2.0000    706.0467      6.4677
   796.0000     69.0776      0.0000    723.4648      6.4674
   796.2500     64.0065      0.0000    733.4225      6.6167
   796.5000     60.2868      0.0000    735.0505      6.9423
   796.7500     57.2937      0.0000    729.6302      7.3950
   797.0000     54.9296      0.0000    720.2209      7.8893
   797.2500     54.0536      0.0000    710.7894      8.3533
   797.5000     55.8855      0.0000    704.6573      8.7412
   797.7500     61.2082      0.0000    702.9360      9.0373
   798.0000     69.9072      0.0000    704.4287      9.2808
   798.2500     80.7815      0.0000    707.1945      9.5709
   798.5000     91.5258      0.0000    710.2151     10.0110
   798.7500     98.9710      0.0000    713.8155     10.6274
