~Version Information
VERS.                      2.0: CWLS Log ASCII Standard - VERSION 2.0
WRAP.                       NO: One line per depth step
~Well Information Block
STRT.FT                 8.2500: 
STOP.FT              1156.2500: 
STEP.FT                 0.2500: 
NULL.                -999.2500: 
COMP.          Pioneer Natural Resources: COMPANY
WELL.              Davida 34-8: WELL
FLD.           Purgatoire River: FIELD
LOC.           418' FSL & 1923' FEL: LOCATION
CNTY.               Las Animas: COUNTY
SRVC.                Patterson: SERVICE COMPANY
DATE.          Thu Mar 30 09:09:42 2006: LOG DATE
UWI.           05 071 08722 00: UNIQUE WELL ID
STAT.                 Colorado: STATE
~Curve Information Block
DEPT.FT            0 000 00 00: Depth
GR.GAPI                       : Gamma Ray
CCL.                          : Casing Collar Locator
TT3.usec                      : CBL 3' Travel Time
AMP3.mV                       : CBL 3' Amplitude
~Parameter Information Block
~A  Depth        GR         CCL         TT3         AMP3    
# ...
   510.7500    151.0473      0.0000    742.0208      6.6307
   511.0000    151.2228      0.0000    747.2669      6.5699
   511.2500    150.8419      0.0000    746.3503      6.5289
   511.5000    149.4568      0.0000    739.8555      6.5125
   511.7500    146.7413      0.0000    726.5602      6.5109
   512.0000    142.4558      0.0000    704.3356      6.5114
   512.2500    136.7953      0.0000    674.9239      6.5135
   512.5000    130.4538      0.0000    647.2825      6.5291
   512.7500    124.0785      0.0000    632.2395      6.5702
   513.0000    117.8963      0.0000    632.5765      6.6367
   513.2500    112.1069      0.0000    640.7073      6.7153
   513.5000    107.5002      0.0000    646.4528      6.7878
   513.7500    105.4865      0.0000    645.1270      6.8428
   514.0000    107.5010      0.0000    638.5104      6.8810
   514.2500    114.1088      0.0000    630.5828      6.9106
   514.5000    124.0490      0.0000    623.5237      6.9382
   514.7500    134.0491      0.0000    617.4594      6.9651
   515.0000    140.3932      0.0000    613.3964      6.9892
   515.2500    141.3465      0.0000    615.2094      7.0096
   515.5000    137.9341      0.0000    626.9102      7.0284
   515.7500    132.5016      0.0000    647.3981      7.0494
   516.0000    127.0353      0.0000    669.1235      7.0750
   516.2500    122.5814      0.0000    683.0431      7.1047
   516.5000    119.4633      0.0000    684.7313      7.1372
   516.7500    117.7525      0.0000    675.4909      7.1728
   517.0000    117.4443      0.0000    658.9677      7.2128
   517.2500    118.0439      0.0000    639.2414      7.2552
   517.5000    118.3750      0.0000    622.3306      7.2943
   517.7500    117.3631      0.0000    615.9140      7.3219
   518.0000    114.8597      0.0000    624.1369      7.3305
   518.2500    111.4559      0.0000    642.8890      7.3168
   518.5000    107.8616      0.0000    662.2261      7.2841
   518.7500    104.6774      0.0000    674.0195      7.2393
   519.0000    102.3636      0.0000    676.8654      7.1878
   519.2500    101.1723      0.0000    674.5764      7.1308
   519.5000    101.2126      0.0000    671.7576      7.0678
   519.7500    102.5371      0.0000    670.9971      7.0000
   520.0000    105.0289      0.0000    672.4047      6.9305
   520.2500    108.3105      0.0000    674.0501      6.8606
   520.5000    111.9317      0.0000    672.8215      6.7880
   520.7500    115.6227      0.0000    666.4606      6.7093
   521.0000    119.3120      0.0000    656.1857      6.6278
   521.2500    122.7747      0.0000    647.2056      6.5571
   521.5000    125.1905      0.0000    645.1771      6.5153
   521.7500    125.3309      0.0000    651.3248      6.5166
   522.0000    122.5366      0.0000    661.4127      6.5660
   522.2500    117.4860      0.0000    669.5625      6.6579
   522.5000    111.8261      0.0000    672.4156      6.7779
   522.7500    107.0193      0.0000    669.9266      6.9091
   523.0000    103.5168      0.0000    663.6994      7.0432
   523.2500    100.9922      0.0000    655.7242      7.1834
   523.5000     99.1960      0.0000    648.4581      7.3320
   523.7500     98.3118      0.0000    644.8526      7.4763
   524.0000     98.6166      0.0000    646.9644      7.5903
   524.2500    100.1306      0.0000    653.9304      7.6517
   524.5000    102.4645      0.0000    661.8964      7.6583
   524.7500    104.7901      0.0000    666.7243      7.6313
   525.0000    106.2765      0.0000    666.5607      7.6007
   525.2500    106.8241      0.0000    661.8958      7.5822
   525.5000    107.0822      0.0000    654.6161      7.5666
   525.7500    107.4580      0.0000    647.8809      7.5311
   526.0000    107.5217      0.0000    645.5545      7.4617
   526.2500    106.8924      0.0000    650.0145      7.3632
   526.5000    106.5287      0.0000    660.3825      7.2517
   526.7500    108.5152      0.0000    673.2517      7.1433
   527.0000    114.3280      0.0000    684.5826      7.0508
   527.2500    123.4630      0.0000    690.6083      6.9872
   527.5000    133.6474      0.0000    687.8034      6.9632
   527.7500    142.1741      0.0000    673.3932      6.9795
   528.0000    147.3280      0.0000    647.2911      7.0254
   528.2500    149.1891      0.0000    614.2889      7.0881
   528.5000    149.3390      0.0000    583.9761      7.1630
   528.7500    149.6165      0.0000    567.2943      7.2516
   529.0000    150.8291      0.0000    571.2891      7.3513
   529.2500    152.4641      0.0000    594.9537      7.4469
   529.5000    153.6133      0.0000    629.1572      7.5150
   529.7500    154.0442      0.0000    661.8473      7.5395
   530.0000    154.2333      0.0000    684.9725      7.5220
   530.2500    154.7253      0.0000    697.2589      7.4786
   530.5000    155.8562      0.0000    701.5773      7.4263
   530.7500    157.8031      0.0000    701.0610      7.3734
   531.0000    160.3339      0.0000    697.7164      7.3225
   531.2500    162.5016      0.0000    693.3204      7.2774
   531.5000    163.1868      0.0000    690.1699      7.2439
   531.7500    162.3223      0.0000    690.1701      7.2242
   532.0000    161.1912      0.0000    693.3302      7.2135
   532.2500    161.0108      0.0000    697.7330      7.2036
   532.5000    161.3622      0.0000    701.1371      7.1877
   532.7500    160.5856      0.0000    702.4131      7.1647
   533.0000    157.8985      0.0000    701.7851      7.1416
   533.2500    154.7383      0.0000    700.3776      7.1313
   533.5000    153.6318      0.0000    699.5181      7.1437
   533.7500    155.8213      0.0000    699.9706      7.1768
   534.0000    160.1169      0.0000    701.6053      7.2189
   534.2500    163.8656      0.0000    703.7404      7.2588
   534.5000    164.9567      0.0000    705.5859      7.2921
   534.7500    163.2051      0.0000    706.5397      7.3171
   535.0000    159.9583      0.0000    706.5755      7.3292
   535.2500    156.4151      0.0000    706.3174      7.3198
   535.5000    152.5287      0.0000    706.3702      7.2827
   535.7500    147.6812      0.0000    706.6694      7.2249
   536.0000    142.1543      0.0000    706.6075      7.1699
   536.2500    137.3653      0.0000    705.5964      7.1468
   536.5000    134.4349      0.0000    703.4984      7.1698
   536.7500    132.9241      0.0000    700.7112      7.2234
   537.0000    131.3476      0.0000    697.7716      7.2668
   537.2500    128.6264      0.0000    694.8250      7.2586
   537.5000    124.7409      0.0000    691.8164      7.1850
   537.7500    120.4536      0.0000    689.3711      7.0682
   538.0000    117.0731      0.0000    688.8964      6.9442
   538.2500    116.3464      0.0000    691.3770      6.8317
   538.5000    119.6759      0.0000    696.3073      6.7196
   538.7500    126.8368      0.0000    702.1410      6.5823
   539.0000    135.6482      0.0000    707.3221      6.4054
   539.2500    143.2554      0.0000    710.3975      6.1985
   539.5000    147.7830      0.0000    709.9261      5.9865
   539.7500    148.8902      0.0000    706.1749      5.7903
   540.0000    147.2015      0.0000    703.2842      5.6190
   540.2500    143.6648      0.0000    707.5714      5.4808
   540.5000    139.3959      0.0000    721.6555      5.3952
   540.7500    135.5238      0.0000    740.9433      5.3785
   541.0000    132.8369      0.0000    757.4431      5.4116
   541.2500    131.7525     -3.0000    766.9093      5.4382
   541.5000    132.7291     -3.0000    771.3378      5.4053
   541.7500    136.2653      0.0000    774.9709      5.3069
   542.0000    142.1651      0.0000    779.3945      5.1993
   542.2500    148.9686      0.0000    782.6576      5.1742
   542.5000    154.4442      0.0000    781.8405      5.2882
   542.7500    156.9856      0.0000    775.9327      5.4983
   543.0000    156.9320      0.0000    766.6900      5.6902
   543.2500    156.5200      0.0000    757.1549      5.7912
   543.5000    157.9575      0.0000    749.4986      5.8294
   543.7500    161.1305      0.0000    744.1588      5.8721
   544.0000    163.4826      0.0000    740.1375      5.9425
