~Version Information
VERS.                      2.0: CWLS Log ASCII Standard - VERSION 2.0
WRAP.                       NO: One line per depth step
~Well Information Block
STRT.FT               830.0000: 
STOP.FT              1782.5000: 
STEP.FT                 0.1000: 
NULL.                -999.2500: 
COMP.          Pioneer Natural Resources: COMPANY
WELL.          Manville 42-14 Tr: WELL
FLD.           Purgatoire River: FIELD
LOC.           2018 FNL & 562' FEL: LOCATION
STAT.                 Colorado: State
CNTY.               Las Animas: COUNTY
CTRY. USA : Country
SECT. 14 : Section
TOWN. 32S : Township
RANG. 66W : Range
SRVC.                Patterson: SERVICE COMPANY
DATE.          Mon Sep 19 09:44:06 2005: LOG DATE
API.           05 071 08522 00: UNIQUE WELL ID
~Curve Information Block
DEPT.FT            0 000 00 00: Depth
DCAL.in                       : CDL Caliper
RHOB.g/cc                     : CDL Bulk Density
RHOC.g/cc                     : CDL Density Correction
DPOR.pu                       : CDL Density Porosity
GR.GAPI                       : Gamma Ray
NPOR.pu                       : Neutron Porosity
~Parameter Information Block
~A  Depth       DCAL        RHOB        RHOC        DPOR         GR         NPOR    
# ...
  1146.8000      8.0977      2.4528      0.0862     11.9539     54.7591     19.3980
  1146.9000      8.0977      2.4710      0.0884     10.8508     56.7330     18.9836
  1147.0000      8.0929      2.4949      0.1349      9.3993     60.5766     18.5399
  1147.1000      8.0929      2.5205      0.0878      7.8512     66.4909     17.8689
  1147.2000      8.0929      2.5417      0.1422      6.5648     70.8814     17.2517
  1147.3000      8.0973      2.5531      0.1384      5.8710     72.8713     17.0748
  1147.4000      8.0973      2.5466      0.1770      6.2667     74.1004     17.2515
  1147.5000      8.1027      2.5105      0.1300      8.4540     74.5562     17.4293
  1147.6000      8.1027      2.4511      0.0729     12.0560     75.0480     17.5559
  1147.7000      8.1027      2.3962     -0.0023     15.3815     74.9823     17.8433
  1147.8000      8.1185      2.3681      0.0384     17.0820     72.8055     18.1523
  1147.9000      8.1185      2.3664      0.0472     17.1862     71.0461     18.1224
  1148.0000      8.1291      2.3781      0.0304     16.4813     71.4698     17.9169
  1148.1000      8.1291      2.3936      0.0184     15.5419     72.4135     18.1566
  1148.2000      8.1291      2.4090      0.0414     14.6045     70.9719     18.9472
  1148.3000      8.1524      2.4207      0.0905     13.8996     66.7807     19.6330
  1148.4000      8.1524      2.4292      0.0593     13.3834     63.9559     19.7118
  1148.5000      8.1838      2.4391      0.0510     12.7833     65.2937     19.5461
  1148.6000      8.1838      2.4451      0.1744     12.4164     69.4456     19.5223
  1148.7000      8.1838      2.4389      0.0346     12.7954     73.2682     19.5641
  1148.8000      8.1937      2.4198      0.0886     13.9494     72.4875     19.7291
  1148.9000      8.1937      2.3894      0.0496     15.7924     65.7363     19.9464
  1149.0000      8.1507      2.3666     -0.0293     17.1767     58.5242     19.7274
  1149.1000      8.1507      2.3718      0.0039     16.8597     55.4722     18.9281
  1149.2000      8.1507      2.3977      0.0118     15.2887     55.5662     18.1916
  1149.3000      8.1444      2.4309      0.0852     13.2787     56.5324     18.1436
  1149.4000      8.1444      2.4679      0.0774     11.0365     57.2559     18.6015
  1149.5000      8.1457      2.5021      0.1173      8.9608     56.9076     19.0759
  1149.6000      8.1457      2.5157      0.1566      8.1381     56.0274     19.4010
  1149.7000      8.1457      2.4997      0.1075      9.1097     57.0153     19.5825
  1149.8000      8.1439      2.4681      0.1045     11.0214     59.9309     19.8248
  1149.9000      8.1439      2.4422      0.0542     12.5920     61.2192     20.2038
  1150.0000      8.1275      2.4392      0.0412     12.7759     60.6673     20.3910
  1150.1000      8.1275      2.4614      0.0919     11.4307     62.1072     20.3221
  1150.2000      8.1275      2.4937      0.0690      9.4738     67.4375     20.4981
  1150.3000      8.1143      2.5197      0.0916      7.8943     74.9192     20.9439
  1150.4000      8.1143      2.5337      0.1070      7.0455     77.5396     20.9688
  1150.5000      8.1331      2.5365      0.1013      6.8808     70.9769     20.4704
  1150.6000      8.1331      2.5326      0.0975      7.1129     63.1186     20.2886
  1150.7000      8.1331      2.5315      0.1404      7.1798     62.7617     20.9259
  1150.8000      8.1227      2.5323      0.1208      7.1324     68.4115     21.7549
  1150.9000      8.1227      2.5258      0.1206      7.5247     70.8667     22.1028
  1151.0000      8.0749      2.5134      0.0562      8.2801     66.7249     22.1137
  1151.1000      8.0749      2.5020      0.0520      8.9722     62.2775     21.9450
  1151.2000      8.0749      2.4910      0.0365      9.6352     59.8824     21.6486
  1151.3000      8.0896      2.4804      0.0212     10.2790     58.8346     21.2760
  1151.4000      8.0896      2.4753      0.0441     10.5869     62.6146     20.7705
  1151.5000      8.1039      2.4759      0.0270     10.5502     69.1776     20.4355
  1151.6000      8.1039      2.4783      0.0320     10.4048     71.8717     20.6134
  1151.7000      8.1039      2.4755      0.0528     10.5731     70.6208     20.8946
  1151.8000      8.1185      2.4599      0.0293     11.5199     70.6766     20.7821
  1151.9000      8.1185      2.4378     -0.0052     12.8601     72.8518     20.5602
  1152.0000      8.0916      2.4227      0.0029     13.7755     72.9599     20.6525
  1152.1000      8.0916      2.4142      0.0763     14.2911     71.9937     20.8392
  1152.2000      8.0916      2.4117     -0.0200     14.4433     72.0427     20.7616
  1152.3000      8.0713      2.4272      0.0067     13.5007     71.9367     20.5151
  1152.4000      8.0713      2.4568      0.0464     11.7116     71.3218     20.3901
  1152.5000      8.0799      2.4781      0.0541     10.4179     71.0728     20.4462
  1152.6000      8.0799      2.4720      0.0953     10.7894     74.2542     20.5156
  1152.7000      8.0799      2.4370      0.0328     12.9100     81.3933     20.4380
  1152.8000      8.0997      2.3985      0.0019     15.2443     86.6177     20.2484
  1152.9000      8.0997      2.3754      0.0134     16.6424     84.8749     20.0183
  1153.0000      8.0989      2.3642      0.0191     17.3191     79.4069     19.7185
  1153.1000      8.0989      2.3650      0.0401     17.2725     74.9103     19.5726
  1153.2000      8.0989      2.3725      0.1063     16.8188     71.5902     19.8499
  1153.3000      8.0850      2.3670      0.0540     17.1489     69.3595     20.4144
  1153.4000      8.0850      2.3446      0.0240     18.5077     67.8153     20.9513
  1153.5000      8.1159      2.3256     -0.0198     19.6602     66.1233     21.4574
  1153.6000      8.1159      2.3333     -0.0156     19.1955     68.4201     22.4614
  1153.7000      8.1159      2.3668      0.0609     17.1620     76.9512     24.3613
  1153.8000      8.1399      2.4125      0.0686     14.3930     84.6082     26.3140
  1153.9000      8.1399      2.4735      0.1299     10.6943     86.7494     27.3500
  1154.0000      8.1368      2.5585      0.1593      5.5437     87.7701     28.0140
  1154.1000      8.1368      2.6649      0.2157     -0.9048     91.6870     29.0231
  1154.2000      8.1368      2.7714      0.2477     -7.3548     98.2492     29.9999
  1154.3000      8.1290      2.8515      0.2566    -12.2120    106.0546     30.5053
  1154.4000      8.1290      2.9118      0.1907    -15.8674    113.2195     30.5905
  1154.5000      8.0935      2.9719      0.1918    -19.5085    117.5266     30.3461
  1154.6000      8.0935      3.0179      0.2173    -22.2982    119.3051     29.9468
  1154.7000      8.0935      3.0212      0.2118    -22.4962    119.8112     29.3854
  1154.8000      8.0849      2.9750      0.1579    -19.6950    116.3497     28.6168
  1154.9000      8.0849      2.8981      0.1040    -15.0371    106.6127     27.9817
  1155.0000      8.0856      2.8166      0.0081    -10.0990     96.2777     27.4839
  1155.1000      8.0856      2.7401     -0.0093     -5.4619     92.4502     26.8105
  1155.2000      8.0856      2.6651     -0.0230     -0.9161     96.4802     25.9363
  1155.3000      8.1172      2.6041     -0.1208      2.7789    106.1262     24.8882
  1155.4000      8.1172      2.5701     -0.0148      4.8405    117.1055     23.7206
  1155.5000      8.0535      2.5350      0.1071      6.9675    125.9078     22.4926
  1155.6000      8.0535      2.4548      0.0302     11.8293    131.7286     21.0168
  1155.7000      8.0535      2.3226     -0.0465     19.8409    135.4982     19.2970
  1155.8000      8.1505      2.1563     -0.0648     29.9222    137.4285     17.6961
  1155.9000      8.1505      1.9736     -0.0917     40.9952    139.1189     16.6761
  1156.0000      8.1585      1.8085     -0.1935     51.0009    140.0515     16.4627
  1156.1000      8.1585      1.6918     -0.1808     58.0733    137.3985     16.8570
  1156.2000      8.1585      1.6105     -0.0782     62.9977    133.7373     17.4981
  1156.3000      8.1488      1.5575     -0.1132     66.2118    131.1684     18.3551
