~Version Information
VERS.                      2.0: CWLS Log ASCII Standard - VERSION 2.0
WRAP.                       NO: One line per depth step
~Well Information Block
STRT.FT                -7.7500: 
STOP.FT              1420.5000: 
STEP.FT                 0.2500: 
NULL.                -999.2500: 
COMP.          Pioneer Natural Resources: COMPANY
WELL.          Parklane 43-34 Tr: WELL
FLD.           Purgatorie River: FIELD
LOC.           1643' FSL & 966' FEL--: LOCATION
PROV.                       CO: PROVINCE
CNTY.               Las Animas: COUNTRY
SRVC.          Patterson Wireline: SERVICE COMPANY
DATE.          Tue Aug 02 11:35:27 2005: LOG DATE
UWI.           05 071 08452 00: UNIQUE WELL ID
~Curve Information Block
DEPT.FT            0 000 00 00: Depth
CCL.                          : Casing Collar Locator
TT3.usec                      : CBL 3' Travel Time
AMP3.mV                       : CBL 3' Amplitude
GR.GAPI                       : Gamma Ray
~Parameter Information Block
~A  Depth       CCL         TT3         AMP3         GR     
# ...
  1131.2500      0.0000    796.3578      8.5118    105.5810
  1131.5000      0.0000    767.1002      8.5578    101.8838
  1131.7500      0.0000    751.9429      8.6719     96.6519
  1132.0000      0.0000    745.5964      8.8354     90.5578
  1132.2500      0.0000    743.7183      8.9993     83.1900
  1132.5000      0.0000    743.3984      9.1105     74.1600
  1132.7500      0.0000    742.5668      9.1380     64.2529
  1133.0000      0.0000    739.7328      9.0835     55.5775
  1133.2500      0.0000    734.3437      8.9767     50.4443
  1133.5000      0.0000    727.5855      8.8624     49.7274
  1133.7500      0.0000    722.3087      8.7792     52.1506
  1134.0000      0.0000    721.2269      8.7447     55.3764
  1134.2500      0.0000    724.7581      8.7588     57.8342
  1134.5000      0.0000    730.8871      8.8191     59.2133
  1134.7500      0.0000    737.1789      8.9262     59.5056
  1135.0000      0.0000    742.9011      9.0730     58.5811
  1135.2500      0.0000    749.5510      9.2282     56.9534
  1135.5000      0.0000    759.5873      9.3395     55.9677
  1135.7500      0.0000    774.0599      9.3603     56.5846
  1136.0000      0.0000    790.7601      9.2826     58.4082
  1136.2500      0.0000    804.9917      9.1455     60.3463
  1136.5000      0.0000    812.9877      9.0094     61.9188
  1136.7500      0.0000    814.6966      8.9185     63.5879
  1137.0000      0.0000    813.2324      8.8834     66.0835
  1137.2500      0.0000    812.0858      8.8913     69.8338
  1137.5000      0.0000    812.7864      8.9266     75.0063
  1137.7500      0.0000    814.2728      8.9778     81.5038
  1138.0000      0.0000    813.9118      9.0327     88.5065
  1138.2500      0.0000    809.2640      9.0765     94.4427
  1138.5000      0.0000    799.4169      9.1030     97.9495
  1138.7500      0.0000    785.5421      9.1245     98.7207
  1139.0000      0.0000    770.6100      9.1679     97.3969
  1139.2500      0.0000    757.9193      9.2578     95.0937
  1139.5000      0.0000    749.1870      9.4020     92.9405
  1139.7500      0.0000    743.9701      9.5840     91.3917
  1140.0000      0.0000    740.8624      9.7653     89.7645
  1140.2500      0.0000    738.9897      9.8964     86.8632
  1140.5000      0.0000    738.2932      9.9303     82.3342
  1140.7500      0.0000    738.6498      9.8268     77.2573
  1141.0000      0.0000    739.1063      9.5499     73.1990
  1141.2500      0.0000    738.2706      9.0666     70.9094
  1141.5000      0.0000    735.5717      8.3632     70.0699
  1141.7500      0.0000    732.2575      7.4878     69.7850
  1142.0000      0.0000    731.1268      6.5920     68.9647
  1142.2500      0.0000    735.0804      5.8974     66.8098
  1142.5000      0.0000    745.5104      5.5733     63.3596
  1142.7500      0.0000    761.1234      5.6315     59.3553
  1143.0000      0.0000    777.5410      5.9383     55.6074
  1143.2500      0.0000    788.8671      6.3090     52.9237
  1143.5000     -2.0000    791.2745      6.5943     52.4150
  1143.7500      2.0000    785.1555      6.7252     54.9640
  1144.0000      0.0000    773.3206      6.7273     60.0846
  1144.2500      0.0000    758.3340      6.7159     65.8879
  1144.5000      0.0000    742.6981      6.8560     70.5855
  1144.7500      0.0000    730.0094      7.2635     73.7294
  1145.0000      0.0000    723.4616      7.8942     75.8888
  1145.2500      0.0000    723.1049      8.5502     77.6037
  1145.5000      0.0000    725.7365      9.0440     78.8190
  1145.7500      0.0000    727.5367      9.3433     79.0020
  1146.0000      0.0000    726.5173      9.5325     77.7287
  1146.2500      0.0000    723.4042      9.6848     75.3645
  1146.5000      0.0000    721.3220      9.8214     73.1158
  1146.7500      0.0000    724.4274      9.9562     72.1774
  1147.0000      0.0000    735.3429     10.1147     72.7101
  1147.2500      0.0000    752.5592     10.3095     73.7089
  1147.5000      0.0000    770.6428     10.5199     74.0241
  1147.7500      0.0000    784.0510     10.7046     73.6656
  1148.0000      0.0000    790.9166     10.8299     74.1736
  1148.2500      0.0000    793.0418     10.8910     77.6074
  1148.5000      0.0000    793.1023     10.9105     84.8947
  1148.7500      0.0000    792.5074     10.9150     94.9519
  1149.0000      0.0000    791.0898     10.9113    105.4908
  1149.2500      0.0000    787.7775     10.8926    114.6974
  1149.5000      0.0000    781.5595     10.8615    121.8819
  1149.7500      0.0000    772.3078     10.8362    126.7026
  1150.0000      0.0000    760.7969     10.8306    128.6413
  1150.2500      0.0000    748.0181     10.8370    127.8916
  1150.5000      0.0000    734.9317     10.8312    126.2924
  1150.7500      0.0000    722.9423     10.7951    126.3177
  1151.0000      0.0000    714.0055     10.7290    128.8653
  1151.2500      0.0000    709.7601     10.6434    132.6818
  1151.5000      0.0000    710.5536     10.5444    136.1860
  1151.7500      0.0000    715.2928     10.4321    139.2244
  1152.0000      0.0000    721.8903     10.3088    142.6002
  1152.2500      0.0000    727.6923     10.1832    146.3852
  1152.5000      0.0000    730.3584     10.0668    149.3844
  1152.7500      0.0000    729.5645      9.9680    150.1745
  1153.0000      0.0000    727.7593      9.8860    148.2020
  1153.2500      0.0000    728.2667      9.8040    144.0876
  1153.5000      0.0000    732.2698      9.6935    139.3153
  1153.7500      0.0000    738.0698      9.5354    135.4119
  1154.0000      0.0000    743.5745      9.3406    133.0033
  1154.2500      0.0000    749.0204      9.1452    131.7034
  1154.5000      0.0000    756.3585      8.9815    130.8940
  1154.7500      0.0000    766.0663      8.8574    130.4221
  1155.0000      0.0000    775.7887      8.7657    130.6391
  1155.2500      0.0000    782.3115      8.7068    131.8743
  1155.5000      0.0000    784.0378      8.6947    133.7029
  1155.7500      0.0000    781.7015      8.7379    134.8929
  1156.0000      0.0000    777.6769      8.8219    134.5495
  1156.2500      0.0000    774.2476      8.9144    133.3153
  1156.5000      0.0000    771.3820      8.9862    133.0764
  1156.7500      0.0000    766.4197      9.0275    135.4397
  1157.0000      0.0000    757.0029      9.0444    140.4439
  1157.2500      0.0000    744.1529      9.0468    146.4384
  1157.5000      0.0000    731.6636      9.0411    150.9474
  1157.7500      0.0000    722.7532      9.0354    151.8089
  1158.0000      0.0000    717.9883      9.0441    147.8733
  1158.2500      0.0000    716.0252      9.0817    139.2661
  1158.5000      0.0000    715.3342      9.1485    127.6824
  1158.7500      0.0000    715.0638      9.2299    116.4793
  1159.0000      0.0000    715.0281      9.3162    109.4736
  1159.2500      0.0000    715.5483      9.4132    108.5818
  1159.5000      0.0000    717.5468      9.5291    112.4790
  1159.7500      0.0000    722.5575      9.6578    117.8565
  1160.0000      0.0000    731.9432      9.7750    121.8701
  1160.2500      0.0000    745.2208      9.8480    123.2904
  1160.5000      0.0000    758.9104      9.8524    121.9861
  1160.7500      0.0000    767.6797      9.7882    118.2437
  1161.0000      0.0000    767.5091      9.6822    112.7955
  1161.2500      0.0000    758.3676      9.5735    107.0861
  1161.5000      0.0000    744.1636      9.4941    102.9480
  1161.7500      0.0000    729.9880      9.4560    101.5377
  1162.0000      0.0000    719.0984      9.4533    102.4331
  1162.2500      0.0000    712.2950      9.4751    104.1843
  1162.5000      0.0000    709.5971      9.5176    106.0195
  1162.7500      0.0000    711.4520      9.5852    108.5647
  1163.0000      0.0000    717.8235      9.6803    112.5307
  1163.2500      0.0000    727.0036      9.7903    117.3041
  1163.5000      0.0000    736.6860      9.8862    121.4398
  1163.7500      0.0000    746.2532      9.9399    124.2066
  1164.0000      0.0000    756.7961      9.9471    126.0746
  1164.2500      0.0000    768.6041      9.9295    127.8616
  1164.5000      0.0000    779.8505      9.9126    129.8430
