~Version Information
VERS.                      2.0: CWLS Log ASCII Standard - VERSION 2.0
WRAP.                       NO: One line per depth step
~Well Information Block
STRT.FT               295.7500: 
STOP.FT              1461.0000: 
STEP.FT                 0.2500: 
NULL.                -999.2500: 
COMP.          Pioneer Natural Resources: COMPANY
WELL.              Lucky 21-36: WELL
FLD.           Purgatoire River: FIELD
LOC.           799' FNL & 1578' FWL--: LOCATION
CDN. :
PROV. :
UWI. :
STAT. :
CNTY. :
CTRY. :
API. :
COMP. :
WELL. :
FLD. :
LOC. :
DATE. :
SRVC. :
CNTY.               Las Animas: COUNTY
SRVC.          Superior Well Services: SERVICE COMPANY
DATE.          Mon Jul 07 19-13-01 2008: LOG DATE
UWI.           05 071 08456 00: UNIQUE WELL ID
STAT.                 Colorado: STATE
~Curve Information Block
DEPT.FT            0 000 00 00: Depth
SN.Ohm-m                      : IEL Short Normal
SP.mV                         : IEL Spontaneous Potential
DIR.Ohm-m                     : IEL Induction Resistivity
GR.GAPI                       : Gamma Ray
~Parameter Information Block
~A  Depth        SN          SP         DIR          GR     
# ...
   831.7500   2000.0000   1980.0000     23.2368    121.2618
   832.0000   2000.0000   1980.0000     22.2154    123.3271
   832.2500   2000.0000   1980.0000     21.3212    122.4323
   832.5000   2000.0000   1980.0000     20.4676    120.7257
   832.7500   2000.0000   1980.0000     19.6159    118.8275
   833.0000   2000.0000   1980.0000     18.7705    118.7607
   833.2500   2000.0000   1980.0000     17.9627    121.0091
   833.5000   2000.0000   1980.0000     17.2295    124.1792
   833.7500   2000.0000   1980.0000     16.5916    131.0981
   834.0000   2000.0000   1980.0000     16.0373    136.4900
   834.2500   2000.0000   1980.0000     15.5230    144.1958
   834.5000   2000.0000   1980.0000     14.9923    148.4342
   834.7500   2000.0000   1980.0000     14.4077    153.2513
   835.0000   2000.0000   1980.0000     13.7739    155.6266
   835.2500   2000.0000   1980.0000     13.1362    158.1250
   835.5000   2000.0000   1980.0000     12.5559    159.0277
   835.7500   2000.0000   1980.0000     12.0820    159.1419
   836.0000   2000.0000   1980.0000     11.7350    158.5075
   836.2500   2000.0000   1980.0000     11.5055    157.1940
   836.5000   2000.0000   1980.0000     11.3635    156.7261
   836.7500   2000.0000   1980.0000     11.2712    157.4172
   837.0000   2000.0000   1980.0000     11.1954    158.6257
   837.2500   2000.0000   1980.0000     11.1128    160.4003
   837.5000   2000.0000   1980.0000     11.0093    161.0184
   837.7500   2000.0000   1980.0000     10.8776    160.9920
   838.0000   2000.0000   1980.0000     10.7155    160.5180
   838.2500   2000.0000   1980.0000     10.5251    159.5141
   838.5000   2000.0000   1980.0000     10.3117    158.9935
   838.7500   2000.0000   1980.0000     10.0822    158.9711
   839.0000   2000.0000   1980.0000      9.8448    159.4561
   839.2500   2000.0000   1980.0000      9.6101    160.5966
   839.5000   2000.0000   1980.0000      9.3906    161.6585
   839.7500   2000.0000   1980.0000      9.1986    164.1317
   840.0000   2000.0000   1980.0000      9.0448    166.3370
   840.2500   2000.0000   1980.0000      8.9386    169.3704
   840.5000   2000.0000   1980.0000      8.8911    170.2860
   840.7500   2000.0000   1980.0000      8.9175    169.0716
   841.0000   2000.0000   1980.0000      9.0372    166.5514
   841.2500   2000.0000   1980.0000      9.2707    160.3953
   841.5000   2000.0000   1980.0000      9.6686    154.4797
   841.7500   2000.0000   1980.0000     10.1678    142.3444
   842.0000   2000.0000   1980.0000     10.7944    132.4234
   842.2500   2000.0000   1980.0000     11.5376    117.3138
   842.5000   2000.0000   1980.0000     12.3937    109.1891
   842.7500   2000.0000   1980.0000     13.3729    102.4733
   843.0000   2000.0000   1980.0000     14.4920    101.5704
   843.2500   2000.0000   1980.0000     15.7559    102.8928
   843.5000   2000.0000   1980.0000     17.1331    103.5915
   843.7500   2000.0000   1980.0000     18.5425    102.5725
   844.0000   2000.0000   1980.0000     19.8653    100.7241
   844.2500   2000.0000   1980.0000     20.9923     97.6353
   844.5000   2000.0000   1980.0000     21.8824     96.1115
   844.7500   2000.0000   1980.0000     22.5858     95.1913
   845.0000   2000.0000   1980.0000     22.9767     95.4382
   845.2500   2000.0000   1980.0000     23.5957     96.6535
   845.5000   2000.0000   1980.0000     24.2561     97.7386
   845.7500   2000.0000   1980.0000     24.9231     99.4937
   846.0000   2000.0000   1980.0000     25.5119    100.7281
   846.2500   2000.0000   1980.0000     25.9196    102.7082
   846.5000   2000.0000   1980.0000     26.0631    104.0909
   846.7500   2000.0000   1980.0000     25.9161    106.1602
   847.0000   2000.0000   1980.0000     25.5176    107.5123
   847.2500   2000.0000   1980.0000     24.9435    109.7178
   847.5000   2000.0000   1980.0000     24.2679    111.6363
   847.7500   2000.0000   1980.0000     23.5459    115.6936
   848.0000   2000.0000   1980.0000     19.6476    119.1184
   848.2500   2000.0000   1980.0000     19.1407    124.4959
   848.5000   2000.0000   1980.0000     18.6876    127.5924
   848.7500   2000.0000   1980.0000     18.3085    130.5473
   849.0000   2000.0000   1980.0000     18.0142    131.0455
   849.2500   2000.0000   1980.0000     17.8111    129.6975
   849.5000   2000.0000   1980.0000     17.7062    128.0533
   849.7500   2000.0000   1980.0000     17.7060    126.2429
   850.0000   2000.0000   1980.0000     17.8068    126.2670
   850.2500   2000.0000   1980.0000     17.9855    128.1550
   850.5000   2000.0000   1980.0000     18.1989    130.0302
   850.7500   2000.0000   1980.0000     18.3994    132.8963
   851.0000   2000.0000   1980.0000     18.4084    134.7898
   851.2500   2000.0000   1980.0000     18.5213    137.5865
   851.5000   2000.0000   1980.0000     18.6057    138.9641
   851.7500   2000.0000   1980.0000     18.6750    139.1713
   852.0000   2000.0000   1980.0000     18.7355    137.8791
   852.2500   2000.0000   1980.0000     18.7938    134.4887
   852.5000   2000.0000   1980.0000     18.8660    131.6982
   852.7500   2000.0000   1980.0000     18.9746    126.8177
   853.0000   2000.0000   1980.0000     19.1367    122.9906
   853.2500   2000.0000   1980.0000     19.3520    116.5798
   853.5000   2000.0000   1980.0000     19.6014    112.3327
   853.7500   2000.0000   1980.0000     19.8587    107.2356
   854.0000   2000.0000   1980.0000     20.1082    105.3431
   854.2500   2000.0000   1980.0000     20.3538    105.0091
   854.5000   2000.0000   1980.0000     20.7683    105.8886
   854.7500   2000.0000   1980.0000     21.0617    107.0491
   855.0000   2000.0000   1980.0000     21.3856    106.6737
   855.2500   2000.0000   1980.0000     21.7213    103.5643
   855.5000   2000.0000   1980.0000     22.0362    100.0745
   855.7500   2000.0000   1980.0000     22.2968     94.1759
   856.0000   2000.0000   1980.0000     22.4845     90.7847
   856.2500   2000.0000   1980.0000     22.6068     87.4154
   856.5000   2000.0000   1980.0000     22.6943     86.0662
   856.7500   2000.0000   1980.0000     22.7828     84.2691
   857.0000   2000.0000   1980.0000     22.8903     82.8881
   857.2500   2000.0000   1980.0000     23.0050     80.9612
   857.5000   2000.0000   1980.0000     23.0910     80.1486
   857.7500   2000.0000   1980.0000     23.1131     79.7431
   858.0000   2000.0000   1980.0000     23.0631     79.8142
   858.2500   2000.0000   1980.0000     22.9678     80.0839
   858.5000   2000.0000   1980.0000     22.8731     80.2673
   858.7500   2000.0000   1980.0000     22.8196     80.5146
   859.0000   2000.0000   1980.0000     22.8312     80.6786
   859.2500   2000.0000   1980.0000     22.9190     80.8554
   859.5000   2000.0000   1980.0000     23.0877     80.7954
   859.7500   2000.0000   1980.0000     23.3343     80.2553
   860.0000   2000.0000   1980.0000     23.6417     79.6502
   860.2500   2000.0000   1980.0000     23.9770     78.8367
   860.5000   2000.0000   1980.0000     24.3008     78.8219
   860.7500   2000.0000   1980.0000     24.5826     80.4077
   861.0000   2000.0000   1980.0000     24.8120     82.6008
   861.2500   2000.0000   1980.0000     24.9969     86.3585
   861.5000   2000.0000   1980.0000     25.1517     87.9501
   861.7500   2000.0000   1980.0000     25.2856     87.5295
   862.0000   2000.0000   1980.0000     25.3949     85.5415
   862.2500   2000.0000   1980.0000     25.4610     81.6778
   862.5000   2000.0000   1980.0000     25.4544     79.5898
   862.7500   2000.0000   1980.0000     25.3462     78.0676
   863.0000   2000.0000   1980.0000     25.1288     77.9390
   863.2500   2000.0000   1980.0000     24.8307     78.1770
   863.5000   2000.0000   1980.0000     24.5128     78.3110
   863.7500   2000.0000   1980.0000     24.2401     78.7239
   864.0000   2000.0000   1980.0000     24.0496     79.4082
   864.2500   2000.0000   1980.0000     23.9364     80.9285
   864.5000   2000.0000   1980.0000     23.8670     81.9794
   864.7500   2000.0000   1980.0000     23.8095     83.5698
   865.0000   2000.0000   1980.0000     23.7573     84.9765
