~Version Information
VERS.                      2.0: CWLS Log ASCII Standard - VERSION 2.0
WRAP.                       NO: One line per depth step
~Well Information Block
STRT.FT                 0.0000: 
STOP.FT              3428.7500: 
STEP.FT                 0.2500: 
NULL.                -999.2500: 
COMP.          Pioneer Natural Resources: COMPANY
WELL.          Cordillera 34-7: WELL
FLD.           Purgatorie River: FIELD
LOC.           598' FSL & 1770' FEL: LOCATION
PROV.                 Colorado: PROVINCE
CNTY.               Las Animas: COUNTRY
SRVC.                Patterson: SERVICE COMPANY
DATE.          Fri Nov 18 07:55:32 2005: LOG DATE
UWI.                          : UNIQUE WELL ID
~Curve Information Block
DEPT.FT            0 000 00 00: Depth
AMP3.mV                       : CBL 3' Amplitude
CCL.                          : Casing Collar Locator
GR.GAPI                       : Gamma Ray
TT3.usec                      : CBL 3' Travel Time
~Parameter Information Block
~A  Depth       AMP3        CCL          GR         TT3     
# ...
  2948.0000      3.0147      0.0000     90.9021    516.3991
  2948.2500      3.0156      0.0000     83.3905    546.5342
  2948.5000      3.0108      0.0000     72.6365    574.7913
  2948.7500      2.9757      0.0000     62.7702    595.4103
  2949.0000      2.9094      0.0000     56.2969    603.1440
  2949.2500      2.8509      0.0000     52.8632    602.5571
  2949.5000      2.8536      0.0000     50.6078    600.7172
  2949.7500      2.9092      0.0000     48.1004    600.0255
  2950.0000      2.9509      0.0000     44.9573    600.0524
  2950.2500      2.9498      0.0000     41.3326    600.2950
  2950.5000      2.9348      0.0000     37.5255    600.6348
  2950.7500      2.9193      0.0000     34.0429    601.0137
  2951.0000      2.8873      0.0000     31.5690    601.2900
  2951.2500      2.8457      0.0000     30.6129    601.3032
  2951.5000      2.8210      0.0000     31.2452    601.0286
  2951.7500      2.8179      0.0000     33.2782    600.6160
  2952.0000      2.8308      0.0000     36.6310    600.2308
  2952.2500      2.8638      0.0000     41.3655    599.9315
  2952.5000      2.9010      0.0000     47.3744    599.7261
  2952.7500      2.9056      0.0000     54.1028    599.6518
  2953.0000      2.8734      0.0000     60.6152    599.7229
  2953.2500      2.8343      0.0000     66.0264    599.8364
  2953.5000      2.8102      0.0000     69.9960    599.8165
  2953.7500      2.8191      0.0000     72.8432    599.5943
  2954.0000      2.8822      0.0000     75.1655    599.2941
  2954.2500      2.9776      0.0000     77.3372    599.0886
  2954.5000      3.0421      0.0000     79.1845    599.0486
  2954.7500      3.0540      0.0000     79.8693    599.1416
  2955.0000      3.0494      0.0000     78.1693    599.2744
  2955.2500      3.0434      0.0000     73.3220    599.3618
  2955.5000      3.0147      0.0000     65.8423    599.3990
  2955.7500      2.9745      0.0000     57.4044    599.4496
  2956.0000      2.9724      0.0000     49.7919    599.5831
  2956.2500      3.0172      0.0000     43.9382    599.8208
  2956.5000      3.0607      0.0000     39.8596    600.1050
  2956.7500      3.0690      0.0000     37.1900    600.3326
  2957.0000      3.0506      0.0000     35.6456    600.4351
  2957.2500      3.0265      0.0000     35.1901    600.4351
  2957.5000      3.0130      0.0000     35.9599    600.4725
  2957.7500      3.0164      0.0000     37.9774    601.0420
  2958.0000      3.0198      0.0000     40.8244    603.8829
  2958.2500      3.0026      0.0000     43.6015    612.5023
  2958.5000      2.9770      0.0000     45.4781    628.7791
  2958.7500      2.9693      0.0000     46.7002    647.3105
  2959.0000      2.9818      0.0000     49.1148    658.6647
  2959.2500      3.0064      0.0000     55.2598    660.6519
  2959.5000      3.0415      0.0000     66.4050    659.7622
  2959.7500      3.0730      0.0000     81.2999    661.4784
  2960.0000      3.0792      0.0000     96.8318    665.6266
  2960.2500      3.0589      0.0000    109.9164    670.5243
  2960.5000      3.0227      0.0000    119.0165    675.7574
  2960.7500      2.9839      0.0000    124.4177    680.5210
  2961.0000      2.9730      0.0000    127.6320    683.6895
  2961.2500      3.0120      0.0000    130.4470    685.0965
  2961.5000      3.0730      0.0000    133.7402    684.7887
  2961.7500      3.1170      0.0000    136.7943    682.2067
  2962.0000      3.1504      0.0000    138.1614    677.1041
  2962.2500      3.1828      0.0000    137.3402    670.6479
  2962.5000      3.1859      0.0000    135.1348    664.7478
  2962.7500      3.1502      0.0000    132.3586    660.6407
  2963.0000      3.1098      0.0000    128.6638    656.9203
  2963.2500      3.0873      0.0000    122.6642    649.3574
  2963.5000      3.0834      0.0000    112.9932    636.0682
  2963.7500      3.0890      0.0000     99.5635    620.7660
  2964.0000      3.0686      0.0000     84.1075    608.0233
  2964.2500      2.9980      0.0000     69.3614    596.2311
  2964.5000      2.9173      0.0000     57.5921    576.7536
  2964.7500      2.8881      0.0000     49.7873    542.9400
  2965.0000      2.9132      0.0000     45.8557    501.5373
  2965.2500      2.9463      0.0000     45.0756    468.4272
  2965.5000      2.9685      0.0000     46.2314    451.4051
  2965.7500      2.9955      0.0000     47.7488    446.0289
  2966.0000      3.0258      0.0000     48.2589    445.4564
  2966.2500      3.0464      0.0000     47.2757    446.1600
  2966.5000      3.0732      0.0000     45.4100    447.0166
  2966.7500      3.1249      0.0000     44.0067    447.6846
  2967.0000      3.1745      0.0000     44.4762    448.0344
  2967.2500      3.1747      0.0000     47.5450    448.0920
  2967.5000      3.1270      0.0000     52.6889    448.1070
  2967.7500      3.0840      0.0000     58.3283    448.9261
  2968.0000      3.0851      0.0000     62.9943    453.1036
  2968.2500      3.1194      0.0000     66.4179    464.8919
  2968.5000      3.1500      0.0000     69.2074    484.6636
  2968.7500      3.1461      0.0000     71.4847    503.8548
  2969.0000      3.1032      0.0000     72.2696    512.6929
  2969.2500      3.0574      0.0000     70.3435    510.6888
  2969.5000      3.0557      0.0000     65.5076    508.9936
  2969.7500      3.0986      0.0000     58.9759    524.5646
  2970.0000      3.1421      0.0000     52.7470    562.1837
  2970.2500      3.1494      0.0000     48.5211    608.0721
  2970.5000      3.1015      0.0000     46.7932    646.1144
  2970.7500      2.9972      0.0000     46.6182    669.8082
  2971.0000      2.8841      0.0000     46.3036    682.1504
  2971.2500      2.8523      0.0000     44.6833    690.2263
  2971.5000      2.9571      0.0000     42.0124    696.5196
  2971.7500      3.1551      0.0000     39.6231    695.3271
  2972.0000      3.3173      0.0000     38.6688    683.4156
  2972.2500      3.3112      0.0000     39.2469    670.4277
  2972.5000      3.1369      0.0000     40.6574    667.3571
  2972.7500      2.9653      0.0000     42.3315    671.6614
  2973.0000      2.9492      0.0000     44.4643    673.9716
  2973.2500      3.0466      0.0000     47.7510    671.6818
  2973.5000      3.1130     -2.0000     52.4786    671.2607
  2973.7500      3.0732      0.0000     57.8269    679.9780
  2974.0000      2.9433      0.0000     62.1324    695.4322
  2974.2500      2.7960      0.0000     63.9364    706.8081
  2974.5000      2.7450      0.0000     62.8473    706.2357
  2974.7500      2.8796      0.0000     59.5479    694.9733
  2975.0000      3.1407      0.0000     55.2410    681.1086
  2975.2500      3.3089      0.0000     51.1449    668.5796
  2975.5000      3.2441      0.0000     48.1488    652.8354
  2975.7500      3.0515      0.0000     46.5715    632.8500
  2976.0000      2.9139      0.0000     46.2796    615.6635
  2976.2500      2.9034      0.0000     47.1284    606.0615
  2976.5000      2.9740      0.0000     49.1193    602.2245
  2976.7500      3.0414      0.0000     52.0970    600.7963
  2977.0000      3.0711      0.0000     55.6112    600.1279
  2977.2500      3.0829      0.0000     59.2941    599.7729
  2977.5000      3.0791      0.0000     63.1353    599.6013
  2977.7500      3.0330      0.0000     67.1197    599.4864
  2978.0000      2.9473      0.0000     70.7837    599.2798
  2978.2500      2.8654      0.0000     73.4380    598.8531
  2978.5000      2.8276      0.0000     74.7515    597.5869
  2978.7500      2.8457      0.0000     74.8209    593.0598
  2979.0000      2.8983      0.0000     73.6676    581.7292
  2979.2500      2.9441      0.0000     71.0138    565.8702
  2979.5000      2.9591      0.0000     66.7924    557.8096
  2979.7500      2.9482      0.0000     61.6858    565.8670
  2980.0000      2.9204      0.0000     56.8719    581.4287
  2980.2500      2.8790      0.0000     53.3166    591.1274
  2980.5000      2.8439      0.0000     51.4691    588.4203
  2980.7500      2.8487      0.0000     51.3148    567.9468
  2981.0000      2.8983      0.0000     52.3102    526.2203
  2981.2500      2.9491      0.0000     53.4445    473.9155
