~Version Information
VERS.                      2.0: CWLS Log ASCII Standard - VERSION 2.0
WRAP.                       NO: One line per depth step
~Well Information Block
STRT.FT                -6.5000: 
STOP.FT              1467.0000: 
STEP.FT                 0.2500: 
NULL.                -999.2500: 
COMP.          Pioneer Natural Resources: COMPANY
WELL.          Surtees 23-34 Tr: WELL
FLD.           Purgatorie River: FIELD
LOC.           1559' FSL & 1997' FWL--: LOCATION
PROV.                       CO: PROVINCE
CNTY.               Las Animas: COUNTRY
SRVC.          Patterson Wireline: SERVICE COMPANY
DATE.          Tue Aug 02 13:04:45 2005: LOG DATE
UWI.           05 071 08449 00: UNIQUE WELL ID
~Curve Information Block
DEPT.FT            0 000 00 00: Depth
CCL.                          : Casing Collar Locator
TT3.usec                      : CBL 3' Travel Time
AMP3.mV                       : CBL 3' Amplitude
GR.GAPI                       : Gamma Ray
~Parameter Information Block
~A  Depth       CCL         TT3         AMP3         GR     
# ...
   764.0000      0.0000    859.4564      8.7902    110.6456
   764.2500      0.0000    855.2977      8.7926    109.0680
   764.5000      0.0000    852.6254      8.7434    107.0337
   764.7500      0.0000    850.9966      8.6498    103.6569
   765.0000      0.0000    850.3033      8.5313     99.0179
   765.2500      0.0000    851.9005      8.3890     94.4276
   765.5000      0.0000    858.8348      8.1952     91.6511
   765.7500      0.0000    875.3120      7.9198     91.5602
   766.0000      0.0000    904.9943      7.5660     93.3782
   766.2500      0.0000    947.4467      7.1855     95.4142
   766.5000      0.0000    995.4129      6.8580     96.4518
   766.7500      0.0000   1037.8132      6.6457     96.2948
   767.0000      0.0000   1066.9587      6.5501     95.4141
   767.2500     -2.0000   1082.1415      6.5158     94.5574
   767.5000     -2.0000   1086.7195      6.4772     94.5778
   767.7500      0.0000   1083.9926      6.4083     96.4106
   768.0000      0.0000   1076.3654      6.3576    100.8059
   768.2500      0.0000   1066.0822      6.4466    107.3730
   768.5000      0.0000   1053.6516      6.7862    113.9654
   768.7500      0.0000   1035.2626      7.3441    118.1325
   769.0000      0.0000   1005.4390      7.9156    119.6148
   769.2500      0.0000    964.6811      8.2809    120.5313
   769.5000      0.0000    922.0919      8.3793    122.6725
   769.7500      0.0000    888.4044      8.3074    125.4106
   770.0000      0.0000    868.0701      8.1892    126.7708
   770.2500      0.0000    858.6807      8.0879    126.0020
   770.5000      0.0000    855.4624      8.0098    124.4479
   770.7500      0.0000    854.8113      7.9420    123.9688
   771.0000      0.0000    854.9734      7.8806    124.9679
   771.2500      0.0000    855.3450      7.8361    126.2445
   771.5000      0.0000    855.7226      7.8207    126.4606
   771.7500      0.0000    855.9722      7.8323    125.2558
   772.0000      0.0000    856.0109      7.8522    122.9289
   772.2500      0.0000    855.8450      7.8583    119.6451
   772.5000      0.0000    855.4056      7.8397    115.3837
   772.7500      0.0000    854.2075      7.8007    110.5913
   773.0000      0.0000    851.0933      7.7533    106.6778
   773.2500      0.0000    844.7283      7.7089    105.6284
   773.5000      0.0000    835.2966      7.6773    108.5558
   773.7500      0.0000    826.1042      7.6677    114.0964
   774.0000      0.0000    822.2529      7.6853    118.5697
   774.2500      0.0000    826.3019      7.7278    118.6336
   774.5000      0.0000    835.6908      7.7848    114.1576
   774.7500      0.0000    845.2873      7.8446    108.3045
   775.0000      0.0000    851.7280      7.9013    104.8342
   775.2500      0.0000    854.7719      7.9579    105.4004
   775.5000      0.0000    855.7422      8.0264    108.9071
   775.7500      0.0000    855.8773      8.1189    112.7484
   776.0000      0.0000    855.8285      8.2389    114.6283
   776.2500      0.0000    855.8083      8.3765    113.8965
   776.5000      0.0000    855.7994      8.5124    111.6303
   776.7500      0.0000    855.7119      8.6254    109.4998
   777.0000      0.0000    855.4788      8.7001    108.6067
   777.2500      0.0000    855.1251      8.7320    109.2565
   777.5000      0.0000    854.7560      8.7277    111.3519
   777.7500      0.0000    854.4781      8.7008    114.6914
   778.0000      0.0000    854.3248      8.6675    118.7629
   778.2500      0.0000    854.2541      8.6406    122.2546
   778.5000      0.0000    854.2061      8.6240    123.3280
   778.7500      0.0000    854.1417      8.6128    121.1530
   779.0000      0.0000    854.0348      8.6006    117.1089
   779.2500      0.0000    853.8629      8.5853    113.8814
   779.5000      0.0000    853.6250      8.5658    113.4132
   779.7500      0.0000    853.3578      8.5398    115.8569
   780.0000      0.0000    853.1242      8.5065    119.8960
   780.2500      0.0000    852.9806      8.4670    123.6626
   780.5000      0.0000    852.9548      8.4203    125.8466
   780.7500      0.0000    853.0486      8.3630    126.3976
   781.0000      0.0000    853.2473      8.2988    126.0705
   781.2500      0.0000    853.5197      8.2431    125.3022
   781.5000      0.0000    853.8226      8.2158    123.7360
   781.7500      0.0000    854.1592      8.2287    120.9026
   782.0000      0.0000    854.6847      8.2775    117.3014
   782.2500      0.0000    855.8268      8.3427    114.5568
   782.5000      0.0000    858.2531      8.3980    114.1845
   782.7500      0.0000    862.4859      8.4244    116.3248
   783.0000      0.0000    868.3488      8.4189    120.0322
   783.2500      0.0000    874.8317      8.3890    124.5104
   783.5000      0.0000    880.6414      8.3428    129.3478
   783.7500      0.0000    884.9872      8.2864    133.7224
   784.0000      0.0000    888.0626      8.2292    136.2451
   784.2500      0.0000    890.8395      8.1835    135.6982
   784.5000      0.0000    894.0534      8.1563    131.5604
   784.7500      0.0000    897.2436      8.1438    124.1004
   785.0000      0.0000    898.9581      8.1374    114.4837
   785.2500      0.0000    897.7994      8.1330    104.5439
   785.5000      0.0000    893.3700      8.1311     95.9712
   785.7500      0.0000    886.7756      8.1302     89.6380
   786.0000      0.0000    880.3122      8.1240     85.7477
   786.2500      0.0000    875.9553      8.1067     84.4436
   786.5000      0.0000    873.7443      8.0784     85.9513
   786.7500      0.0000    871.9067      8.0447     90.1104
   787.0000      0.0000    868.6460      8.0170     96.1557
   787.2500      0.0000    863.6708      8.0104    103.1590
   787.5000      0.0000    858.1290      8.0368    110.4711
   787.7500      0.0000    853.3374      8.0974    117.6296
   788.0000      0.0000    849.6782      8.1831    124.1613
   788.2500      0.0000    846.6313      8.2786    129.6893
   788.5000      0.0000    843.7172      8.3680    133.9400
   788.7500      0.0000    841.3345      8.4393    136.5408
   789.0000      0.0000    840.5785      8.4866    137.1180
   789.2500      0.0000    842.1574      8.5097    135.7121
   789.5000      0.0000    845.7256      8.5116    132.9721
   789.7500      0.0000    850.3306      8.4959    129.7667
   790.0000      0.0000    855.0018      8.4652    126.6169
   790.2500      0.0000    858.6211      8.4230    123.5160
   790.5000      0.0000    859.9601      8.3785    120.1911
   790.7500      0.0000    858.6814      8.3451    116.5434
   791.0000      0.0000    856.1648      8.3336    112.8504
   791.2500      0.0000    855.1017      8.3476    109.3953
   791.5000      0.0000    858.6818      8.3856    106.0117
   791.7500      0.0000    870.3071      8.4432    102.3624
   792.0000      0.0000    892.9131      8.5129     98.6175
   792.2500      0.0000    926.6138      8.5878     95.4416
   792.5000      0.0000    966.1910      8.6661     93.3508
   792.7500      0.0000   1002.3787      8.7490     92.2929
   793.0000      0.0000   1027.2461      8.8306     91.7636
   793.2500      0.0000   1037.5546      8.8959     91.4370
   793.5000      0.0000   1032.6915      8.9316     92.0277
   793.7500      0.0000   1013.1992      8.9375     95.1906
   794.0000      0.0000    983.7296      8.9270    101.7263
   794.2500      0.0000    953.5873      8.9146    109.8257
   794.5000      0.0000    930.6910      8.9058    115.9464
   794.7500      0.0000    916.1678      8.8970    117.9227
   795.0000      0.0000    905.8887      8.8828    116.5981
   795.2500      0.0000    895.5865      8.8629    114.1330
   795.5000      0.0000    883.8473      8.8432    111.6713
   795.7500      0.0000    871.9225      8.8329    109.2968
   796.0000      0.0000    861.9993      8.8380    107.3216
   796.2500      0.0000    855.4191      8.8547    106.5261
   796.5000      0.0000    851.9854      8.8696    107.4855
   796.7500      0.0000    850.5500      8.8678    110.3758
   797.0000      0.0000    849.9680      8.8419    114.9766
   797.2500      0.0000    849.5937      8.7968    120.2190
