~Version Information
VERS.                      2.0: CWLS Log ASCII Standard - VERSION 2.0
WRAP.                       NO: One line per depth step
~Well Information Block
STRT.FT               745.0000: 
STOP.FT              1985.0000: 
STEP.FT                 0.1000: 
NULL.                -999.2500: 
COMP.          Pioneer Natural Resources: COMPANY
WELL.          Lorencito 15-36-33-67: WELL
FLD.           Purgatoire River: FIELD
LOC.           38' FSL & 1446' FEL: LOCATION
STAT.                 Colorado: State
CNTY.               Las Animas: COUNTY
CTRY. USA : Country
SECT. 36 : Section
TOWN. 33S : Township
RANG. 67W : Range
SRVC.                Patterson: SERVICE COMPANY
DATE.          Thu Oct 13 10:16:17 2005: LOG DATE
API.           05 071 08515 00: UNIQUE WELL ID
~Curve Information Block
DEPT.FT            0 000 00 00: Depth
DCAL.in                       : CDL Caliper
RHOB.g/cc                     : CDL Bulk Density
RHOC.g/cc                     : CDL Density Correction
DPOR.pu                       : CDL Density Porosity
GR.GAPI                       : Gamma Ray
NPOR.pu                       : Neutron Porosity
~Parameter Information Block
~A  Depth       DCAL        RHOB        RHOC        DPOR         GR         NPOR    
# ...
  1321.0000      8.0766      2.5873      0.1260      3.7984    107.3502     24.9054
  1321.1000      8.0766      2.6950      0.2428     -2.7261    109.5440     24.2399
  1321.2000      8.0766      2.7718      0.3450     -7.3826    108.1419     23.7139
  1321.3000      8.0718      2.7942      0.3365     -8.7402    107.3535     23.8013
  1321.4000      8.0718      2.7708      0.2726     -7.3229    103.2382     24.0386
  1321.5000      8.0781      2.7196      0.2184     -4.2170     93.8699     23.7608
  1321.6000      8.0781      2.6571      0.1221     -0.4319     86.9913     23.0695
  1321.7000      8.0781      2.5974      0.0727      3.1853     86.2926     22.4919
  1321.8000      8.1301      2.5538     -0.0175      5.8330     87.2555     22.3090
  1321.9000      8.1301      2.5385     -0.0161      6.7561     84.9308     22.2574
  1322.0000      8.1380      2.5463      0.0068      6.2876     77.8710     22.3706
  1322.1000      8.1380      2.5586      0.0068      5.5369     69.8657     22.9818
  1322.2000      8.1380      2.5628      0.0450      5.2822     68.4051     23.6999
  1322.3000      8.1379      2.5557      0.0284      5.7137     78.4242     23.9608
  1322.4000      8.1379      2.5486      0.0189      6.1427     97.2830     23.9806
  1322.5000      8.1353      2.5476      0.0678      6.2037    112.0322     23.9030
  1322.6000      8.1353      2.5438      0.0178      6.4352    113.3473     23.5631
  1322.7000      8.1353      2.5328      0.0596      7.1019    110.3077     23.0919
  1322.8000      8.1294      2.5079      0.0934      8.6134    112.7321     22.7850
  1322.9000      8.1294      2.4729     -0.0095     10.7361    118.4130     22.8999
  1323.0000      8.1323      2.4491      0.0202     12.1731    122.1806     23.2443
  1323.1000      8.1323      2.4455      0.0305     12.3950    124.4038     23.5387
  1323.2000      8.1323      2.4576      0.0695     11.6599    127.5366     24.0269
  1323.3000      8.1249      2.4835      0.0436     10.0896    128.4773     24.6113
  1323.4000      8.1249      2.5312      0.0566      7.1981    124.2210     24.9205
  1323.5000      8.1039      2.6031      0.0841      2.8442    117.5436     25.2837
  1323.6000      8.1039      2.6728      0.2047     -1.3813    113.2480     26.0175
  1323.7000      8.1039      2.7092      0.1974     -3.5895    114.2505     26.7023
  1323.8000      8.1099      2.7118      0.1784     -3.7433    117.0603     26.8008
  1323.9000      8.1099      2.6977      0.1972     -2.8932    119.3502     26.4043
  1324.0000      8.1106      2.6757      0.1986     -1.5573    121.7982     25.8075
  1324.1000      8.1106      2.6459      0.0888      0.2486    120.8036     25.2215
  1324.2000      8.1106      2.6117      0.0680      2.3233    114.0217     24.8724
  1324.3000      8.1363      2.5852     -0.0007      3.9290    106.0900     24.7363
  1324.4000      8.1363      2.5857     -0.0396      3.8994    102.7481     24.8006
  1324.5000      8.1415      2.6019      0.0435      2.9150    102.4716     25.1036
  1324.6000      8.1415      2.5947      0.0392      3.3515    100.1537     25.3340
  1324.7000      8.1415      2.5628      0.0049      5.2851     96.0017     24.9292
  1324.8000      8.1398      2.5439     -0.0194      6.4313     92.7132     23.7449
  1324.9000      8.1398      2.5554      0.0513      5.7321     88.6081     22.2809
  1325.0000      8.1369      2.5849      0.0543      3.9449     83.0206     21.5781
  1325.1000      8.1369      2.6171      0.0954      1.9937     79.9919     22.0051
  1325.2000      8.1369      2.6343      0.0988      0.9496     80.1196     22.5158
  1325.3000      8.1381      2.6344      0.0669      0.9448     81.3649     22.2702
  1325.4000      8.1381      2.6387      0.0598      0.6875     82.8227     21.5868
  1325.5000      8.1379      2.6535      0.0658     -0.2096     80.5322     20.7872
  1325.6000      8.1379      2.6587      0.1098     -0.5262     72.2819     20.0652
  1325.7000      8.1379      2.6388      0.0786      0.6763     63.3429     19.8463
  1325.8000      8.1420      2.6037      0.0798      2.8068     58.4453     19.9288
  1325.9000      8.1420      2.5718      0.0259      4.7393     59.6017     20.0456
  1326.0000      8.1376      2.5563      0.0079      5.6776     64.0708     20.3180
  1326.1000      8.1376      2.5571      0.0199      5.6304     65.5228     20.4830
  1326.2000      8.1376      2.5634      0.0601      5.2478     64.2632     20.1732
  1326.3000      8.1413      2.5651      0.0285      5.1449     65.4152     19.4381
  1326.4000      8.1413      2.5564      0.0678      5.6703     68.6726     18.6526
  1326.5000      8.1423      2.5445      0.0125      6.3953     69.0454     17.9953
  1326.6000      8.1423      2.5446      0.0545      6.3897     65.4311     17.5935
  1326.7000      8.1423      2.5576      0.0255      5.6015     61.2128     17.7858
  1326.8000      8.1444      2.5701      0.0468      4.8444     57.9754     18.3193
  1326.9000      8.1444      2.5670      0.0256      5.0326     54.3708     18.5943
  1327.0000      8.1408      2.5485      0.0338      6.1517     51.7594     18.5992
  1327.1000      8.1408      2.5324     -0.0304      7.1264     51.9465     18.6226
  1327.2000      8.1408      2.5318     -0.0063      7.1663     53.4002     18.5902
  1327.3000      8.1415      2.5398     -0.0017      6.6789     54.0389     18.1278
  1327.4000      8.1415      2.5410      0.0493      6.6058     53.3409     17.5350
  1327.5000      8.1402      2.5340     -0.0253      7.0315     53.2358     17.4390
  1327.6000      8.1402      2.5321      0.0450      7.1468     54.9850     17.6568
  1327.7000      8.1402      2.5361      0.0088      6.9051     56.8149     17.9441
  1327.8000      8.1401      2.5469      0.0157      6.2493     58.0890     18.4585
  1327.9000      8.1401      2.5675      0.0702      5.0022     59.8575     19.1737
  1328.0000      8.1405      2.5794      0.0999      4.2758     60.2854     19.6409
  1328.1000      8.1405      2.5707      0.0239      4.8087     57.7316     19.6294
  1328.2000      8.1405      2.5633      0.0336      5.2567     54.8057     19.3154
  1328.3000      8.1413      2.5731      0.0818      4.6604     53.8157     18.7861
  1328.4000      8.1413      2.5811      0.1005      4.1777     54.2683     18.1289
  1328.5000      8.1407      2.5681      0.0247      4.9630     55.0634     17.8403
  1328.6000      8.1407      2.5406     -0.0189      6.6280     56.3642     18.0903
  1328.7000      8.1407      2.5103     -0.0011      8.4663     58.2437     18.3560
  1328.8000      8.1394      2.4840     -0.0517     10.0611     58.1848     18.2682
  1328.9000      8.1394      2.4736     -0.0507     10.6932     55.4844     17.8652
  1329.0000      8.1394      2.4853     -0.0473      9.9827     54.6157     17.5996
  1329.1000      8.1394      2.5062     -0.0184      8.7140     58.1556     17.8988
  1329.2000      8.1394      2.5162      0.0092      8.1061     61.4762     18.4654
  1329.3000      8.1398      2.5121      0.0005      8.3580     59.4794     18.8466
  1329.4000      8.1398      2.5062      0.0089      8.7174     52.5217     18.7303
  1329.5000      8.1388      2.5037      0.0271      8.8689     46.5392     18.0623
  1329.6000      8.1388      2.4987     -0.0040      9.1695     46.1253     17.4051
  1329.7000      8.1388      2.4903     -0.0116      9.6811     48.7791     17.1937
  1329.8000      8.1401      2.4902     -0.0178      9.6822     52.2719     17.2475
  1329.9000      8.1401      2.5081     -0.0253      8.5972     57.7524     17.4614
  1330.0000      8.1414      2.5296      0.0348      7.2940     62.6842     17.9282
  1330.1000      8.1414      2.5319     -0.0048      7.1578     63.6428     18.1646
  1330.2000      8.1414      2.5164     -0.0207      8.0953     62.9450     17.8594
  1330.3000      8.1396      2.4998     -0.0248      9.1007     63.0872     17.4878
  1330.4000      8.1396      2.4906     -0.0158      9.6617     61.1300     17.4560
  1330.5000      8.1393      2.4877     -0.0423      9.8361     55.6884     17.7649
