~Version Information
VERS.                      2.0: CWLS Log ASCII Standard - VERSION 2.0
WRAP.                       NO: One line per depth step
~Well Information Block
STRT.FT               575.0000: 
STOP.FT              1558.5000: 
STEP.FT                 0.2500: 
NULL.                -999.2500: 
COMP.          Pioneer Natural Resources: COMPANY
WELL.          McClaren 13-34 Tr: WELL
FLD.           Purgatoire River: FIELD
LOC.           1934' FSL & 826' FWL: LOCATION
PROV.                 Colorado: PROVINCE
CNTY.               Las Animas: COUNTRY
SRVC.                Patterson: SERVICE COMPANY
DATE.          Mon Jul 11 20:01:13 2005: LOG DATE
UWI.           05 071 08437 00: UNIQUE WELL ID
~Curve Information Block
DEPT.FT            0 000 00 00: Depth
SN.Ohm-m                      : IEL Short Normal
SP.mV                         : IEL Spontaneous Potential
DIR.Ohm-m                     : IEL Induction Resistivity
GR.GAPI                       : Gamma Ray
~Parameter Information Block
~A  Depth        SN          SP         DIR          GR     
# ...
  1144.5000     15.2092    159.5202     13.8420    128.4084
  1144.7500     15.2972    159.7040     14.0682    128.9501
  1145.0000     15.4438    159.8674     14.2618    130.6961
  1145.2500     15.6497    160.0330     14.4233    132.1535
  1145.5000     15.7962    160.2140     14.5617    133.9305
  1145.7500     15.8307    160.4026     14.6897    134.3878
  1146.0000     15.8362    160.5746     14.8194    133.6008
  1146.2500     15.9074    160.7074     14.9605    132.2127
  1146.5000     16.0635    160.8004     15.1206    129.4253
  1146.7500     16.2785    160.8790     15.3064    127.3938
  1147.0000     16.5300    160.9765     15.5222    124.4482
  1147.2500     16.7784    161.1136     15.7664    122.9901
  1147.5000     16.9861    161.2964     16.0302    122.8021
  1147.7500     17.1866    161.5344     16.3022    124.4066
  1148.0000     17.4420    161.8553     16.5783    128.3210
  1148.2500     17.8001    162.3034     16.8694    130.4981
  1148.5000     18.2853    162.9213     17.2006    131.2018
  1148.7500     18.8184    163.7288     17.6034    130.0074
  1149.0000     19.2693    164.7097     18.1065    127.5271
  1149.2500     19.6286    165.8220     18.7330    126.5957
  1149.5000     20.0038    167.0183     19.4982    127.0575
  1149.7500     20.4606    168.2486     20.4005    128.1405
  1150.0000     20.9916    169.4424     21.4065    129.3068
  1150.2500     21.6290    170.5096     22.4404    128.9468
  1150.5000     22.4336    171.3909     23.3981    126.1976
  1150.7500     23.3857    172.1183     24.1894    123.2267
  1151.0000     24.4335    172.8126     24.7810    118.4594
  1151.2500     25.6092    173.6017     25.2076    115.8868
  1151.5000     26.9536    174.5361     25.5514    113.1398
  1151.7500     28.3755    175.5671     25.9139    111.4314
  1152.0000     29.7576    176.5889     26.3969    108.2328
  1152.2500     31.1402    177.5023     27.0888    106.0577
  1152.5000     32.6300    178.2601     28.0505    104.2663
  1152.7500     34.2499    178.8705     29.2939    104.5203
  1153.0000     35.9812    179.3665     30.7567    106.2668
  1153.2500     37.7791    179.7849     32.2864    107.3205
  1153.5000     39.5389    180.1791     33.6641    107.2944
  1153.7500     41.1629    180.6221     34.6774    105.8784
  1154.0000     42.5796    181.1519     35.2056    101.8057
  1154.2500     43.7026    181.6975     35.2460     98.1345
  1154.5000     44.4615    182.0815     34.8693     92.1444
  1154.7500     44.8178    182.1290     34.1510     88.4977
  1155.0000     44.7207    181.7866     33.1343     84.5277
  1155.2500     44.0716    181.1374     31.8399     83.2865
  1155.5000     42.7114    180.3126     30.3108     84.1819
  1155.7500     40.4676    179.3988     28.6427     87.0270
  1156.0000     37.3284    178.4153     26.9650     94.9126
  1156.2500     33.6091    177.3524     25.3864    102.0427
  1156.5000     29.8686    176.2153     23.9600    113.4715
  1156.7500     26.6237    175.0383     22.6920    120.3077
  1157.0000     24.1161    173.8698     21.5717    128.3175
  1157.2500     22.2751    172.7522     20.5896    132.2173
  1157.5000     20.8970    171.7133     19.7336    136.2876
  1157.7500     19.8513    170.7705     18.9803    137.8802
  1158.0000     19.0888    169.9368     18.2990    138.6739
  1158.2500     18.5447    169.2251     17.6711    138.3339
  1158.5000     18.1315    168.6505     17.1042    136.8511
  1158.7500     17.8074    168.2303     16.6244    135.2944
  1159.0000     17.5884    167.9796     16.2532    132.3977
  1159.2500     17.4834    167.9038     15.9917    130.5748
  1159.5000     17.4516    167.9955     15.8235    129.2159
  1159.7500     17.4581    168.2408     15.7332    129.7300
  1160.0000     17.5250    168.6304     15.7193    132.1917
  1160.2500     17.6784    169.1658     15.7944    133.9084
  1160.5000     17.8927    169.8505     15.9767    134.7137
  1160.7500     18.1483    170.6769     16.2856    133.7400
  1161.0000     18.4763    171.6250     16.7419    131.0003
  1161.2500     18.8921    172.6794     17.3674    129.2733
  1161.5000     19.4014    173.8423     18.1758    127.9568
  1161.7500     20.0755    175.1289     19.1612    127.8689
  1162.0000     21.0052    176.5499     20.2926    127.3333
  1162.2500     22.2299    178.0975     21.5257    125.1911
  1162.5000     23.8115    179.7442     22.8287    117.2247
  1162.7500     25.8952    181.4550     24.2074    108.8570
  1163.0000     28.5959    183.2009     25.7116     94.5700
  1163.2500     31.9146    184.9557     27.4157     85.9836
  1163.5000     35.8042    186.6714     29.3887     76.1843
  1163.7500     40.1941    188.2563     31.6732     71.2652
  1164.0000     44.8930    189.5855     34.2771     64.8145
  1164.2500     49.5649    190.5549     37.1643     60.6656
  1164.5000     53.8912    191.1435     40.2232     54.6516
  1164.7500     57.7349    191.4311     43.2266     50.9373
  1165.0000     61.1706    191.5508     45.8500     46.1762
  1165.2500     64.3583    191.6184     47.8137     43.8046
  1165.5000     67.3412    191.6919     49.0750     41.7870
  1165.7500     70.0042    191.7791     49.8657     41.4472
  1166.0000     72.1862    191.8678     50.5081     41.8855
  1166.2500     73.8088    191.9483     51.1773     42.2450
  1166.5000     74.9194    192.0189     51.7885     42.0823
  1166.7500     75.5761    192.0802     52.0480     41.5291
  1167.0000     75.7146    192.1285     51.6118     41.0228
  1167.2500     75.2077    192.1550     50.2664     41.6681
  1167.5000     74.0208    192.1491     48.0341     44.9536
  1167.7500     72.1610    192.1039     45.1699     48.7269
  1168.0000     69.5588    192.0192     42.0671     56.2774
  1168.2500     66.1382    191.8986     39.1203     62.2852
  1168.5000     61.8812    191.7404     36.6120     72.5628
  1168.7500     56.7523    191.5223     34.6723     80.0943
  1169.0000     50.7216    191.2007     33.2911     91.5077
  1169.2500     44.1160    190.7391     32.3454     98.4168
  1169.5000     37.8670    190.1515     31.6311    106.8009
  1169.7500     32.9948    189.5120     30.9213    111.0472
  1170.0000     29.9040    188.9191     30.0564    115.9312
  1170.2500     28.3801    188.4455     29.0183    118.3942
  1170.5000     27.9381    188.1113     27.9169    120.5848
  1170.7500     28.0645    187.8859     26.9032    120.6666
  1171.0000     28.3949    187.7082     26.0945    118.5389
  1171.2500     28.7533    187.5167     25.5513    116.0216
  1171.5000     29.1010    187.2735     25.2886    111.9305
  1171.7500     29.5042    186.9662     25.2842    109.7670
  1172.0000     30.0109    186.5922     25.4765    107.9929
  1172.2500     30.5365    186.1478     25.7679    107.5859
  1172.5000     30.9511    185.6344     26.0522    107.1187
  1172.7500     31.2027    185.0696     26.2576    106.3173
  1173.0000     31.3121    184.4893     26.3718    104.1807
  1173.2500     31.3185    183.9403     26.4270    102.6351
  1173.5000     31.2627    183.4701     26.4649    101.3338
  1173.7500     31.1994    183.1169     26.5111    101.4235
  1174.0000     31.1506    182.8971     26.5693    102.4398
  1174.2500     31.0402    182.7959     26.6252    103.2646
  1174.5000     30.7829    182.7712     26.6518    104.7065
  1174.7500     30.3961    182.7757     26.6134    106.2004
  1175.0000     29.9607    182.7851     26.4722    109.7548
  1175.2500     29.5588    182.8080     26.2022    112.8198
  1175.5000     29.2668    182.8688     25.8074    117.3539
  1175.7500     29.1373    182.9821     25.3312    119.6553
  1176.0000     29.1191    183.1411     24.8455    121.6908
  1176.2500     29.0215    183.3253     24.4244    122.4827
  1176.5000     28.6756    183.5112     24.1240    123.8385
  1176.7500     28.0709    183.6770     23.9758    125.3391
  1177.0000     27.2610    183.8071     23.9903    128.7806
  1177.2500     26.3069    183.8938     24.1586    131.4917
  1177.5000     25.3643    183.9355     24.4513    134.4551
  1177.7500     24.6785    183.9350     24.8203    134.5645
