~Version Information
VERS.                      2.0: CWLS Log ASCII Standard - VERSION 2.0
WRAP.                       NO: One line per depth step
~Well Information Block
STRT.FT               460.0000: 
STOP.FT              2811.5000: 
STEP.FT                 0.1000: 
NULL.                -999.2500: 
COMP.          Pioneer Natural Resources: COMPANY
WELL.           Dolzanie 34-12: WELL
FLD.           Purgatoire River: FIELD
LOC.           1001' FSL & 1750' FEL--: LOCATION
PROV.                 Colorado: PROVINCE
CNTY.               Las Animas: COUNTRY
SRVC.                Patterson: SERVICE COMPANY
DATE.          Wed Jul 20 07:56:24 2005: LOG DATE
UWI.           05 071 08439 00: UNIQUE WELL ID
~Curve Information Block
DEPT.FT            0 000 00 00: Depth
DCAL.in                       : CDL Caliper
DPOR.pu                       : CDL Density Porosity
NPOR.pu                       : Neutron Porosity
RHOB.g/cc                     : CDL Bulk Density
RHOC.g/cc                     : CDL Density Correction
GR.GAPI                       : Gamma Ray
~Parameter Information Block
~A  Depth       DCAL        DPOR        NPOR        RHOB        RHOC         GR     
# ...
  1544.8000      7.9324      0.9585     14.2397      2.6342      0.0447     55.0829
  1544.9000      7.9324      1.3835     13.8378      2.6272      0.0636     58.8482
  1545.0000      7.9335      1.6861     13.4764      2.6222      0.0673     66.8670
  1545.1000      7.9335      2.3823     13.5520      2.6107      0.0729     74.0330
  1545.2000      7.9335      3.3336     13.7722      2.5950      0.0329     75.5706
  1545.3000      7.9337      3.9160     13.6867      2.5854      0.0391     73.4549
  1545.4000      7.9337      3.8306     13.5635      2.5868      0.0483     70.5879
  1545.5000      7.9328      3.3083     13.8720      2.5954      0.0405     65.4901
  1545.6000      7.9328      2.9797     14.3445      2.6008      0.0493     58.3036
  1545.7000      7.9328      3.0435     14.6650      2.5998      0.0339     53.4043
  1545.8000      7.9319      2.7385     15.0900      2.6048      0.0388     55.4600
  1545.9000      7.9319      1.9332     15.5563      2.6181      0.0530     63.2995
  1546.0000      7.9315      1.5697     15.6487      2.6241      0.0877     69.8764
  1546.1000      7.9315      2.1348     15.4134      2.6148      0.0737     71.2547
  1546.2000      7.9315      3.0524     15.2536      2.5996      0.0582     68.2219
  1546.3000      7.9322      3.7168     15.2515      2.5887      0.0647     63.8318
  1546.4000      7.9322      4.1328     14.9717      2.5818      0.0519     62.3550
  1546.5000      7.9327      4.6637     14.3885      2.5730      0.0849     62.6801
  1546.6000      7.9327      5.3085     13.8827      2.5624      0.0244     61.0029
  1546.7000      7.9327      5.5668     13.7274      2.5581      0.0413     60.3225
  1546.8000      7.9330      5.4980     13.9130      2.5593      0.0329     64.2118
  1546.9000      7.9330      5.3307     14.2124      2.5620      0.0317     68.6536
  1547.0000      7.9326      4.9863     14.7217      2.5677      0.0316     68.6009
  1547.1000      7.9326      4.6181     15.2469      2.5738      0.0501     63.9098
  1547.2000      7.9326      4.4151     15.2075      2.5772      0.0525     60.3208
  1547.3000      7.9317      4.0193     14.9364      2.5837      0.0480     61.9241
  1547.4000      7.9317      3.1667     15.2357      2.5977      0.0554     63.7732
  1547.5000      7.9324      2.4651     15.9479      2.6093      0.0908     60.8162
  1547.6000      7.9324      2.9499     16.2642      2.6013      0.0912     54.7822
  1547.7000      7.9324      4.5591     15.9309      2.5748      0.0419     50.4959
  1547.8000      7.9334      5.7478     15.2267      2.5552      0.0077     52.4653
  1547.9000      7.9334      5.6373     14.6980      2.5570      0.0512     57.6457
  1548.0000      7.9321      5.1310     14.6910      2.5653      0.0520     59.0532
  1548.1000      7.9321      5.0295     14.8887      2.5670      0.0220     57.2629
  1548.2000      7.9321      4.9730     15.0501      2.5679      0.0511     56.6908
  1548.3000      7.9311      4.8301     15.3753      2.5703      0.0758     56.6665
  1548.4000      7.9311      5.1216     15.6949      2.5655      0.0694     54.6746
  1548.5000      7.9317      5.4481     15.4959      2.5601      0.0342     52.7593
  1548.6000      7.9317      4.6495     15.1088      2.5733      0.0336     51.8254
  1548.7000      7.9317      3.3322     15.2649      2.5950      0.1070     51.8855
  1548.8000      7.9324      3.0589     15.7007      2.5995      0.0392     56.0291
  1548.9000      7.9324      3.4338     15.8552      2.5933      0.0411     62.1760
  1549.0000      7.9327      3.3713     15.6738      2.5944      0.0825     63.5650
  1549.1000      7.9327      3.0824     15.3315      2.5991      0.0837     61.1086
  1549.2000      7.9327      3.1055     15.1737      2.5988      0.0612     59.1887
  1549.3000      7.9323      3.4927     15.2914      2.5924      0.0789     57.2993
  1549.4000      7.9323      4.2128     15.3048      2.5805      0.0746     57.4746
  1549.5000      7.9323      4.8623     15.1791      2.5698      0.0559     61.9743
  1549.6000      7.9323      4.7501     15.3049      2.5716      0.0376     65.1417
  1549.7000      7.9323      4.2019     15.5531      2.5807      0.0896     61.0844
  1549.8000      7.9322      4.3450     15.6054      2.5783      0.0662     52.1596
  1549.9000      7.9322      5.0885     15.3885      2.5660      0.0009     46.8592
  1550.0000      7.9313      5.2661     14.8982      2.5631      0.0340     49.5304
  1550.1000      7.9313      4.2802     14.5886      2.5794      0.0342     55.7913
  1550.2000      7.9313      2.5644     14.7459      2.6077      0.0861     59.7915
  1550.3000      7.9275      1.3983     15.0839      2.6269      0.0794     61.8218
  1550.4000      7.9275      1.4388     15.3286      2.6263      0.0627     65.2289
  1550.5000      7.9218      1.9678     15.5834      2.6175      0.0573     69.0700
  1550.6000      7.9218      2.5472     16.0813      2.6080      0.0904     71.3415
  1550.7000      7.9218      3.5689     16.6884      2.5911      0.0720     74.0643
  1550.8000      7.9188      4.6553     17.0539      2.5732      0.0382     76.1517
  1550.9000      7.9188      4.6304     16.9913      2.5736      0.0297     72.9999
  1551.0000      7.9195      3.4101     16.6674      2.5937      0.0579     67.3192
  1551.1000      7.9195      2.2288     16.4530      2.6132      0.0633     65.4999
  1551.2000      7.9195      1.9306     16.4267      2.6181      0.0708     67.3996
  1551.3000      7.9218      2.1440     16.1314      2.6146      0.0622     69.6822
  1551.4000      7.9218      2.3031     15.3163      2.6120      0.0605     71.8384
  1551.5000      7.9187      2.5851     14.7362      2.6073      0.0355     72.7432
  1551.6000      7.9187      2.9748     15.0745      2.6009      0.0297     70.6695
  1551.7000      7.9187      2.9647     15.7599      2.6011      0.0345     67.5525
  1551.8000      7.9142      2.7885     15.9235      2.6040      0.0823     67.0636
  1551.9000      7.9142      3.3300     15.7262      2.5951      0.0504     68.5453
  1552.0000      7.9119      4.5680     15.7765      2.5746      0.0440     71.4838
  1552.1000      7.9119      5.7061     16.0926      2.5559      0.0278     75.6530
  1552.2000      7.9119      6.2121     16.4289      2.5475      0.0441     77.2276
  1552.3000      7.9126      6.0139     16.4897      2.5508      0.0112     74.0264
  1552.4000      7.9126      5.3445     16.2080      2.5618      0.0485     67.1602
  1552.5000      7.9167      4.4286     15.7467      2.5769      0.0508     59.9898
  1552.6000      7.9167      3.2189     15.2127      2.5969      0.0576     56.5139
  1552.7000      7.9167      2.1069     14.9291      2.6152      0.0736     57.2659
  1552.8000      7.9142      2.0811     15.0055      2.6157      0.0909     60.6655
  1552.9000      7.9142      3.0142     14.9941      2.6003     -0.0066     64.0938
  1553.0000      7.9044      3.5507     14.7068      2.5914      0.0707     64.8295
  1553.1000      7.9044      3.4002     14.3607      2.5939      0.0675     64.6096
  1553.2000      7.9044      3.4846     14.1662      2.5925      0.0738     65.9991
  1553.3000      7.9006      4.1307     14.3116      2.5818      0.0075     68.7214
  1553.4000      7.9006      4.6588     14.8846      2.5731      0.0281     71.5022
  1553.5000      7.9024      4.7005     15.9719      2.5724      0.0390     72.7942
  1553.6000      7.9024      4.5687     17.0539      2.5746      0.0877     70.9245
  1553.7000      7.9024      4.5198     17.4585      2.5754      0.0493     66.0836
  1553.8000      7.9077      4.3035     17.3739      2.5790      0.0315     60.9807
  1553.9000      7.9077      3.9620     17.1174      2.5846      0.0743     58.7665
  1554.0000      7.9157      3.7413     16.8658      2.5883      0.0258     60.6508
  1554.1000      7.9157      3.1871     16.9125      2.5974      0.0414     64.2979
  1554.2000      7.9157      2.3548     17.0357      2.6111      0.0901     68.6340
  1554.3000      7.9193      1.9217     16.7323      2.6183      0.0546     72.0800
