~Version Information
VERS.                      2.0: CWLS Log ASCII Standard - VERSION 2.0
WRAP.                       NO: One line per depth step
~Well Information Block
STRT.FT                 0.0000: 
STOP.FT              1201.0000: 
STEP.FT                 0.2500: 
NULL.                -999.2500: 
COMP.          Pioneer Natural Resources: COMPANY
WELL.             Margaux 11-1: WELL
FLD.           Purgatoire River: FIELD
LOC.           1154' FNL & 472' FWL --------: LOCATION
PROV.                 Colorado: PROVINCE
CNTY.               Las Animas: COUNTRY
SRVC.                         : SERVICE COMPANY
DATE.          Thu Jan 05 11:16:55 2006: LOG DATE
UWI.                          : UNIQUE WELL ID
~Curve Information Block
DEPT.FT            0 000 00 00: Depth
CCL.                          : Casing Collar Locator
TT3.usec                      : CBL 3' Travel Time
AMP3.mV                       : CBL 3' Amplitude
AMP5.mV                       : CBL 5' Amplitude
GR.GAPI                       : Gamma Ray
~Parameter Information Block
~A  Depth       CCL         TT3         AMP3        AMP5         GR     
# ...
   784.0000      0.0000    713.5897      7.3182      1.3698    139.7262
   784.2500      0.0000    713.2515      7.3703      1.2844    143.9777
   784.5000      0.0000    712.9628      7.4162      1.2119    149.0502
   784.7500      0.0000    712.3510      7.4330      1.1806    153.1288
   785.0000      0.0000    710.5018      7.4094      1.2124    153.9405
   785.2500      0.0000    705.7872      7.3484      1.3068    150.0539
   785.5000      0.0000    696.2711      7.2641      1.4391    141.6173
   785.7500      0.0000    680.9696      7.1719      1.5679    130.6628
   786.0000      0.0000    661.2445      7.0834      1.6467    120.6882
   786.2500      0.0000    641.0330      7.0101      1.6576    115.0000
   786.5000      0.0000    625.4942      6.9699      1.6340    114.8450
   786.7500      0.0000    618.8014      6.9784      1.6204    118.9690
   787.0000      0.0000    622.1259      7.0303      1.6114    124.8740
   787.2500      0.0000    632.9022      7.0909      1.5608    130.4241
   787.5000      0.0000    646.1843      7.1106      1.4495    134.3838
   787.7500      0.0000    657.4332      7.0543      1.3116    135.9042
   788.0000      0.0000    664.6089      6.9249      1.1959    134.2134
   788.2500      0.0000    668.1422      6.7598      1.1314    129.2872
   788.5000      0.0000    669.5331      6.6013      1.1238    122.5420
   788.7500      0.0000    670.2269      6.4733      1.1552    116.3124
   789.0000      0.0000    671.4167      6.3857      1.1865    112.4726
   789.2500      0.0000    674.2203      6.3514      1.1802    111.4805
   789.5000      0.0000    679.4130      6.3804      1.1324    112.5715
   789.7500      0.0000    686.6356      6.4543      1.0794    114.9359
   790.0000      0.0000    694.1071      6.5212      1.0738    118.7514
   790.2500      0.0000    699.8531      6.5285      1.1437    124.7428
   790.5000      0.0000    703.6130      6.4713      1.2670    132.6360
   790.7500      0.0000    707.1279      6.4120      1.3918    140.4306
   791.0000      0.0000    712.1155      6.4389      1.4863    145.3862
   791.2500      0.0000    718.2850      6.5920      1.5562    145.6890
   791.5000      0.0000    723.7683      6.8294      1.6144    141.5632
   791.7500      0.0000    727.0969      7.0693      1.6561    135.4008
   792.0000      0.0000    728.0881      7.2532      1.6734    130.7715
   792.2500      0.0000    727.1537      7.3672      1.6764    130.3510
   792.5000      0.0000    724.7753      7.4250      1.6845    133.9500
   792.7500      0.0000    721.6740      7.4496      1.7096    138.7275
   793.0000      0.0000    718.5535      7.4641      1.7492    141.8055
   793.2500      0.0000    714.9873      7.4851      1.7859    142.5513
   793.5000      0.0000    708.5538      7.5226      1.7977    142.1935
   793.7500      0.0000    695.7774      7.5850      1.7822    141.9069
   794.0000      0.0000    675.3508      7.6707      1.7617    141.9275
   794.2500      0.0000    651.2034      7.7560      1.7527    142.0069
   794.5000      0.0000    631.5134      7.8082      1.7455    141.7551
   794.7500      0.0000    623.4924      7.8140      1.7301    140.6347
   795.0000      0.0000    628.7723      7.7868      1.7248    138.3885
   795.2500      0.0000    643.4306      7.7481      1.7537    135.5746
   795.5000      0.0000    661.6122      7.7114      1.7967    133.2511
   795.7500      0.0000    678.8667      7.6853      1.7942    132.0944
   796.0000      0.0000    692.9649      7.6795      1.7149    131.9232
   796.2500      0.0000    703.1337      7.7014      1.6011    131.8940
   796.5000      0.0000    709.4597      7.7472      1.5296    131.2118
   796.7500      0.0000    712.6083      7.8013      1.5316    129.9976
   797.0000      0.0000    713.3240      7.8458      1.5674    129.3358
   797.2500      0.0000    711.8240      7.8712      1.5891    130.0506
   797.5000      0.0000    707.7413      7.8789      1.6030    131.5755
   797.7500      0.0000    700.8156      7.8769      1.6432    132.3731
   798.0000      0.0000    691.5170      7.8718      1.6989    131.3601
   798.2500      0.0000    680.4565      7.8641      1.7107    128.7429
   798.5000      0.0000    667.5751      7.8481      1.6397    125.7169
   798.7500      0.0000    653.4171      7.8180      1.5159    123.5789
   799.0000      0.0000    641.3485      7.7737      1.4129    122.9698
   799.2500      0.0000    636.5287      7.7217      1.3801    123.7701
   799.5000      0.0000    641.8882      7.6683      1.4041    125.5075
   799.7500      0.0000    655.8954      7.6129      1.4336    127.6106
   800.0000      0.0000    673.7215      7.5496      1.4379    129.3470
   800.2500      0.0000    689.6048      7.4744      1.4323    130.0023
   800.5000      0.0000    699.0846      7.3903      1.4432    129.4407
   800.7500      0.0000    700.5663      7.3021      1.4694    128.3782
   801.0000      0.0000    695.3989      7.2035      1.4900    127.8498
   801.2500      0.0000    686.6241      7.0683      1.4957    128.2247
   801.5000      0.0000    677.4843      6.8596      1.4900    128.8194
   801.7500      0.0000    670.4676      6.5645      1.4787    128.6393
   802.0000      0.0000    667.0648      6.2285      1.4768    127.3551
   802.2500      0.0000    667.9971      5.9499      1.5137    125.2348
   802.5000      0.0000    673.5308      5.8248      1.6026    122.3461
   802.7500      0.0000    683.1075      5.8913      1.7094    118.4148
   803.0000      0.0000    694.1747      6.1204      1.7760    113.4374
   803.2500      0.0000    702.0243      6.4447      1.7841    107.8783
   803.5000      0.0000    702.5634      6.7874      1.7732    102.3430
   803.7500      0.0000    695.9203      7.0805      1.7834     97.7350
   804.0000      0.0000    686.5096      7.2776      1.8021     95.7149
   804.2500      0.0000    679.4344      7.3607      1.7939     98.2646
   804.5000      0.0000    677.4652      7.3364      1.7656    106.1692
   804.7500      0.0000    680.7365      7.2360      1.7641    117.7761
   805.0000      0.0000    687.4370      7.1214      1.8086    129.5242
   805.2500      0.0000    694.0571      7.0737      1.8571    138.1176
   805.5000      0.0000    695.9936      7.1498      1.8502    142.2668
   805.7500      0.0000    689.2576      7.3373      1.7727    142.3818
   806.0000      0.0000    672.4636      7.5614      1.6651    139.1716
   806.2500      0.0000    647.1705      7.7432      1.5814    132.9661
   806.5000      0.0000    615.7557      7.8519      1.5380    124.1128
   806.7500      0.0000    579.6086      7.9032      1.5005    113.5685
   807.0000      0.0000    541.4695      7.9230      1.4212    102.9263
   807.2500      0.0000    509.1712      7.9283      1.2947     93.6984
   807.5000      0.0000    492.4072      7.9361      1.1760     86.5806
   807.7500      0.0000    492.8348      7.9682      1.1350     81.5829
   808.0000      0.0000    500.5125      8.0353      1.1951     78.7207
   808.2500      0.0000    504.5009      8.1173      1.3231     78.2313
   808.5000      0.0000    506.2755      8.1716      1.4672     80.2190
   808.7500      0.0000    518.7960      8.1689      1.5859     84.6044
   809.0000      0.0000    551.3392      8.1222      1.6598     91.4633
   809.2500      0.0000    597.7971      8.0790      1.7055    100.8067
   809.5000      0.0000    641.4706      8.0851      1.7708    111.6738
   809.7500      0.0000    669.6840      8.1522      1.8853    121.9279
   810.0000      0.0000    682.3295      8.2571      2.0152    129.4171
   810.2500      0.0000    687.8480      8.3662      2.0940    133.2234
   810.5000      0.0000    693.7187      8.4555      2.0990    133.8694
   810.7500      0.0000    701.4439      8.5131      2.0674    132.9092
   811.0000      0.0000    708.6587      8.5350      2.0388    132.3107
   811.2500      0.0000    713.4043      8.5240      2.0116    133.2497
   811.5000      0.0000    715.6771      8.4919      1.9569    134.9975
   811.7500      0.0000    716.3811      8.4554      1.8469    135.4476
