~Version Information
VERS.                      2.0: CWLS Log ASCII Standard - VERSION 2.0
WRAP.                       NO: One line per depth step
~Well Information Block
STRT.FT                 0.0000: 
STOP.FT               712.5000: 
STEP.FT                 0.2500: 
NULL.                -999.2500: 
COMP.          Pioneer Natural Resources: COMPANY
WELL.                Mia 21-18: WELL
FLD.           Purgatorie River: FIELD
LOC.           1067' FNL & 1824' FWL: LOCATION
PROV.                 Colorado: PROVINCE
CNTY.               Las Animas: COUNTRY
SRVC.                Patterson: SERVICE COMPANY
DATE.          Mon Nov 28 13:12:22 2005: LOG DATE
UWI.           05-071-08559               : UNIQUE WELL ID
~Curve Information Block
DEPT.FT            0 000 00 00: Depth
CCL.                          : Casing Collar Locator
TT3.usec                      : CBL 3' Travel Time
AMP3.mV                       : CBL 3' Amplitude
GR.GAPI                       : Gamma Ray
~Parameter Information Block
~A  Depth       CCL         TT3         AMP3         GR     
# ...
   167.5000      0.0000    727.0694      8.1845     76.6784
   167.7500      0.0000    727.1382      8.2029     81.2128
   168.0000      0.0000    727.1351      8.3067     87.4300
   168.2500      0.0000    727.1546      8.4127     95.8844
   168.5000      0.0000    727.1208      8.4816    105.5994
   168.7500      0.0000    726.8477      8.5067    114.6425
   169.0000      0.0000    726.3976      8.5024    121.1667
   169.2500      0.0000    726.0562      8.4969    124.0029
   169.5000      0.0000    725.9806      8.4944    122.7485
   169.7500      0.0000    726.0803      8.4836    117.6207
   170.0000      0.0000    726.1730      8.4905    109.4429
   170.2500      0.0000    726.2056      8.5821     99.6814
   170.5000      0.0000    726.3003      8.8050     90.0292
   170.7500      0.0000    726.6700      9.1173     81.7825
   171.0000      0.0000    727.9126      9.4005     75.7759
   171.2500      0.0000    731.0644      9.5723     72.5372
   171.5000      0.0000    735.6027      9.6557     71.8634
   171.7500      0.0000    737.9228      9.7134     72.4478
   172.0000      0.0000    735.4965      9.7620     72.6529
   172.2500      0.0000    730.8828      9.7872     71.7758
   172.5000      0.0000    727.7800      9.7951     70.1745
   172.7500      0.0000    726.7010      9.7996     68.2741
   173.0000      0.0000    726.4429      9.7890     66.0481
   173.2500      0.0000    726.3834      9.7229     63.6002
   173.5000      0.0000    726.5193      9.5556     61.6722
   173.7500      0.0000    726.8278      9.2774     61.1680
   174.0000      0.0000    727.1149      8.9429     62.3775
   174.2500      0.0000    727.1788      8.6420     64.9110
   174.5000      0.0000    727.0038      8.4341     68.2891
   174.7500      0.0000    726.8286      8.3201     72.3304
   175.0000      0.0000    726.8878      8.2699     76.9285
   175.2500      0.0000    727.2117      8.2483     81.6924
   175.5000      0.0000    728.2031      8.2034     85.8085
   175.7500      0.0000    730.9503      8.0834     88.0051
   176.0000      0.0000    735.1576      7.8946     86.8984
   176.2500      0.0000    737.4294      7.6889     82.1586
   176.5000      0.0000    735.1819      7.5146     75.6644
   176.7500      0.0000    730.5979      7.4098     70.9733
   177.0000      0.0000    726.9753      7.3835     70.9410
   177.2500      0.0000    724.1997      7.3914     75.5568
   177.5000      0.0000    719.5165      7.3743     82.1464
   177.7500      0.0000    712.9412      7.2985     87.7292
   178.0000      0.0000    717.4547      7.0774     91.1193
   178.2500      0.0000    758.3851      6.5376     92.9053
   178.5000      0.0000    839.9043      5.7236     93.9736
   178.7500      0.0000    916.4819      5.0472     94.4214
   179.0000      0.0000    936.3709      4.8159     93.7132
   179.2500      0.0000    909.9404      4.9203     91.5886
   179.5000      0.0000    897.6440      5.1010     88.7018
   179.7500     -2.0000    940.8093      5.2055     86.2208
   180.0000      0.0000   1020.0190      5.1954     84.5769
   180.2500      0.0000   1073.2727      5.1367     82.7583
   180.5000      0.0000   1057.2727      5.2528     79.2489
   180.7500      0.0000    980.1399      5.7924     73.7492
   181.0000      0.0000    882.1320      6.6513     67.7009
   181.2500      0.0000    802.5271      7.4000     63.0335
   181.5000      0.0000    756.1367      7.8129     60.6042
   181.7500      0.0000    735.5309      7.9818     59.8573
   182.0000      0.0000    728.5019      8.0166     59.6524
   182.2500      0.0000    727.0382      7.9682     59.2236
   182.5000      0.0000    727.2436      7.8897     58.5838
   182.7500      0.0000    727.5925      7.8269     58.2823
   183.0000      0.0000    727.7245      7.8016     58.7347
   183.2500      0.0000    727.6398      7.8198     59.5300
   183.5000      0.0000    727.3652      7.8857     59.4746
   183.7500      0.0000    727.0609      8.0006     57.6901
   184.0000      0.0000    726.8802      8.1267     54.7771
   184.2500      0.0000    726.7261      8.1725     52.5872
   184.5000      0.0000    726.4850      8.0842     52.5892
   184.7500      0.0000    726.2792      7.9193     54.6312
   185.0000      0.0000    726.4119      7.7679     57.5340
   185.2500      0.0000    727.6183      7.6539     60.5868
   185.5000      0.0000    731.1970      7.5465     63.8718
   185.7500      0.0000    737.5456      7.4316     67.2532
   186.0000      0.0000    745.0377      7.3496     69.9398
   186.2500      0.0000    752.3869      7.3452     71.5411
   186.5000      0.0000    759.7238      7.3971     73.0363
   186.7500      0.0000    765.9075      7.4437     76.0561
   187.0000      0.0000    768.6912      7.4557     81.2214
   187.2500      0.0000    767.1341      7.4484     87.5185
   187.5000      0.0000    762.7880      7.4436     93.2794
   187.7500      0.0000    759.3435      7.4531     97.4650
   188.0000      0.0000    758.6287      7.4977    100.0079
   188.2500      0.0000    758.5998      7.5884    101.2546
   188.5000      0.0000    757.0048      7.6787    101.3523
   188.7500      0.0000    752.0726      7.7030    100.2686
   189.0000      0.0000    743.0574      7.6716     98.2759
   189.2500      0.0000    733.5273      7.6558     96.0561
   189.5000      0.0000    727.7418      7.6832     94.1508
   189.7500      0.0000    725.9470      7.7162     92.5346
   190.0000      0.0000    726.8537      7.7399     90.8005
   190.2500      0.0000    730.3682      7.8072     88.3862
   190.5000      0.0000    735.5134      7.9696     84.6579
   190.7500      0.0000    738.3251      8.1808     79.3987
   191.0000      0.0000    735.9182      8.3295     73.2660
   191.2500      0.0000    730.7398      8.3894     67.3214
   191.5000      0.0000    726.7694      8.4349     62.1877
   191.7500      0.0000    724.9828      8.4719     58.0689
   192.0000      0.0000    724.4035      8.4008     55.2775
   192.2500      0.0000    724.2585      8.1853     54.1157
   192.5000      0.0000    724.3758      7.9176     54.3313
   192.7500      0.0000    724.7554      7.6928     55.1542
   193.0000      0.0000    725.2023      7.5318     55.8511
   193.2500      0.0000    725.4611      7.4436     56.0435
   193.5000      0.0000    725.5290      7.4424     55.5847
   193.7500      0.0000    725.5432      7.4704     54.4752
   194.0000      0.0000    725.5059      7.4276     53.0639
   194.2500      0.0000    725.3516      7.3176     52.0098
   194.5000      0.0000    725.1063      7.2514     51.7404
   194.7500      0.0000    724.8571      7.2739     52.0556
   195.0000      0.0000    724.7133      7.3065     52.4746
   195.2500      0.0000    724.9454      7.3027     52.8508
   195.5000      0.0000    726.3195      7.3295     53.3671
   195.7500      0.0000    729.9008      7.4499     54.0119
   196.0000      0.0000    734.9794      7.6400     54.4611
   196.2500      0.0000    737.7002      7.8430     54.6167
   196.5000      0.0000    735.3699      8.0221     54.9817
   196.7500      0.0000    730.5652      8.1464     56.2879
   197.0000      0.0000    727.1753      8.1777     58.9262
   197.2500      0.0000    725.9719      8.1138     62.9316
   197.5000      0.0000    726.0120      8.0302     68.2129
   197.7500      0.0000    727.2263      8.0185     74.3006
   198.0000      0.0000    730.5349      8.0935     79.8764
   198.2500      0.0000    735.2562      8.2077     83.1267
   198.5000      0.0000    737.3123      8.3302     82.9873
   198.7500      0.0000    733.0270      8.4462     79.8680
   199.0000      0.0000    722.8221      8.5007     75.0084
   199.2500      0.0000    709.0485      8.4290     69.3841
   199.5000      0.0000    694.9606      8.2646     63.3834
   199.7500      0.0000    684.9105      8.1421     57.3156
   200.0000      0.0000    681.4725      8.1387     51.9585
   200.2500      0.0000    684.7194      8.1907     48.3688
   200.5000      0.0000    693.0856      8.2088     46.9421
   200.7500      0.0000    701.8653      8.1826     46.8117
