~Version Information
VERS.                      2.0: CWLS Log ASCII Standard - VERSION 2.0
WRAP.                       NO: One line per depth step
~Well Information Block
STRT.FT               305.0000: 
STOP.FT              1376.5000: 
STEP.FT                 0.1000: 
NULL.                -999.2500: 
COMP.          Pioneer Natural Resources: COMPANY
WELL.               LPGC 32-32: WELL
FLD.           Purgatoire River: FIELD
LOC.           1937' FNL & 1661' FEL: LOCATION
PROV.                 Colorado: PROVINCE
CNTY.               Las Animas: COUNTRY
SRVC.                Patterson: SERVICE COMPANY
DATE.          Mon Jan 30 07:33:36 2006: LOG DATE
UWI.           05 071 08641 00: UNIQUE WELL ID
~Curve Information Block
DEPT.FT            0 000 00 00: Depth
DCAL.in                       : CDL Caliper
RHOB.g/cc                     : CDL Bulk Density
RHOC.g/cc                     : CDL Density Correction
DPOR.pu                       : CDL Density Porosity
GR.GAPI                       : Gamma Ray
NPOR.pu                       : Neutron Porosity
~Parameter Information Block
~A  Depth       DCAL        RHOB        RHOC        DPOR         GR         NPOR    
# ...
   794.6000      7.9789      2.6263      0.0521      1.4384    113.9861     25.0047
   794.7000      7.9789      2.6241      0.0466      1.5678    113.5401     26.3988
   794.8000      7.9856      2.6054      0.0423      2.7006    111.1606     27.5478
   794.9000      7.9856      2.5866     -0.0195      3.8410    107.6753     27.9712
   795.0000      8.0307      2.5907     -0.0033      3.5961    104.1980     27.8225
   795.1000      8.0307      2.6073      0.0473      2.5863    102.4509     27.4703
   795.2000      8.0307      2.6189     -0.0050      1.8857    101.0309     27.0719
   795.3000      8.0070      2.6342      0.0276      0.9573     98.2742     26.5184
   795.4000      8.0070      2.6609      0.0368     -0.6617     96.4251     25.6409
   795.5000      8.0191      2.6881     -0.0002     -2.3108     96.3499     24.6243
   795.6000      8.0191      2.6919      0.0562     -2.5420     96.7621     23.8373
   795.7000      8.0191      2.6546      0.0518     -0.2804     98.9163     23.2929
   795.8000      8.0369      2.5954     -0.0620      3.3099    102.9410     23.1128
   795.9000      8.0369      2.5560     -0.0715      5.6944    105.2435     23.5709
   796.0000      8.0289      2.5550     -0.0835      5.7564    104.3800     24.1380
   796.1000      8.0289      2.5725     -0.0110      4.6953    104.4227     24.2760
   796.2000      8.0289      2.5745      0.0505      4.5775    109.6980     24.2989
   796.3000      8.0245      2.5510      0.0217      5.9980    119.3585     24.4691
   796.4000      8.0245      2.5208      0.0140      7.8320    130.4726     24.7313
   796.5000      8.0082      2.5057     -0.0218      8.7467    142.0686     25.0746
   796.6000      8.0082      2.5134      0.0213      8.2782    152.9396     25.3050
   796.7000      8.0082      2.5326      0.0270      7.1140    159.5654     25.2263
   796.8000      8.0057      2.5490      0.0412      6.1241    157.5028     25.0715
   796.9000      8.0057      2.5637      0.0369      5.2304    147.4197     25.1786
   797.0000      8.0172      2.5825      0.0844      4.0905    135.1579     25.5455
   797.1000      8.0172      2.5924      0.0910      3.4915    125.4296     25.7555
   797.2000      8.0172      2.5823      0.0921      4.1017    124.8465     25.4756
   797.3000      8.0048      2.5684      0.0578      4.9446    135.4733     25.0114
   797.4000      8.0048      2.5653      0.1160      5.1317    144.3503     24.8254
   797.5000      7.9994      2.5681      0.0730      4.9627    142.7537     24.8989
   797.6000      7.9994      2.5704      0.0616      4.8259    137.4269     25.1277
   797.7000      7.9994      2.5654      0.0994      5.1260    133.3257     25.5222
   797.8000      8.0031      2.5565      0.0220      5.6661    133.0500     25.6551
   797.9000      8.0031      2.5567      0.0469      5.6533    138.3844     25.1639
   798.0000      8.0106      2.5668      0.0649      5.0401    143.3976     24.5950
   798.1000      8.0106      2.5850      0.0590      3.9376    143.0568     24.3926
   798.2000      8.0106      2.6100      0.0910      2.4216    143.7220     24.4950
   798.3000      8.0026      2.6288      0.1111      1.2863    152.1748     24.8528
   798.4000      8.0026      2.6283      0.1066      1.3136    161.1585     25.2159
   798.5000      8.0053      2.6173      0.0533      1.9828    160.7374     25.3392
   798.6000      8.0053      2.6096      0.1208      2.4494    156.3034     25.4674
   798.7000      8.0053      2.5970      0.1227      3.2105    160.9571     25.8919
   798.8000      8.0032      2.5691      0.0796      4.9037    170.5369     26.5331
   798.9000      8.0032      2.5435      0.0106      6.4560    169.1093     27.0720
   799.0000      8.0116      2.5402      0.0860      6.6537    158.3311     26.9990
   799.1000      8.0116      2.5524      0.0855      5.9141    151.2048     26.3635
   799.2000      8.0116      2.5741      0.0487      4.6017    153.0421     25.9807
   799.3000      8.0526      2.6007      0.0960      2.9851    158.9176     26.2613
   799.4000      8.0526      2.6150      0.1229      2.1225    162.8330     26.8412
   799.5000      8.0418      2.6145      0.0647      2.1525    167.7414     27.2384
   799.6000      8.0418      2.6179      0.0922      1.9436    175.6606     27.2461
   799.7000      8.0418      2.6332      0.1474      1.0202    179.3819     27.0175
   799.8000      8.0207      2.6412      0.1864      0.5324    175.5148     26.9077
   799.9000      8.0207      2.6219      0.1541      1.7048    169.9353     27.0406
   800.0000      8.0086      2.5851      0.0970      3.9349    167.6596     27.1279
   800.1000      8.0086      2.5629     -0.0086      5.2797    163.8486     26.9545
   800.2000      8.0086      2.5670      0.0878      5.0312    157.3449     26.7354
   800.3000      8.0208      2.5721      0.0323      4.7231    159.2322     26.6454
   800.4000      8.0208      2.5605      0.0390      5.4264    168.7782     26.7468
   800.5000      8.0469      2.5406      0.0111      6.6277    172.4657     27.0356
   800.6000      8.0469      2.5276     -0.0224      7.4210    168.8565     27.3004
   800.7000      8.0469      2.5293     -0.0061      7.3178    165.7206     27.3901
   800.8000      8.0170      2.5473     -0.0376      6.2234    164.9235     27.3507
   800.9000      8.0170      2.5778      0.0448      4.3782    164.4679     27.3920
   801.0000      8.0288      2.6064      0.0771      2.6438    166.6522     27.5302
   801.1000      8.0288      2.6197      0.0879      1.8339    174.5303     27.5688
   801.2000      8.0288      2.6178      0.0726      1.9496    183.7037     27.4378
   801.3000      8.0299      2.6067      0.1124      2.6243    186.4330     27.0598
   801.4000      8.0299      2.5953      0.0545      3.3138    183.9341     26.3770
   801.5000      8.0698      2.5887      0.0954      3.7169    184.2703     25.8514
   801.6000      8.0698      2.5712      0.0693      4.7771    183.3785     25.8499
   801.7000      8.0698      2.5352     -0.0322      6.9579    174.7365     25.9628
   801.8000      8.0353      2.5021      0.0079      8.9623    166.4264     25.8396
   801.9000      8.0353      2.4845     -0.0069     10.0291    163.7064     25.5197
   802.0000      8.0370      2.4735      0.0076     10.6985    165.2493     24.9809
   802.1000      8.0370      2.4575     -0.0070     11.6673    172.3042     24.1505
   802.2000      8.0370      2.4401     -0.0348     12.7228    180.0701     23.1620
   802.3000      8.0480      2.4331     -0.0091     13.1471    181.6163     22.2973
   802.4000      8.0480      2.4305      0.0568     13.3034    179.1582     21.5543
   802.5000      8.0641      2.4200      0.0144     13.9397    178.6551     20.7602
   802.6000      8.0641      2.4110     -0.0168     14.4852    180.1258     20.0701
   802.7000      8.0641      2.4138      0.0584     14.3178    178.2101     19.7645
   802.8000      8.0883      2.4124      0.1353     14.4020    174.1940     19.7864
   802.9000      8.0883      2.4000      0.0921     15.1491    173.4779     20.0013
   803.0000      8.1362      2.4030      0.0358     14.9669    176.3582     20.4415
   803.1000      8.1362      2.4353      0.1675     13.0104    178.3615     21.1271
   803.2000      8.1362      2.4765      0.1453     10.5160    175.2673     21.8004
   803.3000      8.1306      2.5135      0.1789      8.2706    171.6283     22.2881
   803.4000      8.1306      2.5410      0.3030      6.6061    173.1193     22.8209
   803.5000      8.1770      2.5435      0.2931      6.4534    174.3311     23.5072
   803.6000      8.1770      2.5243      0.2241      7.6200    170.3959     24.3111
   803.7000      8.1770      2.5036      0.2052      8.8703    165.3426     25.2422
   803.8000      8.1533      2.4813      0.2178     10.2257    164.4002     26.3845
   803.9000      8.1533      2.4471      0.1917     12.2998    167.7399     27.6632
   804.0000      8.0542      2.4213      0.0962     13.8581    168.0148     28.5032
   804.1000      8.0542      2.4368      0.1154     12.9205    159.2728     28.5672
