~Version Information
 VERS.                                  2.0 : CWLS LAS VERSION
 WRAP.                                   NO : WRAPING MODE
 SWARE .                 MController 2.5.0J : SOFTWARE VERSION
~Well Information
 WELL.                       Montoya 12-44R : WELL
 COMP.                Petrogulf Corporation : COMPANY
 FLD.                      Purgatoire River : FIELD
 LOC.               SE/SE Sec 12 T33S R68W  : LOCATION
 DATE.                             10/01/05 : DATE(S) LOGGED
 SRVC.       BLANCO Geological Services LLC : SERVICE COMPANY
 STAT.                                  CO  : STATE
 CNTY.                           Las Animas : COUNTY
 CTRY.                                  USA : COUNTRY
 API.                       05 071 08538 00 : API NUMBER
 STRT.FT                              22.00 : START DEPTH
 STOP.FT                            2100.00 : STOP DEPTH
 STEP.FT                               1.00 : DEPTH INCREMENT
 NULL.                                -9999 : NULL VALUE
~Curve information
 DEPTH.FT                                   :
 ROP.MIN/FT                                 :
 GAS.UNITS                                  :
~ASCII Log data
# ...
       222.0         0.20         14.5 
       223.0         0.23         14.6 
       224.0         0.23         14.5 
       225.0         0.23         14.4 
       226.0         0.32         14.6 
       227.0         0.27         14.9 
       228.0         0.20         15.0 
       229.0         0.23         15.1 
       230.0         0.27         14.6 
       231.0         0.23         15.4 
       232.0         0.27         15.2 
       233.0         0.23         15.5 
       234.0         0.23         15.8 
       235.0         0.23         15.7 
       236.0         1.55         15.8 
       237.0         0.23         15.0 
       238.0         0.27         15.5 
       239.0         0.23         15.1 
       240.0         0.20         15.4 
       241.0         0.27         15.1 
       242.0         0.20         15.0 
       243.0         0.23         15.2 
       244.0         0.20         14.8 
       245.0         0.23         15.2 
       246.0         0.25         15.3 
       247.0         0.23         15.5 
       248.0         0.27         15.2 
       249.0         0.20         15.0 
       250.0         0.30         15.0 
       251.0         0.20         14.6 
       252.0         0.23         15.1 
       253.0         0.23         14.9 
       254.0         0.23         15.3 
       255.0         0.27         14.5 
       256.0         0.23         14.8 
       257.0         0.23         14.4 
       258.0         0.23         14.5 
       259.0         0.35         15.0 
       260.0         0.30         15.2 
       261.0         0.23         15.3 
       262.0         0.33         15.0 
       263.0         0.30         14.9 
       264.0         0.27         15.2 
       265.0         0.30         15.3 
       266.0         0.97         15.2 
       267.0         0.33         15.0 
       268.0         0.32         15.0 
       269.0         0.23         15.1 
       270.0         0.30         15.2 
       271.0         0.33         15.0 
       272.0         0.23         15.0 
       273.0         0.23         15.0 
       274.0         0.20         15.2 
       275.0         0.23         15.2 
       276.0         0.20         14.8 
       277.0         0.13         14.2 
       278.0         0.30         15.2 
       279.0         0.23         15.2 
       280.0         0.20         14.6 
       281.0         0.28         14.8 
       282.0         0.23         15.1 
       283.0         0.20         15.0 
       284.0         0.23         15.0 
       285.0         0.20         15.0 
       286.0         0.20         15.3 
       287.0         0.27         15.1 
       288.0         0.27         15.1 
       289.0         0.33         15.0 
       290.0         0.27         15.0 
       291.0         0.23         15.0 
       292.0         0.23         15.0 
       293.0         0.23         15.2 
       294.0         0.23         15.1 
       295.0         0.25         15.5 
       296.0         1.37         15.8 
       297.0         0.30         15.4 
       298.0         0.30         15.4 
       299.0         0.27         15.5 
       300.0         0.27         15.6 
       301.0         0.33         15.7 
       302.0         0.35         15.5 
       303.0         0.23         15.6 
       304.0         0.30         14.9 
       305.0         0.23         15.6 
       306.0         0.23         15.4 
       307.0         0.30         15.3 
       308.0         0.27         15.4 
       309.0         0.27         15.4 
       310.0         0.33         15.4 
       311.0         0.47         15.5 
       312.0         0.27         15.3 
       313.0         0.23         15.4 
       314.0         0.25         15.2 
       315.0         0.23         15.6 
       316.0         0.17         15.5 
       317.0         0.17         15.5 
       318.0         0.17         15.3 
       319.0         0.23         15.1 
       320.0         0.23         15.6 
       321.0         0.23         15.4 
       322.0         0.27         15.0 
       323.0         0.23         15.5 
       324.0         0.27         15.2 
       325.0         0.23         15.8 
       326.0         1.18         15.9 
       327.0         0.23         15.8 
       328.0         0.27         15.8 
       329.0         0.17         15.2 
       330.0         0.17         15.9 
       331.0         0.17         15.6 
       332.0         0.20         15.2 
       333.0         0.27         15.8 
       334.0         0.30         15.7 
       335.0         0.23         15.4 
       336.0         0.23         15.9 
       337.0         0.23         15.7 
       338.0         0.23         15.1 
       339.0         0.25         15.8 
       340.0         0.17         15.9 
       341.0         0.23         15.3 
       342.0         0.20         15.9 
       343.0         0.27         15.2 
       344.0         0.23         15.8 
       345.0         0.27         15.8 
       346.0         0.27         15.8 
       347.0         0.27         16.1 
       348.0         0.23         16.1 
       349.0         0.27         16.2 
       350.0         0.23         16.3 
       351.0         0.23         16.3 
       352.0         0.17         16.4 
       353.0         0.15         15.7 
       354.0         0.17         15.3 
       355.0         0.23         16.2 
       356.0         0.70         16.4 
       357.0         0.27         16.4 
       358.0         0.20         16.4 
       359.0         0.30         16.3 
       360.0         0.30         16.2 
       361.0         0.23         16.3 
       362.0         0.23         16.2 
       363.0         0.27         16.3 
       364.0         0.23         16.4 
       365.0         0.25         16.6 
       366.0         0.23         16.2 
       367.0         0.27         15.7 
       368.0         0.17         16.2 
       369.0         0.20         16.3 
       370.0         0.17         16.3 
       371.0         0.23         16.1 
       372.0         0.20         16.4 
       373.0         0.20         16.5 
       374.0         0.17         15.8 
       375.0         0.17         16.4 
       376.0         0.13         16.3 
       377.0         0.13         16.2 
       378.0         0.17         16.2 
       379.0         0.23         16.4 
       380.0         0.23         15.7 
       381.0         0.22         16.3 
       382.0         0.23         16.4 
       383.0         0.47         16.4 
       384.0         0.40         16.4 
       385.0         0.23         16.4 
       386.0         1.88         16.9 
       387.0         0.20         16.7 
       388.0         0.33         16.8 
       389.0         0.23         16.5 
       390.0         0.40         16.5 
       391.0         0.23         16.3 
       392.0         0.23         16.4 
       393.0         0.20         16.0 
       394.0         0.23         16.4 
       395.0         0.23         16.0 
       396.0         0.20         16.3 
       397.0         0.23         16.5 
       398.0         0.30         16.5 
       399.0         0.28         16.2 
       400.0         0.30         16.6 
       401.0         0.20         16.7 
       402.0         0.23         16.6 
       403.0         0.17         16.6 
       404.0         0.13         15.9 
       405.0         0.13         16.2 
       406.0         0.20         16.4 
       407.0         0.23         16.3 
       408.0         0.27         16.4 
       409.0         0.27         16.6 
       410.0         0.27         16.4 
       411.0         0.23         16.4 
       412.0         0.20         15.6 
       413.0         0.25         16.4 
       414.0         0.23         16.6 
       415.0         0.23         16.7 
       416.0         1.37         17.6 
       417.0         0.23         17.8 
       418.0         0.23         17.4 
       419.0         0.23         17.5 
       420.0         0.20         17.2 
       421.0         0.23         17.4 
