~Version Information
VERS.                      2.0: CWLS Log ASCII Standard - VERSION 2.0
WRAP.                       NO: One line per depth step
~Well Information Block
STRT.FT               -10.0000: 
STOP.FT              1935.0000: 
STEP.FT                 0.2500: 
NULL.                -999.2500: 
COMP.          Pioneer Natural Resources: COMPANY
WELL.           Willys 32-8 Tr: WELL
FLD.           Purgatorie River: FIELD
LOC.           1843' FNL & 2355' FEL--: LOCATION
CNTY.               Las Animas: COUNTY
SRVC.          Patterson Wireline: SERVICE COMPANY
DATE.          Wed Feb 15 13:29:41 2006: LOG DATE
UWI.           05 071 08688 00: UNIQUE WELL ID
STAT.                       CO: STATE
~Curve Information Block
DEPT.FT            0 000 00 00: Depth
CCL.                          : Casing Collar Locator
TT3.usec                      : CBL 3' Travel Time
AMP3.mV                       : CBL 3' Amplitude
GR.GAPI                       : Gamma Ray
~Parameter Information Block
~A  Depth       CCL         TT3         AMP3         GR     
# ...
   124.0000      0.0000    779.2585     11.4112     46.2316
   124.2500      0.0000    756.1928     11.6296     47.7481
   124.5000      0.0000    758.7909     11.8073     49.6580
   124.7500      0.0000    778.1464     11.9239     51.3663
   125.0000      0.0000    800.1619     11.9842     52.7035
   125.2500      0.0000    815.7021     12.0160     53.7274
   125.5000      0.0000    823.4661     12.0436     54.5307
   125.7500      0.0000    826.1865     12.0737     55.4941
   126.0000      0.0000    826.6049     12.0981     57.5325
   126.2500      0.0000    826.3254     12.1006     61.5599
   126.5000      0.0000    826.5193     12.0637     67.4205
   126.7500      0.0000    828.4218     11.9772     73.4444
   127.0000      0.0000    832.6364     11.8470     77.3399
   127.2500      0.0000    838.1043     11.6926     77.7757
   127.5000      0.0000    842.6882     11.5351     75.2720
   127.7500      0.0000    844.9033     11.3917     71.6808
   128.0000      0.0000    844.3177     11.2772     68.7732
   128.2500      0.0000    840.2357     11.2030     67.1929
   128.5000      0.0000    831.1003     11.1715     66.6360
   128.7500      0.0000    815.2568     11.1716     66.9152
   129.0000      0.0000    792.0163     11.1809     68.5200
   129.2500      0.0000    763.5479     11.1738     71.8427
   129.5000      0.0000    737.1068     11.1345     76.0780
   129.7500      0.0000    722.9487     11.0697     79.4177
   130.0000      0.0000    726.5117     11.0108     80.5444
   130.2500      0.0000    743.0930     10.9942     79.8569
   130.5000      0.0000    762.1755     11.0307     79.2080
   130.7500      0.0000    776.0537     11.0944     80.2121
   131.0000      0.0000    783.2404     11.1415     82.5296
   131.2500      0.0000    785.7795     11.1412     84.0233
   131.5000      0.0000    785.7786     11.0884     82.9064
   131.7500      0.0000    784.2462     10.9921     79.4176
   132.0000      0.0000    781.7296     10.8592     75.2068
   132.2500      0.0000    779.1727     10.6934     71.7445
   132.5000      0.0000    777.8860     10.5059     69.6435
   132.7500      0.0000    778.5481     10.3201     68.7609
   133.0000      0.0000    780.5862     10.1638     68.2443
   133.2500      0.0000    782.7828     10.0595     66.8295
   133.5000      0.0000    784.3070     10.0178     63.7813
   133.7500      0.0000    784.9992     10.0339     59.6789
   134.0000      0.0000    784.9282     10.0881     56.0068
   134.2500      0.0000    783.9211     10.1560     53.9327
   134.5000      0.0000    781.5187     10.2214     53.6156
   134.7500      0.0000    777.5079     10.2792     54.4135
   135.0000      0.0000    772.7490     10.3268     55.3754
   135.2500      0.0000    769.2628     10.3613     55.6108
   135.5000      0.0000    768.8166     10.3840     54.6634
   135.7500      0.0000    771.1620     10.4021     52.8052
   136.0000      0.0000    774.0743     10.4204     50.9699
   136.2500      0.0000    775.3640     10.4372     50.2524
   136.5000      0.0000    774.5659     10.4525     51.3030
   136.7500      0.0000    772.5726     10.4761     54.1327
   137.0000      0.0000    770.2451     10.5215     58.4429
   137.2500      0.0000    768.0835     10.5947     63.8528
   137.5000      0.0000    766.8806     10.6886     69.5096
   137.7500      0.0000    767.4031     10.7873     73.8450
   138.0000      0.0000    769.0825     10.8724     75.4714
   138.2500      0.0000    770.1231     10.9307     74.3241
   138.5000      0.0000    769.6166     10.9563     71.4067
   138.7500      0.0000    768.8924     10.9481     67.6335
   139.0000      0.0000    770.0722     10.9078     63.5367
   139.2500      0.0000    773.6404     10.8402     59.8226
   139.5000      0.0000    778.0564     10.7534     57.4185
   139.7500      0.0000    781.4948     10.6532     56.8453
   140.0000      0.0000    783.3224     10.5400     57.8450
   140.2500      0.0000    783.9839     10.4110     59.4882
   140.5000      0.0000    784.1416     10.2657     60.5697
   140.7500      0.0000    784.1830     10.1099     60.2812
   141.0000      0.0000    784.2362      9.9549     58.7873
   141.2500      0.0000    784.3174      9.8142     56.9869
   141.5000      0.0000    784.4132      9.6983     55.5936
   141.7500      0.0000    784.5058      9.6118     54.5615
   142.0000      0.0000    784.5920      9.5538     53.3800
   142.2500      0.0000    784.6952      9.5214     51.6873
   142.5000      0.0000    784.8381      9.5134     49.5605
   142.7500      0.0000    784.9994      9.5288     47.4046
   143.0000      0.0000    785.1074      9.5585     45.6598
   143.2500      0.0000    785.0865      9.5843     44.5238
   143.5000      0.0000    784.9224      9.5932     43.8286
   143.7500      0.0000    784.7013      9.5913     43.1893
   144.0000      0.0000    784.6417      9.5957     42.3569
   144.2500      0.0000    785.1731      9.6155     41.4506
   144.5000      0.0000    787.1215      9.6507     40.8694
   144.7500      0.0000    791.7542      9.7060     40.9875
   145.0000      0.0000    800.2021      9.7943     41.9512
   145.2500      0.0000    812.3568      9.9236     43.7379
   145.5000      0.0000    826.3518     10.0849     46.1832
   145.7500      0.0000    839.4525     10.2533     48.7060
   146.0000      0.0000    849.4745     10.3988     50.1571
   146.2500      0.0000    855.4789     10.5000     49.3834
   146.5000      0.0000    857.7933     10.5537     46.1844
   146.7500      0.0000    857.8063     10.5719     41.7334
   147.0000      0.0000    857.1990     10.5719     38.0556
   147.2500      0.0000    856.6948     10.5684     36.9709
   147.5000      0.0000    855.5323     10.5745     39.1843
   147.7500      0.0000    852.2517     10.6024     44.0143
   148.0000      0.0000    845.7643     10.6609     49.8387
   148.2500      0.0000    835.8444     10.7444     54.8845
   148.5000      0.0000    823.4369     10.8229     57.9968
   148.7500      0.0000    810.7273     10.8450     59.1245
   149.0000      0.0000    800.2166     10.7639     59.0879
   149.2500      0.0000    793.2455     10.5716     58.6603
   149.5000      0.0000    789.4938     10.3073     57.8833
   149.7500      0.0000    787.7770     10.0308     56.2693
   150.0000      0.0000    787.0292      9.7859     53.5560
   150.2500      0.0000    786.6658      9.5886     50.3315
   150.5000      0.0000    786.4549      9.4396     47.9382
   150.7500      0.0000    786.3062      9.3368     47.5840
   151.0000      0.0000    786.1553      9.2764     49.5099
   151.2500      0.0000    785.9592      9.2483     52.9407
   151.5000      0.0000    785.7213      9.2361     56.3678
   151.7500      0.0000    785.4825      9.2200     57.9060
   152.0000      0.0000    785.2851      9.1867     56.2763
   152.2500      0.0000    785.1448      9.1417     51.9403
   152.5000      0.0000    785.0593      9.1085     46.8900
   152.7500      0.0000    785.0370      9.1112     43.0774
   153.0000      0.0000    785.1016      9.1600     41.1673
   153.2500      0.0000    785.2531      9.2526     40.6813
   153.5000      0.0000    785.4365      9.3820     40.9686
   153.7500      0.0000    785.5760      9.5369     41.8148
   154.0000      0.0000    785.6429      9.7002     43.1563
   154.2500      0.0000    785.6680      9.8569     44.5131
   154.5000      0.0000    785.6866     10.0030     45.1250
   154.7500      0.0000    785.6954     10.1460     44.6385
   155.0000      0.0000    785.6737     10.2946     43.2876
   155.2500      0.0000    785.6270     10.4498     41.4915
   155.5000      0.0000    785.5869     10.6026     39.7111
   155.7500      0.0000    785.5729     10.7378     38.6464
   156.0000      0.0000    785.5727     10.8415     39.1802
   156.2500      0.0000    785.5624     10.9067     41.9549
   156.5000      0.0000    785.5291     10.9337     46.8785
   156.7500      0.0000    785.4692     10.9267     52.8555
   157.0000      0.0000    785.3788     10.8929     58.0415
   157.2500      0.0000    785.2647     10.8429     60.6625
