~Version Information
VERS.                      2.0: CWLS Log ASCII Standard - VERSION 2.0
WRAP.                       NO: One line per depth step
~Well Information Block
STRT.FT                -7.2500: 
STOP.FT              1221.7500: 
STEP.FT                 0.2500: 
NULL.                -999.2500: 
COMP.          Pioneer Natural Resources: COMPANY
WELL.           Tennis 7-12 Tr: WELL
FLD.           Purgatorie River: FIELD
LOC.           1794' FNL & 1563' FEL--: LOCATION
PROV.                       CO: PROVINCE
CNTY.               Las Animas: COUNTRY
SRVC.          Patterson Wireline: SERVICE COMPANY
DATE.          Tue Dec 27 14:16:59 2005: LOG DATE
UWI.           05 071 008635 00: UNIQUE WELL ID
~Curve Information Block
DEPT.FT            0 000 00 00: Depth
CCL.                          : Casing Collar Locator
TT3.usec                      : CBL 3' Travel Time
AMP3.mV                       : CBL 3' Amplitude
GR.GAPI                       : Gamma Ray
~Parameter Information Block
~A  Depth       CCL         TT3         AMP3         GR     
# ...
   729.7500      0.0000    683.7689      5.6773     57.1682
   730.0000      0.0000    684.0237      5.6294     59.2522
   730.2500      0.0000    684.9777      5.5966     62.4077
   730.5000      0.0000    686.9929      5.5919     64.8628
   730.7500      0.0000    690.6078      5.6242     66.0283
   731.0000      0.0000    696.1416      5.6948     66.5068
   731.2500      0.0000    703.3610      5.7992     67.3614
   731.5000      0.0000    711.9896      5.9249     69.3558
   731.7500      0.0000    722.2656      6.0468     72.5433
   732.0000      0.0000    733.5867      6.1276     76.5197
   732.2500      0.0000    742.3939      6.1330     81.2248
   732.5000      0.0000    743.5309      6.0545     87.1892
   732.7500      0.0000    735.2656      5.9221     94.6084
   733.0000      0.0000    722.0236      5.7902    102.4674
   733.2500      0.0000    711.0716      5.7054    109.0711
   733.5000      0.0000    706.7271      5.6833    113.2859
   733.7500      0.0000    707.7626      5.7098    115.0192
   734.0000      0.0000    709.4631      5.7623    114.9655
   734.2500      0.0000    707.7633      5.8274    114.4654
   734.5000      0.0000    702.1014      5.9031    115.2935
   734.7500      0.0000    695.1335      5.9885    118.7572
   735.0000      0.0000    690.2028      6.0767    124.6499
   735.2500      0.0000    689.3258      6.1555    131.3479
   735.5000      0.0000    692.8745      6.2159    137.0598
   735.7500      0.0000    699.6436      6.2562    140.7251
   736.0000      0.0000    706.6024      6.2766    141.9736
   736.2500      0.0000    709.9720      6.2727    141.1656
   736.5000      0.0000    708.2188      6.2371    139.7462
   736.7500      0.0000    703.9789      6.1740    139.7152
   737.0000      0.0000    702.2318      6.1101    141.9873
   737.2500      0.0000    706.2470      6.0852    145.3617
   737.5000      0.0000    714.7238      6.1269    147.4544
   737.7500      0.0000    722.3240      6.2303    146.6454
   738.0000      0.0000    723.8038      6.3634    143.0723
   738.2500      0.0000    718.8301      6.4892    138.1223
   738.5000      0.0000    712.6062      6.5828    133.4244
   738.7500      0.0000    711.2005      6.6321    129.9971
   739.0000      0.0000    716.0992      6.6291    127.6611
   739.2500      0.0000    722.8994      6.5676    125.4178
   739.5000      0.0000    724.7406      6.4514    122.9212
   739.7500      0.0000    717.3721      6.3083    121.2892
   740.0000      0.0000    702.0977      6.1941    121.7848
   740.2500      0.0000    685.1159      6.1628    123.7565
   740.5000      0.0000    674.2961      6.2177    124.7026
   740.7500      0.0000    674.8430      6.3049    122.6381
   741.0000      0.0000    685.5688      6.3749    117.9241
   741.2500      0.0000    698.4276      6.4319    112.7173
   741.5000      0.0000    702.5445      6.5048    109.0643
   741.7500      0.0000    690.2573      6.5954    107.7143
   742.0000      2.0000    661.5318      6.6756    108.4305
   742.2500     -2.0000    624.7104      6.7182    110.9536
   742.5000      0.0000    592.8244      6.7225    115.2925
   742.7500      0.0000    577.0388      6.7280    120.9703
   743.0000      0.0000    581.3908      6.7977    126.3921
   743.2500      0.0000    601.7985      6.9568    129.6430
   743.5000      0.0000    628.8560      7.1524    130.1994
   743.7500      0.0000    652.5414      7.3051    129.5212
   744.0000      0.0000    666.7500      7.3865    129.6078
   744.2500      0.0000    671.1585      7.4161    131.1958
   744.5000      0.0000    669.4240      7.4089    133.6539
   744.7500      0.0000    665.6441      7.3600    136.3035
   745.0000      0.0000    662.1261      7.2636    139.1599
   745.2500      0.0000    659.7173      7.1246    142.1994
   745.5000      0.0000    659.2257      6.9643    144.4402
   745.7500      0.0000    661.5209      6.8193    144.3871
   746.0000      0.0000    666.3067      6.7245    141.4980
   746.2500      0.0000    671.8345      6.6861    137.0616
   746.5000      0.0000    676.2553      6.6774    133.3865
   746.7500      0.0000    678.8300      6.6655    132.0513
   747.0000      0.0000    679.7303      6.6372    132.9380
   747.2500      0.0000    679.1044      6.5999    134.6899
   747.5000      0.0000    676.5542      6.5628    135.8365
   747.7500      0.0000    671.5081      6.5260    135.6749
   748.0000      0.0000    664.2342      6.4830    134.5456
   748.2500      0.0000    656.6223      6.4304    133.3562
   748.5000      0.0000    651.7723      6.3716    132.6227
   748.7500      0.0000    652.4615      6.3121    131.9348
   749.0000      0.0000    659.4691      6.2559    130.3989
   749.2500      0.0000    670.6626      6.2047    127.5438
   749.5000      0.0000    681.5004      6.1616    123.7743
   749.7500      0.0000    687.1958      6.1337    120.1628
   750.0000      0.0000    685.4541      6.1304    117.9494
   750.2500      0.0000    677.6484      6.1569    117.8934
   750.5000      0.0000    667.7858      6.2075    119.5512
   750.7500      0.0000    660.7353      6.2665    121.3948
   751.0000      0.0000    660.8906      6.3154    122.2356
   751.2500      0.0000    670.9658      6.3425    122.3912
   751.5000      0.0000    690.6155      6.3462    122.8713
   751.7500      0.0000    715.6506      6.3320    123.6462
   752.0000      0.0000    739.0612      6.3095    123.4724
   752.2500      0.0000    754.2262      6.2913    121.6327
   752.5000      0.0000    757.9779      6.2918    119.3351
   752.7500      0.0000    751.1014      6.3210    118.7492
   753.0000      0.0000    737.3825      6.3789    120.5845
   753.2500      0.0000    723.1775      6.4523    123.2115
   753.5000      0.0000    715.3359      6.5165    124.4751
   753.7500      0.0000    716.2859      6.5463    123.8306
   754.0000      0.0000    722.0379      6.5351    122.3753
   754.2500      0.0000    726.8905      6.5036    121.3617
   754.5000      0.0000    728.5207      6.4827    121.1115
   754.7500      0.0000    727.5874      6.4865    121.0231
   755.0000      0.0000    725.2643      6.5060    120.2666
   755.2500      0.0000    722.7121      6.5247    118.6743
   755.5000      0.0000    720.9403      6.5330    117.2147
   755.7500      0.0000    720.1260      6.5307    117.5403
   756.0000      0.0000    719.8800      6.5214    120.6314
   756.2500      0.0000    719.6877      6.5025    125.3492
   756.5000      0.0000    718.1560      6.4612    128.3831
   756.7500      0.0000    713.3368      6.3908    126.3806
   757.0000      0.0000    705.0424      6.3115    118.8409
   757.2500      0.0000    695.7777      6.2602    108.9929
   757.5000      0.0000    688.5184      6.2604    101.5138
   757.7500      0.0000    684.3310      6.3091     99.0873
   758.0000      0.0000    682.3984      6.3869    100.8470
   758.2500      0.0000    681.4782      6.4687    103.5920
   758.5000      0.0000    680.7208      6.5297    104.1672
   758.7500      0.0000    679.4221      6.5566    101.2008
   759.0000      0.0000    676.2068      6.5498     95.5011
   759.2500      0.0000    668.9021      6.5150     89.0427
   759.5000      0.0000    656.3235      6.4619     83.2621
   759.7500      0.0000    640.9576      6.4125     78.4550
   760.0000      0.0000    628.3789      6.3971     75.0221
   760.2500      0.0000    622.4147      6.4326     74.5930
   760.5000      0.0000    622.3798      6.5063     79.0141
   760.7500      0.0000    626.6309      6.5832     88.2348
   761.0000      0.0000    636.0617      6.6270     99.7636
   761.2500      0.0000    651.2058      6.6208    110.3051
   761.5000      0.0000    668.2557      6.5759    117.6255
   761.7500      0.0000    681.3975      6.5191    121.0566
   762.0000      0.0000    688.2815      6.4686    121.2004
   762.2500      0.0000    691.0375      6.4227    119.6564
   762.5000      0.0000    692.5108      6.3704    118.3611
   762.7500      0.0000    693.2803      6.3085    118.4847
   763.0000      0.0000    692.3199      6.2437    119.9739
