~Version Information
VERS.                      2.0: CWLS Log ASCII Standard - VERSION 2.0
WRAP.                       NO: One line per depth step
~Well Information Block
STRT.FT               360.0000: 
STOP.FT              1349.5000: 
STEP.FT                 0.1000: 
NULL.                -999.2500: 
COMP.          Pioneer Natural Resources: COMPANY
WELL.          Challenger 31-29: WELL
FLD.           Purgatoire River: FIELD
LOC.           51' FNL & 1923' FEL: LOCATION
STAT.                 Colorado: State
CNTY.               Las Animas: COUNTY
CTRY. USA : Country
SECT. 29 : Section
TOWN. 33S : Township
RANG. 65W : Range
SRVC.                Patterson: SERVICE COMPANY
DATE.          Thu Sep 15 13:35:50 2005: LOG DATE
API.           05 071 08514 00: UNIQUE WELL ID
~Curve Information Block
DEPT.FT            0 000 00 00: Depth
DCAL.in                       : CDL Caliper
RHOB.g/cc                     : CDL Bulk Density
RHOC.g/cc                     : CDL Density Correction
DPOR.pu                       : CDL Density Porosity
GR.GAPI                       : Gamma Ray
NPOR.pu                       : Neutron Porosity
~Parameter Information Block
~A  Depth       DCAL        RHOB        RHOC        DPOR         GR         NPOR    
# ...
   427.2000      8.1800      2.4855      0.0973      9.9712     62.0986     17.2466
   427.3000      8.1909      2.4971      0.1221      9.2674     63.2148     17.0451
   427.4000      8.1909      2.5066      0.0731      8.6907     63.2962     16.4343
   427.5000      8.2057      2.5200      0.1021      7.8794     62.1545     16.2620
   427.6000      8.2057      2.5399      0.1477      6.6702     59.6206     16.4021
   427.7000      8.2057      2.5586      0.1256      5.5416     55.3494     16.4001
   427.8000      8.1774      2.5667      0.1352      5.0514     53.7519     16.2055
   427.9000      8.1774      2.5562      0.1219      5.6859     57.5931     16.0628
   428.0000      8.1637      2.5240      0.0653      7.6365     60.3742     16.0695
   428.1000      8.1637      2.4819      0.0196     10.1851     57.2512     16.0108
   428.2000      8.1637      2.4432     -0.0220     12.5363     54.1289     15.8583
   428.3000      8.1577      2.4067      0.0250     14.7482     55.0685     15.7472
   428.4000      8.1577      2.3788     -0.0765     16.4378     57.2226     15.5687
   428.5000      8.1918      2.3779     -0.0288     16.4908     58.5353     15.2198
   428.6000      8.1918      2.3935      0.0449     15.5464     56.6267     14.8792
   428.7000      8.1918      2.3999      0.0163     15.1546     51.2364     14.6858
   428.8000      8.2403      2.4044     -0.0475     14.8865     48.8356     14.7055
   428.9000      8.2403      2.4251      0.0210     13.6288     51.2623     15.0072
   429.0000      8.2536      2.4651      0.0555     11.2043     53.1793     15.4865
   429.1000      8.2536      2.5170      0.1445      8.0622     54.1387     15.8014
   429.2000      8.2536      2.5553      0.2053      5.7393     57.1200     15.7092
   429.3000      8.1971      2.5574      0.1878      5.6117     61.8395     15.3178
   429.4000      8.1971      2.5375      0.1658      6.8209     66.8992     14.8247
   429.5000      8.0927      2.5218      0.1697      7.7703     70.3878     14.4711
   429.6000      8.0927      2.5101      0.1666      8.4783     70.7683     14.5980
   429.7000      8.0927      2.4929      0.1300      9.5239     69.4904     15.1203
   429.8000      8.0856      2.4693      0.1351     10.9523     68.7799     15.5372
   429.9000      8.0856      2.4431      0.0427     12.5388     68.1725     15.6685
   430.0000      8.1238      2.4284      0.0277     13.4326     67.1075     15.5007
   430.1000      8.1238      2.4354      0.0360     13.0059     65.7811     14.9258
   430.2000      8.1238      2.4525      0.0901     11.9706     62.8826     14.3669
   430.3000      8.1508      2.4641      0.1099     11.2656     59.9963     14.4455
   430.4000      8.1508      2.4737      0.0690     10.6857     58.6746     15.1438
   430.5000      8.1821      2.4891      0.1014      9.7489     57.3590     15.9226
   430.6000      8.1821      2.5027      0.0960      8.9290     57.6569     16.3469
   430.7000      8.1821      2.5025      0.1229      8.9400     63.0736     16.5007
   430.8000      8.1622      2.4891      0.1214      9.7491     69.9364     16.8301
   430.9000      8.1622      2.4798      0.0683     10.3132     68.9786     17.3326
   431.0000      8.1717      2.4931      0.0660      9.5068     60.1828     17.6846
   431.1000      8.1717      2.5191      0.0860      7.9352     52.5988     17.7423
   431.2000      8.1717      2.5291      0.1059      7.3271     50.0579     17.5041
   431.3000      8.1848      2.5192      0.0576      7.9244     51.1198     17.4160
   431.4000      8.1848      2.5125      0.0638      8.3321     53.6808     17.9339
   431.5000      8.1771      2.5187      0.0869      7.9567     55.5469     18.7156
   431.6000      8.1771      2.5284      0.0996      7.3714     55.7662     19.2696
   431.7000      8.1771      2.5389      0.0779      6.7317     54.8160     19.5235
   431.8000      8.1680      2.5545      0.0882      5.7878     54.6169     19.7808
   431.9000      8.1680      2.5690      0.0680      4.9103     55.1028     19.9748
   432.0000      8.1614      2.5720      0.0741      4.7245     53.7254     19.6164
   432.1000      8.1614      2.5638      0.0703      5.2223     51.6043     18.8561
   432.2000      8.1614      2.5518      0.0899      5.9526     52.1258     18.5261
   432.3000      8.1708      2.5314      0.0733      7.1894     54.4260     18.7807
   432.4000      8.1708      2.4922      0.0759      9.5660     55.9398     18.7028
   432.5000      8.1708      2.4407     -0.0242     12.6877     56.2360     18.0834
   432.6000      8.1708      2.3961     -0.0713     15.3904     56.6086     18.0116
   432.7000      8.1708      2.3702     -0.0461     16.9581     57.3055     18.7894
   432.8000      8.1859      2.3604      0.0158     17.5519     56.7900     19.1462
   432.9000      8.1859      2.3593      0.0554     17.6190     56.6779     18.4040
   433.0000      8.1986      2.3642      0.0840     17.3209     60.6587     17.4431
   433.1000      8.1986      2.3797      0.1181     16.3809     68.0209     16.9402
   433.2000      8.1986      2.4032      0.1939     14.9578     73.8121     16.6777
   433.3000      8.1708      2.4175      0.2292     14.0913     74.1017     16.1335
   433.4000      8.1708      2.4183      0.1490     14.0441     70.0265     15.2296
   433.5000      8.1223      2.4152      0.1418     14.2332     65.8099     14.5141
   433.6000      8.1223      2.4087      0.1381     14.6213     62.0113     14.3916
   433.7000      8.1223      2.4044      0.1032     14.8854     58.5807     14.6696
   433.8000      8.1022      2.4151      0.1023     14.2345     57.9305     15.2285
   433.9000      8.1022      2.4349      0.1130     13.0346     60.8016     15.9895
   434.0000      8.1627      2.4449      0.1261     12.4326     63.7082     16.2568
   434.1000      8.1627      2.4432      0.0903     12.5308     62.3990     15.7889
   434.2000      8.1627      2.4375      0.0804     12.8782     57.2156     15.2023
   434.3000      8.1982      2.4251      0.1148     13.6324     52.8071     14.7268
   434.4000      8.1982      2.4037      0.0619     14.9283     50.7067     14.3588
   434.5000      8.1871      2.3796      0.0280     16.3904     49.9158     14.3235
   434.6000      8.1871      2.3639     -0.0050     17.3367     52.8925     14.4650
   434.7000      8.1871      2.3660      0.0190     17.2117     58.5925     14.4025
   434.8000      8.1885      2.3793      0.0106     16.4074     59.7801     14.2209
   434.9000      8.1885      2.3878      0.0061     15.8938     54.8056     14.2516
   435.0000      8.1985      2.3872      0.0439     15.9272     52.1015     14.6106
   435.1000      8.1985      2.3893      0.0101     15.7980     55.4599     14.9654
   435.2000      8.1985      2.3987      0.0612     15.2290     58.1868     14.7661
   435.3000      8.2061      2.4016      0.0538     15.0555     55.4163     14.0805
   435.4000      8.2061      2.3911      0.0589     15.6904     50.0121     13.3620
   435.5000      8.2124      2.3763      0.0122     16.5890     47.5853     12.8845
   435.6000      8.2124      2.3769      0.0176     16.5527     49.3711     12.7518
   435.7000      8.2124      2.4012      0.1054     15.0791     52.6670     12.8411
   435.8000      8.2132      2.4319      0.1189     13.2201     54.9418     13.0190
   435.9000      8.2132      2.4469      0.1250     12.3088     54.9152     13.2345
   436.0000      8.1910      2.4335      0.1382     13.1215     54.5844     13.5629
   436.1000      8.1910      2.3998      0.0799     15.1627     54.7127     14.0092
   436.2000      8.1910      2.3715      0.0966     16.8758     54.0068     14.2519
   436.3000      8.1672      2.3638      0.0967     17.3425     53.1849     14.3194
   436.4000      8.1672      2.3742      0.0663     16.7179     54.1926     14.6352
   436.5000      8.1634      2.3931      0.1056     15.5707     56.2132     14.9877
   436.6000      8.1634      2.4081      0.0876     14.6620     55.7299     14.8514
   436.7000      8.1634      2.4088      0.1045     14.6174     53.1262     14.3831
