~Version Information
VERS.                      2.0: CWLS Log ASCII Standard - VERSION 2.0
WRAP.                       NO: One line per depth step
~Well Information Block
STRT.FT                -7.7500: 
STOP.FT              1485.2500: 
STEP.FT                 0.2500: 
NULL.                -999.2500: 
COMP.          Pioneer Natural Resources: COMPANY
WELL.          Hammerhead 24-24 Tr: WELL
FLD.           Purgatorie River: FIELD
LOC.           953' FSL & 1922' FWL--: LOCATION
CNTY.               Las Animas: COUNTY
SRVC.          Patterson Wireline: SERVICE COMPANY
DATE.          Thu Feb 02 15:03:23 2006: LOG DATE
UWI.           05 071 08669 00: UNIQUE WELL ID
STAT.                       CO: STATE
~Curve Information Block
DEPT.FT            0 000 00 00: Depth
CCL.                          : Casing Collar Locator
TT3.usec                      : CBL 3' Travel Time
AMP3.mV                       : CBL 3' Amplitude
GR.GAPI                       : Gamma Ray
~Parameter Information Block
~A  Depth       CCL         TT3         AMP3         GR     
# ...
  1164.7500      0.0000    384.2013      7.5592    117.5605
  1165.0000      0.0000    384.3737      7.5541    117.6067
  1165.2500      0.0000    385.8916      7.5419    120.1591
  1165.5000      0.0000    391.3909      7.4994    124.7963
  1165.7500      0.0000    405.2552      7.3972    129.6108
  1166.0000      0.0000    431.9912      7.2081    132.4901
  1166.2500      0.0000    472.3783      6.9175    132.8624
  1166.5000      0.0000    520.4835      6.5443    131.8215
  1166.7500      0.0000    565.8810      6.1653    130.5297
  1167.0000      0.0000    600.9056      5.9033    128.9225
  1167.2500      0.0000    626.5964      5.8530    126.2153
  1167.5000      0.0000    650.8162      6.0086    122.1747
  1167.7500      0.0000    679.9490      6.2855    117.4805
  1168.0000      0.0000    712.8275      6.6085    113.1268
  1168.2500      0.0000    741.8844      6.9586    109.8741
  1168.5000      0.0000    757.7125      7.3479    108.1597
  1168.7500      2.0000    753.3096      7.7797    108.3063
  1169.0000      0.0000    727.9511      8.2358    110.5971
  1169.2500      0.0000    687.4537      8.7084    114.9078
  1169.5000      0.0000    638.4981      9.2457    120.3189
  1169.7500      0.0000    585.2023      9.9242    125.3949
  1170.0000      0.0000    533.4854     10.7280    128.9553
  1170.2500      0.0000    492.4208     11.5029    130.6175
  1170.5000      0.0000    465.3763     12.1100    130.7442
  1170.7500      0.0000    444.6314     12.5703    129.9130
  1171.0000      0.0000    420.6305     12.9740    128.2907
  1171.2500      0.0000    393.1645     13.3147    125.4038
  1171.5000      0.0000    369.4301     13.5050    120.7074
  1171.7500      0.0000    354.7441     13.4972    114.7108
  1172.0000      0.0000    348.9049     13.3172    109.3526
  1172.2500      0.0000    349.4561     13.0201    106.9164
  1172.5000      0.0000    355.3600     12.6596    108.5081
  1172.7500      0.0000    368.0754     12.2849    113.4422
  1173.0000      0.0000    389.9757     11.9338    119.6939
  1173.2500      0.0000    420.3572     11.6277    125.0646
  1173.5000      0.0000    452.0065     11.3760    128.4954
  1173.7500      0.0000    475.2187     11.1815    130.4831
  1174.0000      0.0000    488.1679     11.0395    132.1571
  1174.2500      0.0000    499.5580     10.9333    134.1266
  1174.5000      0.0000    516.6951     10.8395    136.3518
  1174.7500      0.0000    534.7777     10.7414    138.5257
  1175.0000      0.0000    542.7836     10.6359    139.8489
  1175.2500      0.0000    536.5406     10.5271    138.7813
  1175.5000      0.0000    521.5787     10.4178    134.0185
  1175.7500      0.0000    505.9120     10.3066    126.0622
  1176.0000      0.0000    494.0328     10.1895    117.4335
  1176.2500      0.0000    486.5393     10.0626    111.0066
  1176.5000      0.0000    482.2131      9.9262    107.9634
  1176.7500      0.0000    479.7187      9.7855    107.2782
  1177.0000      0.0000    478.2162      9.6467    107.2083
  1177.2500      0.0000    477.3199      9.5128    107.1455
  1177.5000      0.0000    476.8228      9.3856    107.8447
  1177.7500      0.0000    476.5789      9.2704    110.1354
  1178.0000      0.0000    476.4709      9.1745    113.8338
  1178.2500      0.0000    476.4202      9.1001    117.8072
  1178.5000      0.0000    476.3902      9.0410    120.8587
  1178.7500      0.0000    476.3031      8.9873    122.5573
  1179.0000      0.0000    475.8025      8.9325    123.3165
  1179.2500      0.0000    473.9657      8.8749    123.7991
  1179.5000      0.0000    469.5980      8.8143    124.2233
  1179.7500      0.0000    462.9188      8.7495    123.9911
  1180.0000      0.0000    458.1432      8.6825    122.1068
  1180.2500      0.0000    463.8267      8.6236    118.3847
  1180.5000      0.0000    487.8055      8.5860    114.1436
  1180.7500      0.0000    529.2680      8.5699    111.3410
  1181.0000      0.0000    576.0731      8.5496    111.1667
  1181.2500      0.0000    611.8651      8.4843    113.4468
  1181.5000      0.0000    627.6811      8.3448    116.8076
  1181.7500      0.0000    628.4872      8.1352    119.2531
  1182.0000      0.0000    629.5522      7.8929    119.4996
  1182.2500      0.0000    644.8580      7.6713    118.3904
  1182.5000      0.0000    676.2936      7.5155    118.5049
  1182.7500      0.0000    713.1981      7.4451    121.8270
  1183.0000      0.0000    742.4141      7.4532    128.0909
  1183.2500      0.0000    758.0764      7.5191    135.4563
  1183.5000      0.0000    762.5079      7.6186    141.9324
  1183.7500      0.0000    760.8057      7.7204    145.7225
  1184.0000      0.0000    756.6400      7.7862    145.2661
  1184.2500      0.0000    751.6683      7.7866    140.3574
  1184.5000      0.0000    746.2722      7.7167    133.2985
  1184.7500      0.0000    740.4124      7.5982    128.0735
  1185.0000      0.0000    734.7151      7.4706    127.6604
  1185.2500      0.0000    730.6273      7.3752    131.7832
  1185.5000      0.0000    728.9247      7.3312    137.1189
  1185.7500      0.0000    728.5992      7.3221    139.8255
  1186.0000      0.0000    727.9522      7.3117    138.2666
  1186.2500      0.0000    726.3659      7.2721    133.5835
  1186.5000      0.0000    724.4342      7.1955    127.8878
  1186.7500      0.0000    722.8339      7.0854    122.3766
  1187.0000      0.0000    721.6856      6.9477    117.4618
  1187.2500      0.0000    720.7143      6.7962    114.0017
  1187.5000      0.0000    719.5259      6.6586    113.3618
  1187.7500      0.0000    717.7077      6.5655    115.9735
  1188.0000      0.0000    715.0574      6.5290    120.3015
  1188.2500      0.0000    711.8483      6.5355    123.7454
  1188.5000      0.0000    708.6338      6.5602    124.8213
  1188.7500      0.0000    705.7568      6.5904    124.4115
  1189.0000      0.0000    703.4811      6.6321    124.6881
  1189.2500      0.0000    702.6163      6.6950    127.0347
  1189.5000      0.0000    704.1978      6.7760    131.3006
  1189.7500      0.0000    708.2216      6.8577    136.6231
  1190.0000      0.0000    713.3784      6.9244    141.9366
  1190.2500      0.0000    718.4106      6.9774    145.5029
  1190.5000      0.0000    723.2957      7.0365    145.0887
  1190.7500      0.0000    728.7125      7.1239    139.7996
  1191.0000      0.0000    734.4492      7.2476    131.6228
  1191.2500      0.0000    738.6031      7.4015    124.2020
  1191.5000      0.0000    738.5764      7.5765    119.7477
  1191.7500      0.0000    732.9950      7.7625    117.6367
  1192.0000      0.0000    722.9143      7.9429    116.0204
  1192.2500      0.0000    711.4575      8.0957    113.9933
  1192.5000      0.0000    701.9901      8.2045    112.0137
  1192.7500      0.0000    695.9526      8.2633    110.8993
  1193.0000      0.0000    692.3309      8.2701    110.9204
  1193.2500      0.0000    689.3429      8.2242    111.6636
  1193.5000      0.0000    686.2747      8.1309    112.4889
  1193.7500      0.0000    683.5576      8.0043    113.1176
  1194.0000      0.0000    681.7202      7.8634    113.7373
  1194.2500      0.0000    680.8192      7.7250    114.4867
  1194.5000      0.0000    680.7128      7.5997    115.1019
  1194.7500      0.0000    681.5331      7.4925    115.2502
  1195.0000      0.0000    683.7870      7.4054    114.8610
  1195.2500      0.0000    687.8705      7.3375    113.9841
  1195.5000      0.0000    693.3373      7.2845    112.7011
  1195.7500      0.0000    699.0182      7.2430    111.2576
  1196.0000      0.0000    704.3058      7.2183    109.9344
  1196.2500      0.0000    709.8724      7.2243    108.8122
  1196.5000      0.0000    716.1810      7.2683    107.8824
  1196.7500      0.0000    721.3543      7.3349    107.2891
  1197.0000      0.0000    721.4319      7.3847    107.0916
  1197.2500      0.0000    712.9735      7.3753    106.6657
  1197.5000      0.0000    695.6862      7.2859    104.8361
  1197.7500      0.0000    673.6803      7.1291    101.0977
  1198.0000      0.0000    654.8162      6.9451     96.5574
