~Version Information
VERS.                      2.0: CWLS Log ASCII Standard - VERSION 2.0
WRAP.                       NO: One line per depth step
~Well Information Block
STRT.FT                -8.2500: 
STOP.FT              1729.7500: 
STEP.FT                 0.2500: 
NULL.                -999.2500: 
COMP.          Pioneer Natural Resources: COMPANY
WELL.            Dude 43-34 Tr: WELL
FLD.           Purgatorie River: FIELD
LOC.           2083' FSL & 1042' FEL--: LOCATION
PROV.                       CO: PROVINCE
CNTY.               Las Animas: COUNTRY
SRVC.          Patterson Wireline: SERVICE COMPANY
DATE.          Tue Jan 31 09:23:54 2006: LOG DATE
UWI.           05 071 08676 00: UNIQUE WELL ID
~Curve Information Block
DEPT.FT            0 000 00 00: Depth
CCL.                          : Casing Collar Locator
TT3.usec                      : CBL 3' Travel Time
AMP3.mV                       : CBL 3' Amplitude
GR.GAPI                       : Gamma Ray
~Parameter Information Block
~A  Depth       CCL         TT3         AMP3         GR     
# ...
   561.2500      0.0000    777.5872      5.3541     68.3110
   561.5000      0.0000    777.8698      5.3416     68.1812
   561.7500      0.0000    778.1449      5.3226     67.5455
   562.0000      0.0000    778.3158      5.2942     66.0021
   562.2500      0.0000    778.3140      5.2572     63.7130
   562.5000      0.0000    778.1379      5.2142     61.4944
   562.7500      0.0000    777.8356      5.1659     60.0374
   563.0000      0.0000    777.4286      5.1108     59.1617
   563.2500      0.0000    776.7930      5.0477     57.9503
   563.5000      0.0000    775.5471      4.9784     55.7262
   563.7500      0.0000    773.1212      4.9073     52.9654
   564.0000      0.0000    769.2748      4.8410     51.1095
   564.2500      0.0000    764.8669      4.7855     51.2504
   564.5000      0.0000    761.9017      4.7435     52.9936
   564.7500      0.0000    762.1727      4.7130     54.7895
   565.0000      0.0000    765.6346      4.6888     55.3874
   565.2500      0.0000    770.4200      4.6680     54.7514
   565.5000      0.0000    774.5043      4.6516     53.5631
   565.7500      0.0000    777.0984      4.6419     52.2609
   566.0000      0.0000    778.6445      4.6374     50.9211
   566.2500      0.0000    779.9443      4.6331     49.8508
   566.5000      0.0000    781.1985      4.6236     49.6902
   566.7500      0.0000    781.3400      4.6054     50.7444
   567.0000      0.0000    778.1762      4.5779     52.6545
   567.2500      0.0000    769.7004      4.5409     54.8721
   567.5000      0.0000    755.9000      4.4938     57.0466
   567.7500      0.0000    739.4720      4.4360     58.8689
   568.0000      0.0000    724.3928      4.3696     60.0374
   568.2500      0.0000    713.2979      4.3011     60.5176
   568.5000      0.0000    706.2571      4.2395     60.4602
   568.7500      0.0000    702.2048      4.1929     59.8388
   569.0000      0.0000    700.9952      4.1671     58.5502
   569.2500      0.0000    703.4734      4.1654     56.9349
   569.5000      0.0000    709.8532      4.1886     55.8508
   569.7500      0.0000    718.7679      4.2331     56.0890
   570.0000      0.0000    728.0462      4.2895     57.8376
   570.2500      0.0000    735.9309      4.3451     60.8299
   570.5000      0.0000    741.3552      4.3902     65.0639
   570.7500      0.0000    743.7108      4.4232     71.1181
   571.0000      0.0000    743.1148      4.4501     79.3122
   571.2500      0.0000    740.6961      4.4781     88.6481
   571.5000      0.0000    737.9949      4.5100     97.2133
   571.7500      0.0000    735.9990      4.5438    103.7671
   572.0000      0.0000    734.8778      4.5765    108.5276
   572.2500      0.0000    734.3777      4.6074    112.2867
   572.5000      0.0000    734.2035      4.6384    115.0570
   572.7500      0.0000    734.1069      4.6720    115.9012
   573.0000      0.0000    733.8165      4.7099    114.1974
   573.2500      0.0000    732.9763      4.7528    110.8783
   573.5000      0.0000    731.2690      4.7999    108.1681
   573.7500      0.0000    728.7969      4.8490    108.0677
   574.0000      0.0000    726.3920      4.8952    111.0222
   574.2500      0.0000    725.2482      4.9320    115.5883
   574.5000      0.0000    726.1066      4.9546    119.2968
   574.7500      0.0000    729.1670      4.9636    120.4766
   575.0000      0.0000    734.8238      4.9648    119.5817
   575.2500      0.0000    743.5596      4.9638    118.4281
   575.5000      0.0000    754.5894      4.9641    118.1828
   575.7500      0.0000    765.3712      4.9701    118.3283
   576.0000      0.0000    773.1315      4.9878    117.3912
   576.2500      0.0000    776.5243      5.0206    114.3707
   576.5000      0.0000    775.8095      5.0639    109.5886
   576.7500      0.0000    772.3101      5.1050    104.4514
   577.0000      0.0000    767.7755      5.1298    100.5364
   577.2500      0.0000    762.9355      5.1312     98.8206
   577.5000      0.0000    756.1255      5.1125     99.3218
   577.7500      0.0000    744.7318      5.0851    100.9102
   578.0000      0.0000    728.8517      5.0634    101.6775
   578.2500      0.0000    712.3239      5.0578    100.2754
   578.5000      0.0000    699.5027      5.0717     97.1551
   578.7500      0.0000    692.0056      5.1047     94.1013
   579.0000      0.0000    688.8679      5.1569     92.5453
   579.2500      0.0000    688.6851      5.2293     92.7196
   579.5000      0.0000    691.1145      5.3197     94.4223
   579.7500      0.0000    696.8239      5.4203     97.9114
   580.0000      0.0000    706.3220      5.5220    103.4802
   580.2500      0.0000    718.7669      5.6189    110.4780
   580.5000      0.0000    732.3246      5.7098    117.4834
   580.7500      0.0000    745.7540      5.7959    123.4136
   581.0000      0.0000    758.5759      5.8782    128.0152
   581.2500      0.0000    769.3316      5.9563    131.3546
   581.5000      0.0000    775.3024      6.0277    133.3502
   581.7500      0.0000    775.1279      6.0895    133.8632
   582.0000      0.0000    770.6987      6.1402    132.8478
   582.2500      0.0000    765.5123      6.1802    130.2089
   582.5000      0.0000    761.8196      6.2138    125.8591
   582.7500      0.0000    759.8582      6.2462    120.3635
   583.0000      0.0000    759.0359      6.2770    115.4162
   583.2500      0.0000    759.0788      6.2986    113.0341
   583.5000      0.0000    760.2874      6.3072    113.8703
   583.7500      0.0000    763.0963      6.3106    116.3940
   584.0000      0.0000    767.4194      6.3216    118.0207
   584.2500      0.0000    772.2569      6.3428    117.2836
   584.5000      0.0000    776.0129      6.3625    114.8551
   584.7500      0.0000    777.2213      6.3649    112.3695
   585.0000      0.0000    775.1852      6.3435    110.5753
   585.2500      0.0000    770.5478      6.3058    108.9027
   585.5000      0.0000    765.6345      6.2690    106.4489
   585.7500      0.0000    763.4993      6.2510    102.9237
   586.0000      0.0000    765.5764      6.2595     98.8730
   586.2500      0.0000    770.2984      6.2862     95.4236
   586.5000      0.0000    774.4048      6.3108     93.8933
   586.7500      0.0000    775.3613      6.3135     95.3894
   587.0000      0.0000    772.5552      6.2839    100.3200
   587.2500      0.0000    766.9883      6.2229    107.7983
   587.5000      0.0000    760.1689      6.1387    115.6259
   587.7500      0.0000    753.0341      6.0444    121.4621
   588.0000      0.0000    745.8918      5.9511    124.2427
   588.2500      0.0000    739.0315      5.8561    124.3528
   588.5000      0.0000    732.4810      5.7354    122.7889
   588.7500      0.0000    725.2136      5.5615    120.6616
   589.0000      0.0000    715.9410      5.3388    119.1768
   589.2500      0.0000    705.3406      5.1115    119.0902
   589.5000      0.0000    696.9133      4.9158    119.7827
   589.7500      0.0000    694.9550      4.7343    119.4295
   590.0000      0.0000    701.5278      4.5293    116.5020
   590.2500      0.0000    715.3458      4.3078    111.0620
   590.5000      0.0000    733.0494      4.1210    104.8584
   590.7500      0.0000    750.8655      4.0074    100.5165
   591.0000      0.0000    765.0889      3.9626    100.1475
   591.2500     -2.0000    772.0541      3.9567    103.9129
   591.5000      0.0000    769.2115      3.9665    109.8053
   591.7500      0.0000    757.3401      3.9973    115.0502
   592.0000      0.0000    741.4177      4.0773    117.8114
   592.2500      0.0000    728.1292      4.2233    117.7377
   592.5000      0.0000    721.8013      4.4190    115.2757
   592.7500      0.0000    722.4451      4.6450    110.9294
   593.0000      0.0000    727.0295      4.9077    105.5985
   593.2500      0.0000    732.0923      5.2092    101.1454
   593.5000      0.0000    735.5844      5.5103     99.2754
   593.7500      0.0000    737.1838      5.7564     99.4182
   594.0000      0.0000    737.5567      5.9245     98.6909
   594.2500      0.0000    737.4902      6.0263     94.5457
   594.5000      0.0000    737.4697      6.0821     87.0698
