~Version Information
 VERS.                                  2.0 : CWLS LAS VERSION
 WRAP.                                   NO : WRAPING MODE
 SWARE .                  MController 2.5.1 : SOFTWARE VERSION
~Well Information
 WELL.                           Erin 21-15 : WELL
 COMP.  Pioneer Natural Resources USA, Inc. : COMPANY
 FLD.                      Purgatoire River : FIELD
 LOC.             NE/NW Sec. 15, T33S, R67W : LOCATION
 DATE.                03/01/2006-03/02/2006 : DATE(S) LOGGED
 SRVC.                  Entrada GeoSciences : SERVICE COMPANY
 STAT.                             Colorado : STATE
 CNTY.                           Las Animas : COUNTY
 CTRY.                        United States : COUNTRY
 API.                          05-071-08713 : API NUMBER
 STRT.FT                             553.00 : START DEPTH
 STOP.FT                            2200.00 : STOP DEPTH
 STEP.FT                               1.00 : DEPTH INCREMENT
 NULL.                                -9999 : NULL VALUE
~Curve information
 DEPTH.FT                                   :
 ROP.MIN/FT                                 :
 GAS.UNITS                                  :
~ASCII Log data
# ...
     1153.00         0.27         68.4 
     1154.00         0.20         64.5 
     1155.00         0.23         62.6 
     1156.00         0.20         61.9 
     1157.00         0.27         61.9 
     1158.00         0.53         20.2 
     1159.00         0.20         20.4 
     1160.00         0.20         20.1 
     1161.00         0.43         19.8 
     1162.00         0.23         19.8 
     1163.00         0.23         24.8 
     1164.00         0.20         26.6 
     1165.00         0.30         30.0 
     1166.00         0.37         31.2 
     1167.00         0.40         27.1 
     1168.00         0.30         86.4 
     1169.00         0.32         80.9 
     1170.00         0.30         41.9 
     1171.00         0.23         28.1 
     1172.00         0.33         21.0 
     1173.00         0.27         20.1 
     1174.00         0.23         22.8 
     1175.00         0.27         29.0 
     1176.00         0.20         33.5 
     1177.00         0.20         36.8 
     1178.00         0.23         41.6 
     1179.00         0.27         46.1 
     1180.00         0.30         51.5 
     1181.00         0.23         51.8 
     1182.00         0.22         53.4 
     1183.00         0.23         54.9 
     1184.00         0.23         54.2 
     1185.00         0.27         55.7 
     1186.00         0.27         57.2 
     1187.00         0.27         58.2 
     1188.00         1.27         28.0 
     1189.00         0.63         21.1 
     1190.00         0.42         27.9 
     1191.00         0.37         85.2 
     1192.00         0.33        115.3 
     1193.00         0.30        108.7 
     1194.00         0.27        100.0 
     1195.00         0.27        118.7 
     1196.00         0.23         90.3 
     1197.00         0.23         58.7 
     1198.00         0.23         44.9 
     1199.00         0.23         36.6 
     1200.00         0.27         30.5 
     1201.00         0.28         30.8 
     1202.00         0.37         36.3 
     1203.00         0.33         43.7 
     1204.00         0.33         52.3 
     1205.00         0.27         58.5 
     1206.00         0.30         62.4 
     1207.00         0.30         60.9 
     1208.00         0.30         54.3 
     1209.00         0.27         52.9 
     1210.00         0.23         53.1 
     1211.00         0.23         56.0 
     1212.00         0.27         59.4 
     1213.00         0.28         59.4 
     1214.00         0.33         52.8 
     1215.00         0.37         56.3 
     1216.00         0.40         60.1 
     1217.00         0.43         65.9 
     1218.00         0.33         27.9 
     1219.00         0.33         29.4 
     1220.00         0.53        108.7 
     1221.00         0.43        138.1 
     1222.00         0.33        110.7 
     1223.00         0.23        104.1 
     1224.00         0.23        108.6 
     1225.00         0.23         69.5 
     1226.00         0.33         41.5 
     1227.00         0.37         27.3 
     1228.00         0.35         28.7 
     1229.00         0.20         32.6 
     1230.00         0.20         37.5 
     1231.00         0.20         43.6 
     1232.00         0.30         51.2 
     1233.00         0.40         62.4 
     1234.00         0.20         66.9 
     1235.00         0.23         66.6 
     1236.00         0.20         64.8 
     1237.00         0.13         64.3 
     1238.00         0.17         64.4 
     1239.00         0.20         64.6 
     1240.00         0.23         65.0 
     1241.00         0.27         63.3 
     1242.00         0.28         61.5 
     1243.00         0.23         56.9 
     1244.00         0.27         54.9 
     1245.00         0.27         56.1 
     1246.00         0.30         56.0 
     1247.00         0.37         53.8 
     1248.00         0.33         24.8 
     1249.00         0.48         20.0 
     1250.00         0.30         19.0 
     1251.00         0.30         73.1 
     1252.00         0.30        157.5 
     1253.00         0.27        155.8 
     1254.00         0.23        115.0 
     1255.00         0.27         91.2 
     1256.00         0.27         56.2 
     1257.00         0.23         42.8 
     1258.00         0.33         38.4 
     1259.00         0.30         36.3 
     1260.00         0.35         41.0 
     1261.00         0.37         47.0 
     1262.00         0.23         51.2 
     1263.00         0.20         54.0 
     1264.00         0.20         55.5 
     1265.00         0.23         58.3 
     1266.00         0.33         59.3 
     1267.00         0.40         54.4 
     1268.00         0.27         54.1 
     1269.00         0.37         55.0 
     1270.00         0.30         57.0 
     1271.00         0.27         54.6 
     1272.00         0.25         54.4 
     1273.00         0.33         55.7 
     1274.00         0.40         55.0 
     1275.00         0.23         54.6 
     1276.00         0.23         56.9 
     1277.00         0.33         54.7 
     1278.00         0.20         22.5 
     1279.00         0.37         19.7 
     1280.00         0.40         23.4 
     1281.00         0.47         93.4 
     1282.00         0.70        111.2 
     1283.00         0.37         92.8 
     1284.00         0.37         57.5 
     1285.00         0.13         43.9 
     1286.00         0.25         31.4 
     1287.00         0.40         23.2 
     1288.00         0.30         22.4 
     1289.00         0.27         26.4 
     1290.00         0.27         29.9 
     1291.00         0.33         40.1 
     1292.00         0.53         54.2 
     1293.00         0.37         58.7 
     1294.00         0.13         57.5 
     1295.00         0.17         54.3 
     1296.00         0.17         53.0 
     1297.00         0.17         52.7 
     1298.00         0.18         53.7 
     1299.00         0.13         52.5 
     1300.00         0.20         53.6 
     1301.00         0.13         53.8 
     1302.00         0.13         52.5 
     1303.00         0.47         55.7 
     1304.00         0.13         57.0 
     1305.00         0.30         59.9 
     1306.00         0.27         61.9 
     1307.00         0.27         64.0 
     1308.00         0.60         52.2 
     1309.00         0.33         74.9 
     1310.00         0.30         76.8 
     1311.00         0.17         72.9 
     1312.00         0.17         63.8 
     1313.00         0.17         55.0 
     1314.00         0.10         52.2 
     1315.00         0.17         46.2 
     1316.00         0.27         44.6 
     1317.00         0.20         35.0 
     1318.00         0.22         26.2 
     1319.00         0.20         20.5 
     1320.00         0.20         18.1 
     1321.00         0.23         16.5 
     1322.00         0.23         17.6 
     1323.00         0.27         21.9 
     1324.00         0.27         25.7 
     1325.00         0.27         28.7 
     1326.00         0.27         32.3 
     1327.00         0.27         37.0 
     1328.00         0.27         42.4 
     1329.00         0.30         45.9 
     1330.00         0.27         49.2 
     1331.00         0.28         51.0 
     1332.00         0.27         50.2 
     1333.00         0.30         50.8 
     1334.00         0.27         48.6 
     1335.00         0.27         47.9 
     1336.00         0.27         48.6 
     1337.00         0.27         49.6 
     1338.00         0.27         23.7 
     1339.00         0.33         20.8 
     1340.00         0.40         20.4 
     1341.00         0.33         53.6 
     1342.00         0.30        121.1 
     1343.00         0.33        130.6 
     1344.00         0.30         84.3 
     1345.00         0.23         70.0 
     1346.00         0.27         56.1 
     1347.00         0.23         35.9 
     1348.00         0.28         22.2 
     1349.00         0.23         21.9 
     1350.00         0.27         19.5 
     1351.00         0.27         21.3 
     1352.00         0.33         27.9 
