~Version Information
VERS.                      2.0: CWLS Log ASCII Standard - VERSION 2.0
WRAP.                       NO: One line per depth step
~Well Information Block
STRT.FT               -12.2500: 
STOP.FT              1442.2500: 
STEP.FT                 0.2500: 
NULL.                -999.2500: 
COMP.          Pioneer Natural Resources: COMPANY
WELL.              Lucky 21-36: WELL
FLD.           Purgatorie River: FIELD
LOC.           799' FNL & 1578' FWL--: LOCATION
CDN. :
PROV. :
UWI. :
STAT. :
CNTY. :
CTRY. :
API. :
COMP. :
WELL. :
FLD. :
LOC. :
DATE. :
SRVC. :
CNTY.               Las Animas: COUNTY
SRVC.          Superior Well Services: SERVICE COMPANY
DATE.          Mon Jul 21 12-16-21 2008: LOG DATE
UWI.           05 071 08456 00: UNIQUE WELL ID
STAT.                       CO: STATE
~Curve Information Block
DEPT.FT            0 000 00 00: Depth
CCL.                          : Casing Collar Locator
TT3.usec                      : CBL 3' Travel Time
AMP3.mV                       : CBL 3' Amplitude
GR.GAPI                       : Gamma Ray
~Parameter Information Block
~A  Depth       CCL         TT3         AMP3         GR     
# ...
   356.2500      0.0000    303.6002     37.1891    107.1669
   356.5000      0.0000    303.5165     37.6341    103.9343
   356.7500      0.0000    303.4617     37.8640    100.7788
   357.0000      0.0000    303.4420     37.8872     98.8514
   357.2500      0.0000    303.4526     37.7958     98.7365
   357.5000      0.0000    303.4797     37.6912    100.2920
   357.7500      0.0000    303.5062     37.6215    103.1463
   358.0000      0.0000    303.5193     37.5786    106.7730
   358.2500      0.0000    303.5157     37.5412    110.1696
   358.5000      0.0000    303.5030     37.5064    112.0355
   358.7500      0.0000    303.4957     37.4734    111.5296
   359.0000      0.0000    303.5089     37.4155    108.8520
   359.2500      0.0000    303.5492     37.2910    105.1145
   359.5000      0.0000    303.6084     37.0910    101.6265
   359.7500      0.0000    303.6654     36.8708     99.2534
   360.0000      0.0000    303.6971     36.7258     98.3624
   360.2500      0.0000    303.6933     36.7231     98.9363
   360.5000      0.0000    303.6589     36.8554    100.3052
   360.7500      0.0000    303.6051     37.0575    101.1374
   361.0000      0.0000    303.5419     37.2548    100.4426
   361.2500      0.0000    303.4812     37.3875     98.6080
   361.5000      0.0000    303.4394     37.4082     96.9579
   361.7500      0.0000    303.4291     37.2907     96.3408
   362.0000      0.0000    303.4453     37.0560     96.5303
   362.2500      0.0000    303.4667     36.7756     96.8787
   362.5000      0.0000    303.4741     36.5269     97.1019
   362.7500      0.0000    303.4685     36.3402     97.3594
   363.0000      0.0000    303.4693     36.1927     97.7607
   363.2500      0.0000    303.4947     36.0501     97.8477
   363.5000      0.0000    303.5449     35.9065     96.6253
   363.7500      0.0000    303.6013     35.7869     93.4050
   364.0000      0.0000    303.6416     35.7176     88.7551
   364.2500      0.0000    303.6560     35.7002     84.4023
   364.5000      0.0000    303.6494     35.7148     82.0398
   364.7500      0.0000    303.6403     35.7352     82.2775
   365.0000      0.0000    303.6855     35.7231     84.6954
   365.2500      0.0000    303.9888     35.5870     88.6938
   365.5000      0.0000    305.0934     35.1584     94.1701
   365.7500      0.0000    308.3451     34.2178    101.4371
   366.0000      0.0000    316.6997     32.5471    110.4619
   366.2500      0.0000    335.4989     29.9943    119.9752
   366.5000      0.0000    371.6282     26.6048    127.3297
   366.7500      0.0000    429.2891     22.7393    129.8070
   367.0000      0.0000    504.3901     18.9502    126.6419
   367.2500      0.0000    583.9055     15.6526    119.7664
   367.5000     -2.0000    653.3732     12.9677    112.3471
   367.7500      2.0000    705.7009     10.8715    106.5560
   368.0000      0.0000    742.3577      9.3647    102.5383
   368.2500      0.0000    767.7225      8.4745     99.1682
   368.5000      0.0000    784.3396      8.1942     95.7464
   368.7500      0.0000    792.6402      8.4677     93.1455
   369.0000      0.0000    791.9478      9.1857     93.2562
   369.2500      0.0000    779.2849     10.2007     97.0288
   369.5000      0.0000    748.0840     11.4256    103.1105
   369.7500      0.0000    691.5726     12.9425    108.9459
   370.0000      0.0000    610.4213     14.9807    113.3858
   370.2500      0.0000    517.2194     17.7733    117.4390
   370.5000      0.0000    431.0139     21.4128    122.1655
   370.7500      0.0000    365.7303     25.7585    126.7854
   371.0000      0.0000    323.6868     30.3983    129.4303
   371.2500      0.0000    298.9488     34.7162    129.0602
   371.5000      0.0000    284.6190     38.1071    126.2304
   371.7500      0.0000    276.7900     40.2495    122.5573
   372.0000      0.0000    274.1491     41.2330    119.8662
   372.2500      0.0000    276.1045     41.4369    119.3173
   372.5000      0.0000    281.5138     41.2843    120.5258
   372.7500      0.0000    288.4088     41.0709    121.4527
   373.0000      0.0000    294.6324     40.9286    119.8747
   373.2500      0.0000    298.7635     40.8675    115.3929
   373.5000      0.0000    300.4659     40.8436    109.7796
   373.7500      0.0000    300.1111     40.8168    105.2451
   374.0000      0.0000    298.4370     40.7716    102.7316
   374.2500      0.0000    296.5704     40.7021    101.9659
   374.5000      0.0000    295.7762     40.5980    102.6409
   374.7500      0.0000    296.6502     40.4543    105.0371
   375.0000      0.0000    298.6483     40.2832    109.5336
   375.2500      0.0000    300.6762     40.1084    115.8430
   375.5000      0.0000    302.0323     39.9548    122.8606
   375.7500      0.0000    302.6859     39.8483    129.0853
   376.0000      0.0000    302.9215     39.8157    133.2313
   376.2500      0.0000    302.9820     39.8714    134.8460
   376.5000      0.0000    302.9804     40.0005    134.5131
   376.7500      0.0000    302.9532     40.1549    133.2853
   377.0000      0.0000    302.9054     40.2756    132.0484
   377.2500      0.0000    302.7972     40.3308    131.5349
   377.5000      0.0000    302.4608     40.3410    132.4575
   377.7500      0.0000    301.4737     40.3672    135.0088
   378.0000      0.0000    299.1261     40.4783    138.1215
   378.2500      0.0000    294.7424     40.7229    139.6703
   378.5000      0.0000    288.3503     41.1154    137.9383
   378.7500      0.0000    281.0768     41.6285    133.0034
   379.0000      0.0000    274.6134     42.1971    126.5375
   379.2500      0.0000    270.1189     42.7338    120.3092
   379.5000      0.0000    267.6638     43.1593    115.0159
   379.7500      0.0000    266.6028     43.4361    110.4881
   380.0000      0.0000    266.2334     43.5814    106.6046
   380.2500      0.0000    266.1213     43.6506    103.4883
   380.5000      0.0000    266.0782     43.7037    100.8064
   380.7500      0.0000    266.0419     43.7824     97.5391
   381.0000      0.0000    265.9970     43.9057     93.0628
   381.2500      0.0000    265.9442     44.0674     88.4905
   381.5000      0.0000    265.8960     44.2277     86.5002
   381.7500      0.0000    265.8718     44.3212     89.3852
   382.0000      0.0000    265.8861     44.2958     97.1078
   382.2500      0.0000    265.9377     44.1497    107.2970
   382.5000      0.0000    266.0144     43.9266    117.0949
   382.7500      0.0000    266.1124     43.6743    125.0911
   383.0000      0.0000    266.2782     43.4114    131.6921
   383.2500      0.0000    266.6884     43.1276    137.6702
   383.5000      0.0000    267.7731     42.7995    142.4136
   383.7500      0.0000    270.2462     42.4039    143.9794
   384.0000      0.0000    274.7782     41.9334    141.1299
   384.2500      0.0000    281.3174     41.4181    135.0037
   384.5000      0.0000    288.6953     40.9289    128.3700
   384.7500      0.0000    295.1784     40.5439    123.5365
   385.0000      0.0000    299.5580     40.3050    121.5021
   385.2500      0.0000    301.6209     40.2098    122.6424
   385.5000      0.0000    301.6205     40.2407    126.8588
   385.7500      0.0000    299.5581     40.3914    132.5489
   386.0000      0.0000    295.1845     40.6561    136.6158
   386.2500      0.0000    288.7182     41.0052    136.7467
   386.5000      0.0000    281.3699     41.3863    133.4040
   386.7500      0.0000    274.8665     41.7550    128.8844
   387.0000      0.0000    270.3632     42.1016    124.8259
   387.2500      0.0000    267.8981     42.4475    121.3781
   387.5000      0.0000    266.7943     42.8163    118.6231
   387.7500      0.0000    266.3441     43.2050    117.7339
   388.0000      0.0000    266.1374     43.5764    119.8119
   388.2500      0.0000    266.0213     43.8746    123.8480
   388.5000      0.0000    265.9616     44.0506    126.9339
   388.7500      0.0000    265.9549     44.0814    126.8058
   389.0000      0.0000    265.9957     43.9731    123.7332
   389.2500      0.0000    266.0721     43.7567    119.9697
   389.5000      0.0000    266.1668     43.4802    117.9191
