~Version Information
VERS.                      2.0: CWLS Log ASCII Standard - VERSION 2.0
WRAP.                       NO: One line per depth step
~Well Information Block
STRT.FT               845.0000: 
STOP.FT              2102.0000: 
STEP.FT                 0.1000: 
NULL.                -999.2500: 
COMP.          Petrogulf Corporation: COMPANY
WELL.               YWAM 7-32R: WELL
FLD.           Purgatorie River: FIELD
LOC.           2355' FNL & 2376' FEL: LOCATION
PROV.                 Colorado: PROVINCE
CNTY.               Las Animas: COUNTRY
SRVC.                Patterson: SERVICE COMPANY
DATE.          Fri Sep 30 11:07:31 2005: LOG DATE
UWI.                          : UNIQUE WELL ID
~Curve Information Block
DEPT.FT            0 000 00 00: Depth
DCAL.in                       : CDL Caliper
RHOB.g/cc                     : CDL Bulk Density
RHOC.g/cc                     : CDL Density Correction
DPOR.pu                       : CDL Density Porosity
GR.GAPI                       : Gamma Ray
NPOR.pu                       : Neutron Porosity
~Parameter Information Block
~A  Depth       DCAL        RHOB        RHOC        DPOR         GR         NPOR    
# ...
  1670.6000      8.1142      2.5423      0.0462      6.5276    156.6489     27.4241
  1670.7000      8.1142      2.5227     -0.0259      7.7163    161.1571     27.9496
  1670.8000      8.0976      2.5196     -0.0061      7.9028    164.9607     28.1765
  1670.9000      8.0976      2.5281      0.0639      7.3886    165.4283     28.0085
  1671.0000      8.0737      2.5394     -0.0009      6.7028    163.8120     27.8921
  1671.1000      8.0737      2.5550      0.0479      5.7586    160.6840     28.0065
  1671.2000      8.0737      2.5671      0.0394      5.0235    158.8581     28.0937
  1671.3000      8.0806      2.5734      0.0149      4.6426    161.3964     28.1018
  1671.4000      8.0806      2.5885      0.0288      3.7258    165.5982     28.2168
  1671.5000      8.1020      2.6128      0.0948      2.2527    168.7614     28.3930
  1671.6000      8.1020      2.6314      0.0943      1.1247    170.6624     28.3633
  1671.7000      8.1020      2.6369      0.1389      0.7917    170.0094     27.9878
  1671.8000      8.0753      2.6253      0.1332      1.4950    167.1986     27.5025
  1671.9000      8.0753      2.6014      0.0507      2.9442    165.8526     27.1991
  1672.0000      8.1026      2.5848      0.0331      3.9500    167.0961     27.1236
  1672.1000      8.1026      2.5874      0.0406      3.7923    168.8911     27.3388
  1672.2000      8.1026      2.5952      0.0969      3.3209    170.0108     27.8399
  1672.3000      8.1105      2.5895      0.0556      3.6651    172.5390     28.2412
  1672.4000      8.1105      2.5778      0.0024      4.3751    177.9176     28.2813
  1672.5000      8.1284      2.5737      0.0618      4.6271    181.4018     28.1374
  1672.6000      8.1284      2.5697      0.0588      4.8677    180.4956     27.9417
  1672.7000      8.1284      2.5569      0.0353      5.6451    179.6185     27.7688
  1672.8000      8.1338      2.5409     -0.0057      6.6100    178.9258     27.7886
  1672.9000      8.1338      2.5374     -0.0238      6.8269    174.4816     27.9793
  1673.0000      8.1263      2.5546      0.0347      5.7806    167.7470     28.1302
  1673.1000      8.1263      2.5770      0.0650      4.4268    164.0898     28.2671
  1673.2000      8.1263      2.5806      0.0878      4.2090    165.0526     28.4806
  1673.3000      8.1154      2.5632      0.0160      5.2599    166.9469     28.5609
  1673.4000      8.1154      2.5443     -0.0012      6.4073    166.8102     28.3210
  1673.5000      8.1152      2.5377      0.0223      6.8069    166.9791     27.8860
  1673.6000      8.1152      2.5403      0.0212      6.6499    169.1533     27.5996
  1673.7000      8.1152      2.5456      0.0183      6.3252    171.0005     27.4871
  1673.8000      8.0941      2.5561      0.0201      5.6919    171.5788     27.1376
  1673.9000      8.0941      2.5687      0.0587      4.9296    171.0347     26.6786
  1674.0000      8.0786      2.5606      0.0823      5.4203    170.7565     26.7031
  1674.1000      8.0786      2.5206      0.0159      7.8413    173.5224     27.1258
  1674.2000      8.0786      2.4752     -0.0169     10.5950    177.1933     27.4359
  1674.3000      8.0773      2.4561     -0.0097     11.7498    178.3307     27.7054
  1674.4000      8.0773      2.4650      0.0275     11.2144    178.5757     28.1830
  1674.5000      8.0677      2.4834      0.0115     10.0975    182.2206     28.6898
  1674.6000      8.0677      2.4982      0.0247      9.1973    187.9160     28.9748
  1674.7000      8.0677      2.5037      0.0087      8.8696    189.6508     29.0212
  1674.8000      8.1226      2.5060      0.0283      8.7268    188.0071     29.0091
  1674.9000      8.1226      2.5160      0.0841      8.1210    186.2972     28.8660
  1675.0000      8.2296      2.5276      0.1500      7.4167    183.3801     28.5003
  1675.1000      8.2296      2.5331      0.1460      7.0875    178.6401     28.0731
  1675.2000      8.2296      2.5386      0.1573      6.7544    173.5541     27.8306
  1675.3000      8.2870      2.5545      0.1399      5.7897    168.3085     27.8709
  1675.4000      8.2870      2.5874      0.1497      3.7968    164.8112     28.0179
  1675.5000      8.4922      2.6288      0.1493      1.2825    166.1549     28.2527
  1675.6000      8.4922      2.6656      0.1423     -0.9437    168.2639     28.5659
  1675.7000      8.4922      2.6928      0.1751     -2.5915    164.6866     28.6337
  1675.8000      8.3125      2.6978      0.1928     -2.8979    160.9015     28.2587
  1675.9000      8.3125      2.6688      0.1604     -1.1397    162.0842     27.7775
  1676.0000      8.0394      2.6221      0.0847      1.6894    160.2598     27.4376
  1676.1000      8.0394      2.5864      0.0632      3.8550    153.4541     26.9802
  1676.2000      8.0394      2.5671      0.0577      5.0236    149.8800     26.2207
  1676.3000      7.9837      2.5572      0.0183      5.6261    149.2506     25.3766
  1676.4000      7.9837      2.5607     -0.0422      5.4125    146.3787     24.7325
  1676.5000      7.9890      2.5763      0.0186      4.4676    144.5948     24.4376
  1676.6000      7.9890      2.5848      0.0303      3.9534    146.6284     24.4861
  1676.7000      7.9890      2.5776     -0.0007      4.3904    147.6805     24.6097
  1676.8000      7.9787      2.5723     -0.0249      4.7093    145.1703     24.7091
  1676.9000      7.9787      2.5811      0.0559      4.1755    141.2197     24.8353
  1677.0000      7.9943      2.5907      0.0466      3.5934    138.1782     24.9282
  1677.1000      7.9943      2.5884      0.0716      3.7320    135.4956     24.9313
  1677.2000      7.9943      2.5812      0.0049      4.1726    131.8466     24.7851
  1677.3000      7.9684      2.5851      0.0198      3.9308    128.8256     24.4436
  1677.4000      7.9684      2.6044      0.0236      2.7636    127.1696     24.0087
  1677.5000      7.9402      2.6309      0.0462      1.1590    125.1042     23.7088
  1677.6000      7.9402      2.6544      0.0843     -0.2696    123.4618     23.6947
  1677.7000      7.9402      2.6662      0.0852     -0.9802    124.0542     23.8926
  1677.8000      7.8658      2.6659      0.0545     -0.9608    125.4562     23.9769
  1677.9000      7.8658      2.6625      0.0459     -0.7599    126.5788     23.7251
  1678.0000      7.7316      2.6628      0.0303     -0.7732    127.8992     23.2240
  1678.1000      7.7316      2.6611      0.0572     -0.6757    129.7991     22.7608
  1678.2000      7.7316      2.6462      0.0592      0.2322    133.6044     22.6669
  1678.3000      7.7668      2.6256      0.0013      1.4790    138.0914     23.0116
  1678.4000      7.7668      2.6168      0.0410      2.0133    139.9104     23.5831
  1678.5000      7.8806      2.6065      0.0868      2.6387    139.5899     24.1211
  1678.6000      7.8806      2.5716      0.0390      4.7489    140.5593     24.2885
  1678.7000      7.8806      2.5243     -0.0225      7.6209    143.4467     24.2624
  1678.8000      7.9609      2.4958     -0.0371      9.3482    146.9206     24.5209
  1678.9000      7.9609      2.4989     -0.0188      9.1554    152.3874     24.9986
  1679.0000      7.9682      2.5205      0.0186      7.8471    161.2247     25.4362
  1679.1000      7.9682      2.5417      0.0312      6.5638    171.0896     25.6919
  1679.2000      7.9682      2.5577      0.0445      5.5913    177.9576     25.9113
  1679.3000      8.0699      2.5736      0.0590      4.6288    179.2826     26.3446
  1679.4000      8.0699      2.5846      0.1008      3.9609    178.2569     26.9620
  1679.5000      8.1953      2.5849      0.0961      3.9471    179.4091     27.4138
  1679.6000      8.1953      2.5892      0.0899      3.6835    181.4233     27.5530
  1679.7000      8.1953      2.6030      0.1424      2.8468    179.4376     27.6993
  1679.8000      8.4080      2.6039      0.1377      2.7969    172.4488     27.9066
  1679.9000      8.4080      2.5878      0.0487      3.7706    165.3434     27.8962
  1680.0000      8.1543      2.5762      0.0763      4.4710    162.4095     27.8467
  1680.1000      8.1543      2.5777      0.0328      4.3802    164.8497     27.9964
