~Version Information
VERS.                      2.0: CWLS Log ASCII Standard - VERSION 2.0
WRAP.                       NO: One line per depth step
~Well Information Block
STRT.FT               615.0000: 
STOP.FT              1607.0000: 
STEP.FT                 0.1000: 
NULL.                -999.2500: 
COMP.          Pioneer Natural Resources: COMPANY
WELL.          Galloway 32-13 Tr: WELL
FLD.           Purgatoire River: FIELD
LOC.           1910' FNL & 2002' FEL: LOCATION
PROV.                 Colorado: PROVINCE
CNTY.               Las Animas: COUNTRY
SRVC.                Patterson: SERVICE COMPANY
DATE.          Mon Nov 14 07:13:22 2005: LOG DATE
UWI.           05 071 08608 00: UNIQUE WELL ID
~Curve Information Block
DEPT.FT            0 000 00 00: Depth
DCAL.in                       : CDL Caliper
RHOB.g/cc                     : CDL Bulk Density
RHOC.g/cc                     : CDL Density Correction
DPOR.pu                       : CDL Density Porosity
GR.GAPI                       : Gamma Ray
NPOR.pu                       : Neutron Porosity
~Parameter Information Block
~A  Depth       DCAL        RHOB        RHOC        DPOR         GR         NPOR    
# ...
   941.4000      7.8854      2.4709      0.0109     10.8570     47.8373     23.0291
   941.5000      7.8859      2.4742      0.0748     10.6527     43.9698     22.7495
   941.6000      7.8859      2.4753      0.0627     10.5851     41.4977     22.5906
   941.7000      7.8859      2.4833      0.0434     10.1049     39.5758     22.8225
   941.8000      7.9039      2.5127      0.0970      8.3208     37.2831     23.4426
   941.9000      7.9039      2.5454      0.1314      6.3403     36.3312     23.7296
   942.0000      7.9279      2.5480      0.0837      6.1835     38.2574     23.4033
   942.1000      7.9279      2.5063      0.1042      8.7112     41.0308     22.9361
   942.2000      7.9279      2.4296      0.0866     13.3574     41.9115     22.9609
   942.3000      7.8957      2.3435      0.0614     18.5730     40.5519     23.8777
   942.4000      7.8957      2.2630      0.0353     23.4551     38.7263     25.3704
   942.5000      7.8979      2.1887      0.0051     27.9601     37.0934     26.5055
   942.6000      7.8979      2.1335     -0.0611     31.3014     36.1882     26.9799
   942.7000      7.8979      2.1220     -0.0761     31.9980     38.3164     27.3597
   942.8000      7.8862      2.1688      0.0076     29.1625     42.8679     27.8589
   942.9000      7.8862      2.2600      0.1529     23.6381     46.0787     27.9024
   943.0000      7.8877      2.3627      0.1425     17.4125     47.0040     27.1222
   943.1000      7.8877      2.4515      0.1973     12.0307     49.3574     25.9946
   943.2000      7.8877      2.5098      0.1555      8.4969     55.5993     25.4202
   943.3000      7.8898      2.5325      0.0637      7.1206     61.0580     26.0471
   943.4000      7.8898      2.5276      0.0636      7.4201     60.5992     27.1461
   943.5000      7.8761      2.5084      0.0091      8.5805     56.5512     27.4145
   943.6000      7.8761      2.4894      0.0043      9.7316     54.6671     27.0885
   943.7000      7.8761      2.4732      0.0559     10.7174     57.6919     26.9034
   943.8000      7.8561      2.4501      0.0335     12.1159     64.3508     26.7029
   943.9000      7.8561      2.4172      0.0282     14.1100     72.9275     26.1880
   944.0000      7.8652      2.3788     -0.0053     16.4377     82.5825     25.8087
   944.1000      7.8652      2.3446     -0.0169     18.5075     89.6028     26.1152
   944.2000      7.8652      2.3247      0.0602     19.7172     92.5683     26.9344
   944.3000      7.8706      2.3182      0.0689     20.1075     95.0803     27.8237
   944.4000      7.8706      2.3170      0.0914     20.1830     98.9511     28.5405
   944.5000      7.8732      2.3008      0.1168     21.1633    102.6544     29.4209
   944.6000      7.8732      2.2547      0.0416     23.9601    104.1293     30.5967
   944.7000      7.8732      2.1991      0.0077     27.3297    103.4322     31.0651
   944.8000      7.8387      2.1768     -0.0317     28.6768    102.5036     30.3428
   944.9000      7.8387      2.2128      0.0249     26.4946    103.4052     29.1365
   945.0000      7.8440      2.2876      0.1090     21.9609    104.0690     28.1813
   945.1000      7.8440      2.3658      0.0633     17.2241     98.5284     27.8740
   945.2000      7.8440      2.4320      0.1157     13.2126     87.3183     28.3462
   945.3000      7.8528      2.4926      0.1116      9.5420     76.5690     29.4025
   945.4000      7.8528      2.5574      0.1584      5.6132     67.4009     30.3082
   945.5000      7.8712      2.6150      0.2323      2.1207     58.1166     30.4001
   945.6000      7.8712      2.6546      0.1814     -0.2778     48.7451     29.8146
   945.7000      7.8712      2.6855      0.1493     -2.1542     41.8494     29.1701
   945.8000      7.8812      2.7038      0.1291     -3.2621     39.4412     28.7241
   945.9000      7.8812      2.6952      0.0939     -2.7405     40.2058     28.3478
   946.0000      7.8814      2.6751      0.0413     -1.5238     41.2255     28.0530
   946.1000      7.8814      2.6642      0.0882     -0.8632     39.5334     27.9188
   946.2000      7.8814      2.6568      0.0209     -0.4115     36.2495     28.1563
   946.3000      7.8685      2.6401      0.0579      0.5989     35.1598     28.6198
   946.4000      7.8685      2.6129      0.0487      2.2487     36.5356     28.2844
   946.5000      7.8701      2.5934     -0.0110      3.4327     38.7540     26.8671
   946.6000      7.8701      2.5996      0.0044      3.0536     40.7112     25.5355
   946.7000      7.8701      2.6266      0.0333      1.4207     41.1008     25.2458
   946.8000      7.8875      2.6648      0.0498     -0.8994     40.6150     25.9499
   946.9000      7.8875      2.7066      0.0793     -3.4330     42.1596     26.5367
   947.0000      7.9288      2.7284      0.1491     -4.7508     44.9353     26.1902
   947.1000      7.9288      2.7189      0.1096     -4.1734     44.8194     26.0549
   947.2000      7.9288      2.7001      0.0876     -3.0347     41.9075     26.8653
   947.3000      7.8890      2.6821      0.0881     -1.9476     39.9934     27.3150
   947.4000      7.8890      2.6568      0.0691     -0.4115     39.9500     26.7508
   947.5000      7.8581      2.6380      0.0301      0.7296     39.8566     26.2704
   947.6000      7.8581      2.6492      0.0627      0.0498     39.0067     26.5642
   947.7000      7.8581      2.6887      0.0712     -2.3441     39.9834     26.5391
   947.8000      7.8171      2.7304      0.1046     -4.8713     44.0197     25.8924
   947.9000      7.8171      2.7513      0.1340     -6.1423     47.6535     25.8023
   948.0000      7.8299      2.7493      0.1083     -6.0203     48.4899     26.6376
   948.1000      7.8299      2.7236      0.1817     -4.4620     47.0895     27.7396
   948.2000      7.8299      2.6727      0.1293     -1.3763     45.4201     28.3436
   948.3000      7.8438      2.6106      0.0622      2.3905     45.1337     28.3093
   948.4000      7.8438      2.5452      0.1213      6.3522     45.9188     28.2688
   948.5000      7.7932      2.4723      0.0198     10.7719     48.2456     28.5835
   948.6000      7.7932      2.4051     -0.0322     14.8414     52.6989     29.1906
   948.7000      7.7932      2.3593      0.0027     17.6187     56.4067     30.2744
   948.8000      7.7929      2.3272     -0.0072     19.5619     57.5131     31.1751
   948.9000      7.7929      2.3093     -0.0700     20.6497     59.0460     30.9536
   949.0000      7.8280      2.3193      0.0127     20.0408     63.8692     30.5856
   949.1000      7.8280      2.3432      0.1351     18.5970     71.1174     31.0477
   949.2000      7.8280      2.3553      0.1425     17.8580     77.8199     31.3536
   949.3000      7.9623      2.3621      0.1712     17.4457     84.4620     30.7448
   949.4000      7.9623      2.3806      0.1489     16.3264     92.7678     30.0612
   949.5000      7.9824      2.4120      0.1023     14.4264     99.6747     29.7558
   949.6000      7.9824      2.4507      0.0920     12.0766    102.3203     29.6021
   949.7000      7.9824      2.4914      0.0945      9.6115    103.5730     29.6566
   949.8000      7.9441      2.5295      0.1059      7.3050    106.7351     29.5317
   949.9000      7.9441      2.5611      0.1349      5.3855    109.2634     28.8433
   950.0000      7.9389      2.5731      0.1411      4.6615    107.3570     27.9606
   950.1000      7.9389      2.5586      0.0493      5.5409    104.1522     27.4340
   950.2000      7.9389      2.5383      0.0091      6.7720    102.2309     27.3744
   950.3000      7.9579      2.5295      0.0275      7.3019    100.4662     27.6556
   950.4000      7.9579      2.5228      0.0389      7.7081    102.1936     28.1450
   950.5000      7.9678      2.5124      0.0130      8.3384    107.1198     28.3433
   950.6000      7.9678      2.5019      0.0548      8.9739    109.7226     27.7784
   950.7000      7.9678      2.4846      0.0168     10.0235    108.5241     27.2875
   950.8000      7.9508      2.4654     -0.0390     11.1880    105.6496     27.9389
   950.9000      7.9508      2.4626     -0.0001     11.3546    103.8726     29.0960
