~Version Information
 VERS.                                  2.0 : CWLS LAS VERSION
 WRAP.                                   NO : WRAPING MODE
 SWARE .                 MController 2.5.0J : SOFTWARE VERSION
~Well Information
 WELL.                Lorencito 15-36-33-67 : WELL
 COMP.    Pioneer Natural Resources USA Inc : COMPANY
 FLD.                      Purgatoire River : FIELD
 LOC.                 SW/SE Sec36 T33S R67W : LOCATION
 DATE.                             10/12/05 : DATE(S) LOGGED
 SRVC.       Blanco Geological Services LLC : SERVICE COMPANY
 STAT.                             Colorado : STATE
 CNTY.                            Las Animas : COUNTY
 CTRY.                                  USA : COUNTRY
 API.                       05-071-08515-00 : API NUMBER
 STRT.FT                             723.00 : START DEPTH
 STOP.FT                            1975.00 : STOP DEPTH
 STEP.FT                               1.00 : DEPTH INCREMENT
 NULL.                                -9999 : NULL VALUE
~Curve information
 DEPTH.FT                                   :
 ROP.MIN/FT                                 :
 GAS.UNITS                                  :
~ASCII Log data
       723.0     -9999.00          0.0 
       724.0         0.27          0.1 
       725.0         2.95          0.2 
       726.0         0.43          0.6 
       727.0         0.30          0.3 
       728.0         0.07          0.5 
       729.0         0.07          0.5 
       730.0         0.03          0.7 
       731.0         0.07          0.5 
       732.0         0.03          0.6 
       733.0         0.07          0.3 
       734.0         0.03          0.8 
       735.0         0.07          0.8 
       736.0         0.03          0.8 
       737.0         0.07          0.8 
       738.0         0.07          0.8 
       739.0         0.03          1.2 
       740.0         0.07          0.8 
       741.0         0.15          1.0 
       742.0         0.10          1.1 
       743.0         0.47          1.4 
       744.0         0.27          0.9 
       745.0         0.33          0.9 
       746.0         0.63          1.3 
       747.0         0.07          1.6 
       748.0         0.10          1.7 
       749.0         0.13          1.6 
       750.0         0.13          1.5 
       751.0         0.10          1.5 
       752.0         0.10          1.4 
       753.0         0.10          1.6 
       754.0         0.10          1.4 
       755.0         0.27          1.4 
       756.0         0.07          2.2 
       757.0         0.07          1.6 
       758.0         0.07          1.3 
       759.0         0.07          1.3 
       760.0         0.05          1.7 
       761.0         0.07          1.7 
       762.0         0.07          1.5 
       763.0         0.07          1.2 
       764.0         0.07          1.3 
       765.0         0.07          1.5 
       766.0         0.33          1.3 
       767.0         0.13          1.4 
       768.0         0.13          1.3 
       769.0         0.17          1.6 
       770.0         0.13          1.5 
       771.0         0.10          1.8 
       772.0         0.07          2.0 
       773.0         0.33          1.3 
       774.0         0.07          1.3 
       775.0         0.07          1.7 
       776.0         1.78          1.5 
       777.0         0.07          1.6 
       778.0         0.37          1.9 
       779.0         0.27          2.5 
       780.0         0.30          1.8 
       781.0         0.33          1.8 
       782.0         0.23          1.7 
       783.0         0.63          3.1 
       784.0         0.23          1.9 
       785.0         0.27          2.2 
       786.0         0.23          2.2 
       787.0         0.25          2.7 
       788.0         0.20          1.8 
       789.0         0.23          1.9 
       790.0         0.20          1.7 
       791.0         0.20          2.0 
       792.0         0.20          2.0 
       793.0         0.20          2.1 
       794.0         0.20          1.9 
       795.0         0.20          2.2 
       796.0         0.17          2.5 
       797.0         0.20          2.3 
       798.0         0.20          2.5 
       799.0         0.20          2.3 
       800.0         0.17          2.5 
       801.0         0.20          2.3 
       802.0         0.17          3.8 
       803.0         0.20          2.7 
       804.0         0.18          2.8 
       805.0         0.17          2.8 
       806.0         1.37          2.5 
       807.0         0.37          2.3 
       808.0         0.27          2.5 
       809.0         0.27          2.7 
       810.0         0.23          2.6 
       811.0         0.20          2.6 
       812.0         0.20          2.4 
       813.0         0.13          2.8 
       814.0         0.15          2.5 
       815.0         0.17          2.6 
       816.0         0.20          2.9 
       817.0         0.23          2.7 
       818.0         0.10          2.7 
       819.0         0.10          2.6 
       820.0         0.13          2.7 
       821.0         0.10          2.7 
       822.0         0.13          2.3 
       823.0         0.13          2.7 
       824.0         0.17          3.6 
       825.0         0.10          5.3 
       826.0         0.10          6.4 
       827.0         0.07          7.6 
       828.0         0.17          8.8 
       829.0         0.10          9.7 
       830.0         0.17         10.2 
       831.0         0.20         10.2 
       832.0         0.13         30.7 
       833.0         0.17         57.9 
       834.0         0.13         50.2 
       835.0         0.13         40.3 
       836.0         1.12         11.3 
       837.0         0.43          8.5 
       838.0         0.07          8.3 
       839.0         0.07          7.7 
       840.0         0.10          7.4 
       841.0         0.23          6.5 
       842.0         0.23          6.0 
       843.0         0.40          5.9 
       844.0         0.27          7.2 
       845.0         0.17          8.0 
       846.0         0.13          9.1 
       847.0         0.13          9.8 
       848.0         0.28         10.9 
       849.0         0.33          9.3 
       850.0         0.20          8.3 
       851.0         0.27          7.1 
       852.0         0.27          8.4 
       853.0         0.13          8.5 
       854.0         0.20          8.3 
       855.0         0.17          8.1 
       856.0         0.13          8.0 
       857.0         0.20          7.0 
       858.0         0.13          7.1 
       859.0         0.17          6.3 
       860.0         0.20          5.9 
       861.0         0.13          5.5 
       862.0         0.17          5.3 
       863.0         0.23          5.0 
       864.0         0.38          4.8 
       865.0         0.17          4.3 
       866.0         2.27          3.4 
       867.0         0.10          3.3 
       868.0         0.17          3.4 
       869.0         0.27          3.6 
       870.0         0.23          3.5 
       871.0         0.22          3.9 
       872.0         0.23          4.3 
       873.0         0.20          5.1 
       874.0         0.17          5.7 
       875.0         0.20          6.3 
       876.0         0.17          6.8 
       877.0         0.13          7.0 
       878.0         0.17          6.8 
       879.0         0.13          6.7 
       880.0         0.13          6.7 
       881.0         0.10          6.2 
       882.0         0.07          5.8 
       883.0         0.10          6.4 
       884.0         0.10          5.5 
       885.0         0.13          5.6 
       886.0         0.13          5.6 
       887.0         0.17          5.1 
       888.0         0.17          5.1 
       889.0         0.20          5.5 
       890.0         0.17          6.6 
       891.0         0.23         11.4 
       892.0         0.28         16.0 
       893.0         0.23         16.9 
       894.0         0.17         16.4 
       895.0         0.10         15.2 
       896.0         1.23          7.2 
       897.0         0.07          6.7 
       898.0         0.23          6.2 
       899.0         0.20          6.3 
       900.0         0.23          6.4 
       901.0         0.27          6.1 
       902.0         0.23          6.1 
       903.0         0.35          7.3 
       904.0         0.43         12.8 
       905.0         0.17         14.6 
       906.0         0.27         15.2 
       907.0         0.17         15.0 
       908.0         0.23         12.3 
       909.0         0.20         11.9 
       910.0         0.23          9.3 
       911.0         0.23          8.9 
       912.0         0.23          8.0 
       913.0         0.27          7.2 
       914.0         0.30          6.6 
       915.0         0.23          6.5 
       916.0         0.20          6.3 
       917.0         0.25          6.0 
       918.0         0.23          6.1 
       919.0         0.23          5.8 
       920.0         0.23          6.0 
       921.0         0.20          6.1 
       922.0         0.23          5.9 
