~Version Information
VERS.                      2.0: CWLS Log ASCII Standard - VERSION 2.0
WRAP.                       NO: One line per depth step
~Well Information Block
STRT.FT               840.0000: 
STOP.FT              1912.0000: 
STEP.FT                 0.1000: 
NULL.                -999.2500: 
COMP.          Petrogulf Corporation: COMPANY
WELL.             Kraft 17-23R: WELL
FLD.           Purgatorie River: FIELD
LOC.           1509' FSL & 1673' FWL: LOCATION
PROV.                 Colorado: PROVINCE
CNTY.               Las Animas: COUNTRY
SRVC.                Patterson: SERVICE COMPANY
DATE.          Wed Oct 12 07:01:14 2005: LOG DATE
UWI.                          : UNIQUE WELL ID
~Curve Information Block
DEPT.FT            0 000 00 00: Depth
DCAL.in                       : CDL Caliper
RHOB.g/cc                     : CDL Bulk Density
RHOC.g/cc                     : CDL Density Correction
DPOR.pu                       : CDL Density Porosity
GR.GAPI                       : Gamma Ray
NPOR.pu                       : Neutron Porosity
~Parameter Information Block
~A  Depth       DCAL        RHOB        RHOC        DPOR         GR         NPOR    
# ...
  1752.0000      7.8615      2.5592      0.0904      5.5057    149.7740     29.4037
  1752.1000      7.8615      2.5746      0.1235      4.5714    150.3975     29.4143
  1752.2000      7.8615      2.5751      0.0789      4.5391    147.8912     29.0078
  1752.3000      7.8790      2.5635      0.0856      5.2410    144.2079     28.3019
  1752.4000      7.8790      2.5441      0.1060      6.4169    140.5864     27.6629
  1752.5000      7.8499      2.5281      0.0260      7.3880    138.6114     27.2012
  1752.6000      7.8499      2.5364      0.0346      6.8844    138.7453     26.9182
  1752.7000      7.8499      2.5580      0.0952      5.5781    140.6796     26.8092
  1752.8000      7.8875      2.5586      0.0725      5.5375    144.2388     26.8071
  1752.9000      7.8875      2.5449     -0.0201      6.3698    147.9802     26.7309
  1753.0000      7.9004      2.5439      0.0428      6.4329    148.5058     26.3583
  1753.1000      7.9004      2.5480      0.0517      6.1817    144.3349     25.7201
  1753.2000      7.9004      2.5381      0.0422      6.7838    139.9007     25.0842
  1753.3000      7.8865      2.5150      0.0369      8.1793    138.1087     24.6216
  1753.4000      7.8865      2.4910      0.0314      9.6390    136.6493     24.2091
  1753.5000      7.8816      2.4758      0.0304     10.5571    134.6699     23.8305
  1753.6000      7.8816      2.4731      0.0219     10.7223    133.2552     23.6718
  1753.7000      7.8816      2.4834      0.0118     10.0961    133.9471     23.6622
  1753.8000      7.8922      2.5091      0.0229      8.5377    137.2571     23.7818
  1753.9000      7.8922      2.5432      0.0947      6.4730    140.5966     24.1574
  1754.0000      7.8498      2.5672      0.1167      5.0211    139.9526     24.7309
  1754.1000      7.8498      2.5731      0.0970      4.6605    134.9420     25.3692
  1754.2000      7.8498      2.5704      0.0738      4.8265    130.9484     25.7431
  1754.3000      7.7967      2.5659      0.0881      5.0989    131.3926     25.7620
  1754.4000      7.7967      2.5512      0.1232      5.9857    134.3554     25.7697
  1754.5000      7.7892      2.5247      0.0661      7.5920    137.6645     25.8422
  1754.6000      7.7892      2.4965      0.0716      9.3038    141.1002     25.9916
  1754.7000      7.7892      2.4664      0.0600     11.1249    143.9444     26.4074
  1754.8000      7.8041      2.4346      0.0538     13.0539    144.8345     26.8586
  1754.9000      7.8041      2.4171      0.0063     14.1122    144.3553     27.0141
  1755.0000      7.8663      2.4250      0.0573     13.6342    145.3145     27.0511
  1755.1000      7.8663      2.4362      0.1028     12.9557    147.7546     27.0295
  1755.2000      7.8663      2.4253      0.0612     13.6207    148.4211     26.9764
  1755.3000      7.8890      2.3910      0.1006     15.6984    146.7785     27.0934
  1755.4000      7.8890      2.3502      0.0520     18.1667    144.2663     27.2391
  1755.5000      7.8847      2.3328      0.0608     19.2245    142.8705     27.4244
  1755.6000      7.8847      2.3493      0.1619     18.2250    144.0542     27.8654
  1755.7000      7.8847      2.3794      0.2264     16.3997    147.1810     28.4370
  1755.8000      7.9306      2.4081      0.1979     14.6608    151.7888     28.8998
  1755.9000      7.9306      2.4375      0.2065     12.8785    155.6875     29.2729
  1756.0000      7.9155      2.4705      0.1831     10.8775    154.0212     29.5844
  1756.1000      7.9155      2.5025      0.2587      8.9370    147.5730     29.6540
  1756.2000      7.9155      2.5185      0.2935      7.9675    142.4960     29.4782
  1756.3000      7.9153      2.5049      0.3351      8.7941    140.1073     29.3836
  1756.4000      7.9153      2.4664      0.2560     11.1249    138.6212     29.5294
  1756.5000      7.9501      2.4275      0.2267     13.4848    138.6412     29.8124
  1756.6000      7.9501      2.4078      0.1758     14.6766    139.2422     29.9518
  1756.7000      7.9501      2.4032      0.1855     14.9556    137.6441     29.5946
  1756.8000      7.9475      2.3960      0.1241     15.3938    133.5553     28.7883
  1756.9000      7.9475      2.3807      0.0590     16.3237    127.0388     28.0367
  1757.0000      7.8877      2.3583      0.0719     17.6785    117.2572     27.7705
  1757.1000      7.8877      2.3198      0.1061     20.0129    107.3104     27.7520
  1757.2000      7.8877      2.2653      0.0766     23.3133    101.5416     27.4328
  1757.3000      7.8224      2.2141      0.1248     26.4207     99.1990     26.7659
  1757.4000      7.8224      2.1805      0.0639     28.4544     99.6443     26.1379
  1757.5000      7.6633      2.1641      0.0753     29.4473    104.0204     26.0304
  1757.6000      7.6633      2.1574      0.0564     29.8553    110.6147     26.5452
  1757.7000      7.6633      2.1664      0.0547     29.3106    117.4093     27.1767
  1757.8000      7.7355      2.2048      0.1045     26.9814    123.9033     27.5938
  1757.9000      7.7355      2.2579      0.2065     23.7634    131.1742     28.0625
  1758.0000      8.1100      2.2929      0.2010     21.6409    139.7018     28.7703
  1758.1000      8.1100      2.3087      0.1689     20.6828    148.9897     29.4323
  1758.2000      8.1100      2.3309      0.1210     19.3389    157.7824     29.7046
  1758.3000      8.1639      2.3717      0.0493     16.8682    162.8565     29.6022
  1758.4000      8.1639      2.4199      0.0518     13.9473    163.3803     29.4122
  1758.5000      8.0157      2.4587      0.0420     11.5927    162.8053     29.3855
  1758.6000      8.0157      2.4875      0.0350      9.8470    163.4352     29.5266
  1758.7000      8.0157      2.5165      0.0585      8.0909    165.0196     29.6423
  1758.8000      8.0366      2.5406      0.1029      6.6288    167.1579     29.6509
  1758.9000      8.0366      2.5487      0.0778      6.1408    169.5579     29.6280
  1759.0000      8.0170      2.5470      0.1160      6.2409    172.4919     29.5963
  1759.1000      8.0170      2.5520      0.0894      5.9395    174.5768     29.5884
  1759.2000      8.0170      2.5708      0.0996      4.8022    174.1205     29.6527
  1759.3000      8.1066      2.5872      0.1290      3.8054    171.9882     29.7671
  1759.4000      8.1066      2.5818      0.1017      4.1363    170.7215     29.8750
  1759.5000      8.0627      2.5601      0.0502      5.4477    170.7289     29.8251
  1759.6000      8.0627      2.5394      0.0484      6.7016    168.5621     29.4406
  1759.7000      8.0627      2.5242      0.0573      7.6243    166.3486     28.8439
  1759.8000      7.8133      2.5169      0.0619      8.0672    170.3124     28.3788
  1759.9000      7.8133      2.5242      0.0786      7.6215    181.2072     28.1550
  1760.0000      7.8010      2.5381      0.0998      6.7830    194.7138     28.1921
  1760.1000      7.8010      2.5444      0.0925      6.3975    203.0280     28.5502
  1760.2000      7.8010      2.5399      0.1224      6.6727    201.8670     29.0827
  1760.3000      7.9036      2.5190      0.1006      7.9394    194.7840     29.4788
  1760.4000      7.9036      2.4678      0.1162     11.0448    187.1578     29.5425
  1760.5000      7.9078      2.3817      0.0937     16.2585    181.0313     29.4774
  1760.6000      7.9078      2.2889      0.0413     21.8831    175.7744     29.7011
  1760.7000      7.9078      2.2266      0.0538     25.6628    170.0345     30.2451
  1760.8000      7.9341      2.1957      0.0650     27.5323    164.8074     30.6492
  1760.9000      7.9341      2.1769      0.0685     28.6755    161.6212     30.6482
  1761.0000      7.9330      2.1699      0.0772     29.0985    160.0412     30.5802
  1761.1000      7.9330      2.1918      0.1139     27.7701    159.9388     30.6497
  1761.2000      7.9330      2.2496      0.2248     24.2665    160.8402     30.5608
  1761.3000      7.8313      2.3258      0.2916     19.6460    160.3281     30.3206
  1761.4000      7.8313      2.3962      0.2696     15.3847    158.5335     30.1673
  1761.5000      7.8246      2.4453      0.2317     12.4047    156.8424     30.0716
