~Version Information
VERS.                      2.0: CWLS Log ASCII Standard - VERSION 2.0
WRAP.                       NO: One line per depth step
~Well Information Block
STRT.FT               370.0000: 
STOP.FT              2832.5000: 
STEP.FT                 0.1000: 
NULL.                -999.2500: 
COMP.          Pioneer Natural Resources: COMPANY
WELL.          Black Cat 13-32: WELL
FLD.           Purgatoire River: FIELD
LOC.           1865' FSL & 1120' FWL--: LOCATION
PROV.                 Colorado: PROVINCE
CNTY.               Las Animas: COUNTRY
SRVC.                Patterson: SERVICE COMPANY
DATE.          Sun Jul 31 08:38:44 2005: LOG DATE
UWI.           05 071 08450 00: UNIQUE WELL ID
~Curve Information Block
DEPT.FT            0 000 00 00: Depth
DCAL.in                       : CDL Caliper
DPOR.pu                       : CDL Density Porosity
NPOR.pu                       : Neutron Porosity
RHOB.g/cc                     : CDL Bulk Density
RHOC.g/cc                     : CDL Density Correction
GR.GAPI                       : Gamma Ray
~Parameter Information Block
~A  Depth       DCAL        DPOR        NPOR        RHOB        RHOC         GR     
# ...
  1589.2000      8.1496     15.9674     31.4288      2.3865      0.0797    130.4901
  1589.3000      8.1555     15.4837     31.4473      2.3945      0.1002    131.3957
  1589.4000      8.1555     16.3293     31.9806      2.3806      0.0727    129.7523
  1589.5000      8.1757     17.3427     32.3302      2.3638      0.0673    125.6289
  1589.6000      8.1757     16.7598     32.4269      2.3735      0.0689    128.6823
  1589.7000      8.1757     14.3794     32.6927      2.4127      0.1415    138.9007
  1589.8000      8.2141     11.6926     33.0158      2.4571      0.2036    142.9282
  1589.9000      8.2141      9.9345     33.1648      2.4861      0.1994    137.8296
  1590.0000      8.2614      9.1374     33.3134      2.4992      0.2020    131.9903
  1590.1000      8.2614      9.0768     33.3076      2.5002      0.1723    131.5616
  1590.2000      8.2614     10.0391     32.9144      2.4844      0.2011    134.5755
  1590.3000      8.3048     12.4063     32.4820      2.4453      0.1834    134.1078
  1590.4000      8.3048     15.6561     32.2663      2.3917      0.1267    128.0491
  1590.5000      8.3178     18.2860     32.3695      2.3483      0.0384    122.1682
  1590.6000      8.3178     19.7242     32.7750      2.3245      0.1035    121.5716
  1590.7000      8.3178     21.5168     33.3651      2.2950      0.1003    123.2180
  1590.8000      8.2993     25.1014     34.3223      2.2358      0.0637    120.3879
  1590.9000      8.2993     30.3479     35.3152      2.1493      0.0136    114.2274
  1591.0000      8.2672     36.3702     35.7565      2.0499     -0.0132    111.7255
  1591.1000      8.2672     42.0344     35.8714      1.9564     -0.0489    112.9211
  1591.2000      8.2672     46.6790     35.7306      1.8798     -0.0422    111.3822
  1591.3000      8.2221     50.7516     34.9708      1.8126     -0.0735    105.1913
  1591.4000      8.2221     54.6202     34.2350      1.7488     -0.0881     99.7199
  1591.5000      8.1872     57.4139     34.3704      1.7027     -0.1540     99.0419
  1591.6000      8.1872     58.6505     34.9898      1.6823     -0.0232     97.6166
  1591.7000      8.1872     59.6719     35.2224      1.6654     -0.0181     90.6175
  1591.8000      8.1651     61.2404     35.1369      1.6395     -0.0164     83.9133
  1591.9000      8.1651     62.7346     35.5158      1.6149      0.0583     82.8908
  1592.0000      8.1505     63.8637     36.2883      1.5962      0.0566     83.5411
  1592.1000      8.1505     64.7913     36.7328      1.5809      0.0611     80.9489
  1592.2000      8.1505     65.9324     36.7471      1.5621      0.0604     76.9793
  1592.3000      8.1397     67.8623     36.6741      1.5303      0.0163     74.0631
  1592.4000      8.1397     70.8681     36.5297      1.4807     -0.0250     70.9348
  1592.5000      8.1382     74.6340     36.1109      1.4185     -0.0537     67.7301
  1592.6000      8.1382     78.1745     35.6735      1.3601     -0.0815     64.1266
  1592.7000      8.1382     80.4130     35.6000      1.3232     -0.0649     58.9583
  1592.8000      8.1884     80.5773     35.6342      1.3205     -0.0446     57.0284
  1592.9000      8.1884     78.5233     35.1698      1.3544      0.0212     59.9276
  1593.0000      8.3436     74.8715     34.2135      1.4146      0.0826     60.3367
  1593.1000      8.3436     70.1815     33.4284      1.4920      0.1149     56.4961
  1593.2000      8.3436     64.6758     33.3047      1.5828      0.1430     54.1928
  1593.3000      8.5383     58.4880     33.7235      1.6849      0.1793     56.9026
  1593.4000      8.5383     51.3118     33.9578      1.8034      0.1812     64.6660
  1593.5000      8.5799     43.0328     33.6696      1.9400      0.2394     72.7151
  1593.6000      8.5799     35.0995     33.2175      2.0709      0.3177     76.1835
  1593.7000      8.5799     29.1613     33.0806      2.1688      0.2945     77.3280
  1593.8000      8.4078     25.0091     33.4762      2.2373      0.2676     81.1760
  1593.9000      8.4078     21.7371     33.7320      2.2913      0.2602     91.9500
  1594.0000      8.1696     19.5024     33.2433      2.3282      0.2596    107.1734
  1594.1000      8.1696     18.6535     32.6154      2.3422      0.1800    117.2541
  1594.2000      8.1696     18.3208     32.4597      2.3477      0.1193    118.2090
  1594.3000      8.0435     17.4595     32.5958      2.3619      0.1059    114.3291
  1594.4000      8.0435     16.3661     32.6937      2.3800      0.0972    108.9443
  1594.5000      8.0193     16.0267     32.4349      2.3856      0.1108    103.9785
  1594.6000      8.0193     16.2705     31.5908      2.3815      0.0573    104.3566
  1594.7000      8.0193     15.6230     30.6598      2.3922      0.0626    110.9507
  1594.8000      8.0198     13.6558     30.2976      2.4247      0.0770    119.3214
  1594.9000      8.0198     11.3891     30.2141      2.4621      0.0885    122.5887
  1595.0000      8.0200      9.4697     30.0076      2.4938      0.0936    117.9846
  1595.1000      8.0200      7.9585     29.7109      2.5187      0.0787    112.0540
  1595.2000      8.0200      6.8577     29.0674      2.5368      0.0750    109.5238
  1595.3000      8.0186      5.7379     28.1084      2.5553      0.0943    108.3646
  1595.4000      8.0186      3.9445     27.3865      2.5849      0.1123    106.7693
  1595.5000      8.0172      1.9929     26.9927      2.6171      0.1389    103.3986
  1595.6000      8.0172      0.9500     26.8127      2.6343      0.1007     96.5223
  1595.7000      8.0172      0.5339     26.6920      2.6412      0.0939     86.8388
  1595.8000      8.0102      0.2869     26.4825      2.6453      0.1069     79.0408
  1595.9000      8.0102      0.8157     26.3469      2.6365      0.0849     78.9564
  1596.0000      7.9982      2.2926     26.3694      2.6122      0.0483     86.6851
  1596.1000      7.9982      3.6508     26.4931      2.5898      0.0060     94.7749
  1596.2000      7.9982      4.0623     26.7124      2.5830     -0.0075     98.8568
  1596.3000      7.9921      4.2416     26.9348      2.5800      0.0321    101.6501
  1596.4000      7.9921      4.8644     27.1536      2.5697      0.0095    104.3242
  1596.5000      7.9929      4.9789     27.5016      2.5678     -0.0014    105.3250
  1596.6000      7.9929      4.0621     27.6519      2.5830      0.0608    104.9555
  1596.7000      7.9929      3.4164     27.3936      2.5936      0.0649    104.5907
  1596.8000      7.9946      4.2050     27.3794      2.5806      0.1015    105.1260
  1596.9000      7.9946      6.0786     27.8186      2.5497      0.0314    108.0874
  1597.0000      7.9957      7.8523     28.2421      2.5204      0.0169    111.5758
  1597.1000      7.9957      8.8227     28.6625      2.5044      0.0202    112.1646
  1597.2000      7.9957      9.1843     29.2464      2.4985      0.0481    112.1605
  1597.3000      7.9947      9.7695     29.8500      2.4888      0.0307    113.3091
  1597.4000      7.9947     11.4119     30.3734      2.4617      0.0385    114.6019
  1597.5000      7.9917     14.2289     30.8873      2.4152      0.0120    117.7359
  1597.6000      7.9917     17.7300     31.3597      2.3575      0.0080    121.1362
  1597.7000      7.9917     21.6218     31.8857      2.2932     -0.0358    119.1193
  1597.8000      7.9906     26.1202     32.7161      2.2190     -0.0522    111.7310
  1597.9000      7.9906     31.5386     33.8008      2.1296     -0.0781    105.0050
  1598.0000      7.9917     37.6032     34.5810      2.0295     -0.1052    102.4375
  1598.1000      7.9917     43.7011     34.8375      1.9289     -0.1275    102.4050
  1598.2000      7.9917     50.0842     35.0795      1.8236     -0.1119    103.0687
  1598.3000      7.9973     57.1589     35.6004      1.7069     -0.1586    105.6926
  1598.4000      7.9973     63.7637     36.0611      1.5979     -0.1514    111.0852
  1598.5000      8.0159     68.3457     36.3137      1.5223     -0.0989    113.7604
  1598.6000      8.0159     71.2344     36.6009      1.4746     -0.0145    108.1238
  1598.7000      8.0159     73.7853     36.9268      1.4325     -0.0124     98.2212
