~Version Information
 VERS.                                  2.0 : CWLS LAS VERSION
 WRAP.                                   NO : WRAPING MODE
 SWARE .                 MController 2.5.0N : SOFTWARE VERSION
~Well Information
 WELL.                            AMX 13-13 : WELL
 COMP.  Pioneer Natural Resources USA, Inc. : COMPANY
 FLD.                      Purgatoire River : FIELD
 LOC.                      NW/SW 13-32S-68W : LOCATION
 DATE.                          12/18-19/05 : DATE(S) LOGGED
 SRVC.       BLANCO Geological Services LLC : SERVICE COMPANY
 STAT.                                   CO : STATE
 CNTY.                           Las Animas : COUNTY
 CTRY.                                  USA : COUNTRY
 API.                          05-071-08630 : API NUMBER
 STRT.FT                             496.00 : START DEPTH
 STOP.FT                            2875.00 : STOP DEPTH
 STEP.FT                               1.00 : DEPTH INCREMENT
 NULL.                                -9999 : NULL VALUE
~Curve information
 DEPTH.FT                                   :
 ROP.MIN/FT                                 :
 GAS.UNITS                                  :
~ASCII Log data
# ...
      1696.0         0.33        320.9 
      1697.0         0.30       1124.5 
      1698.0         0.23       1374.5 
      1699.0         0.23       1497.0 
      1700.0         0.32       1513.0 
      1701.0         0.27       1463.9 
      1702.0         0.23       1356.7 
      1703.0         0.20       1280.5 
      1704.0         0.23       1222.7 
      1705.0         0.30       1140.8 
      1706.0         3.12       1985.2 
      1707.0         0.60       1837.6 
      1708.0         0.33       1698.9 
      1709.0         0.33       1495.8 
      1710.0         0.37       1305.2 
      1711.0         0.37       1176.1 
      1712.0         0.35       1085.5 
      1713.0         0.30        998.6 
      1714.0         0.27        920.2 
      1715.0         0.23        854.8 
      1716.0         0.23        812.7 
      1717.0         0.23        786.7 
      1718.0         0.23        769.5 
      1719.0         0.23        758.0 
      1720.0         0.23        751.4 
      1721.0         0.30        739.2 
      1722.0         0.27        730.8 
      1723.0         0.30        741.7 
      1724.0         0.58        757.3 
      1725.0         0.53        772.7 
      1726.0         0.70        800.2 
      1727.0         0.60        773.0 
      1728.0         0.20        684.5 
      1729.0         0.23        683.6 
      1730.0         0.17        687.0 
      1731.0         0.27        690.8 
      1732.0         0.27        691.4 
      1733.0         0.32        680.5 
      1734.0         0.33        604.8 
      1735.0         0.33        513.9 
      1736.0         2.13       2600.5 
      1737.0         0.55       2541.7 
      1738.0         0.33       1727.6 
      1739.0         0.30       1217.3 
      1740.0         0.30        936.4 
      1741.0         0.30        761.1 
      1742.0         0.33        670.8 
      1743.0         0.33        624.5 
      1744.0         0.27        604.2 
      1745.0         0.30        592.3 
      1746.0         0.33        572.7 
      1747.0         0.35        548.9 
      1748.0         0.30        549.2 
      1749.0         0.33        550.2 
      1750.0         0.40        542.3 
      1751.0         0.33        510.1 
      1752.0         0.20        492.3 
      1753.0         0.30        491.1 
      1754.0         0.27        496.4 
      1755.0         0.40        497.3 
      1756.0         0.37        488.9 
      1757.0         0.30        479.8 
      1758.0         0.28        452.6 
      1759.0         0.17        440.0 
      1760.0         0.13        172.3 
      1761.0         0.17        169.8 
      1762.0         0.17        161.0 
      1763.0         0.20        149.2 
      1764.0         0.27        136.8 
      1765.0         0.27        133.0 
      1766.0         2.65       2421.7 
      1767.0         0.33       1984.8 
      1768.0         0.23       1494.2 
      1769.0         0.27       1201.4 
      1770.0         0.63        920.2 
      1771.0         0.57        542.3 
      1772.0         0.52        586.1 
      1773.0         0.53        585.8 
      1774.0         0.50        522.0 
      1775.0         0.50        461.4 
      1776.0         0.53        440.0 
      1777.0         0.50        160.7 
      1778.0         0.50        158.9 
      1779.0         0.52        175.8 
      1780.0         0.23        187.2 
      1781.0         0.23        195.3 
      1782.0         0.17        208.9 
      1783.0         0.33        251.7 
      1784.0         0.60        317.6 
      1785.0         0.63        359.1 
      1786.0         0.47        360.0 
      1787.0         0.52        341.4 
      1788.0         0.57        304.7 
      1789.0         0.60        258.5 
      1790.0         0.27        190.9 
      1791.0         0.23        177.3 
      1792.0         0.13        171.0 
      1793.0         0.13        166.1 
      1794.0         0.17        156.6 
      1795.0         0.20        142.7 
      1796.0         2.48       2203.3 
      1797.0         0.17       2050.2 
      1798.0         0.40       1986.4 
      1799.0         0.33       1642.0 
      1800.0         0.27       1216.7 
      1801.0         0.27        947.7 
      1802.0         0.23        767.7 
      1803.0         0.28        667.7 
      1804.0         0.23        592.7 
      1805.0         0.20        558.3 
      1806.0         0.33        540.8 
      1807.0         0.40        519.8 
      1808.0         0.27        501.4 
      1809.0         0.23        490.1 
      1810.0         0.23        478.9 
      1811.0         0.27        469.2 
      1812.0         0.27        455.8 
      1813.0         0.27        448.3 
      1814.0         0.27        440.0 
      1815.0         0.32        170.0 
      1816.0         0.20        163.5 
      1817.0         0.13        163.6 
      1818.0         0.13        165.4 
      1819.0         0.13        167.5 
      1820.0         0.20        170.4 
      1821.0         0.23        172.6 
      1822.0         0.27        173.3 
      1823.0         0.23        172.9 
      1824.0         0.23        168.1 
      1825.0         0.40        154.2 
      1826.0         2.48       1952.3 
      1827.0         0.60       1996.7 
      1828.0         0.53       1745.5 
      1829.0         0.33       1093.0 
      1830.0         0.33        818.0 
      1831.0         0.28        653.0 
      1832.0         0.20        575.5 
      1833.0         0.23        544.5 
      1834.0         0.30        531.1 
      1835.0         0.33        518.9 
      1836.0         0.27        507.3 
      1837.0         0.30        495.5 
      1838.0         0.23        480.8 
      1839.0         0.30        472.3 
      1840.0         0.30        461.1 
      1841.0         0.27        450.1 
      1842.0         0.23        442.6 
      1843.0         0.62        440.0 
      1844.0         0.30        161.0 
      1845.0         0.13        163.5 
      1846.0         0.20        167.8 
      1847.0         0.27        174.6 
      1848.0         0.30        178.1 
      1849.0         0.43        178.0 
      1850.0         0.30        171.9 
      1851.0         0.27        169.0 
      1852.0         0.30        168.9 
      1853.0         0.27        161.0 
      1854.0         0.28        142.8 
      1855.0         0.13        123.7 
      1856.0         2.07       1836.1 
      1857.0         0.37       2245.2 
      1858.0         0.37       2408.6 
      1859.0         0.45       2408.0 
      1860.0         0.27       2050.8 
      1861.0         0.30       1710.5 
      1862.0         0.20       1278.0 
      1863.0         0.27       1088.3 
      1864.0         0.63        993.3 
      1865.0         0.30        873.0 
      1866.0         0.20        746.1 
      1867.0         0.37        674.2 
      1868.0         0.43        586.4 
      1869.0         0.22        562.3 
      1870.0         0.43        564.2 
      1871.0         0.50        543.0 
      1872.0         0.47        500.1 
      1873.0         0.40        463.3 
      1874.0         0.40        440.0 
      1875.0         0.23        161.4 
      1876.0         0.30        157.4 
      1877.0         0.27        154.1 
      1878.0         0.27        152.4 
      1879.0         0.28        150.0 
      1880.0         0.20        147.0 
      1881.0         0.13        149.7 
      1882.0         0.17        153.1 
      1883.0         0.23        153.7 
      1884.0         0.23        150.4 
      1885.0         0.20        138.8 
      1886.0         2.48       2024.8 
      1887.0         0.53       2032.0 
      1888.0         0.70       1619.8 
      1889.0         0.50        909.2 
      1890.0         0.47        653.6 
      1891.0         0.50        571.7 
      1892.0         0.42        532.0 
      1893.0         0.43        501.4 
      1894.0         0.40        474.8 
      1895.0         0.40        458.3 
