~Version Information
VERS.                      2.0: CWLS Log ASCII Standard - VERSION 2.0
WRAP.                       NO: One line per depth step
~Well Information Block
STRT.FT               538.0000: 
STOP.FT              1769.0000: 
STEP.FT                 0.1000: 
NULL.                -999.2500: 
COMP.          Pioneer Natural Resources: COMPANY
WELL.            Dude 43-34 Tr: WELL
FLD.           Purgatoire River: FIELD
LOC.           2083' FSL & 1042' FEL: LOCATION
PROV.                 Colorado: PROVINCE
CNTY.               Las Animas: COUNTRY
SRVC.                Patterson: SERVICE COMPANY
DATE.          Thu Jan 26 07:02:09 2006: LOG DATE
UWI.           05 071 08676 00: UNIQUE WELL ID
~Curve Information Block
DEPT.FT            0 000 00 00: Depth
DCAL.in                       : CDL Caliper
RHOB.g/cc                     : CDL Bulk Density
RHOC.g/cc                     : CDL Density Correction
DPOR.pu                       : CDL Density Porosity
GR.GAPI                       : Gamma Ray
~Parameter Information Block
~A  Depth       DCAL        RHOB        RHOC        DPOR         GR     
# ...
  1355.6000      7.9228      2.5922     -0.0060      3.5004    108.4082
  1355.7000      7.9228      2.5994      0.0622      3.0670    111.5714
  1355.8000      7.9211      2.5858      0.0383      3.8910    113.1831
  1355.9000      7.9211      2.5715     -0.0111      4.7602    113.0882
  1356.0000      7.9270      2.5775      0.0274      4.3915    113.2130
  1356.1000      7.9270      2.5963      0.0918      3.2537    114.4606
  1356.2000      7.9270      2.6168      0.0860      2.0122    115.2089
  1356.3000      7.9129      2.6295      0.1095      1.2417    115.3049
  1356.4000      7.9129      2.6259      0.1374      1.4578    115.4021
  1356.5000      7.8922      2.6136      0.0900      2.2077    114.7771
  1356.6000      7.8922      2.6110      0.0943      2.3666    115.8359
  1356.7000      7.8922      2.6332      0.0897      1.0187    119.3693
  1356.8000      7.8991      2.6763      0.1267     -1.5940    121.3408
  1356.9000      7.8991      2.7174      0.1895     -4.0854    120.7528
  1357.0000      7.9047      2.7309      0.2126     -4.9052    120.7172
  1357.1000      7.9047      2.7032      0.1986     -3.2220    122.0334
  1357.2000      7.9047      2.6469      0.0948      0.1890    122.6057
  1357.3000      7.9139      2.5904      0.1168      3.6113    122.2893
  1357.4000      7.9139      2.5583     -0.0229      5.5581    122.7285
  1357.5000      7.9115      2.5664      0.0757      5.0687    126.4203
  1357.6000      7.9115      2.5992      0.0883      3.0794    131.8843
  1357.7000      7.9115      2.6246      0.1481      1.5397    132.0831
  1357.8000      7.9185      2.6367      0.0755      0.8035    128.3994
  1357.9000      7.9185      2.6517      0.1281     -0.1039    126.5949
  1358.0000      7.9272      2.6665      0.1326     -1.0024    127.3589
  1358.1000      7.9272      2.6692      0.1319     -1.1651    132.4747
  1358.2000      7.9272      2.6603      0.1287     -0.6239    142.6061
  1358.3000      7.9121      2.6498      0.1026      0.0109    149.3913
  1358.4000      7.9121      2.6592      0.0961     -0.5581    143.1892
  1358.5000      7.9146      2.6914      0.1476     -2.5096    130.6939
  1358.6000      7.9146      2.7059      0.1024     -3.3853    125.3240
  1358.7000      7.9146      2.6746      0.1238     -1.4931    128.1094
  1358.8000      7.9075      2.6195      0.1010      1.8482    132.1848
  1358.9000      7.9075      2.5771      0.0881      4.4206    134.0445
  1359.0000      7.8979      2.5623      0.1149      5.3138    133.9880
  1359.1000      7.8979      2.5582      0.1147      5.5649    133.1823
  1359.2000      7.8979      2.5488      0.0798      6.1351    133.9326
  1359.3000      7.9011      2.5428      0.1188      6.4946    138.5132
  1359.4000      7.9011      2.5398      0.1297      6.6813    143.4930
  1359.5000      7.9050      2.5283      0.0828      7.3775    142.4535
  1359.6000      7.9050      2.5172      0.0657      8.0485    140.7271
  1359.7000      7.9050      2.5258      0.0712      7.5263    143.9253
  1359.8000      7.9268      2.5586      0.0949      5.5405    146.5164
  1359.9000      7.9268      2.5957      0.1147      3.2930    147.1510
  1360.0000      7.9319      2.6110      0.1710      2.3638    146.9215
  1360.1000      7.9319      2.6002      0.1359      3.0166    143.7303
  1360.2000      7.9319      2.5829      0.1153      4.0687    139.1039
  1360.3000      7.8941      2.5734      0.1284      4.6395    135.3836
  1360.4000      7.8941      2.5748      0.0859      4.5602    132.4943
  1360.5000      7.8948      2.5883      0.1064      3.7376    130.2185
  1360.6000      7.8948      2.6000      0.1432      3.0312    127.7123
  1360.7000      7.8948      2.5984      0.0537      3.1275    123.6410
  1360.8000      7.9074      2.6023      0.0883      2.8896    121.3246
  1360.9000      7.9074      2.6234      0.0489      1.6142    123.3701
  1361.0000      7.9320      2.6385      0.1404      0.6974    127.8091
  1361.1000      7.9320      2.6261      0.1094      1.4475    133.9266
  1361.2000      7.9320      2.6101      0.0706      2.4170    140.4034
  1361.3000      7.9201      2.6305      0.0405      1.1827    143.8401
  1361.4000      7.9201      2.6864      0.1141     -2.2033    141.9606
  1361.5000      7.9250      2.7359      0.1464     -5.2079    134.7616
  1361.6000      7.9250      2.7439      0.1488     -5.6937    125.0939
  1361.7000      7.9250      2.7245      0.0454     -4.5139    117.2772
  1361.8000      7.9233      2.7187      0.0801     -4.1617    116.1385
  1361.9000      7.9233      2.7310      0.0723     -4.9093    119.8740
  1362.0000      7.9229      2.7399      0.0614     -5.4513    121.2575
  1362.1000      7.9229      2.7395      0.0688     -5.4268    118.2712
  1362.2000      7.9229      2.7318      0.0776     -4.9563    113.2229
  1362.3000      7.9254      2.7250      0.0457     -4.5424    110.6157
  1362.4000      7.9254      2.7381      0.0283     -5.3393    114.3736
  1362.5000      7.9222      2.7669      0.0898     -7.0832    119.0618
  1362.6000      7.9222      2.7803      0.0739     -7.8999    117.8024
  1362.7000      7.9222      2.7669      0.0808     -7.0853    113.9823
  1362.8000      7.9227      2.7421      0.0514     -5.5815    111.2011
  1362.9000      7.9227      2.7242      0.0747     -4.4951    111.1903
  1363.0000      7.9156      2.7155      0.0925     -3.9723    118.3924
  1363.1000      7.9156      2.7080      0.0463     -3.5156    126.5685
  1363.2000      7.9156      2.6975      0.0295     -2.8763    126.9751
  1363.3000      7.9214      2.6795      0.0643     -1.7882    123.9770
  1363.4000      7.9214      2.6535      0.0370     -0.2151    120.1325
  1363.5000      7.9211      2.6320      0.0295      1.0880    114.2598
  1363.6000      7.9211      2.6239     -0.0165      1.5804    108.9845
  1363.7000      7.9211      2.6251      0.0610      1.5087    107.2541
  1363.8000      7.9426      2.6341      0.0045      0.9638    111.0084
  1363.9000      7.9426      2.6561      0.0749     -0.3711    118.3226
  1364.0000      7.9401      2.6775      0.0418     -1.6679    123.8708
  1364.1000      7.9401      2.6785      0.0489     -1.7280    127.1489
  1364.2000      7.9401      2.6706      0.0116     -1.2481    128.9227
  1364.3000      7.9488      2.6788      0.0411     -1.7484    129.4999
  1364.4000      7.9488      2.7004      0.0562     -3.0571    131.9861
  1364.5000      7.9639      2.7145      0.0646     -3.9102    136.1479
  1364.6000      7.9639      2.7106      0.1064     -3.6734    139.2307
  1364.7000      7.9639      2.6928      0.0603     -2.5912    141.3289
  1364.8000      7.9577      2.6701      0.0420     -1.2177    139.2688
  1364.9000      7.9577      2.6504     -0.0058     -0.0272    133.8101
  1365.0000      7.9481      2.6371      0.0531      0.7814    134.6199
  1365.1000      7.9481      2.6248      0.0502      1.5274    140.6980
  1365.2000      7.9481      2.6214      0.0116      1.7323    141.3805
  1365.3000      7.9454      2.6464     -0.0350      0.2165    135.5188
  1365.4000      7.9454      2.6853      0.0394     -2.1396    130.0191
  1365.5000      7.9491      2.7053      0.0387     -3.3544    129.4477
  1365.6000      7.9491      2.7093      0.0472     -3.5916    134.2988
  1365.7000      7.9491      2.7130      0.0786     -3.8198    140.2467
  1365.8000      7.9424      2.7181      0.0461     -4.1252    140.5073
  1365.9000      7.9424      2.7267      0.0512     -4.6478    132.0017
  1366.0000      7.9325      2.7361      0.0693     -5.2183    120.0641
  1366.1000      7.9325      2.7341      0.1039     -5.0945    114.8784
  1366.2000      7.9325      2.7142      0.0753     -3.8928    119.5068
  1366.3000      7.9254      2.6809      0.0702     -1.8753    127.7486
  1366.4000      7.9254      2.6486      0.0788      0.0820    134.5460
  1366.5000      7.9220      2.6248      0.0750      1.5247    140.0647
  1366.6000      7.9220      2.6025      0.0840      2.8807    145.5531
  1366.7000      7.9220      2.5876      0.0355      3.7801    151.2871
