~Version Information
VERS.                      2.0: CWLS Log ASCII Standard - VERSION 2.0
WRAP.                       NO: One line per depth step
~Well Information Block
STRT.FT               245.0000: 
STOP.FT              1217.7000: 
STEP.FT                 0.1000: 
NULL.                -999.2500: 
COMP.          Pioneer Natural Resources: COMPANY
WELL.          Lucky Lady 42-29: WELL
FLD.           Purgatoire River: FIELD
LOC.           2482' FNL & 662' FEL--: LOCATION
CNTY.               Las Animas: COUNTY
SRVC.                Patterson: SERVICE COMPANY
DATE.          Thu Mar 09 18:39:54 2006: LOG DATE
UWI.           05 071 08659 00: UNIQUE WELL ID
STAT.                 Colorado: STATE
~Curve Information Block
DEPT.FT            0 000 00 00: Depth
DCAL.in                       : CDL Caliper
RHOB.g/cc                     : CDL Bulk Density
RHOC.g/cc                     : CDL Density Correction
DPOR.pu                       : CDL Density Porosity
NPOR.pu                       : Neutron Porosity
GR.GAPI                       : Gamma Ray
~Parameter Information Block
~A  Depth       DCAL        RHOB        RHOC        DPOR        NPOR         GR     
# ...
   936.2000      7.8630      2.5941      0.1271      3.3888     17.6273    122.7522
   936.3000      7.8554      2.5952      0.0683      3.3208     17.7628    113.1879
   936.4000      7.8554      2.5966      0.0731      3.2362     18.2024    101.6857
   936.5000      7.8595      2.6124      0.0628      2.2798     18.7250     92.7487
   936.6000      7.8595      2.6298      0.1177      1.2216     19.1455     87.4912
   936.7000      7.8595      2.6314      0.0927      1.1288     19.2512     84.2999
   936.8000      7.8766      2.6181      0.0951      1.9341     19.2613     80.9492
   936.9000      7.8766      2.6017      0.0488      2.9245     19.4956     76.4193
   937.0000      7.8937      2.5872      0.0838      3.8087     19.8067     73.0004
   937.1000      7.8937      2.5764      0.0306      4.4591     20.0025     74.6778
   937.2000      7.8937      2.5779      0.0954      4.3669     20.2298     80.5528
   937.3000      7.9002      2.5898      0.0592      3.6497     20.5877     85.5298
   937.4000      7.9002      2.5978      0.0686      3.1630     20.7862     86.3865
   937.5000      7.8979      2.5856      0.0931      3.9047     20.6611     84.1816
   937.6000      7.8979      2.5522      0.0540      5.9271     20.3668     82.8859
   937.7000      7.8979      2.5232      0.0062      7.6838     19.9504     83.9266
   937.8000      7.8911      2.5219      0.0644      7.7633     19.3667     85.0868
   937.9000      7.8911      2.5435      0.0829      6.4524     18.8391     84.9909
   938.0000      7.8846      2.5654      0.1297      5.1251     18.6622     82.8722
   938.1000      7.8846      2.5704      0.1208      4.8252     18.8339     80.5344
   938.2000      7.8846      2.5593      0.1059      5.4958     19.0542     83.9284
   938.3000      7.8858      2.5402      0.0957      6.6531     19.1929     94.0005
   938.4000      7.8858      2.5188      0.0422      7.9543     19.3448    103.5603
   938.5000      7.8947      2.5075     -0.0139      8.6342     19.5235    106.4854
   938.6000      7.8947      2.5187      0.0248      7.9580     19.6978    103.8999
   938.7000      7.8947      2.5509      0.0392      6.0061     19.8280    100.6151
   938.8000      7.9037      2.5895      0.1111      3.6695     19.7814     99.2434
   938.9000      7.9037      2.6058      0.1362      2.6802     19.5212     99.9499
   939.0000      7.9117      2.5895      0.0685      3.6697     19.3247    102.8991
   939.1000      7.9117      2.5692      0.0339      4.8964     19.4383    108.9343
   939.2000      7.9117      2.5629      0.0983      5.2779     19.7588    115.7882
   939.3000      7.9190      2.5574      0.0674      5.6112     19.9834    119.5177
   939.4000      7.9190      2.5471      0.0609      6.2366     19.9663    120.3934
   939.5000      7.9235      2.5366      0.0244      6.8754     19.9118    121.7894
   939.6000      7.9235      2.5289      0.0323      7.3393     19.8332    123.4214
   939.7000      7.9235      2.5218      0.0348      7.7718     19.5800    122.1888
   939.8000      7.9263      2.5104      0.0488      8.4627     19.3696    115.7800
   939.9000      7.9263      2.5015     -0.0105      9.0005     19.4162    106.2516
   940.0000      7.9274      2.5056      0.0488      8.7520     19.6001    102.9635
   940.1000      7.9274      2.5228      0.0104      7.7118     19.6605    108.9981
   940.2000      7.9274      2.5449      0.0751      6.3723     19.5034    115.3880
   940.3000      7.9288      2.5593      0.0628      5.4990     19.5161    116.9084
   940.4000      7.9288      2.5688      0.0352      4.9230     19.8703    114.4162
   940.5000      7.9293      2.5843      0.0691      3.9838     20.0570    109.3646
   940.6000      7.9293      2.5958      0.1299      3.2829     19.7981    105.2431
   940.7000      7.9293      2.5914      0.1027      3.5502     19.5048    102.1146
   940.8000      7.9242      2.5806      0.0672      4.2065     19.3890     98.0422
   940.9000      7.9242      2.5779      0.0620      4.3722     19.1207     94.9150
   941.0000      7.9127      2.5850      0.0721      3.9413     18.7508     94.7820
   941.1000      7.9127      2.5846      0.1136      3.9613     18.5110     96.9483
   941.2000      7.9127      2.5637      0.0761      5.2319     18.3591    101.1280
   941.3000      7.9026      2.5438      0.0107      6.4347     18.4590    104.8275
   941.4000      7.9026      2.5452      0.0708      6.3536     18.8791    103.9076
   941.5000      7.9005      2.5488      0.0769      6.1303     19.3048    100.5265
   941.6000      7.9005      2.5376      0.0301      6.8118     19.5978     98.1094
   941.7000      7.9005      2.5213      0.0344      7.8010     19.7896     97.6526
   941.8000      7.9002      2.5179     -0.0184      8.0045     19.7873     98.9053
   941.9000      7.9002      2.5390      0.0279      6.7254     19.6733     98.5999
   942.0000      7.9012      2.5687      0.0719      4.9243     19.7535     97.9858
   942.1000      7.9012      2.5744      0.0654      4.5842     20.0242    101.7185
   942.2000      7.9012      2.5513      0.0411      5.9793     20.0767    108.3694
   942.3000      7.9081      2.5271     -0.0025      7.4485     19.8978    115.1915
   942.4000      7.9081      2.5203      0.0280      7.8611     19.7716    119.4079
   942.5000      7.9196      2.5250      0.0460      7.5733     19.5515    116.7882
   942.6000      7.9196      2.5344      0.0632      7.0069     19.2016    109.3996
   942.7000      7.9196      2.5451      0.0591      6.3576     18.9590    104.3330
   942.8000      7.9264      2.5528      0.0224      5.8900     18.8961    101.6665
   942.9000      7.9264      2.5599      0.0456      5.4588     18.9634     96.9099
   943.0000      7.9268      2.5631      0.0859      5.2686     18.9915     90.2971
   943.1000      7.9268      2.5540      0.0466      5.8170     18.7994     85.0742
   943.2000      7.9268      2.5397      0.0410      6.6850     18.4519     84.2662
   943.3000      7.9257      2.5293      0.0132      7.3149     18.2738     88.5093
   943.4000      7.9257      2.5232      0.0026      7.6824     18.5695     94.0378
   943.5000      7.9251      2.5186      0.0406      7.9658     19.2528     92.7018
   943.6000      7.9251      2.5171      0.0209      8.0529     19.8626     83.8117
   943.7000      7.9251      2.5223      0.0637      7.7389     20.0070     79.4062
   943.8000      7.9244      2.5266      0.0755      7.4795     19.8356     85.0294
   943.9000      7.9244      2.5237      0.0284      7.6558     19.7621     89.8079
   944.0000      7.9243      2.5172      0.0528      8.0508     19.8378     87.2977
   944.1000      7.9243      2.5124      0.0060      8.3399     19.8900     86.1291
   944.2000      7.9243      2.5150      0.0239      8.1792     19.7702     90.2206
   944.3000      7.9216      2.5272      0.0552      7.4408     19.5056     96.5924
   944.4000      7.9216      2.5486      0.0623      6.1448     19.1767    101.3052
   944.5000      7.9117      2.5747      0.0892      4.5652     18.7581     98.2826
   944.6000      7.9117      2.5932      0.1013      3.4426     18.3091     90.4785
   944.7000      7.9117      2.5913      0.1214      3.5576     18.0327     87.6112
   944.8000      7.9004      2.5700      0.0383      4.8460     18.1862     90.7646
   944.9000      7.9004      2.5490      0.0427      6.1217     18.5706     94.3472
   945.0000      7.8950      2.5431      0.0431      6.4777     18.4758     94.6965
   945.1000      7.8950      2.5438      0.0438      6.4341     17.7315     91.7770
   945.2000      7.8950      2.5376      0.0436      6.8146     17.0368     89.1354
   945.3000      7.8906      2.5306      0.0365      7.2351     17.0093     88.5499
   945.4000      7.8906      2.5354      0.0612      6.9482     17.5301     89.4322
   945.5000      7.8825      2.5452      0.0842      6.3494     18.0123     93.2126
   945.6000      7.8825      2.5423      0.0807      6.5288     18.2265     96.2960
   945.7000      7.8825      2.5298      0.0298      7.2853     18.3579     92.6589
