~Version Information
VERS.                      2.0: CWLS Log ASCII Standard - VERSION 2.0
WRAP.                       NO: One line per depth step
~Well Information Block
STRT.FT               440.0000: 
STOP.FT              1300.5000: 
STEP.FT                 0.1000: 
NULL.                -999.2500: 
COMP.          Pioneer Natural Resources: COMPANY
WELL.              Yoshi 14-30: WELL
FLD.           Purgatoire River: FIELD
LOC.           993' FSL & 823' FWL: LOCATION
CNTY.               Las Animas: COUNTY
SRVC.                Patterson: SERVICE COMPANY
DATE.          Fri Feb 17 14:59:28 2006: LOG DATE
UWI.           05 071 08699 00: UNIQUE WELL ID
STAT.                 Colorado: STATE
~Curve Information Block
DEPT.FT            0 000 00 00: Depth
DCAL.in                       : CDL Caliper
RHOB.g/cc                     : CDL Bulk Density
RHOC.g/cc                     : CDL Density Correction
DPOR.pu                       : CDL Density Porosity
GR.GAPI                       : Gamma Ray
NPOR.pu                       : Neutron Porosity
~Parameter Information Block
~A  Depth       DCAL        RHOB        RHOC        DPOR         GR         NPOR    
# ...
  1006.4000      8.0130      2.5517      0.0670      5.9594    116.5791     21.3193
  1006.5000      8.0198      2.5580      0.0219      5.5754    118.8813     20.9531
  1006.6000      8.0198      2.5396      0.0327      6.6927    120.2107     20.6474
  1006.7000      8.0198      2.5122      0.0188      8.3487    122.0300     20.8527
  1006.8000      8.0232      2.4998      0.0137      9.1054    123.1075     20.9399
  1006.9000      8.0232      2.5116     -0.0115      8.3860    123.5177     20.2202
  1007.0000      8.0191      2.5395      0.0143      6.6953    121.4028     18.8194
  1007.1000      8.0191      2.5585      0.0830      5.5458    113.5811     17.1268
  1007.2000      8.0191      2.5468      0.0303      6.2526    102.9358     15.4261
  1007.3000      8.0112      2.4993      0.0807      9.1308     96.1649     14.0698
  1007.4000      8.0112      2.4083      0.0704     14.6515     93.9978     13.1188
  1007.5000      8.0085      2.2831     -0.0677     22.2389     92.4754     12.4733
  1007.6000      8.0085      2.1558     -0.0862     29.9511     89.3931     11.9860
  1007.7000      8.0085      2.0381     -0.0916     37.0834     85.5079     11.2469
  1007.8000      8.0161      1.9242     -0.0887     43.9898     83.8689     10.1866
  1007.9000      8.0161      1.8113     -0.0942     50.8285     85.3436      9.3084
  1008.0000      8.0389      1.7057     -0.1050     57.2300     85.3036      8.7147
  1008.1000      8.0389      1.6243     -0.0553     62.1626     80.2070      8.2287
  1008.2000      8.0389      1.5730     -0.0012     65.2750     73.0055      8.1107
  1008.3000      8.0733      1.5369      0.0694     67.4595     68.1070      8.4554
  1008.4000      8.0733      1.5022      0.0999     69.5649     65.2254      8.8110
  1008.5000      8.0990      1.4639      0.0801     71.8870     61.7722      8.9337
  1008.6000      8.0990      1.4245      0.0189     74.2717     55.7632      9.0863
  1008.7000      8.0990      1.3914      0.0340     76.2768     47.4874      9.5988
  1008.8000      8.1153      1.3662      0.0453     77.8071     40.9249     10.5427
  1008.9000      8.1153      1.3499      0.0131     78.7955     38.5937     11.7893
  1009.0000      8.1413      1.3516      0.0093     78.6923     39.5089     13.3176
  1009.1000      8.1413      1.3796      0.0071     76.9937     43.1201     15.1694
  1009.2000      8.1413      1.4380      0.0333     73.4528     47.4111     17.2308
  1009.3000      8.1682      1.5359      0.0141     67.5182     49.5505     19.1536
  1009.4000      8.1682      1.6745      0.0999     59.1229     48.8359     20.7863
  1009.5000      8.1521      1.8225      0.1801     50.1517     46.2278     22.3201
  1009.6000      8.1521      1.9542      0.1734     42.1691     44.7307     23.8315
  1009.7000      8.1521      2.0781      0.2227     34.6597     46.4878     25.0535
  1009.8000      8.0897      2.1991      0.2336     27.3263     50.8770     25.6132
  1009.9000      8.0897      2.3062      0.2493     20.8358     56.4433     25.9626
  1010.0000      8.0444      2.3913      0.2070     15.6808     62.7053     26.4929
  1010.1000      8.0444      2.4531      0.1204     11.9347     69.6381     26.7356
  1010.2000      8.0444      2.4911      0.0952      9.6286     76.1774     26.5030
  1010.3000      8.0296      2.5025      0.0409      8.9364     81.0274     26.0468
  1010.4000      8.0296      2.4913      0.0271      9.6185     84.0810     25.8691
  1010.5000      8.0226      2.4753     -0.0142     10.5879     87.6907     26.0387
  1010.6000      8.0226      2.4677      0.0329     11.0486     93.3891     25.9636
  1010.7000      8.0226      2.4643      0.0180     11.2559    100.1040     25.4103
  1010.8000      8.0155      2.4638      0.0069     11.2876    107.4492     24.6969
  1010.9000      8.0155      2.4696      0.0550     10.9333    115.6103     24.3397
  1011.0000      8.0112      2.4819      0.0178     10.1856    119.6609     24.5270
  1011.1000      8.0112      2.5024      0.0393      8.9443    115.2541     24.7584
  1011.2000      8.0112      2.5265      0.0683      7.4840    109.4389     24.7692
  1011.3000      8.0120      2.5417      0.0442      6.5634    109.0771     24.2799
  1011.4000      8.0120      2.5393      0.0581      6.7117    110.7177     22.9043
  1011.5000      8.0109      2.5280      0.0189      7.3950    110.9105     21.6644
  1011.6000      8.0109      2.5263      0.0447      7.4998    109.2531     21.6576
  1011.7000      8.0109      2.5352      0.0511      6.9587    107.6940     22.1577
  1011.8000      8.0113      2.5406      0.0785      6.6288    109.9582     22.1586
  1011.9000      8.0113      2.5279      0.0904      7.4019    112.3943     21.9577
  1012.0000      8.0178      2.4915      0.0552      9.6072    111.0507     22.1172
  1012.1000      8.0178      2.4454     -0.0329     12.4020    110.3995     22.4124
  1012.2000      8.0178      2.4123     -0.0500     14.4074    113.4865     22.4484
  1012.3000      8.0237      2.4012     -0.0030     15.0790    117.9226     22.1335
  1012.4000      8.0237      2.4063     -0.0312     14.7696    121.8368     21.8603
  1012.5000      8.0248      2.4180     -0.0222     14.0626    125.4165     22.1925
  1012.6000      8.0248      2.4242      0.0057     13.6858    128.8915     22.9467
  1012.7000      8.0248      2.4192      0.0116     13.9865    132.4366     23.5360
  1012.8000      8.0230      2.4097      0.0048     14.5630    133.9265     23.5687
  1012.9000      8.0230      2.4037      0.0502     14.9280    132.1473     23.0477
  1013.0000      8.0224      2.4054      0.0019     14.8252    130.3139     22.6814
  1013.1000      8.0224      2.4145      0.0583     14.2729    133.1259     22.9690
  1013.2000      8.0224      2.4211      0.0454     13.8755    137.7177     23.5699
  1013.3000      8.0236      2.4197      0.0380     13.9573    137.8468     24.0225
  1013.4000      8.0236      2.4131      0.0248     14.3571    133.5476     24.0951
  1013.5000      8.0251      2.4068      0.0090     14.7384    125.2363     23.6693
  1013.6000      8.0251      2.4066      0.0064     14.7492    119.5065     22.8879
  1013.7000      8.0251      2.4076      0.0676     14.6892    127.7631     22.1309
  1013.8000      8.0255      2.4019      0.0221     15.0361    142.8092     21.6128
  1013.9000      8.0255      2.3886      0.0095     15.8425    147.4800     21.0404
  1014.0000      8.0248      2.3676     -0.0071     17.1169    139.5269     20.3121
  1014.1000      8.0248      2.3419     -0.0330     18.6703    128.7764     19.7279
  1014.2000      8.0248      2.3097      0.0182     20.6236    122.7820     19.5021
  1014.3000      8.0222      2.2608      0.0032     23.5894    122.0888     19.8045
  1014.4000      8.0222      2.1996     -0.0565     27.2955    123.1451     20.2734
  1014.5000      8.0146      2.1461     -0.0371     30.5422    121.0481     20.1764
  1014.6000      8.0146      2.1149     -0.0658     32.4326    114.9093     19.7845
  1014.7000      8.0146      2.1017     -0.0162     33.2307    107.9799     19.8991
  1014.8000      8.0089      2.0894      0.0004     33.9783    102.4152     20.5711
  1014.9000      8.0089      2.0802     -0.0399     34.5324     99.7796     21.2461
  1015.0000      8.0155      2.0877      0.0459     34.0772     99.6954     21.4820
  1015.1000      8.0155      2.1122      0.0506     32.5924    100.6318     21.3526
  1015.2000      8.0155      2.1538      0.0901     30.0719    100.4815     21.4917
  1015.3000      8.0239      2.2026      0.1034     27.1143     99.4629     22.3293
  1015.4000      8.0239      2.2315      0.1276     25.3655    100.4320     23.6507
  1015.5000      8.0257      2.2368      0.0236     25.0428    102.6340     24.8226
  1015.6000      8.0257      2.2545      0.0133     23.9714    105.9884     25.4507
  1015.7000      8.0257      2.3038      0.0840     20.9796    111.5889     25.6651
  1015.8000      8.0243      2.3677      0.1439     17.1072    116.5761     25.6547
  1015.9000      8.0243      2.4280      0.1398     13.4538    119.4525     25.4711
