~Version Information
VERS.                      2.0: CWLS Log ASCII Standard - VERSION 2.0
WRAP.                       NO: One line per depth step
~Well Information Block
STRT.FT                 2.0000: 
STOP.FT               698.7500: 
STEP.FT                 0.2500: 
NULL.                -999.2500: 
COMP.          XTO Energy Inc.: COMPANY
WELL.          Golden Eagle 20-14: WELL
FLD.           Purgatrorie River: FIELD
LOC.           587' FSL & 2478' FWL--: LOCATION
STAT.                       CO: State
CNTY.               Las Animas: COUNTY
CTRY. USA : Country
SECT. 20 : Section
TOWN. 33S : Township
RANG. 67W : Range
SRVC.          Patterson Wireline: SERVICE COMPANY
DATE.          Sat Dec 10 16:49:08 2005: LOG DATE
API.           05 071 08614 00: UNIQUE WELL ID
~Curve Information Block
DEPT.FT            0 000 00 00: Depth
MINMK.                        : Magnetic Mark Ticks
TEMP.degF                     : Downhole Temperature
DTMP.degF                     : Delta Temperature
~Parameter Information Block
~A  Depth      MINMK        TEMP        DTMP    
# ...
   169.0000      0.0000     52.2115      0.1032
   169.2500      0.0000     52.2428      0.1029
   169.5000      0.0000     52.2677      0.1026
   169.7500      0.0000     52.2926      0.1023
   170.0000      0.0000     52.3174      0.1021
   170.2500      0.0000     52.3421      0.0986
   170.5000      0.0000     52.3667      0.1014
   170.7500      0.0000     52.3912      0.1011
   171.0000      0.0000     52.4157      0.1008
   171.2500      0.0000     52.4400      0.1005
   171.5000      0.0000     52.4704      0.1003
   171.7500      0.0000     52.4949      0.0999
   172.0000      0.0000     52.5190      0.0997
   172.2500      0.0000     52.5431      0.1023
   172.5000      0.0000     52.5673      0.0990
   172.7500      0.0000     52.5911      0.0985
   173.0000      0.0000     52.6151      0.0952
   173.2500      0.0000     52.6447      0.0977
   173.5000      0.0000     52.6684      0.0973
   173.7500      0.0000     52.6918      0.0969
   174.0000      0.0000     52.7094      0.0963
   174.2500      0.0000     52.7385      0.0929
   174.5000      0.0000     52.7618      0.0952
   174.7500      0.0000     52.7849      0.0947
   175.0000      0.0000     52.8077      0.0968
   175.2500      0.0000     52.8305      0.0933
   175.5000      0.0000     52.8587      0.0925
   175.7500      0.0000     52.8811      0.0918
   176.0000      0.0000     52.9031      0.0911
   176.2500      0.0000     52.9251      0.0929
   176.5000      0.0000     52.9469      0.0893
   176.7500      0.0000     52.9684      0.0885
   177.0000      0.0000     52.9898      0.0879
   177.2500      0.0000     53.0163      0.0873
   177.5000      0.0000     53.0373      0.0866
   177.7500      0.0000     53.0582      0.0861
   178.0000      0.0000     53.0790      0.0856
   178.2500      0.0000     53.0996      0.0825
   178.5000      0.0000     53.1202      0.0821
   178.7500      0.0000     53.1406      0.0841
   179.0000      0.0000     53.1610      0.0837
   179.2500      0.0000     53.1812      0.0833
   179.5000      0.0000     53.2015      0.0830
   179.7500      0.0000     53.2265      0.0826
   180.0000      0.0000     53.2463      0.0825
   180.2500      0.0000     53.2661      0.0849
   180.5000      0.0000     53.2861      0.0847
   180.7500      0.0000     53.3059      0.0824
   181.0000      0.0000     53.3259      0.0826
   181.2500      0.0000     53.3510      0.0828
   181.5000      0.0000     53.3710      0.0831
   181.7500      0.0000     53.3913      0.0835
   182.0000      0.0000     53.4116      0.0864
   182.2500      0.0000     53.4318      0.0842
   182.5000      0.0000     53.4523      0.0846
   182.7500      0.0000     53.4729      0.0850
   183.0000      0.0000     53.4987      0.0853
   183.2500      0.0000     53.5194      0.0856
   183.5000      0.0000     53.5402      0.0859
   183.7500      0.0000     53.5612      0.0861
   184.0000      0.0000     53.5821      0.0838
   184.2500      0.0000     53.6031      0.0840
   184.5000      0.0000     53.6240      0.0843
   184.7500      0.0000     53.6451      0.0844
   185.0000      0.0000     53.6664      0.0873
   185.2500      0.0000     53.6875      0.0874
   185.5000      0.0000     53.7089      0.0876
   185.7500      0.0000     53.7301      0.0877
   186.0000      0.0000     53.7567      0.0876
   186.2500      0.0000     53.7779      0.0877
   186.5000      0.0000     53.7992      0.0876
   186.7500      0.0000     53.8206      0.0901
   187.0000      0.0000     53.8417      0.0873
   187.2500      0.0000     53.8629      0.0873
   187.5000      0.0000     53.8840      0.0870
   187.7500      0.0000     53.9103      0.0868
   188.0000      0.0000     53.9314      0.0868
   188.2500      0.0000     53.9524      0.0866
   188.5000      0.0000     53.9733      0.0865
   188.7500      0.0000     53.9942      0.0864
   189.0000      0.0000     54.0152      0.0862
   189.2500      0.0000     54.0361      0.0860
   189.5000      0.0000     54.0570      0.0859
   189.7500      0.0000     54.0830      0.0858
   190.0000      0.0000     54.1038      0.0855
   190.2500      0.0000     54.1244      0.0853
   190.5000      0.0000     54.1450      0.0876
   190.7500      0.0000     54.1658      0.0847
   191.0000      0.0000     54.1863      0.0845
   191.2500      0.0000     54.2067      0.0843
   191.5000      0.0000     54.2322      0.0865
   191.7500      0.0000     54.2525      0.0837
   192.0000      0.0000     54.2728      0.0835
   192.2500      0.0000     54.2930      0.0857
   192.5000      0.0000     54.3181      0.0828
   192.7500      0.0000     54.3332      0.0825
   193.0000      0.0000     54.3533      0.0821
   193.2500      0.0000     54.3781      0.0817
   193.5000      0.0000     54.3978      0.0812
   193.7500      0.0000     54.4175      0.0808
   194.0000      0.0000     54.4370      0.0827
   194.2500      0.0000     54.4564      0.0797
   194.5000      0.0000     54.4804      0.0792
   194.7500      0.0000     54.4948      0.0788
   195.0000      0.0000     54.5187      0.0784
   195.2500      0.0000     54.5374      0.0780
   195.5000      0.0000     54.5563      0.0753
   195.7500      0.0000     54.5751      0.0775
   196.0000      0.0000     54.5938      0.0772
   196.2500      0.0000     54.6125      0.0770
   196.5000      0.0000     54.6311      0.0745
   196.7500      0.0000     54.6497      0.0744
   197.0000      0.0000     54.6730      0.0743
   197.2500      0.0000     54.6915      0.0764
   197.5000      0.0000     54.7054      0.0763
   197.7500      0.0000     54.7239      0.0763
   198.0000      0.0000     54.7423      0.0761
   198.2500      0.0000     54.7654      0.0760
   198.5000      0.0000     54.7838      0.0782
   198.7500      0.0000     54.8023      0.0782
   199.0000      0.0000     54.8252      0.0780
   199.2500      0.0000     54.8435      0.0757
   199.5000      0.0000     54.8618      0.0778
   199.7500      0.0000     54.8802      0.0778
   200.0000      0.0000     54.8983      0.0754
   200.2500      0.0000     54.9167      0.0731
   200.5000      0.0000     54.9395      0.0755
   200.7500      0.0000     54.9578      0.0754
   201.0000      0.0000     54.9760      0.0755
   201.2500      0.0000     54.9898      0.0755
   201.5000      0.0000     55.0128      0.0733
   201.7500      0.0000     55.0310      0.0731
   202.0000      0.0000     55.0493      0.0732
   202.2500      0.0000     55.0677      0.0755
   202.5000      0.0000     55.0860      0.0732
   202.7500      0.0000     55.1041      0.0755
   203.0000      0.0000     55.1224      0.0755
   203.2500      0.0000     55.1407      0.0755
   203.5000      0.0000     55.1591      0.0756
   203.7500      0.0000     55.1820      0.0757
   204.0000      0.0000     55.2003      0.0780
   204.2500      0.0000     55.2187      0.0779
   204.5000      0.0000     55.2371      0.0780
   204.7500      0.0000     55.2555      0.0757
   205.0000      0.0000     55.2783      0.0757
   205.2500      0.0000     55.2966      0.0757
   205.5000      0.0000     55.3151      0.0756
   205.7500      0.0000     55.3334      0.0756
   206.0000      0.0000     55.3517      0.0757
   206.2500      0.0000     55.3701      0.0758
   206.5000      0.0000     55.3884      0.0757
   206.7500      0.0000     55.4067      0.0757
   207.0000      0.0000     55.4297      0.0758
   207.2500      0.0000     55.4481      0.0757
   207.5000      0.0000     55.4664      0.0758
   207.7500      0.0000     55.4849      0.0759
   208.0000      0.0000     55.5033      0.0736
   208.2500      0.0000     55.5216      0.0735
   208.5000      0.0000     55.5401      0.0736
   208.7500      0.0000     55.5585      0.0758
   209.0000      0.0000     55.5769      0.0735
   209.2500      0.0000     55.5952      0.0758
   209.5000      0.0000     55.6136      0.0757
   209.7500      0.0000     55.6365      0.0756
   210.0000      0.0000     55.6503      0.0778
   210.2500      0.0000     55.6731      0.0778
   210.5000      0.0000     55.6914      0.0777
