~Version Information
VERS.                      2.0: CWLS Log ASCII Standard - VERSION 2.0
WRAP.                       NO: One line per depth step
~Well Information Block
STRT.FT                -5.0000: 
STOP.FT              1761.2500: 
STEP.FT                 0.2500: 
NULL.                -999.2500: 
COMP.          Pioneer Natural Resources: COMPANY
WELL.          Manville 42-14 Tr: WELL
FLD.           Purgatoire River: FIELD
LOC.           2018'FNL & 562' FEL: LOCATION
STAT.                 Colorado: State
CNTY.               Las Animas: COUNTY
CTRY. USA : Country
SECT. 14 : Section
TOWN. 32S : Township
RANG. 66W : Range
SRVC.                Patterson: SERVICE COMPANY
DATE.          Fri Sep 23 10:37:02 2005: LOG DATE
API. 05-071-08522             : UNIQUE WELL ID
~Curve Information Block
DEPT.FT            0 000 00 00: Depth
CCL.                          : Casing Collar Locator
TT3.usec                      : CBL 3' Travel Time
AMP3.mV                       : CBL 3' Amplitude
AMP5.mV                       : CBL 5' Amplitude
GR.GAPI                       : Gamma Ray
~Parameter Information Block
~A  Depth       CCL         TT3         AMP3        AMP5         GR     
# ...
   695.0000      0.0000    304.3367     16.1204      7.9601     80.9920
   695.2500      0.0000    304.4947     16.0581      7.0026     83.2542
   695.5000      0.0000    304.7475     15.9184      7.0896     86.1252
   695.7500      0.0000    305.0329     15.7295      7.5249     89.1445
   696.0000      0.0000    305.2917     15.5458      7.4378     90.6767
   696.2500      0.0000    305.4883     15.4226      7.6990     89.9225
   696.5000      0.0000    305.6042     15.3937      7.3508     88.0750
   696.7500      0.0000    305.6251     15.4591      7.6119     87.0537
   697.0000      0.0000    305.5481     15.5848      7.6990     87.5073
   697.2500      0.0000    305.3963     15.7231      7.6119     88.4480
   697.5000      0.0000    305.2124     15.8475      7.4378     88.5506
   697.7500      0.0000    305.0369     15.9696      7.3508     87.4651
   698.0000      0.0000    304.8891     16.1240      8.2213     85.9020
   698.2500      0.0000    304.7592     16.3382      8.1342     84.7232
   698.5000      0.0000    304.6162     16.6140      7.6119     84.2116
   698.7500      0.0000    304.4377     16.9219      7.1767     84.0737
   699.0000      0.0000    304.2385     17.2125      7.6990     83.8486
   699.2500      0.0000    304.0663     17.4446      8.1342     83.3384
   699.5000      0.0000    303.9641     17.6096      7.6119     82.8652
   699.7500      0.0000    303.9346     17.7292      7.9601     83.0159
   700.0000      0.0000    303.9354     17.8352      8.9176     84.0096
   700.2500      0.0000    303.9035     17.9512      8.3083     85.3742
   700.5000      0.0000    303.8006     18.0812      8.2213     86.4417
   700.7500      0.0000    303.6473     18.2043      8.9176     87.2712
   701.0000      0.0000    303.5097     18.2888      9.3529     88.8709
   701.2500      0.0000    303.4451     18.3229      8.5694     91.9542
   701.5000      0.0000    303.4641     18.3278      8.9176     95.2677
   701.7500      0.0000    303.5633     18.3387      9.0047     95.8813
   702.0000      0.0000    303.8183     18.3804      9.0047     91.8974
   702.2500      0.0000    304.6774     18.4542      9.1788     84.6401
   702.5000      0.0000    307.7306     18.5174      7.0896     77.6155
   702.7500      0.0000    316.8486     18.4398      5.4358     73.5416
   703.0000      0.0000    338.1145     18.0019      8.4824     72.7265
   703.2500      0.0000    375.6537     17.0211      4.5653     73.8484
   703.5000      0.0000    423.8030     15.5575      5.4358     75.6647
   703.7500      0.0000    464.0322     13.9722      5.3487     77.8495
   704.0000      0.0000    475.3888     12.7167      6.0451     80.4166
   704.2500      0.0000    451.8233     12.0433      6.5674     82.8593
   704.5000      0.0000    407.5099     11.9035      6.4803     84.4348
   704.7500     -2.0000    363.9925     12.0675      6.2192     85.1210
   705.0000      0.0000    334.3695     12.3061      6.1321     85.7158
   705.2500      2.0000    319.4460     12.5070      6.4803     86.9812
   705.5000      0.0000    313.9485     12.6928      5.8710     89.0205
   705.7500      0.0000    312.7730     13.0024      5.7839     91.3701
   706.0000      0.0000    312.7527     13.6737      5.8710     93.4152
   706.2500      0.0000    312.0219     14.9468      5.9580     94.7302
   706.5000      0.0000    309.7729     16.8221      5.7839     95.1147
   706.7500      0.0000    306.5700     18.8817      5.7839     94.4649
   707.0000      0.0000    303.8325     20.4901      6.2192     92.7576
   707.2500      0.0000    302.4813     21.2516      5.4358     90.0816
   707.5000      0.0000    302.3197     21.2386      5.6969     86.5647
   707.7500      0.0000    302.6341     20.8086     14.0534     82.4040
   708.0000      0.0000    302.9319     20.2982      9.6140     78.0226
   708.2500      0.0000    303.0828     19.8754     10.9197     73.9900
   708.5000      0.0000    303.1266     19.5637     10.0492     70.7615
   708.7500      0.0000    303.1294     19.3260      9.0047     68.7444
   709.0000      0.0000    303.1380     19.1263      8.7435     68.4953
   709.2500      0.0000    303.1618     18.9520      9.2658     70.3361
   709.5000      0.0000    303.1862     18.8076      8.6565     73.6244
   709.7500      0.0000    303.1946     18.7038      8.6565     76.8198
   710.0000      0.0000    303.1883     18.6463      9.2658     78.5193
   710.2500      0.0000    303.1773     18.6339      9.0047     78.1918
   710.5000      0.0000    303.1637     18.6623      8.9176     76.0452
   710.7500      0.0000    303.1399     18.7270      9.6140     72.7780
   711.0000      0.0000    303.0990     18.8268      9.6140     69.5064
   711.2500      0.0000    303.0388     18.9712      9.7010     67.3116
   711.5000      0.0000    302.9579     19.1839     10.2233     66.5454
   711.7500      0.0000    302.8521     19.4841      9.9622     66.6588
   712.0000      0.0000    302.7195     19.8580      9.9622     66.6887
   712.2500      0.0000    302.5705     20.2561     10.2233     65.8336
   712.5000      0.0000    302.4272     20.6245      9.7881     63.7144
   712.7500      0.0000    302.3091     20.9385      9.5270     60.4022
   713.0000      0.0000    302.2203     21.2030     10.0492     56.4741
   713.2500      0.0000    302.1502     21.4312     10.0492     52.9641
   713.5000      0.0000    302.0874     21.6278      9.9622     50.8535
   713.7500      0.0000    302.0305     21.7924     10.3104     50.3921
   714.0000      0.0000    301.9889     21.9312     10.6586     51.0005
   714.2500      0.0000    301.9747     22.0613     10.4845     51.8675
   714.5000      0.0000    301.9940     22.1946     10.6586     52.6736
   714.7500      0.0000    302.0413     22.3145     11.1808     53.7449
   715.0000      0.0000    302.1013     22.3738     10.7456     55.4685
   715.2500      0.0000    302.1540     22.3311     10.6586     57.5390
   715.5000      0.0000    302.1851     22.1900     11.1808     58.9287
   715.7500      0.0000    302.1920     21.9991     10.4845     58.7555
   716.0000      0.0000    302.1822     21.8173     11.4420     57.1969
   716.2500      0.0000    302.1644     21.6808     11.2679     55.4598
   716.5000      0.0000    302.1439     21.5934     10.6586     54.8627
   716.7500      0.0000    302.1230     21.5370     10.5715     55.9374
   717.0000      0.0000    302.1023     21.4887     10.6586     58.2652
   717.2500      0.0000    302.0814     21.4353     10.1363     61.0387
   717.5000      0.0000    302.0619     21.3745     10.3974     63.8745
   717.7500      0.0000    302.0475     21.3065     10.5715     67.1834
   718.0000      0.0000    302.0416     21.2281     10.2233     71.5039
   718.2500      0.0000    302.0439     21.1382     10.7456     76.1730
   718.5000      0.0000    302.0483     21.0475      9.8751     79.0476
   718.7500      0.0000    302.0450     20.9767     10.1363     78.2880
   719.0000      0.0000    302.0258     20.9434     10.3974     74.4924
   719.2500      0.0000    301.9920     20.9496      9.9622     70.4381
   719.5000      0.0000    301.9555     20.9826     10.5715     68.6068
   719.7500      0.0000    301.9300     21.0228     10.5715     69.5174
   720.0000      0.0000    301.9181     21.0503     10.0492     72.3894
   720.2500      0.0000    301.9119     21.0489     10.9197     76.4461
   720.5000      0.0000    301.9047     21.0126     10.3974     81.1105
   720.7500      0.0000    301.8982     20.9545     10.4845     85.6347
   721.0000      0.0000    301.8969     20.9130     11.3549     89.3607
   721.2500      0.0000    301.8975     20.9438     10.6586     92.2865
   721.5000      0.0000    301.8873     21.0932     11.0067     94.8513
   721.7500      0.0000    301.8521     21.3713     11.1808     97.1140
   722.0000      0.0000    301.7847     21.7434     11.0938     98.5587
   722.2500      0.0000    301.6906     22.1515     11.1808     98.7942
   722.5000      0.0000    301.5865     22.5485     11.7902     98.0456
   722.7500      0.0000    301.4921     22.9195     11.3549     96.6194
