~Version Information
VERS.                      2.0: CWLS Log ASCII Standard - VERSION 2.0
WRAP.                       NO: One line per depth step
~Well Information Block
STRT.FT               550.0000: 
STOP.FT              1664.0000: 
STEP.FT                 0.2500: 
NULL.                -999.2500: 
COMP.          Pioneer Natural Resources: COMPANY
WELL.          Stock Canyon 34-33: WELL
FLD.           Purgatorie River: FIELD
LOC.           980' FSL & 2191' FEL: LOCATION
PROV.                 Colorado: PROVINCE
CNTY.               Las Animas: COUNTRY
SRVC.                Patterson: SERVICE COMPANY
DATE.          Mon Dec 05 09:58:03 2005: LOG DATE
UWI.                          : UNIQUE WELL ID
~Curve Information Block
DEPT.FT            0 000 00 00: Depth
SN.Ohm-m                      : IEL Short Normal
SP.mV                         : IEL Spontaneous Potential
DIR.Ohm-m                     : IEL Induction Resistivity
GR.GAPI                       : Gamma Ray
~Parameter Information Block
~A  Depth        SN          SP         DIR          GR     
# ...
   985.5000     11.3711    305.4076     10.2853    123.9676
   985.7500     11.1461    304.8945     10.0203    125.0886
   986.0000     10.9817    304.3761      9.7796    127.5781
   986.2500     10.8574    303.8745      9.5709    129.2800
   986.5000     10.7511    303.4108      9.3978    130.7166
   986.7500     10.6448    303.0089      9.2612    130.6605
   987.0000     10.5296    302.6992      9.1604    129.6399
   987.2500     10.4068    302.5148      9.0934    129.0242
   987.5000     10.2858    302.4832      9.0567    129.3789
   987.7500     10.1790    302.6136      9.0450    130.9330
   988.0000     10.0976    302.8894      9.0519    135.1819
   988.2500     10.0485    303.2722      9.0703    138.5928
   988.5000     10.0344    303.7131      9.0947    142.5767
   988.7500     10.0566    304.1622      9.1226    143.3582
   989.0000     10.1151    304.5723      9.1550    140.9804
   989.2500     10.2089    304.9011      9.1961    137.5547
   989.5000     10.3330    305.1150      9.2499    131.6258
   989.7500     10.4772    305.1934      9.3181    128.2621
   990.0000     10.6269    305.1352      9.3984    125.0861
   990.2500     10.7666    304.9600      9.4857    124.2169
   990.5000     10.8840    304.7018      9.5743    124.1647
   990.7500     10.9728    304.3964      9.6611    124.4467
   991.0000     11.0332    304.0715      9.7461    124.5446
   991.2500     11.0694    303.7464      9.8313    124.3396
   991.5000     11.0869    303.4388      9.9175    124.6539
   991.7500     11.0904    303.1757     10.0028    126.1906
   992.0000     11.0834    302.9919     10.0812    131.0099
   992.2500     11.0691    302.9157     10.1456    135.0789
   992.5000     11.0518    302.9545     10.1894    140.0420
   992.7500     11.0370    303.0916     10.2086    141.6866
   993.0000     11.0299    303.2918     10.2013    141.9730
   993.2500     11.0330    303.5121     10.1689    141.4888
   993.5000     11.0430    303.7163     10.1158    140.7953
   993.7500     11.0478    303.8868     10.0493    140.5285
   994.0000     11.0261    304.0263      9.9767    139.8734
   994.2500     10.9503    304.1514      9.9038    138.5745
   994.5000     10.7947    304.2845      9.8340    134.8388
   994.7500     10.5469    304.4446      9.7679    131.9898
   995.0000     10.2190    304.6405      9.7033    129.6286
   995.2500      9.8534    304.8686      9.6359    130.0231
   995.5000      9.5164    305.1189      9.5608    132.6683
   995.7500      9.2817    305.3824      9.4748    134.7661
   996.0000      9.2063    305.6531      9.3783    136.8712
   996.2500      9.3107    305.9261      9.2754    136.8452
   996.5000      9.5706    306.2015      9.1718    133.9743
   996.7500      9.9251    306.4899      9.0732    130.4154
   997.0000     10.2961    306.8030      8.9843    124.0816
   997.2500     10.6115    307.1381      8.9091    120.3435
   997.5000     10.8214    307.4715      8.8521    117.1929
   997.7500     10.9035    307.7680      8.8166    117.2348
   998.0000     10.8570    307.9891      8.8022    120.3024
   998.2500     10.6933    308.0983      8.8020    123.7874
   998.5000     10.4278    308.0686      8.8024    129.8710
   998.7500     10.0785    307.8922      8.7876    133.8288
   999.0000      9.6704    307.5822      8.7457    139.2666
   999.2500      9.2422    307.1663      8.6740    142.7395
   999.5000      8.8491    306.6795      8.5807    147.3905
   999.7500      8.5577    306.1591      8.4809    148.9936
  1000.0000      8.4314    305.6382      8.3915    146.4684
  1000.2500      8.5107    305.1375      8.3274    140.7343
  1000.5000      8.7961    304.6635      8.2996    127.5023
  1000.7500      9.2425    304.2158      8.3153    117.6171
  1001.0000      9.7697    303.8002      8.3775    104.8677
  1001.2500     10.2863    303.4364      8.4838     99.3079
  1001.5000     10.7163    303.1581      8.6267     96.2752
  1001.7500     11.0200    303.0032      8.7951     97.1716
  1002.0000     11.1981    302.9973      8.9783    100.8846
  1002.2500     11.2834    303.1422      9.1709    104.1647
  1002.5000     11.3241    303.4158      9.3734    110.2539
  1002.7500     11.3699    303.7808      9.5892    115.1010
  1003.0000     11.4645    304.1940      9.8209    122.2173
  1003.2500     11.6457    304.6188     10.0695    125.5512
  1003.5000     11.9471    305.0378     10.3384    127.0839
  1003.7500     12.3966    305.4536     10.6365    125.9813
  1004.0000     13.0091    305.8734     10.9800    121.9466
  1004.2500     13.7766    306.2932     11.3890    117.6657
  1004.5000     14.6635    306.6976     11.8809    108.5953
  1004.7500     15.6122    307.0727     12.4638    101.4658
  1005.0000     16.5606    307.4118     13.1300     92.3408
  1005.2500     17.4635    307.7117     13.8530     89.5873
  1005.5000     18.3074    307.9700     14.5859     92.8421
  1005.7500     19.1118    308.1902     15.2647     99.4558
  1006.0000     19.9153    308.3874     15.8204    111.8192
  1006.2500     20.7536    308.5859     16.2022    118.4662
  1006.5000     21.6394    308.8099     16.3989    122.6131
  1006.7500     22.5513    309.0735     16.4447    121.6208
  1007.0000     23.4358    309.3787     16.4066    116.9321
  1007.2500     24.2210    309.7166     16.3617    112.9145
  1007.5000     24.8366    310.0648     16.3750    106.2434
  1007.7500     25.2326    310.3862     16.4820    101.5942
  1008.0000     25.3911    310.6385     16.6840     95.7759
  1008.2500     25.3291    310.7931     16.9594     93.7177
  1008.5000     25.0917    310.8469     17.2831     93.5309
  1008.7500     24.7423    310.8166     17.6389     94.4351
  1009.0000     24.3523    310.7255     18.0161     96.2834
  1009.2500     23.9941    310.5966     18.3994     98.3392
  1009.5000     23.7371    310.4514     18.7653    104.2404
  1009.7500     23.6451    310.3087     19.0900    110.2726
  1010.0000     23.7736    310.1838     19.3615    120.9838
  1010.2500     24.1678    310.0915     19.5831    127.7030
  1010.5000     24.8620    310.0474     19.7638    134.6017
  1010.7500     25.8764    310.0634     19.9065    136.2924
  1011.0000     27.2124    310.1390     20.0049    134.8955
  1011.2500     28.8404    310.2611     20.0522    132.1596
  1011.5000     30.6835    310.4138     20.0524    126.0860
  1011.7500     32.6042    310.5856     20.0222    120.5408
  1012.0000     34.4040    310.7633     19.9837    110.0115
  1012.2500     35.8494    310.9206     19.9527    102.3654
  1012.5000     36.7206    311.0237     19.9351     92.0584
  1012.7500     36.8721    311.0465     19.9316     86.6962
  1013.0000     36.2778    310.9777     19.9474     80.8700
  1013.2500     35.0413    310.8177     19.9935     78.1545
  1013.5000     33.3647    310.5736     20.0718     75.7097
  1013.7500     31.4924    310.2613     20.1546     75.4212
  1014.0000     29.6545    309.9066     20.1829     77.7380
  1014.2500     28.0296    309.5436     20.0930     81.4771
  1014.5000     26.7301    309.2076     19.8512     90.3681
  1014.7500     25.8046    308.9303     19.4642     97.8648
  1015.0000     25.2444    308.7381     18.9593    109.2108
  1015.2500     24.9892    308.6551     18.3630    115.2063
  1015.5000     24.9357    308.7009     17.6977    120.0231
  1015.7500     24.9507    308.8842     16.9949    120.5016
  1016.0000     24.8932    309.2009     16.3027    118.3599
  1016.2500     24.6382    309.6394     15.6799    115.5267
  1016.5000     24.0983    310.1845     15.1771    109.2193
  1016.7500     23.2359    310.8106     14.8192    103.8062
  1017.0000     22.0643    311.4746     14.5951     95.2953
  1017.2500     20.6415    312.1203     14.4582     90.5277
  1017.5000     19.0601    312.6932     14.3407     86.1775
  1017.7500     17.4355    313.1547     14.1752     85.5212
  1018.0000     15.8916    313.4861     13.9166     88.0826
  1018.2500     14.5411    313.6833     13.5514     91.9053
  1018.5000     13.4646    313.7491     13.0933     99.5195
  1018.7500     12.6937    313.6900     12.5721    104.9078
