~Version Information
VERS.                      2.0: CWLS Log ASCII Standard - VERSION 2.0
WRAP.                       NO: One line per depth step
~Well Information Block
STRT.FT                -5.2500: 
STOP.FT              1184.2500: 
STEP.FT                 0.2500: 
NULL.                -999.2500: 
COMP.          Pioneer Natural Resources: COMPANY
WELL.          Lucky Lady 42-29: WELL
FLD.           Purgatoire River: FIELD
LOC.           2482' FNL & 662' FEL: LOCATION
CNTY.               Las Animas: COUNTY
SRVC.                         : SERVICE COMPANY
DATE.          Tue Mar 14 14:47:22 2006: LOG DATE
UWI.           05 071 08659 00: UNIQUE WELL ID
STAT.                       CO: STATE
~Curve Information Block
DEPT.FT            0 000 00 00: Depth
GR.GAPI                       : Gamma Ray
CCL.                          : Casing Collar Locator
TT3.usec                      : CBL 3' Travel Time
AMP3.mV                       : CBL 3' Amplitude
~Parameter Information Block
~A  Depth        GR         CCL         TT3         AMP3    
# ...
   296.2500     95.5368      0.0000    730.0804      9.4559
   296.5000     90.8500      0.0000    729.8346      9.4114
   296.7500     85.2837      0.0000    729.5309      9.3953
   297.0000     80.8556      0.0000    729.1896      9.4407
   297.2500     79.1693      0.0000    728.8774      9.5786
   297.5000     80.4185      0.0000    728.6922      9.8285
   297.7500     83.5028      0.0000    728.7216     10.1894
   298.0000     86.9531      0.0000    729.0129     10.6357
   298.2500     89.6919      0.0000    729.5609     11.1057
   298.5000     91.1569      0.0000    730.2922     11.4979
   298.7500     91.3045      0.0000    731.0968     11.7143
   299.0000     90.8009      0.0000    731.9413     11.7299
   299.2500     90.8042      0.0000    733.0531     11.6128
   299.5000     91.9673      0.0000    734.9418     11.4589
   299.7500     93.5325      0.0000    738.0105     11.3141
   300.0000     93.6430      0.0000    741.8995     11.1672
   300.2500     90.7649      0.0000    745.2699     11.0054
   300.5000     84.9429      0.0000    746.5391     10.8670
   300.7500     77.9016      0.0000    745.0770     10.8479
   301.0000     72.0611      0.0000    741.8323     11.0675
   301.2500     69.1816      0.0000    738.7211     11.6276
   301.5000     69.4837      0.0000    736.8156     12.5846
   301.7500     71.7180      0.0000    734.4426     13.9338
   302.0000     74.0878      0.0000    726.6279     15.6080
   302.2500     75.5188      0.0000    706.8821     17.5011
   302.5000     76.3295      0.0000    671.5826     19.5002
   302.7500     77.5688      0.0000    625.7094     21.4894
   303.0000     79.6658      0.0000    584.9041     23.3299
   303.2500     81.9313      0.0000    568.0926     24.8559
   303.5000     83.3883      0.0000    583.7430     25.8895
   303.7500     83.8226      0.0000    622.7902     26.2650
   304.0000     83.8850      0.0000    666.1586     25.8884
   304.2500     84.3154      0.0000    698.8768     24.8143
   304.5000     85.3414      0.0000    717.0829     23.2505
   304.7500     86.8577      0.0000    724.7101     21.4498
   305.0000     88.7417      0.0000    727.0762     19.5945
   305.2500     90.6664      0.0000    727.5695     17.7827
   305.5000     92.0068      0.0000    727.6005     16.0886
   305.7500     92.5217      0.0000    727.5656     14.5964
   306.0000     92.9751      0.0000    727.5013     13.3762
   306.2500     94.5195      0.0000    727.3763     12.4467
   306.5000     97.3840      0.0000    727.1751     11.7712
   306.7500    100.4519      0.0000    726.9325     11.2834
   307.0000    102.0826      0.0000    726.7192     10.9156
   307.2500    101.2981      0.0000    726.6099     10.6120
   307.5000     98.4368      0.0000    726.6505     10.3347
   307.7500     94.7360      0.0000    726.8359     10.0679
   308.0000     91.2157      0.0000    727.1052      9.8137
   308.2500     88.1917      0.0000    727.3652      9.5802
   308.5000     85.7941      0.0000    727.5422      9.3726
   308.7500     84.2699      0.0000    727.6202      9.1932
   309.0000     83.5467      0.0000    727.6334      9.0492
   309.2500     82.9497      0.0000    727.6252      8.9575
   309.5000     81.5994      0.0000    727.6191      8.9350
   309.7500     79.2641      0.0000    727.6136      8.9853
   310.0000     77.0392      0.0000    727.5961      9.0962
   310.2500     76.9099      0.0000    727.5622      9.2488
   310.5000     80.1537      0.0000    727.5281      9.4295
   310.7500     86.1439      0.0000    727.5165      9.6367
   311.0000     92.6272      0.0000    727.5356      9.8801
   311.2500     96.9111      0.0000    727.5794     10.1635
   311.5000     97.1711      0.0000    727.6500     10.4567
   311.7500     93.4524      0.0000    727.8004     10.6898
   312.0000     87.6087      0.0000    728.2015     10.7890
   312.2500     81.8073      0.0000    729.2037     10.7333
   312.5000     76.9302      0.0000    731.2361     10.5730
   312.7500     72.4829      0.0000    734.4265     10.3914
   313.0000     67.7816      0.0000    738.3011     10.2547
   313.2500     62.9461      0.0000    742.1904     10.1960
   313.5000     58.9512      0.0000    746.0594     10.2255
   313.7500     56.9818      0.0000    750.4802     10.3436
   314.0000     57.5430      0.0000    755.5543     10.5447
   314.2500     59.8551      0.0000    760.3914     10.8095
   314.5000     62.2239      0.0000    763.9546     11.0966
   314.7500     63.4564      0.0000    766.0111     11.3520
   315.0000     63.9248      0.0000    767.0493     11.5417
   315.2500     64.8372      0.0000    767.6348     11.6709
   315.5000     66.5611      0.0000    768.0462     11.7663
   315.7500     68.2461      0.0000    768.2625     11.8411
   316.0000     69.0458      0.0000    767.9693     11.8867
   316.2500     69.0006      0.0000    766.6724     11.8943
   316.5000     68.4746      0.0000    764.2224     11.8704
   316.7500     67.2696      0.0000    761.4222     11.8286
   317.0000     64.8644      0.0000    759.7523     11.7749
   317.2500     61.4355      0.0000    760.1175     11.7059
   317.5000     58.2124      0.0000    762.0256     11.6158
   317.7500     56.6438      0.0000    764.1381     11.5014
   318.0000     57.2640      0.0000    765.3019     11.3617
   318.2500     59.2824      0.0000    764.8481     11.1985
   318.5000     61.0544      0.0000    762.4371     11.0196
   318.7500     60.9679      0.0000    758.3838     10.8394
   319.0000     58.3604      0.0000    754.1780     10.6717
   319.2500     54.1187      0.0000    751.8447     10.5247
   319.5000     50.4189      0.0000    752.0235     10.4047
   319.7500     49.4480      0.0000    753.0801     10.3202
   320.0000     51.9178      0.0000    752.9106     10.2787
   320.2500     56.5695      0.0000    751.4851     10.2819
   320.5000     61.0255      0.0000    750.8740     10.3229
   320.7500     63.2728      0.0000    752.7546     10.3893
   321.0000     62.8061      0.0000    756.6127     10.4699
   321.2500     60.7762      0.0000    760.5972     10.5580
   321.5000     59.0290      0.0000    763.3760     10.6460
   321.7500     58.6801      0.0000    764.8099     10.7148
   322.0000     59.4147      0.0000    765.4808     10.7341
   322.2500     60.1729      0.0000    766.6242     10.6769
   322.5000     60.4177      0.0000    770.8302     10.5496
   322.7500     60.5139      0.0000    782.0479     10.4129
   323.0000     61.0398      0.0000    803.0916     10.3426
   323.2500     62.1418      0.0000    831.9589     10.3316
   323.5000     63.5492      0.0000    861.2245     10.2616
   323.7500     64.7590      0.0000    882.3727     10.0254
   324.0000     65.0270      0.0000    891.0656      9.6527
   324.2500     63.5909      0.0000    888.1277      9.2640
   324.5000     60.4113      0.0000    876.6465      8.9369
   324.7500     56.6708      0.0000    859.7014      8.6602
   325.0000     54.1070     -1.5601    840.1783      8.3912
   325.2500     53.6588      0.0000    819.6376      8.1328
   325.5000     54.9275      0.0000    796.4924      7.9689
   325.7500     56.9083      0.0000    768.6923      8.0189
   326.0000     58.8864      0.0000    740.2589      8.3266
   326.2500     60.5446      0.0000    721.6248      8.8011
   326.5000     61.5964      0.0000    719.9968      9.2933
   326.7500     61.6857      0.0000    731.6574      9.7093
   327.0000     60.6742      0.0000    746.0269     10.0325
   327.2500     58.9734      0.0000    754.7980     10.2773
   327.5000     57.5310      0.0000    755.3206     10.4534
   327.7500     57.2850      0.0000    748.3589     10.5582
   328.0000     58.5390      0.0000    736.1042     10.5895
   328.2500     60.9177      0.0000    721.9052     10.5606
   328.5000     63.7875      0.0000    709.5034     10.4995
   328.7500     66.5077      0.0000    701.2872     10.4342
   329.0000     68.5025      0.0000    697.4900     10.3825
   329.2500     69.5135      0.0000    696.9685     10.3522
   329.5000     69.7542      0.0000    698.2556     10.3439
