~Version Information
VERS.                      2.0: CWLS Log ASCII Standard - VERSION 2.0
WRAP.                       NO: One line per depth step
~Well Information Block
STRT.FT                -6.5000: 
STOP.FT              1758.0000: 
STEP.FT                 0.2500: 
NULL.                -999.2500: 
COMP.          Pioneer Natural Resources: COMPANY
WELL.           Rolls 14-14 Tr: WELL
FLD.           Purgatorie River: FIELD
LOC.           473' FSL & 817' FWL--: LOCATION
PROV.                       CO: PROVINCE
CNTY.               Las Animas: COUNTRY
SRVC.          Patterson Wireline: SERVICE COMPANY
DATE.          Mon Aug 08 11:51:25 2005: LOG DATE
UWI.           05 071 08454 00: UNIQUE WELL ID
~Curve Information Block
DEPT.FT            0 000 00 00: Depth
CCL.                          : Casing Collar Locator
TT3.usec                      : CBL 3' Travel Time
AMP3.mV                       : CBL 3' Amplitude
GR.GAPI                       : Gamma Ray
~Parameter Information Block
~A  Depth       CCL         TT3         AMP3         GR     
# ...
   931.5000      0.0000    786.8792      4.9437     97.2690
   931.7500      0.0000    792.6591      4.8825    100.5970
   932.0000      0.0000    795.6894      4.8313    107.2521
   932.2500      0.0000    794.1921      4.8008    114.4100
   932.5000      0.0000    787.7465      4.8198    120.5014
   932.7500      0.0000    775.7012      4.9049    125.8082
   933.0000      0.0000    757.8091      5.0366    131.7949
   933.2500      0.0000    735.5825      5.1738    139.2170
   933.5000      0.0000    711.7410      5.2841    146.6229
   933.7500      0.0000    688.3669      5.3554    151.3460
   934.0000      0.0000    666.1592      5.3901    152.1494
   934.2500      0.0000    646.2990      5.3994    150.2145
   934.5000      0.0000    633.2323      5.3990    147.3514
   934.7500      0.0000    633.6155      5.3977    144.0978
   935.0000      0.0000    650.4961      5.3907    139.9094
   935.2500      0.0000    679.2043      5.3720    134.1774
   935.5000      0.0000    710.5024      5.3497    126.5524
   935.7500      0.0000    737.2216      5.3420    117.2372
   936.0000      0.0000    756.9979      5.3596    107.4054
   936.2500      0.0000    770.1381      5.3979     98.5885
   936.5000      0.0000    777.2463      5.4418     91.4886
   936.7500      0.0000    779.1828      5.4705     86.0331
   937.0000      0.0000    777.7418      5.4661     82.5215
   937.2500      0.0000    775.1652      5.4281     81.8123
   937.5000      0.0000    773.0060      5.3803     84.0816
   937.7500      0.0000    771.7240      5.3536     87.9788
   938.0000      0.0000    771.1384      5.3619     91.4673
   938.2500      0.0000    770.9719      5.3951     93.3858
   938.5000      0.0000    771.0349      5.4301     94.0750
   938.7500      0.0000    771.1902      5.4506     94.5957
   939.0000      0.0000    771.3245      5.4598     95.4818
   939.2500      0.0000    771.3633      5.4726     96.2624
   939.5000      0.0000    771.2922      5.4927     96.0714
   939.7500      0.0000    771.1456      5.5092     94.5206
   940.0000      0.0000    770.9680      5.5183     91.9405
   940.2500      0.0000    770.7502      5.5326     89.0556
   940.5000      0.0000    770.3638      5.5601     86.5671
   940.7500      0.0000    769.5347      5.5849     84.8515
   941.0000      0.0000    767.9420      5.5778     83.7325
   941.2500      0.0000    765.4911      5.5256     82.4851
   941.5000      0.0000    762.5317      5.4466     80.3616
   941.7500      0.0000    759.6234      5.3726     77.3079
   942.0000      0.0000    757.0748      5.3199     74.2289
   942.2500      0.0000    755.0942      5.2832     72.5006
   942.5000      0.0000    754.3951      5.2524     72.9805
   942.7500      0.0000    755.9288      5.2198     75.1738
   943.0000      0.0000    759.6965      5.1722     77.3858
   943.2500      0.0000    764.3572      5.0956     77.9494
   943.5000      0.0000    768.3373      4.9937     76.4386
   943.7500      0.0000    771.1556      4.8871     73.7106
   944.0000      0.0000    773.4257      4.7833     71.0103
   944.2500      0.0000    775.5400      4.6653     69.2107
   944.5000      0.0000    776.5765      4.5239     68.5666
   944.7500      0.0000    775.1182      4.3859     68.7144
   945.0000      0.0000    771.2351      4.2931     68.8853
   945.2500      2.0000    767.1178      4.2629     68.4446
   945.5000      2.0000    765.6832      4.2800     67.3367
   945.7500      0.0000    768.7615      4.3176     65.9509
   946.0000      0.0000    776.0928      4.3613     64.6726
   946.2500      0.0000    785.2467      4.4201     63.6455
   946.5000      0.0000    792.5641      4.5098     62.8872
   946.7500      0.0000    795.0389      4.6208     62.5297
   947.0000      0.0000    792.0145      4.7169     62.8619
   947.2500      0.0000    785.2657      4.7858     63.9411
   947.5000      0.0000    777.3436      4.8658     65.0921
   947.7500      0.0000    769.6719      5.0000     65.1040
   948.0000      0.0000    762.0728      5.1820     63.2315
   948.2500      0.0000    753.9785      5.3629     59.9366
   948.5000      0.0000    745.7532      5.4931     56.5844
   948.7500      0.0000    738.6894      5.5517     54.4790
   949.0000      0.0000    733.9080      5.5527     54.0712
   949.2500      0.0000    731.5933      5.5270     54.8546
   949.5000      0.0000    731.1797      5.4907     55.9883
   949.7500      0.0000    731.9645      5.4316     57.0081
   950.0000      0.0000    733.5793      5.3339     58.0126
   950.2500      0.0000    736.2499      5.2075     59.5247
   950.5000      0.0000    740.7060      5.0880     62.2795
   950.7500      0.0000    747.2462      5.0106     66.6477
   951.0000      0.0000    754.3568      4.9885     72.0497
   951.2500      0.0000    759.0819      5.0163     77.3746
   951.5000      0.0000    760.2557      5.0856     82.2587
   951.7500      0.0000    761.0417      5.1913     87.6268
   952.0000      0.0000    766.3075      5.3297     94.5595
   952.2500      0.0000    777.1230      5.4970    102.6986
   952.5000      0.0000    789.3948      5.6932    110.2592
   952.7500      0.0000    798.0781      5.9183    115.7685
   953.0000      0.0000    801.4150      6.1559    119.3329
   953.2500      0.0000    801.1284      6.3553    121.9449
   953.5000      0.0000    799.9957      6.4407    124.0569
   953.7500      0.0000    799.6974      6.3523    125.3271
   954.0000      0.0000    800.0878      6.0905    125.3258
   954.2500      0.0000    799.8574      5.7251    123.7704
   954.5000      0.0000    797.9898      5.3597    120.3100
   954.7500      0.0000    794.7614      5.0780    114.9982
   955.0000      0.0000    791.4829      4.9101    109.1419
   955.2500      0.0000    789.4338      4.8373    104.9473
   955.5000      0.0000    788.7393      4.8238    103.9643
   955.7500      0.0000    787.9476      4.8419    106.3348
   956.0000      0.0000    785.0444      4.8823    111.7538
   956.2500      0.0000    779.2969      4.9521    120.4376
   956.5000      0.0000    771.9896      5.0667    132.3110
   956.7500      0.0000    765.3912      5.2403    145.2575
   957.0000      0.0000    761.3091      5.4809    155.0170
   957.2500      0.0000    760.3734      5.7888    157.7825
   957.5000      0.0000    762.0496      6.1436    153.3396
   957.7500      0.0000    765.0452      6.4945    145.4432
   958.0000      0.0000    767.9287      6.7786    138.7123
   958.2500      0.0000    769.6980      6.9605    135.1439
   958.5000      0.0000    769.9686      7.0525    133.7307
   958.7500      0.0000    768.8202      7.0941    132.7136
   959.0000      0.0000    766.7436      7.1139    131.1169
   959.2500      0.0000    764.7512      7.1111    128.4582
   959.5000      0.0000    764.0571      7.0678    124.5476
   959.7500      0.0000    765.1871      6.9795    120.1491
   960.0000      0.0000    767.5213      6.8709    116.8688
   960.2500      0.0000    770.0337      6.7788    115.7079
   960.5000      0.0000    772.4648      6.7238    116.1447
   960.7500      0.0000    775.6902      6.7034    116.9171
   961.0000      0.0000    781.0466      6.7076    117.3733
   961.2500      0.0000    789.1459      6.7314    117.9947
   961.5000      0.0000    799.0197      6.7694    119.7156
   961.7500      0.0000    808.4437      6.8022    122.6493
   962.0000      0.0000    815.3706      6.8009    125.4935
   962.2500      0.0000    819.2088      6.7533    126.3653
   962.5000      0.0000    820.9465      6.6824    124.1942
   962.7500      0.0000    822.3311      6.6289    119.1786
   963.0000      0.0000    824.5458      6.6173    112.3621
   963.2500      0.0000    827.0874      6.6430    105.2935
   963.5000      0.0000    828.3730      6.6869     99.7665
   963.7500      0.0000    827.9264      6.7306     97.2290
   964.0000      0.0000    827.1616      6.7604     98.2436
   964.2500      0.0000    827.4736      6.7620    102.3490
   964.5000      0.0000    828.3682      6.7230    108.2985
   964.7500      0.0000    827.9822      6.6398    114.7260
