~Version Information
VERS.                      2.0: CWLS Log ASCII Standard - VERSION 2.0
WRAP.                       NO: One line per depth step
~Well Information Block
STRT.FT               230.0000: 
STOP.FT               707.5000: 
STEP.FT                 0.2500: 
NULL.                -999.2500: 
COMP.          Pioneer Natural Resources: COMPANY
WELL.          Razor Clam 23-27: WELL
FLD.           Purgatoire River: FIELD
LOC.           2499' FSL & 2636' FWL: LOCATION
CNTY.               Las Animas: COUNTY
SRVC.                Patterson: SERVICE COMPANY
DATE.          Sun Feb 12 15:35:16 2006: LOG DATE
UWI.           05 071 08667 00: UNIQUE WELL ID
STAT.                 Colorado: STATE
~Curve Information Block
DEPT.FT            0 000 00 00: Depth
SN.Ohm-m                      : IEL Short Normal
SP.mV                         : IEL Spontaneous Potential
DIR.Ohm-m                     : IEL Induction Resistivity
GR.GAPI                       : Gamma Ray
~Parameter Information Block
~A  Depth        SN          SP         DIR          GR     
# ...
   531.5000     68.9954     14.4345     56.4044     72.1606
   531.7500     67.0077     14.6544     56.3410     69.1795
   532.0000     64.5519     14.8855     55.5080     64.7237
   532.2500     61.8244     15.1111     53.9370     62.2072
   532.5000     58.9341     15.3059     51.7819     59.3061
   532.7500     55.9544     15.4415     49.1451     57.8572
   533.0000     52.9709     15.4919     46.0910     56.1773
   533.2500     50.0689     15.4445     42.7867     55.3547
   533.5000     47.2904     15.3127     39.5306     54.6258
   533.7500     44.6924     15.1383     36.6024     54.4220
   534.0000     42.3703     14.9790     34.1058     54.3095
   534.2500     40.3410     14.8877     31.9657     54.2902
   534.5000     38.5118     14.8954     30.0517     54.3549
   534.7500     36.7996     15.0044     28.3073     54.4508
   535.0000     35.2280     15.1921     26.7786     54.5811
   535.2500     33.8817     15.4235     25.5470     54.5869
   535.5000     32.7963     15.6661     24.6534     54.3344
   535.7500     31.9254     15.8979     24.0709     53.9423
   536.0000     31.1699     16.1083     23.7217     53.3973
   536.2500     30.4223     16.2928     23.5160     53.7475
   536.5000     29.6513     16.4498     23.3902     56.7017
   536.7500     28.9072     16.5796     23.3252     60.3844
   537.0000     28.1847     16.6840     23.3373     66.7274
   537.2500     27.4265     16.7654     23.4495     70.0456
   537.5000     26.6999     16.8224     23.6697     72.3406
   537.7500     26.2025     16.8441     23.9852     72.2103
   538.0000     26.1035     16.8125     24.3722     70.1195
   538.2500     26.4394     16.7186     24.8063     67.6344
   538.5000     27.1426     16.5821     25.2645     62.5612
   538.7500     28.1826     16.4552     25.7192     58.5303
   539.0000     29.6676     16.4030     26.1343     51.7124
   539.2500     31.7740     16.4722     26.4768     46.6266
   539.5000     34.5788     16.6695     26.7387     38.4252
   539.7500     37.9169     16.9627     26.9468     33.1173
   540.0000     41.3092     17.2989     27.1481     26.8718
   540.2500     44.0855     17.6346     27.3787     24.7473
   540.5000     45.6597     17.9585     27.6412     25.7467
   540.7500     45.7181     18.2968     27.9014     29.5508
   541.0000     44.2705     18.7019     28.1064     40.0690
   541.2500     41.6504     19.2336     28.2108     50.0278
   541.5000     38.4584     19.9411     28.1881     68.0785
   541.7500     35.3601     20.8447     28.0140     80.7275
   542.0000     32.7921     21.9220     27.6350     97.2398
   542.2500     30.8383     23.1070     26.9729    104.8739
   542.5000     29.3678     24.3099     25.9877    110.1709
   542.7500     28.2439     25.4503     24.7447    110.1983
   543.0000     27.3989     26.4855     23.4053    107.4772
   543.2500     26.7791     27.4117     22.1479    105.7333
   543.5000     26.3074     28.2411     21.0969    106.2331
   543.7500     25.8846     28.9716     20.3068    109.4435
   544.0000     25.4032     29.5729     19.7783    117.6222
   544.2500     24.8038     29.9966     19.4773    123.8709
   544.5000     24.0916     30.1995     19.3428    131.8377
   544.7500     23.3033     30.1620     19.2909    134.9719
   545.0000     22.5289     29.8932     19.2219    134.7915
   545.2500     21.8852     29.4310     19.0398    130.8706
   545.5000     21.3978     28.8448     18.6832    119.5366
   545.7500     20.9739     28.2399     18.1516    109.3587
   546.0000     20.5243     27.7517     17.5053     93.0321
   546.2500     20.0653     27.5184     16.8352     83.2882
   546.5000     19.6624     27.6344     16.2253     73.1314
   546.7500     19.3490     28.1082     15.7342     70.5866
   547.0000     19.1441     28.8552     15.3950     74.3630
   547.2500     19.0539     29.7343     15.2225     81.7086
   547.5000     18.9994     30.6039     15.2166     97.3729
   547.7500     18.8411     31.3621     15.3592    108.4600
   548.0000     18.5453     31.9576     15.6083    121.7968
   548.2500     18.2515     32.3767     15.8955    126.8230
   548.5000     18.1130     32.6270     16.1393    127.8864
   548.7500     18.1438     32.7293     16.2727    124.9687
   549.0000     18.2640     32.7195     16.2733    117.0993
   549.2500     18.4360     32.6493     16.1717    110.5981
   549.5000     18.7110     32.5744     16.0334    100.3948
   549.7500     19.1193     32.5325     15.9316     93.9741
   550.0000     19.5695     32.5300     15.9301     86.3194
   550.2500     19.9535     32.5505     16.0776     83.7504
   550.5000     20.2722     32.5742     16.4075     85.9554
   550.7500     20.5721     32.5854     16.9363     91.9432
   551.0000     20.8495     32.5692     17.6570    105.6256
   551.2500     21.0909     32.5136     18.5261    115.3222
   551.5000     21.3204     32.4216     19.4474    126.4124
   551.7500     21.5650     32.3210     20.2728    130.0811
   552.0000     21.8353     32.2555     20.8444    129.6167
   552.2500     22.1373     32.2604     21.0692    125.9329
   552.5000     22.4880     32.3410     20.9693    117.3675
   552.7500     22.9270     32.4716     20.6557    111.0952
   553.0000     23.4692     32.6129     20.2542    102.8311
   553.2500     24.0780     32.7304     19.8471     98.6253
   553.5000     24.6841     32.8020     19.4621     94.6789
   553.7500     25.1145     32.8154     19.0961     93.9003
   554.0000     25.0691     32.7694     18.7453     95.6945
   554.2500     24.3508     32.6771     18.4168     98.4541
   554.5000     23.0907     32.5625     18.1196    103.7096
   554.7500     21.6441     32.4457     17.8480    107.4660
   555.0000     20.3134     32.3317     17.5736    113.0584
   555.2500     19.2055     32.2131     17.2508    116.1664
   555.5000     18.2938     32.0801     16.8350    117.8486
   555.7500     17.5447     31.9283     16.3022    115.9515
   556.0000     16.9285     31.7640     15.6643    109.1055
   556.2500     16.3709     31.6063     14.9653    103.7171
   556.5000     15.8037     31.4850     14.2636     98.5641
   556.7500     15.2602     31.4318     13.6132     98.9882
   557.0000     14.8795     31.4673     13.0560    106.4083
   557.2500     14.7586     31.5893     12.6251    114.8765
   557.5000     14.8172     31.7697     12.3471    129.2691
   557.7500     14.9039     31.9605     12.2379    137.8811
   558.0000     14.9690     32.1072     12.2957    147.3266
   558.2500     15.0186     32.1658     12.4959    151.0492
   558.5000     15.0289     32.1154     12.7933    152.6987
   558.7500     15.0015     31.9647     13.1343    151.0420
   559.0000     14.9777     31.7486     13.4748    144.6188
   559.2500     15.0023     31.5179     13.7961    138.3121
   559.5000     15.1646     31.3213     14.1073    127.0561
   559.7500     15.5789     31.1897     14.4326    118.7839
   560.0000     16.2904     31.1286     14.7939    105.6339
   560.2500     17.2814     31.1211     15.2022     96.7641
   560.5000     18.4998     31.1333     15.6646     84.4183
   560.7500     19.8335     31.1209     16.1979     77.6305
   561.0000     21.1475     31.0391     16.8323     70.9236
   561.2500     22.3403     30.8593     17.5945     69.0642
   561.5000     23.3232     30.5808     18.4811     69.1306
   561.7500     24.0087     30.2284     19.4388     69.8314
   562.0000     24.3503     29.8403     20.3702     70.3737
   562.2500     24.3833     29.4561     21.1683     70.5155
   562.5000     24.1883     29.1090     21.7613     71.6219
   562.7500     23.8461     28.8199     22.1350     73.3256
   563.0000     23.4589     28.5944     22.3209     76.5059
   563.2500     23.0937     28.4288     22.3683     78.1961
   563.5000     22.7212     28.3182     22.3249     79.4076
   563.7500     22.3580     28.2577     22.2325     79.4644
   564.0000     22.1559     28.2378     22.1252     78.8038
   564.2500     22.1710     28.2429     22.0227     78.0798
   564.5000     22.2322     28.2583     21.9263     77.2270
   564.7500     22.2074     28.2774     21.8274     77.2410
