~Version Information
VERS.                      2.0: CWLS Log ASCII Standard - VERSION 2.0
WRAP.                       NO: One line per depth step
~Well Information Block
STRT.FT                 0.0000: 
STOP.FT               683.5000: 
STEP.FT                 0.2500: 
NULL.                -999.2500: 
COMP.          Pioneer Natural Resources: COMPANY
WELL.           Belvedere 14-7: WELL
FLD.           Purgatorie River: FIELD
LOC.           786' FSL & 1283' FWL: LOCATION
PROV.                 Colorado: PROVINCE
CNTY.               Las Animas: COUNTRY
SRVC.                Patterson: SERVICE COMPANY
DATE.          Fri Dec 02 12:52:31 2005: LOG DATE
UWI.           05-071-08557               : UNIQUE WELL ID
~Curve Information Block
DEPT.FT            0 000 00 00: Depth
CCL.                          : Casing Collar Locator
TT3.usec                      : CBL 3' Travel Time
AMP3.mV                       : CBL 3' Amplitude
GR.GAPI                       : Gamma Ray
~Parameter Information Block
~A  Depth       CCL         TT3         AMP3         GR     
# ...
   301.5000      0.0000    682.0951      7.3819     78.1958
   301.7500      0.0000    682.0229      7.2797     77.2752
   302.0000      0.0000    681.9393      7.1986     74.0342
   302.2500      0.0000    681.7546      7.1732     69.9612
   302.5000      0.0000    681.4606      7.1849     66.3977
   302.7500      0.0000    681.1525      7.1890     63.6435
   303.0000      0.0000    680.9651      7.1784     61.1750
   303.2500      0.0000    681.1770      7.1802     58.6086
   303.5000      0.0000    682.5407      7.1978     56.3135
   303.7500      0.0000    686.0334      7.2065     55.1619
   304.0000      0.0000    690.8413      7.1969     55.8157
   304.2500      0.0000    693.2412      7.1789     58.2689
   304.5000      0.0000    690.8146      7.1588     61.8722
   304.7500      0.0000    686.2078      7.1359     65.5456
   305.0000      0.0000    683.4333      7.1031     68.0210
   305.2500      0.0000    684.1181      7.0488     68.3204
   305.5000      0.0000    688.7440      6.9743     66.4074
   305.7500      0.0000    696.6345      6.9019     63.3818
   306.0000      0.0000    703.3211      6.8646     60.8004
   306.2500      0.0000    703.0012      6.8854     59.5990
   306.5000      0.0000    695.7942      6.9550     59.5109
   306.7500      0.0000    687.7288      7.0344     59.5006
   307.0000      0.0000    683.3810      7.0877     58.8032
   307.2500      0.0000    683.2825      7.1107     57.5404
   307.5000      0.0000    686.6180      7.1192     56.3973
   307.7500      0.0000    691.5302      7.1140     55.8696
   308.0000      0.0000    694.0847      7.0793     55.9091
   308.2500      0.0000    691.8196      7.0221     56.2469
   308.5000      0.0000    687.2692      6.9878     56.8944
   308.7500      0.0000    684.7123      7.0241     58.2226
   309.0000      0.0000    686.0978      7.1372     60.5568
   309.2500      0.0000    690.0330      7.2926     63.7688
   309.5000      0.0000    692.2338      7.4597     67.2234
   309.7500      0.0000    689.8970      7.6353     70.0855
   310.0000      0.0000    685.5590      7.8187     71.8080
   310.2500      0.0000    683.8129      7.9961     72.4493
   310.5000      0.0000    687.4176      8.1640     72.4752
   310.7500      0.0000    696.6759      8.3393     72.2772
   311.0000      0.0000    708.3088      8.5388     72.1179
   311.2500      0.0000    716.3972      8.7548     72.4986
   311.5000      0.0000    716.8488      8.9543     74.0772
   311.7500      0.0000    710.5822      9.1110     76.8857
   312.0000      0.0000    703.8301      9.2262     79.8151
   312.2500      0.0000    703.4695      9.3115     81.2225
   312.5000      0.0000    708.9542      9.3594     80.2678
   312.7500      0.0000    712.6010      9.3343     77.7541
   313.0000      0.0000    709.4960      9.2138     75.4944
   313.2500      0.0000    703.0067      9.0177     74.7583
   313.5000      0.0000    698.6941      8.7821     75.5322
   313.7500      0.0000    696.2444      8.5287     77.1087
   314.0000      0.0000    692.2614      8.2621     78.7553
   314.2500      0.0000    687.1725      7.9922     79.7567
   314.5000      0.0000    683.5688      7.7461     79.3895
   314.7500      0.0000    681.9767      7.5494     77.2048
   315.0000      0.0000    681.3855      7.4104     73.3403
   315.2500      0.0000    681.0462      7.3299     68.5438
   315.5000      0.0000    680.7738      7.3052     63.8867
   315.7500      0.0000    680.5808      7.3180     60.3121
   316.0000      0.0000    680.4509      7.3367     58.3347
   316.2500      0.0000    680.3290      7.3362     58.0473
   316.5000      0.0000    680.2128      7.3134     59.2928
   316.7500      0.0000    680.1818      7.2810     61.7973
   317.0000      0.0000    680.2764      7.2432     65.2499
   317.2500      0.0000    680.3851      7.1849     69.4108
   317.5000      0.0000    680.2964      7.0911     74.2114
   317.7500      0.0000    679.8889      6.9568     79.7264
   318.0000      0.0000    679.3027      6.7820     85.9906
   318.2500      0.0000    678.8798      6.5997     92.8211
   318.5000      0.0000    678.8597      6.4908     99.7403
   318.7500      0.0000    679.1871      6.5179    106.0389
   319.0000      0.0000    679.6243      6.6536    111.0931
   319.2500      0.0000    679.9421      6.8241    114.9007
   319.5000      0.0000    679.9882      7.0102    118.4257
   319.7500      0.0000    679.5405      7.2362    123.2337
   320.0000      0.0000    677.8616      7.4783    130.2394
   320.2500      0.0000    673.8008      7.6779    138.3403
   320.5000      0.0000    667.9176      7.8056    144.5786
   320.7500      0.0000    663.6732      7.8197    146.3054
   321.0000      0.0000    663.4319      7.6586    143.2771
   321.2500      0.0000    669.3820      7.4409    137.3819
   321.5000      0.0000    696.7112      7.3746    130.7257
   321.7500      0.0000    769.3817      7.2619    124.5306
   322.0000      0.0000    878.4193      6.8082    119.4105
   322.2500      0.0000    963.3127      6.3354    115.8226
   322.5000      0.0000    974.2562      6.2871    114.0960
   322.7500     -2.0000    934.1212      6.5510    114.4156
   323.0000      2.0000    895.0577      6.7811    116.8684
   323.2500      0.0000    865.1650      6.8426    121.1320
   323.5000      0.0000    827.9583      6.7604    125.9603
   323.7500      0.0000    789.8088      6.5818    129.3873
   324.0000      0.0000    764.7740      6.4769    130.0056
   324.2500      0.0000    752.1135      6.6645    128.1706
   324.5000      0.0000    744.1696      7.0056    125.5822
   324.7500      0.0000    735.5411      7.2055    123.6335
   325.0000      0.0000    724.8002      7.3960    122.6923
   325.2500      0.0000    713.3492      7.7855    122.9456
   325.5000      0.0000    705.0957      8.2062    124.8198
   325.7500      0.0000    704.4460      8.4516    127.8144
   326.0000      0.0000    709.7585      8.5080    129.6227
   326.2500      0.0000    712.9090      8.4078    127.5394
   326.5000      0.0000    708.2264      8.1832    120.7515
   326.7500      0.0000    698.1181      7.9121    110.6743
   327.0000      0.0000    688.8156      7.6902     99.4132
   327.2500      0.0000    683.5147      7.5636     88.6659
   327.5000      0.0000    681.3793      7.5109     79.6521
   327.7500      0.0000    680.6649      7.4866     72.8704
   328.0000      0.0000    680.4451      7.4725     67.6781
   328.2500      0.0000    680.4481      7.5098     62.7807
   328.5000      0.0000    680.6355      7.6607     57.4053
   328.7500      0.0000    681.0289      7.9012     51.7601
   329.0000      0.0000    681.6677      8.1288     46.5028
   329.2500      0.0000    682.6631      8.2656     42.2697
   329.5000      0.0000    684.6494      8.2908     39.5739
   329.7500      0.0000    689.1550      8.2401     38.4867
   330.0000      0.0000    696.6594      8.1767     38.3289
   330.2500      0.0000    703.2935      8.1260     38.2678
   330.5000      0.0000    703.3110      8.0841     38.3270
   330.7500      0.0000    696.6130      8.0498     39.2809
   331.0000      0.0000    688.8926      8.0140     41.3899
   331.2500      0.0000    684.2365      7.9672     43.6745
   331.5000      0.0000    682.3837      7.9178     44.7054
   331.7500      0.0000    681.6692      7.8785     43.9121
   332.0000      0.0000    681.1530      7.8471     42.0007
   332.2500      0.0000    680.8365      7.8154     40.3371
   332.5000      0.0000    681.5776      7.7838     40.0351
   332.7500      0.0000    684.7444      7.7450     41.3862
   333.0000      0.0000    690.5084      7.6724     43.8630
   333.2500      0.0000    695.8470      7.5448     46.5602
   333.5000      0.0000    694.4767      7.3712     48.7180
   333.7500      0.0000    678.4758      7.1966     50.0431
   334.0000      0.0000    647.9294      7.0750     50.6629
   334.2500      0.0000    619.6476      7.0352     50.7980
   334.5000      0.0000    604.8678      7.0918     50.5418
   334.7500      0.0000    592.4749      7.2457     49.9308
