~Version Information
VERS.                      2.0: CWLS Log ASCII Standard - VERSION 2.0
WRAP.                       NO: One line per depth step
~Well Information Block
STRT.FT               670.0000: 
STOP.FT              2110.0000: 
STEP.FT                 0.2500: 
NULL.                -999.2500: 
COMP.          Petrogulf Corporation: COMPANY
WELL.           Montoya 12-44R: WELL
FLD.           Purgatorie River: FIELD
LOC.           713' FSL & 798' FEL: LOCATION
PROV.                 Colorado: PROVINCE
CNTY.               Las Animas: COUNTRY
SRVC.                Patterson: SERVICE COMPANY
DATE.          Sun Oct 02 01:06:45 2005: LOG DATE
UWI.           05-071-08538               : UNIQUE WELL ID
~Curve Information Block
DEPT.FT            0 000 00 00: Depth
SP.mV                         : DIL Spontaneous Potential
RILD.Ohm-m                    : DIL Deep Resistivity
RILM.Ohm-m                    : DIL Medium Resistivity
RLL3.Ohm-m                    : DIL Shallow Resistivity
GR.GAPI                       : Gamma Ray
~Parameter Information Block
~A  Depth        SP         RILD        RILM        RLL3         GR     
# ...
   950.0000   2000.0000     16.1890     16.2828   2000.0000    120.7578
   950.2500   2000.0000     16.1181     16.4879   2000.0000    118.1884
   950.5000   2000.0000     16.0302     16.6260   2000.0000    113.3372
   950.7500   2000.0000     15.9248     16.6633   2000.0000    110.1223
   951.0000   2000.0000     15.8010     16.5794   2000.0000    106.3049
   951.2500   2000.0000     15.6574     16.3705   2000.0000    104.8454
   951.5000   2000.0000     15.4905     16.0504   2000.0000    104.7026
   951.7500   2000.0000     15.2945     15.6458   2000.0000    105.8711
   952.0000   2000.0000     15.0637     15.1908   2000.0000    108.4937
   952.2500   2000.0000     14.7959     14.7189   2000.0000    110.0912
   952.5000   2000.0000     14.4961     14.2585   2000.0000    112.1177
   952.7500   2000.0000     14.1744     13.8296   2000.0000    114.0377
   953.0000   2000.0000     13.8420     13.4439   2000.0000    119.3193
   953.2500   2000.0000     13.5077     13.1059   2000.0000    124.3351
   953.5000   2000.0000     13.1783     12.8147   2000.0000    131.7057
   953.7500   2000.0000     12.8613     12.5657   2000.0000    134.7907
   954.0000   2000.0000     12.5666     12.3525   2000.0000    135.3595
   954.2500   2000.0000     12.3064     12.1682   2000.0000    133.5495
   954.5000   2000.0000     12.0915     12.0071   2000.0000    129.6362
   954.7500   2000.0000     11.9279     11.8649   2000.0000    127.3976
   955.0000   2000.0000     11.8149     11.7394   2000.0000    125.4804
   955.2500   2000.0000     11.7458     11.6301   2000.0000    124.8054
   955.5000   2000.0000     11.7104     11.5374   2000.0000    123.2490
   955.7500   2000.0000     11.6991     11.4618   2000.0000    121.3178
   956.0000   2000.0000     11.7053     11.4036   2000.0000    117.6869
   956.2500   2000.0000     11.7263     11.3626   2000.0000    115.7296
   956.5000   2000.0000     11.7626     11.3392   2000.0000    114.6413
   956.7500   2000.0000     11.8185     11.3347   2000.0000    115.0104
   957.0000   2000.0000     11.9010     11.3526   2000.0000    116.1347
   957.2500   2000.0000     12.0202     11.3990   2000.0000    116.8816
   957.5000   2000.0000     12.1878     11.4832   2000.0000    118.3963
   957.7500   2000.0000     12.4161     11.6173   2000.0000    120.1934
   958.0000   2000.0000     12.7162     11.8165   2000.0000    124.3190
   958.2500   2000.0000     13.0962     12.0981   2000.0000    127.4401
   958.5000   2000.0000     13.5607     12.4821   2000.0000    130.9653
   958.7500   2000.0000     14.1103     12.9901   2000.0000    131.8273
   959.0000   2000.0000     14.7439     13.6457   2000.0000    130.9097
   959.2500   2000.0000     15.4620     14.4739   2000.0000    129.3443
   959.5000   2000.0000     16.2711     15.5009   2000.0000    126.3168
   959.7500   2000.0000     17.1843     16.7533   2000.0000    123.8438
   960.0000   2000.0000     18.2196     18.2570   2000.0000    118.6706
   960.2500   2000.0000     19.3957     20.0359   2000.0000    113.6138
   960.5000   2000.0000     20.7299     22.1112   2000.0000    103.0996
   960.7500   2000.0000     22.2378     24.4997   2000.0000     94.5391
   961.0000   2000.0000     23.9341     27.2120   2000.0000     81.0712
   961.2500   2000.0000     25.8300     30.2491   2000.0000     72.7295
   961.5000   2000.0000     27.9245     33.5956   2000.0000     62.3276
   961.7500   2000.0000     30.1884     37.2102   2000.0000     57.1033
   962.0000   2000.0000     32.5481     41.0137   2000.0000     52.1565
   962.2500   2000.0000     34.8825     44.8800   2000.0000     50.9655
   962.5000   2000.0000     37.0427     48.6355   2000.0000     52.2277
   962.7500   2000.0000     38.8917     52.0735   2000.0000     54.4287
   963.0000   2000.0000     40.3439     54.9865   2000.0000     57.6209
   963.2500   2000.0000     41.3824     57.2087   2000.0000     58.5151
   963.5000   2000.0000     42.0549     58.6580   2000.0000     57.6547
   963.7500   2000.0000     42.4579     59.3573   2000.0000     56.5213
   964.0000   2000.0000     42.7120     59.4282   2000.0000     56.0549
   964.2500   2000.0000     42.9300     59.0591   2000.0000     57.0700
   964.5000   2000.0000     43.1851     58.4631   2000.0000     59.7175
   964.7500   2000.0000     43.5005     57.8401   2000.0000     61.4833
   965.0000   2000.0000     43.8646     57.3516   2000.0000     64.1588
   965.2500   2000.0000     44.2595     57.1093   2000.0000     66.7702
   965.5000   2000.0000     44.6796     57.1730   2000.0000     72.8110
   965.7500   2000.0000     45.1309     57.5557   2000.0000     77.5139
   966.0000   2000.0000     45.6191     58.2335   2000.0000     82.5421
   966.2500   2000.0000     46.1440     59.1579   2000.0000     83.0017
   966.5000   2000.0000     46.7027     60.2720   2000.0000     78.9715
   966.7500   2000.0000     47.2982     61.5252   2000.0000     74.1864
   967.0000   2000.0000     47.9412     62.8831   2000.0000     66.4397
   967.2500   2000.0000     48.6474     64.3292   2000.0000     62.0828
   967.5000   2000.0000     49.4322     65.8581   2000.0000     57.4435
   967.7500   2000.0000     50.3023     67.4649   2000.0000     55.3260
   968.0000   2000.0000     51.2397     69.1348   2000.0000     52.9276
   968.2500   2000.0000     52.1866     70.8398   2000.0000     51.7075
   968.5000   2000.0000     53.0421     72.5406   2000.0000     50.3178
   968.7500   2000.0000     53.6890     74.1949   2000.0000     49.3956
   969.0000   2000.0000     54.0435     75.7635   2000.0000     47.5184
   969.2500   2000.0000     54.0955     77.2130   2000.0000     46.0561
   969.5000   2000.0000     53.9112     78.5128   2000.0000     44.4450
   969.7500   2000.0000     53.6018     79.6288   2000.0000     44.2266
   970.0000   2000.0000     53.2874     80.5196   2000.0000     45.2856
   970.2500   2000.0000     53.0658     81.1420   2000.0000     46.6519
   970.5000   2000.0000     52.9854     81.4660   2000.0000     49.1062
   970.7500   2000.0000     53.0302     81.4914   2000.0000     50.6650
   971.0000   2000.0000     53.1337     81.2587   2000.0000     52.3501
   971.2500   2000.0000     53.2232     80.8421   2000.0000     52.8868
   971.5000   2000.0000     53.2643     80.3286   2000.0000     52.8787
   971.7500   2000.0000     53.2721     79.7924   2000.0000     52.4122
   972.0000   2000.0000     53.2856     79.2777   2000.0000     51.2339
   972.2500   2000.0000     53.3376     78.7970   2000.0000     50.4815
   972.5000   2000.0000     53.4476     78.3439   2000.0000     50.2225
   972.7500   2000.0000     53.6343     77.9146   2000.0000     50.8004
   973.0000   2000.0000     53.9233     77.5246   2000.0000     52.3475
   973.2500   2000.0000     54.3347     77.2126   2000.0000     53.6018
   973.5000   2000.0000     54.8573     77.0309   2000.0000     56.1702
   973.7500   2000.0000     55.4312     77.0259   2000.0000     58.7170
   974.0000   2000.0000     55.9554     77.2219   2000.0000     63.6883
   974.2500   2000.0000     56.3269     77.6135   2000.0000     67.1100
   974.5000   2000.0000     56.4947     78.1687   2000.0000     71.0296
   974.7500   2000.0000     56.4919     78.8386   2000.0000     72.4284
   975.0000   2000.0000     56.4136     79.5686   2000.0000     72.9248
   975.2500   2000.0000     56.3445     80.3067   2000.0000     72.5037
   975.5000   2000.0000     56.2888     81.0038   2000.0000     70.9828
   975.7500   2000.0000     56.1564     81.6106   2000.0000     69.3931
   976.0000   2000.0000     55.8168     82.0696   2000.0000     66.5365
   976.2500   2000.0000     55.1758     82.3085   2000.0000     64.8210
   976.5000   2000.0000     54.2131     82.2336   2000.0000     63.2543
   976.7500   2000.0000     52.9579     81.7254   2000.0000     62.8311
   977.0000   2000.0000     51.4336     80.6394   2000.0000     62.3164
   977.2500   2000.0000     49.6187     78.8137   2000.0000     61.6327
   977.5000   2000.0000     47.4486     76.0882   2000.0000     60.3580
   977.7500   2000.0000     44.8589     72.3386   2000.0000     60.0330
