~Version Information
VERS.                      2.0: CWLS Log ASCII Standard - VERSION 2.0
WRAP.                       NO: One line per depth step
~Well Information Block
STRT.FT               325.0000: 
STOP.FT              1014.5000: 
STEP.FT                 0.2500: 
NULL.                -999.2500: 
COMP.          Pioneer Natural Resources: COMPANY
WELL.                Doc 34-30: WELL
FLD.           Purgatoire River: FIELD
LOC.           454' FSL & 1386' FEL: LOCATION
CNTY.               Las Animas: COUNTY
SRVC.                Patterson: SERVICE COMPANY
DATE.          Wed Feb 15 20:26:19 2006: LOG DATE
UWI.           05 071 08694 00: UNIQUE WELL ID
STAT.                 Colorado: STATE
~Curve Information Block
DEPT.FT            0 000 00 00: Depth
SN.Ohm-m                      : IEL Short Normal
SP.mV                         : IEL Spontaneous Potential
DIR.Ohm-m                     : IEL Induction Resistivity
GR.GAPI                       : Gamma Ray
~Parameter Information Block
~A  Depth        SN          SP         DIR          GR     
# ...
   760.5000     14.8461    -15.1972     13.6345     98.8214
   760.7500     15.3204    -15.1258     13.8862     97.3001
   761.0000     15.7117    -15.0693     14.2031     94.5761
   761.2500     16.0263    -15.0182     14.6148     92.8019
   761.5000     16.3444    -14.9555     15.1464     90.6193
   761.7500     16.7732    -14.8662     15.8110     89.2978
   762.0000     17.4170    -14.7441     16.6080     86.2915
   762.2500     18.3255    -14.5944     17.5259     82.7247
   762.5000     19.4822    -14.4323     18.5444     74.3544
   762.7500     20.8920    -14.2772     19.6354     67.2220
   763.0000     22.6331    -14.1442     20.7653     56.0520
   763.2500     24.8085    -14.0389     21.9011     49.3258
   763.5000     27.4926    -13.9581     23.0210     41.1627
   763.7500     30.6429    -13.8922     24.1182     37.0678
   764.0000     33.9586    -13.8263     25.1923     32.9451
   764.2500     36.9360    -13.7455     26.2294     31.5937
   764.5000     39.1778    -13.6408     27.1811     31.6599
   764.7500     40.5737    -13.5123     27.9546     32.8895
   765.0000     41.1893    -13.3648     28.4272     35.6060
   765.2500     41.1116    -13.2024     28.4898     37.3035
   765.5000     40.3829    -13.0262     28.0979     39.0499
   765.7500     38.9687    -12.8366     27.2838     39.9910
   766.0000     36.8191    -12.6343     26.1270     42.4834
   766.2500     34.0265    -12.4216     24.7235     45.6673
   766.5000     30.8420    -12.2038     23.1808     53.2078
   766.7500     27.5218    -11.9943     21.6156     59.7672
   767.0000     24.2901    -11.8160     20.1328     70.8589
   767.2500     21.3912    -11.6929     18.7991     78.4409
   767.5000     19.0126    -11.6398     17.6361     89.0036
   767.7500     17.1730    -11.6564     16.6322     94.9164
   768.0000     15.7704    -11.7283     15.7626    101.4786
   768.2500     14.7125    -11.8301     15.0054    104.3297
   768.5000     13.9392    -11.9314     14.3481    106.9174
   768.7500     13.3873    -12.0082     13.7857    108.0431
   769.0000     13.0175    -12.0525     13.3145    109.6184
   769.2500     12.8108    -12.0733     12.9285    110.6936
   769.5000     12.7068    -12.0869     12.6196    111.7277
   769.7500     12.6209    -12.1049     12.3792    111.4918
   770.0000     12.5113    -12.1272     12.1992    109.3436
   770.2500     12.3905    -12.1405     12.0700    107.0465
   770.5000     12.3132    -12.1242     11.9801    103.7636
   770.7500     12.3112    -12.0591     11.9162    102.7664
   771.0000     12.3092    -11.9343     11.8667    104.3980
   771.2500     12.2155    -11.7485     11.8248    107.5322
   771.5000     12.0686    -11.5124     11.7898    113.6791
   771.7500     11.9757    -11.2494     11.7640    117.4415
   772.0000     11.9575    -10.9897     11.7477    121.1683
   772.2500     11.9338    -10.7581     11.7368    122.3417
   772.5000     11.8419    -10.5659     11.7237    122.9672
   772.7500     11.7073    -10.4108     11.7023    123.2386
   773.0000     11.6194    -10.2792     11.6697    124.2463
   773.2500     11.6668    -10.1530     11.6267    125.4985
   773.5000     11.8259    -10.0186     11.5743    127.7820
   773.7500     11.9514     -9.8738     11.5115    128.9998
   774.0000     11.9495     -9.7269     11.4343    129.7138
   774.2500     11.8611     -9.5892     11.3386    129.5104
   774.5000     11.7504     -9.4658     11.2242    128.5571
   774.7500     11.6305     -9.3523     11.0978    127.5045
   775.0000     11.4958     -9.2372     10.9718    125.0631
   775.2500     11.3489     -9.1101     10.8596    122.8640
   775.5000     11.2162     -8.9699     10.7691    119.2351
   775.7500     11.1532     -8.8254     10.6992    117.1153
   776.0000     11.1897     -8.6895     10.6422    115.1862
   776.2500     11.2923     -8.5727     10.5906    114.9098
   776.5000     11.4026     -8.4799     10.5428    115.6869
   776.7500     11.4682     -8.4085     10.5027    116.5816
   777.0000     11.4725     -8.3450     10.4762    117.7398
   777.2500     11.4717     -8.2669     10.4673    118.0865
   777.5000     11.5198     -8.1562     10.4772    117.8298
   777.7500     11.5979     -8.0144     10.5041    117.2724
   778.0000     11.7005     -7.8623     10.5424    116.3071
   778.2500     11.8608     -7.7271     10.5833    115.8575
   778.5000     12.0315     -7.6281     10.6175    115.7547
   778.7500     12.1114     -7.5707     10.6397    116.0243
   779.0000     12.0918     -7.5484     10.6499    116.6121
   779.2500     12.0287     -7.5486     10.6524    116.9724
   779.5000     11.9648     -7.5595     10.6554    117.5516
   779.7500     11.9584     -7.5758     10.6703    118.1876
   780.0000     12.0418     -7.6025     10.7094    120.0095
   780.2500     12.1584     -7.6561     10.7803    122.0859
   780.5000     12.2442     -7.7637     10.8820    126.8087
   780.7500     12.3110     -7.9584     11.0078    130.9816
   781.0000     12.4129     -8.2692     11.1520    138.1359
   781.2500     12.5707     -8.7078     11.3170    142.8698
   781.5000     12.7368     -9.2593     11.5121    148.9762
   781.7500     12.8468     -9.8859     11.7488    152.3405
   782.0000     12.9257    -10.5445     12.0376    157.1684
   782.2500     13.1043    -11.2026     12.3920    160.6452
   782.5000     13.4563    -11.8391     12.8331    165.2947
   782.7500     13.9194    -12.4334     13.3865    166.2745
   783.0000     14.4342    -12.9572     14.0689    160.7822
   783.2500     15.0125    -13.3795     14.8742    151.0758
   783.5000     15.7156    -13.6796     15.7691    128.3016
   783.7500     16.6906    -13.8559     16.7029    110.0226
   784.0000     18.1605    -13.9233     17.6276     83.2355
   784.2500     20.2763    -13.9021     18.5162     68.2092
   784.5000     22.9775    -13.8061     19.3726     51.6099
   784.7500     25.9912    -13.6396     20.2265     44.2927
   785.0000     28.9283    -13.4012     21.1154     37.8346
   785.2500     31.3944    -13.0891     22.0654     36.0764
   785.5000     33.0634    -12.7029     23.0797     37.0595
   785.7500     33.7626    -12.2447     24.1396     40.1384
   786.0000     33.5595    -11.7197     25.2106     48.0123
   786.2500     32.7434    -11.1382     26.2477     54.7999
   786.5000     31.6917    -10.5179     27.2030     65.6017
   786.7500     30.6787     -9.8853     28.0290     72.0854
   787.0000     29.7970     -9.2744     28.6682     79.0480
   787.2500     29.0777     -8.7180     29.0286     81.2874
   787.5000     28.5755     -8.2364     28.9835     81.0632
   787.7500     28.3013     -7.8310     28.4408     78.9939
   788.0000     28.2154     -7.4852     27.4424     74.1921
   788.2500     28.2709     -7.1711     26.1795     70.6372
   788.5000     28.3809     -6.8576     24.8834     66.1664
   788.7500     28.3964     -6.5176     23.6993     64.4887
   789.0000     28.1699     -6.1351     22.6459     64.5858
   789.2500     27.6674     -5.7083     21.6620     66.2085
   789.5000     26.9647     -5.2484     20.6823     69.9085
   789.7500     26.1021     -4.7755     19.6857     72.6306
   790.0000     25.0637     -4.3151     18.6957     76.9247
   790.2500     23.9269     -3.8930     17.7527     80.2884
   790.5000     22.8470     -3.5266     16.8904     86.7835
   790.7500     21.8522     -3.2202     16.1263     92.1538
   791.0000     20.8377     -2.9658     15.4618    101.0050
   791.2500     19.7611     -2.7476     14.8864    106.6014
   791.5000     18.6621     -2.5453     14.3820    113.2331
   791.7500     17.6013     -2.3378     13.9282    116.2297
   792.0000     16.6952     -2.1128     13.5094    118.9763
   792.2500     16.0335     -1.8710     13.1188    119.8111
   792.5000     15.5406     -1.6213     12.7590    119.0077
   792.7500     15.0340     -1.3686     12.4374    116.5962
   793.0000     14.4231     -1.1095     12.1602    110.3772
   793.2500     13.7899     -0.8363     11.9303    105.5396
   793.5000     13.2909     -0.5484     11.7483     99.6444
   793.7500     13.0443     -0.2580     11.6172     97.6307
