~Version Information
VERS.                      2.0: CWLS Log ASCII Standard - VERSION 2.0
WRAP.                       NO: One line per depth step
~Well Information Block
STRT.FT               742.7000: 
STOP.FT              1614.5000: 
STEP.FT                 0.1000: 
NULL.                -999.2500: 
COMP.          Pioneer Natural Resources: COMPANY
WELL.           Kermit 32-7 Tr: WELL
FLD.           Purgatoire River: FIELD
LOC.           2009' FNL & 2196' FEL: LOCATION
PROV.                 Colorado: PROVINCE
CNTY.               Las Animas: COUNTRY
SRVC.                Patterson: SERVICE COMPANY
DATE.          Mon Jan 16 13:19:56 2006: LOG DATE
UWI.           05 071 08664 00: UNIQUE WELL ID
~Curve Information Block
DEPT.FT            0 000 00 00: Depth
DCAL.in                       : CDL Caliper
RHOB.g/cc                     : CDL Bulk Density
RHOC.g/cc                     : CDL Density Correction
DPOR.pu                       : CDL Density Porosity
GR.GAPI                       : Gamma Ray
~Parameter Information Block
~A  Depth       DCAL        RHOB        RHOC        DPOR         GR     
# ...
   832.3000      7.8889      2.3232      0.0033     19.8050    113.3225
   832.4000      7.8889      2.3327      0.0945     19.2320    112.5417
   832.5000      7.9275      2.3270      0.0740     19.5736    109.8366
   832.6000      7.9275      2.2874      0.1385     21.9764    109.1393
   832.7000      7.9275      2.2048      0.1028     26.9795    109.5494
   832.8000      7.9608      2.0888      0.0682     34.0129    110.1842
   832.9000      7.9608      1.9644      0.0156     41.5505    113.9922
   833.0000      8.0174      1.8402     -0.0129     49.0786    120.9578
   833.1000      8.0174      1.7182     -0.0268     56.4736    123.7530
   833.2000      8.0174      1.6062     -0.0641     63.2582    118.8873
   833.3000      8.0463      1.5098     -0.0825     69.1051    111.5796
   833.4000      8.0463      1.4388     -0.0884     73.4078    106.7426
   833.5000      8.0687      1.4034     -0.0145     75.5506    104.0350
   833.6000      8.0687      1.3964      0.0614     75.9758    100.1018
   833.7000      8.0687      1.3980      0.0872     75.8769     93.4185
   833.8000      8.1627      1.3932      0.0699     76.1679     86.7547
   833.9000      8.1627      1.3779      0.0916     77.0943     83.4902
   834.0000      8.2680      1.3546      0.0836     78.5100     85.8570
   834.1000      8.2680      1.3303      0.0720     79.9792     91.9732
   834.2000      8.2680      1.3267     -0.0098     80.2013     94.9710
   834.3000      8.2051      1.3711      0.0216     77.5080     93.9545
   834.4000      8.2051      1.4677      0.0887     71.6549     92.2516
   834.5000      8.3021      1.6093      0.0970     63.0731     89.5620
   834.6000      8.3021      1.7919      0.2339     52.0073     87.3377
   834.7000      8.3021      1.9844      0.4180     40.3411     88.5665
   834.8000      8.3246      2.1420      0.4605     30.7865     92.1756
   834.9000      8.3246      2.2557      0.4621     23.8943     95.0273
   835.0000      8.3452      2.3551      0.3912     17.8754     95.6867
   835.1000      8.3452      2.4572      0.4055     11.6843     95.6892
   835.2000      8.3452      2.5334      0.2832      7.0654     96.4554
   835.3000      8.4369      2.5591      0.1133      5.5083     97.2536
   835.4000      8.4369      2.5494      0.1135      6.0943     98.1040
   835.5000      8.3357      2.5331      0.0357      7.0856    102.5559
   835.6000      8.3357      2.5330      0.0702      7.0913    112.4066
   835.7000      8.3357      2.5527      0.1200      5.8983    122.1937
   835.8000      8.0919      2.5804      0.1251      4.2191    125.3362
   835.9000      8.0919      2.6038      0.1651      2.7996    122.7013
   836.0000      8.0886      2.6205      0.1084      1.7867    119.5193
   836.1000      8.0886      2.6344      0.1456      0.9449    117.5157
   836.2000      8.0886      2.6424      0.1648      0.4585    117.2066
   836.3000      8.1413      2.6392      0.2042      0.6523    121.4648
   836.4000      8.1413      2.6257      0.1642      1.4721    130.0315
   836.5000      7.9290      2.6087      0.1389      2.5058    137.1759
   836.6000      7.9290      2.5947      0.1021      3.3494    140.6577
   836.7000      7.9290      2.5849      0.0924      3.9447    140.1438
   836.8000      7.9258      2.5712      0.0801      4.7759    132.2006
   836.9000      7.9258      2.5514      0.0154      5.9764    120.0695
   837.0000      7.9511      2.5414      0.0440      6.5822    114.8366
   837.1000      7.9511      2.5523      0.0231      5.9230    119.5211
   837.2000      7.9511      2.5627      0.1220      5.2923    127.3278
   837.3000      7.9636      2.5361      0.0905      6.9053    132.8425
   837.4000      7.9636      2.4646      0.0621     11.2356    135.0768
   837.5000      7.9266      2.3685     -0.0086     17.0592    134.6076
   837.6000      7.9266      2.2715     -0.0361     22.9370    130.9103
   837.7000      7.9266      2.1889     -0.0730     27.9469    126.5830
   837.8000      7.9426      2.1207     -0.0729     32.0790    124.4503
   837.9000      7.9426      2.0573     -0.0176     35.9209    121.7645
   838.0000      7.9475      1.9980     -0.0557     39.5140    119.8635
   838.1000      7.9475      1.9666     -0.0792     41.4186    122.7476
   838.2000      7.9475      1.9960     -0.0345     39.6378    123.6736
   838.3000      7.9628      2.0803      0.1698     34.5243    118.1662
   838.4000      7.9628      2.1710      0.2003     29.0277    114.5293
   838.5000      7.9796      2.2417      0.1848     24.7455    116.9572
   838.6000      7.9796      2.3057      0.1872     20.8645    120.5973
   838.7000      7.9796      2.3685      0.2064     17.0608    123.1540
   838.8000      8.0390      2.4169      0.1288     14.1247    128.6807
   838.9000      8.0390      2.4512      0.0501     12.0496    136.4735
   839.0000      8.1256      2.4794      0.0816     10.3406    140.0852
   839.1000      8.1256      2.5000      0.0880      9.0907    139.9935
   839.2000      8.1256      2.5112      0.0437      8.4099    140.6638
   839.3000      8.1489      2.5151      0.0322      8.1781    140.1509
   839.4000      8.1489      2.5101      0.0438      8.4803    137.7578
   839.5000      8.0987      2.4922      0.0575      9.5648    138.8879
   839.6000      8.0987      2.4600      0.0287     11.5170    145.9022
   839.7000      8.0987      2.4273     -0.0232     13.4970    154.8946
   839.8000      8.0924      2.4133      0.0326     14.3477    158.9543
   839.9000      8.0924      2.4156      0.0197     14.2041    155.9363
   840.0000      8.0812      2.4244      0.0229     13.6741    151.5728
   840.1000      8.0812      2.4324      0.0473     13.1876    151.8782
   840.2000      8.0812      2.4362      0.0092     12.9551    155.3105
   840.3000      8.0181      2.4395      0.0160     12.7603    153.7836
   840.4000      8.0181      2.4339      0.0413     13.0963    145.1984
   840.5000      8.0239      2.4106      0.0169     14.5070    138.1108
   840.6000      8.0239      2.3896     -0.0203     15.7825    138.3834
   840.7000      8.0239      2.3905      0.0671     15.7292    144.8737
   840.8000      8.0262      2.3985      0.0654     15.2420    154.8010
   840.9000      8.0262      2.3885      0.0776     15.8511    162.2542
   841.0000      8.0105      2.3471      0.1077     18.3561    160.9083
   841.1000      8.0105      2.2750      0.0910     22.7264    154.4571
   841.2000      8.0105      2.1859      0.0706     28.1279    148.7858
   841.3000      8.0140      2.0974     -0.0072     33.4893    143.3370
   841.4000      8.0140      2.0092      0.0038     38.8379    136.8218
   841.5000      8.0210      1.9132     -0.0477     44.6525    132.1096
   841.6000      8.0210      1.8296     -0.1056     49.7234    132.0576
   841.7000      8.0210      1.7891     -0.0952     52.1774    132.1087
   841.8000      8.0704      1.8020     -0.0549     51.3968    127.6244
   841.9000      8.0704      1.8633      0.0260     47.6764    123.7758
   842.0000      8.1228      1.9595      0.0921     41.8500    124.3075
   842.1000      8.1228      2.0711      0.1228     35.0853    127.9688
   842.2000      8.1228      2.1928      0.1473     27.7113    135.1997
   842.3000      8.0736      2.3274      0.2157     19.5519    143.0737
   842.4000      8.0736      2.4529      0.2659     11.9448    144.6418
   842.5000      8.0741      2.5352      0.2197      6.9592    139.8036
   842.6000      8.0741      2.5688      0.1569      4.9231    136.5091
   842.7000      8.0741      2.5785      0.1378      4.3308    138.6870
   842.8000      8.1059      2.5908      0.1172      3.5863    142.4396
   842.9000      8.1059      2.6141      0.1298      2.1740    141.9725
   843.0000      8.0582      2.6395      0.1715      0.6388    134.3059
   843.1000      8.0582      2.6505      0.1253     -0.0320    123.1079
   843.2000      8.0582      2.6444      0.0679      0.3403    116.9372
   843.3000      8.0244      2.6368      0.0105      0.7995    115.5274
   843.4000      8.0244      2.6382      0.0018      0.7141    111.6745
