~Version Information
VERS.                      2.0: CWLS Log ASCII Standard - VERSION 2.0
WRAP.                       NO: One line per depth step
~Well Information Block
STRT.FT                -8.2500: 
STOP.FT              1729.7500: 
STEP.FT                 0.2500: 
NULL.                -999.2500: 
COMP.          Pioneer Natural Resources: COMPANY
WELL.            Dude 43-34 Tr: WELL
FLD.           Purgatorie River: FIELD
LOC.           2083' FSL & 1042' FEL--: LOCATION
PROV.                       CO: PROVINCE
CNTY.               Las Animas: COUNTRY
SRVC.          Patterson Wireline: SERVICE COMPANY
DATE.          Tue Jan 31 09:23:54 2006: LOG DATE
UWI.           05 071 08676 00: UNIQUE WELL ID
~Curve Information Block
DEPT.FT            0 000 00 00: Depth
CCL.                          : Casing Collar Locator
TT3.usec                      : CBL 3' Travel Time
AMP3.mV                       : CBL 3' Amplitude
GR.GAPI                       : Gamma Ray
~Parameter Information Block
~A  Depth       CCL         TT3         AMP3         GR     
# ...
   795.7500      0.0000    698.6744      7.4393    129.9977
   796.0000      0.0000    697.3997      7.4274    133.2904
   796.2500      0.0000    694.8565      7.4145    136.1580
   796.5000      0.0000    691.7214      7.3852    138.1294
   796.7500      0.0000    688.9559      7.3287    138.4885
   797.0000      0.0000    687.1031      7.2428    136.9508
   797.2500      0.0000    686.0560      7.1322    134.2618
   797.5000      0.0000    685.4448      7.0059    131.6575
   797.7500      0.0000    685.0352      6.8745    129.7574
   798.0000      0.0000    684.7793      6.7466    128.2744
   798.2500      0.0000    684.6627      6.6298    126.6697
   798.5000      0.0000    684.5950      6.5315    124.8630
   798.7500      0.0000    684.4314      6.4567    123.4435
   799.0000      0.0000    684.0461      6.4035    123.3121
   799.2500      0.0000    683.2056      6.3670    124.9271
   799.5000      0.0000    681.1152      6.3494    127.7463
   799.7500      0.0000    675.8507      6.3628    130.3456
   800.0000      0.0000    664.5863      6.4175    131.1131
   800.2500      0.0000    645.9934      6.5026    129.0981
   800.5000      0.0000    624.0706      6.5814    124.5587
   800.7500      0.0000    608.6129      6.6103    118.9307
   801.0000      0.0000    608.6602      6.5665    114.2382
   801.2500      0.0000    624.3029      6.4622    112.1105
   801.5000      0.0000    646.5567      6.3346    112.8030
   801.7500      0.0000    665.4656      6.2249    115.0178
   802.0000      0.0000    676.8157      6.1640    116.9922
   802.2500      0.0000    681.9048      6.1703    117.9900
   802.5000      0.0000    683.8351      6.2487    118.7648
   802.7500      0.0000    685.0793      6.3887    120.7493
   803.0000      0.0000    686.9718      6.5632    124.9525
   803.2500      0.0000    689.6987      6.7344    131.2052
   803.5000      0.0000    692.3068      6.8636    137.9402
   803.7500      0.0000    693.3207      6.9205    143.0281
   804.0000      0.0000    692.0219      6.8886    145.5462
   804.2500      0.0000    689.1622      6.7688    146.6618
   804.5000      0.0000    686.2369      6.5824    148.1832
   804.7500      0.0000    684.2677      6.3720    150.2407
   805.0000      0.0000    683.4109      6.1928    150.9053
   805.2500      0.0000    683.3555      6.0912    147.9903
   805.5000      0.0000    683.7397      6.0838    140.7247
   805.7500      0.0000    684.2794      6.1531    130.2668
   806.0000      0.0000    684.7824      6.2619    119.5927
   806.2500      0.0000    685.1572      6.3743    112.2535
   806.5000      0.0000    685.3691      6.4702    109.8923
   806.7500      0.0000    685.3886      6.5440    111.1040
   807.0000      0.0000    685.2097      6.5933    113.3399
   807.2500      0.0000    684.9149      6.6130    115.4112
   807.5000      0.0000    684.6587      6.6059    117.6980
   807.7500      0.0000    684.5556      6.5923    120.7566
   808.0000      0.0000    684.6026      6.6004    124.3673
   808.2500      0.0000    684.7084      6.6414    127.4585
   808.5000      0.0000    684.7809      6.6960    128.5882
   808.7500      0.0000    684.8045      6.7315    126.9169
   809.0000      0.0000    684.9182      6.7310    123.0322
   809.2500      0.0000    685.4667      6.7045    118.7663
   809.5000      0.0000    686.9753      6.6746    116.0961
   809.7500      0.0000    689.8981      6.6589    116.0279
   810.0000      0.0000    693.9955      6.6678    118.2084
   810.2500      0.0000    697.7890      6.7104    121.3321
   810.5000      0.0000    699.1661      6.7919    123.9223
   810.7500      0.0000    697.1703      6.9037    125.0425
   811.0000      0.0000    693.0209      7.0212    124.5250
   811.2500      0.0000    688.9592      7.1155    122.5454
   811.5000      0.0000    686.3510      7.1707    118.8910
   811.7500      0.0000    685.1428      7.1940    112.9956
   812.0000      0.0000    684.6542      7.2056    105.1035
   812.2500      0.0000    684.3824      7.2198     96.9821
   812.5000      0.0000    684.1759      7.2361     91.0290
   812.7500      0.0000    684.0563      7.2468     89.0814
   813.0000      0.0000    684.0580      7.2484     91.9212
   813.2500      0.0000    684.1549      7.2424     98.7024
   813.5000      0.0000    684.2523      7.2283    106.6267
   813.7500      0.0000    684.2405      7.2007    112.4986
   814.0000      0.0000    684.0912      7.1552    115.2668
   814.2500      0.0000    683.8813      7.0952    116.4134
   814.5000      0.0000    683.7061      7.0301    117.7529
   814.7500      0.0000    683.6008      6.9680    119.7534
   815.0000      0.0000    683.5566      6.9096    122.1214
   815.2500      0.0000    683.5810      6.8497    124.9487
   815.5000      0.0000    683.7108      6.7832    128.6419
   815.7500      0.0000    683.9685      6.7090    133.2336
   816.0000      0.0000    684.3218      6.6291    138.1167
   816.2500      0.0000    684.6935      6.5445    142.1923
   816.5000      0.0000    685.0151      6.4533    144.2947
   816.7500      0.0000    685.2685      6.3546    143.8391
   817.0000      0.0000    685.4746      6.2507    141.1721
   817.2500      0.0000    685.6510      6.1473    137.1977
   817.5000      0.0000    685.7935      6.0526    132.6244
   817.7500      0.0000    685.8932      5.9783    127.7255
   818.0000      0.0000    685.9516      5.9364    122.8786
   818.2500      0.0000    685.9611      5.9305    119.0380
   818.5000      0.0000    685.8814      5.9495    117.3735
   818.7500      0.0000    685.6560      5.9702    118.4881
   819.0000      0.0000    685.2718      5.9718    121.9082
   819.2500      0.0000    684.8090      5.9534    126.1350
   819.5000      0.0000    684.4155      5.9364    129.3290
   819.7500      0.0000    684.1823      5.9455    130.1830
   820.0000      0.0000    684.0016      5.9874    127.8446
   820.2500      0.0000    683.3533      6.0518    121.4250
   820.5000      0.0000    680.9221      6.1321    111.0746
   820.7500      0.0000    674.1398      6.2388     99.6697
   821.0000      0.0000    659.7245      6.3898     91.5839
   821.2500      0.0000    636.7677      6.5927     88.8361
   821.5000      0.0000    610.7730      6.8342     89.2438
   821.7500      0.0000    592.7776      7.0833     88.9206
   822.0000      0.0000    591.0226      7.3103     86.1423
   822.2500      0.0000    603.5807      7.5085     82.4518
   822.5000      0.0000    621.5709      7.6931     80.3864
   822.7500      0.0000    638.6428      7.8714     80.7820
   823.0000      0.0000    654.4108      8.0189     82.4120
   823.2500      0.0000    669.7413      8.0952     83.6354
   823.5000      0.0000    683.0641      8.0836     83.8303
   823.7500      0.0000    692.5376      8.0100     83.5365
   824.0000      0.0000    698.8436      7.9202     83.7165
   824.2500      0.0000    703.8991      7.8387     84.9020
   824.5000      0.0000    708.2095      7.7527     87.0884
   824.7500      0.0000    710.6204      7.6385     90.6872
   825.0000      0.0000    709.8450      7.4969     97.0908
   825.2500      0.0000    705.6730      7.3563    107.1982
   825.5000      0.0000    699.3124      7.2431    119.2013
   825.7500      0.0000    692.8588      7.1549    128.9287
   826.0000      0.0000    688.0193      7.0644    133.1526
   826.2500      0.0000    685.2526      6.9455    132.2374
   826.5000      0.0000    684.0541      6.7972    129.2919
   826.7500      0.0000    683.7329      6.6415    127.1618
   827.0000      0.0000    683.8174      6.5022    126.4263
   827.2500      0.0000    684.0194      6.3912    125.9101
   827.5000      0.0000    684.1454      6.3181    124.6111
   827.7500      0.0000    684.0991      6.3022    122.6195
   828.0000      0.0000    683.9056      6.3643    120.1894
   828.2500      0.0000    683.6579      6.5044    116.8979
   828.5000      0.0000    683.3923      6.6917    112.4793
   828.7500      0.0000    683.0168      6.8808    107.8545
   829.0000      0.0000    682.1126      7.0379    104.4932
