~Version Information
VERS.                      2.0: CWLS Log ASCII Standard - VERSION 2.0
WRAP.                       NO: One line per depth step
~Well Information Block
STRT.FT                -8.2500: 
STOP.FT              1729.7500: 
STEP.FT                 0.2500: 
NULL.                -999.2500: 
COMP.          Pioneer Natural Resources: COMPANY
WELL.            Dude 43-34 Tr: WELL
FLD.           Purgatorie River: FIELD
LOC.           2083' FSL & 1042' FEL--: LOCATION
PROV.                       CO: PROVINCE
CNTY.               Las Animas: COUNTRY
SRVC.          Patterson Wireline: SERVICE COMPANY
DATE.          Tue Jan 31 09:23:54 2006: LOG DATE
UWI.           05 071 08676 00: UNIQUE WELL ID
~Curve Information Block
DEPT.FT            0 000 00 00: Depth
CCL.                          : Casing Collar Locator
TT3.usec                      : CBL 3' Travel Time
AMP3.mV                       : CBL 3' Amplitude
GR.GAPI                       : Gamma Ray
~Parameter Information Block
~A  Depth       CCL         TT3         AMP3         GR     
# ...
  1030.2500      0.0000    364.6103      7.7904    114.1072
  1030.5000      0.0000    364.8132      7.7297    103.9897
  1030.7500      0.0000    375.3838      7.6616     96.2797
  1031.0000      0.0000    398.8622      7.5870     91.6901
  1031.2500      0.0000    431.2865      7.5195     89.2680
  1031.5000      0.0000    461.8979      7.4758     87.5460
  1031.7500      0.0000    478.6720      7.4648     85.6277
  1032.0000      0.0000    475.7910      7.4832     83.5174
  1032.2500      0.0000    456.6272      7.5216     81.7151
  1032.5000      0.0000    431.3450      7.5664     80.5187
  1032.7500      0.0000    412.7736      7.5961     79.7474
  1033.0000      0.0000    412.1256      7.5769     79.0738
  1033.2500      0.0000    434.2039      7.4658     78.4446
  1033.5000      0.0000    474.2033      7.2289     78.1591
  1033.7500      0.0000    519.1381      6.8749     78.7753
  1034.0000      0.0000    553.7661      6.4759     80.9420
  1034.2500      0.0000    567.7175      6.1429     84.8570
  1034.5000      0.0000    560.3266      5.9593     89.6414
  1034.7500      0.0000    539.8652      5.9319     93.5883
  1035.0000      0.0000    516.2850      6.0071     95.3395
  1035.2500      0.0000    493.2823      6.1343     94.8818
  1035.5000     -2.0000    468.2368      6.3112     93.6403
  1035.7500      2.0000    439.5594      6.5809     93.7837
  1036.0000      0.0000    411.7554      6.9972     97.0200
  1036.2500      0.0000    392.5677      7.5690    103.3840
  1036.5000      0.0000    386.7784      8.2021    111.0183
  1036.7500      0.0000    393.2868      8.7140    117.3496
  1037.0000      0.0000    406.9276      8.9593    120.7600
  1037.2500      0.0000    422.0677      8.9381    121.4622
  1037.5000      0.0000    434.4260      8.7577    120.8786
  1037.7500      0.0000    440.6729      8.5192    120.0828
  1038.0000      0.0000    438.6301      8.2708    118.8999
  1038.2500      0.0000    428.9603      8.0301    116.6762
  1038.5000      0.0000    415.6280      7.8044    113.7907
  1038.7500      0.0000    403.4764      7.5947    111.8809
  1039.0000      0.0000    395.2929      7.4027    112.2393
  1039.2500      0.0000    391.1292      7.2377    114.4607
  1039.5000      0.0000    389.7322      7.1143    117.2157
  1039.7500      0.0000    390.3212      7.0408    119.8236
  1040.0000      0.0000    393.8377      7.0089    122.2566
  1040.2500      0.0000    403.6935      6.9913    124.1302
  1040.5000      0.0000    425.3452      6.9526    124.9234
  1040.7500      0.0000    463.1982      6.8673    125.2729
  1041.0000      0.0000    515.6158      6.7332    127.0266
  1041.2500      0.0000    572.9686      6.5726    131.4045
  1041.5000      0.0000    622.6778      6.4277    137.2722
  1041.7500      0.0000    657.2437      6.3498    141.5263
  1042.0000      0.0000    677.1088      6.3769    141.4036
  1042.2500      0.0000    686.7846      6.5096    136.5946
  1042.5000      0.0000    690.2108      6.7074    129.0726
  1042.7500      0.0000    689.7590      6.9113    121.0674
  1043.0000      0.0000    687.3619      7.0707    113.7589
  1043.2500      0.0000    684.8129      7.1566    107.9529
  1043.5000      0.0000    683.1243      7.1649    105.2305
  1043.7500      0.0000    682.3571      7.1111    107.5911
  1044.0000      0.0000    682.1564      7.0160    115.6885
  1044.2500      0.0000    682.2930      6.8946    127.6600
  1044.5000      0.0000    682.8044      6.7609    139.9009
  1044.7500      0.0000    683.9229      6.6404    148.9740
  1045.0000      0.0000    685.8879      6.5692    152.9157
  1045.2500      0.0000    688.5464      6.5716    151.5681
  1045.5000      0.0000    691.0032      6.6427    146.3992
  1045.7500      0.0000    691.9769      6.7580    139.5846
  1046.0000      0.0000    690.8695      6.8983    132.6264
  1046.2500      0.0000    688.3676      7.0568    126.1613
  1046.5000      0.0000    685.7776      7.2214    120.9942
  1046.7500      0.0000    683.9482      7.3647    117.9941
  1047.0000      0.0000    682.9575      7.4574    116.5458
  1047.2500      0.0000    682.5177      7.4831    114.5794
  1047.5000      0.0000    682.3777      7.4411    111.0670
  1047.7500      0.0000    682.4091      7.3422    107.4019
  1048.0000      0.0000    682.5211      7.2041    105.4614
  1048.2500      0.0000    682.5872      7.0462    105.3452
  1048.5000      0.0000    682.4570      6.8848    106.0008
  1048.7500      0.0000    681.8966      6.7337    107.0132
  1049.0000      0.0000    680.3231      6.6081    108.4383
  1049.2500      0.0000    676.4593      6.5235    109.5325
  1049.5000      0.0000    668.7665      6.4874    108.9873
  1049.7500      0.0000    657.4072      6.4919    106.3026
  1050.0000      0.0000    646.2442      6.5171    102.1395
  1050.2500      0.0000    641.3441      6.5470     97.7146
  1050.5000      0.0000    645.7879      6.5788     94.6609
  1050.7500      0.0000    656.5624      6.6169     94.9676
  1051.0000      0.0000    667.6218      6.6585     99.9508
  1051.2500      0.0000    675.0815      6.6883    109.1793
  1051.5000      0.0000    678.7609      6.6892    120.6322
  1051.7500      0.0000    680.2269      6.6576    131.5355
  1052.0000      0.0000    680.8231      6.6061    139.1845
  1052.2500      0.0000    681.1674      6.5522    141.9155
  1052.5000      0.0000    681.4359      6.5078    139.8911
  1052.7500      0.0000    681.6478      6.4801    134.8451
  1053.0000      0.0000    681.8016      6.4754    128.9670
  1053.2500      0.0000    681.8950      6.4955    123.8800
  1053.5000      0.0000    681.9557      6.5312    120.3133
  1053.7500      0.0000    682.0516      6.5637    118.4788
  1054.0000      0.0000    682.2549      6.5783    118.6975
  1054.2500      0.0000    682.5732      6.5758    121.4590
  1054.5000      0.0000    682.8985      6.5687    126.5476
  1054.7500      0.0000    683.0314      6.5651    132.1639
  1055.0000      0.0000    682.8058      6.5630    135.6635
  1055.2500      0.0000    682.2360      6.5635    135.5819
  1055.5000      0.0000    681.5100      6.5811    132.6298
  1055.7500      0.0000    680.7919      6.6375    128.7495
  1056.0000      0.0000    679.9075      6.7422    125.7035
  1056.2500      0.0000    677.9174      6.8789    124.3070
  1056.5000      0.0000    672.4688      7.0132    124.3817
  1056.7500      0.0000    659.5277      7.1249    125.4600
  1057.0000      0.0000    634.9970      7.2301    127.3731
  1057.2500      0.0000    598.3380      7.3629    129.6006
  1057.5000      0.0000    554.8398      7.5399    130.5254
  1057.7500      0.0000    512.9946      7.7513    128.5395
  1058.0000      0.0000    479.1478      7.9764    124.0507
  1058.2500      0.0000    454.9908      8.1957    119.5797
  1058.5000      0.0000    439.1180      8.3931    117.6905
  1058.7500      0.0000    429.5285      8.5561    119.3248
  1059.0000      0.0000    425.7447      8.6713    123.9274
  1059.2500      0.0000    430.9625      8.7210    130.0719
  1059.5000      0.0000    451.8403      8.6893    135.7259
  1059.7500      0.0000    493.1050      8.5766    138.8952
  1060.0000      0.0000    550.4590      8.4055    138.8314
  1060.2500      0.0000    609.9627      8.2126    136.6065
  1060.5000      0.0000    656.3082      8.0303    134.2119
  1060.7500      0.0000    682.3657      7.8713    133.1288
  1061.0000      0.0000    691.2408      7.7264    133.7623
  1061.2500      0.0000    690.8705      7.5777    135.8182
  1061.5000      0.0000    687.8664      7.4194    138.5947
  1061.7500      0.0000    685.2507      7.2672    140.9958
  1062.0000      0.0000    683.5269      7.1477    142.0308
  1062.2500      0.0000    682.3849      7.0769    141.5819
  1062.5000      0.0000    681.5667      7.0451    140.2320
  1062.7500      0.0000    680.8443      7.0220    138.3110
  1063.0000      0.0000    679.6721      6.9761    135.7292
  1063.2500      0.0000    676.9755      6.8939    132.9201
  1063.5000      0.0000    671.7141      6.7867    131.3725
