~Version Information
VERS.                      2.0: CWLS Log ASCII Standard - VERSION 2.0
WRAP.                       NO: One line per depth step
~Well Information Block
STRT.FT               615.0000: 
STOP.FT              2815.0000: 
STEP.FT                 0.2500: 
NULL.                -999.2500: 
COMP.          Pioneer Natural Resources: COMPANY
WELL.              Loews 41-32: WELL
FLD.           Purgatoire River: FIELD
LOC.           751' FNL & 128' FEL: LOCATION
CNTY.               Las Animas: COUNTY
SRVC.                Patterson: SERVICE COMPANY
DATE.          Sun Feb 12 02:27:11 2006: LOG DATE
UWI.           05 071 08693 00: UNIQUE WELL ID
STAT.                 Colorado: STATE
~Curve Information Block
DEPT.FT            0 000 00 00: Depth
SN.Ohm-m                      : IEL Short Normal
SP.mV                         : IEL Spontaneous Potential
DIR.Ohm-m                     : IEL Induction Resistivity
GR.GAPI                       : Gamma Ray
~Parameter Information Block
~A  Depth        SN          SP         DIR          GR     
# ...
  2491.0000     13.4645     95.6293 100000.0000     96.4241
  2491.2500     12.9135     96.1473 100000.0000     96.8964
  2491.5000     12.3391     96.6859 100000.0000     95.8618
  2491.7500     11.8118     97.2675 100000.0000     94.8339
  2492.0000     11.3726     97.8750 100000.0000     94.3052
  2492.2500     11.0061     98.4565 100000.0000     95.2616
  2492.5000     10.6972     98.9491 100000.0000     99.0775
  2492.7500     10.4197     99.3078 100000.0000    102.9675
  2493.0000     10.1191     99.5317 100000.0000    109.6212
  2493.2500      9.7819     99.6667 100000.0000    113.6958
  2493.5000      9.4394     99.7743 100000.0000    117.9202
  2493.7500      9.1274     99.8933 100000.0000    118.9421
  2494.0000      8.8923    100.0267     80.7353    117.4454
  2494.2500      8.7923    100.1561     23.2939    114.7930
  2494.5000      8.8737    100.2599     14.0064    110.1606
  2494.7500      9.0970    100.3230     10.5813    108.0413
  2495.0000      9.3010    100.3405      9.0386    107.7563
  2495.2500      9.3758    100.3178      8.3282    109.1497
  2495.5000      9.3976    100.2668      8.0415    111.3653
  2495.7500      9.4983    100.1970      7.9836    111.4936
  2496.0000      9.7519    100.1091      8.0581    108.3477
  2496.2500     10.1585     99.9956      8.2269    104.0572
  2496.5000     10.6436     99.8527      8.4887     95.2052
  2496.7500     11.1744     99.6923      8.8592     88.4161
  2497.0000     11.8597     99.5452      9.3545     78.4368
  2497.2500     12.8384     99.4483      9.9754     72.9772
  2497.5000     14.0828     99.4235     10.6964     68.1735
  2497.7500     15.3645     99.4639     11.4630     67.6504
  2498.0000     16.3899     99.5347     12.2013     70.6241
  2498.2500     16.9408     99.5900     12.8413     74.7121
  2498.5000     16.9773     99.5944     13.3403     83.2433
  2498.7500     16.6410     99.5408     13.6900     89.8063
  2499.0000     16.0854     99.4540     13.9034     98.8808
  2499.2500     15.3490     99.3778     13.9966    103.0514
  2499.5000     14.4349     99.3507     13.9812    104.9861
  2499.7500     13.4141     99.3837     13.8715    103.3011
  2500.0000     12.4180     99.4572     13.6953     97.4724
  2500.2500     11.5774     99.5328     13.4958     92.6490
  2500.5000     11.0023     99.5699     13.3211     86.4005
  2500.7500     10.7892     99.5388     13.2090     83.8232
  2501.0000     10.9550     99.4334     13.1768     82.5404
  2501.2500     11.3942     99.2754     13.2199     82.9406
  2501.5000     11.9708     99.1024     13.3182     84.4776
  2501.7500     12.5883     98.9487     13.4439     85.7297
  2502.0000     13.1551     98.8324     13.5702     87.4976
  2502.2500     13.6117     98.7533     13.6781     88.4739
  2502.5000     13.9601     98.6959     13.7599     89.5797
  2502.7500     14.2003     98.6413     13.8182     89.9609
  2503.0000     14.3541     98.5796     13.8610     89.7370
  2503.2500     14.4886     98.5142     13.8967     89.2911
  2503.5000     14.6264     98.4533     13.9306     89.4503
  2503.7500     14.7333     98.3976     13.9658     90.8224
  2504.0000     14.7958     98.3362     14.0041     94.9161
  2504.2500     14.7945     98.2527     14.0477     98.4108
  2504.5000     14.6588     98.1374     14.0980    103.1323
  2504.7500     14.3474     97.9972     14.1544    104.9347
  2505.0000     13.8869     97.8559     14.2137    104.7016
  2505.2500     13.3145     97.7431     14.2697    102.7779
  2505.5000     12.6776     97.6780     14.3120     98.3711
  2505.7500     12.0967     97.6582     14.3266     95.0899
  2506.0000     11.7735     97.6620     14.3010     90.4729
  2506.2500     11.8914     97.6593     14.2309     87.9864
  2506.5000     12.4247     97.6243     14.1238     85.7537
  2506.7500     13.0525     97.5429     13.9943     85.4762
  2507.0000     13.4110     97.4198     13.8571     86.7958
  2507.2500     13.4370     97.2803     13.7237     88.5199
  2507.5000     13.3168     97.1596     13.6027     91.5076
  2507.7500     13.1745     97.0837     13.5010     93.2096
  2508.0000     13.0351     97.0572     13.4228     94.7307
  2508.2500     12.9696     97.0683     13.3693     95.1234
  2508.5000     13.0409     97.0987     13.3398     95.4563
  2508.7500     13.1756     97.1298     13.3315     95.9104
  2509.0000     13.2308     97.1470     13.3374     97.1695
  2509.2500     13.1779     97.1476     13.3474     98.2775
  2509.5000     13.1077     97.1442     13.3504    100.0660
  2509.7500     13.0658     97.1562     13.3368    101.2084
  2510.0000     13.0163     97.1946     13.2997    102.5815
  2510.2500     12.9275     97.2509     13.2357    103.1617
  2510.5000     12.8181     97.3023     13.1479    103.6553
  2510.7500     12.7164     97.3284     13.0465    103.8732
  2511.0000     12.5978     97.3225     12.9476    103.9666
  2511.2500     12.4361     97.2872     12.8665    103.6784
  2511.5000     12.3051     97.2232     12.8132    102.6360
  2511.7500     12.2984     97.1256     12.7906    101.8556
  2512.0000     12.3828     96.9903     12.7956    101.6894
  2512.2500     12.4602     96.8216     12.8211    102.9446
  2512.5000     12.4965     96.6351     12.8565    107.2097
  2512.7500     12.5256     96.4550     12.8855    110.9655
  2513.0000     12.5663     96.3093     12.8836    115.6234
  2513.2500     12.5930     96.2238     12.8189    116.6616
  2513.5000     12.6198     96.2158     12.6603    113.8321
  2513.7500     12.7086     96.2888     12.3908    109.2677
  2514.0000     12.8218     96.4322     12.0181    100.4152
  2514.2500     12.7676     96.6259     11.5738     94.8553
  2514.5000     12.3558     96.8509     11.0996     89.5588
  2514.7500     11.5710     97.0973     10.6319     88.7619
  2515.0000     10.5967     97.3652     10.1922     91.2029
  2515.2500      9.6834     97.6570      9.7873     94.3424
  2515.5000      8.9896     97.9690      9.4168     99.7134
  2515.7500      8.5189     98.2882      9.0784    103.0592
  2516.0000      8.2071     98.5923      8.7700    106.8687
  2516.2500      8.0428     98.8514      8.4878    108.2906
  2516.5000      7.9787     99.0338      8.2274    108.8957
  2516.7500      7.8617     99.1201      7.9857    108.7055
  2517.0000      7.6475     99.1137      7.7640    108.0880
  2517.2500      7.4696     99.0387      7.5671    107.4887
  2517.5000      7.4057     98.9256      7.4013    106.4119
  2517.7500      7.4344     98.7988      7.2715    105.9778
  2518.0000      7.5258     98.6709      7.1803    106.7478
  2518.2500      7.6056     98.5434      7.1277    108.4882
  2518.5000      7.6007     98.4093      7.1122    112.3293
  2518.7500      7.5546     98.2611      7.1311    114.8610
  2519.0000      7.5854     98.0962      7.1820    117.3292
  2519.2500      7.7075     97.9166      7.2612    117.9516
  2519.5000      7.7738     97.7264      7.3634    118.0156
  2519.7500      7.7131     97.5321      7.4808    117.8814
  2520.0000      7.6636     97.3398      7.6052    117.8001
  2520.2500      7.7264     97.1481      7.7295    118.0651
  2520.5000      7.8384     96.9494      7.8497    119.0986
  2520.7500      7.9408     96.7454      7.9639    119.7026
  2521.0000      8.0547     96.5584      8.0717    118.9814
  2521.2500      8.1959     96.4194      8.1728    117.1466
  2521.5000      8.3307     96.3425      8.2666    113.8730
  2521.7500      8.4071     96.3106      8.3530    112.7413
  2522.0000      8.3864     96.2871      8.4314    113.9543
  2522.2500      8.2712     96.2390      8.5008    116.4229
  2522.5000      8.1172     96.1536      8.5607    120.9394
  2522.7500      8.0088     96.0413      8.6112    123.4322
  2523.0000      8.0130     95.9262      8.6525    125.1933
  2523.2500      8.1042     95.8340      8.6823    124.8042
  2523.5000      8.1682     95.7808      8.6950    122.0357
  2523.7500      8.1549     95.7709      8.6848    119.0599
  2524.0000      8.1489     95.7973      8.6510    113.8399
  2524.2500      8.2335     95.8452      8.6007    110.5179
