~Version Information
VERS.                      2.0: CWLS Log ASCII Standard - VERSION 2.0
WRAP.                       NO: One line per depth step
~Well Information Block
STRT.FT               428.8000: 
STOP.FT               951.7000: 
STEP.FT                 0.1000: 
NULL.                -999.2500: 
COMP.          Pioneer Natural Resources: COMPANY
WELL.          Sculpin 32-30 Tr: WELL
FLD.           Purgatoire River: FIELD
LOC.           1600' FNL & 1857' FEL--: LOCATION
CNTY.               Las Animas: COUNTY
SRVC.                Patterson: SERVICE COMPANY
DATE.          Wed Jul 19 09:12:32 2006: LOG DATE
UWI.           05 071 08706 00: UNIQUE WELL ID
STAT.                 Colorado: STATE
~Curve Information Block
DEPT.FT            0 000 00 00: Depth
DCAL.in                       : CDL Caliper
RHOB.g/cc                     : CDL Bulk Density
RHOC.g/cc                     : CDL Density Correction
DPOR.pu                       : CDL Density Porosity
GR.GAPI                       : Gamma Ray
~Parameter Information Block
~A  Depth       DCAL        RHOB        RHOC        DPOR         GR     
# ...
   540.8000      8.1604      2.4551      0.0611     11.8141    121.7968
   540.9000      8.1604      2.4583      0.0479     11.6179    125.5536
   541.0000      8.1600      2.4671      0.0512     11.0821    133.3606
   541.1000      8.1600      2.4805      0.0664     10.2724    139.6088
   541.2000      8.1600      2.4872      0.0760      9.8638    138.0971
   541.3000      8.1601      2.4849      0.0220     10.0055    130.2380
   541.4000      8.1601      2.4896      0.0420      9.7214    123.9106
   541.5000      8.1581      2.5080      0.0480      8.6035    122.8652
   541.6000      8.1581      2.5296      0.0804      7.2964    123.1710
   541.7000      8.1581      2.5440      0.0652      6.4218    123.0019
   541.8000      8.1507      2.5499      0.0725      6.0661    125.1362
   541.9000      8.1507      2.5548      0.0621      5.7668    129.0051
   542.0000      8.1359      2.5691      0.0520      4.9011    131.1224
   542.1000      8.1359      2.5811      0.1181      4.1756    128.9499
   542.2000      8.1359      2.5758      0.0615      4.4994    122.2813
   542.3000      8.1170      2.5689      0.0775      4.9179    115.0410
   542.4000      8.1170      2.5651      0.0725      5.1456    112.6103
   542.5000      8.0969      2.5450      0.0340      6.3621    113.5869
   542.6000      8.0969      2.5089     -0.0012      8.5486    113.4854
   542.7000      8.0969      2.4815      0.0048     10.2129    113.1731
   542.8000      8.0854      2.4849     -0.0332     10.0047    114.9295
   542.9000      8.0854      2.5150      0.0349      8.1827    117.7959
   543.0000      8.0837      2.5444      0.0568      6.4005    117.5620
   543.1000      8.0837      2.5649      0.0744      5.1581    112.8303
   543.2000      8.0837      2.5912      0.0457      3.5635    108.9221
   543.3000      8.0853      2.6247      0.0685      1.5312    108.9716
   543.4000      8.0853      2.6393      0.1246      0.6491    109.1093
   543.5000      8.0829      2.6163      0.0586      2.0420    103.9879
   543.6000      8.0829      2.5754      0.0377      4.5204     93.9210
   543.7000      8.0829      2.5435      0.0060      6.4515     84.3416
   543.8000      8.0755      2.5319      0.0212      7.1576     80.2228
   543.9000      8.0755      2.5378      0.0498      6.8014     79.5398
   544.0000      8.0704      2.5489      0.0398      6.1283     76.1435
   544.1000      8.0704      2.5607      0.0214      5.4145     69.8643
   544.2000      8.0704      2.5743      0.0462      4.5890     66.6464
   544.3000      8.0679      2.5818      0.0529      4.1304     70.0629
   544.4000      8.0679      2.5785      0.0068      4.3342     75.4045
   544.5000      8.0658      2.5679      0.0572      4.9764     77.7112
   544.6000      8.0658      2.5562      0.0212      5.6859     79.7098
   544.7000      8.0658      2.5539      0.0664      5.8262     83.5587
   544.8000      8.0661      2.5666      0.0220      5.0539     86.2334
   544.9000      8.0661      2.5859      0.0671      3.8846     86.1669
   545.0000      8.0700      2.5950      0.0264      3.3351     85.8389
   545.1000      8.0700      2.5897      0.0522      3.6568     88.6709
   545.2000      8.0700      2.5775      0.0611      4.3961     93.2769
   545.3000      8.0748      2.5678      0.0688      4.9847     95.3705
   545.4000      8.0748      2.5671      0.0645      5.0236     94.0152
   545.5000      8.0795      2.5765      0.0359      4.4564     91.6971
   545.6000      8.0795      2.5928      0.0657      3.4684     89.7949
   545.7000      8.0795      2.6110      0.0761      2.3608     87.3296
   545.8000      8.0835      2.6271      0.0758      1.3903     87.1115
   545.9000      8.0835      2.6305      0.1131      1.1790     91.8570
   546.0000      8.0868      2.6102      0.0823      2.4093     96.7703
   546.1000      8.0868      2.5778      0.0388      4.3758     96.1876
   546.2000      8.0868      2.5609      0.0054      5.3974     92.0979
   546.3000      8.0891      2.5721      0.0275      4.7242     90.4835
   546.4000      8.0891      2.5954      0.0424      3.3085     93.0587
   546.5000      8.0893      2.6101      0.1014      2.4203     95.7016
   546.6000      8.0893      2.6146      0.0483      2.1454     96.0984
   546.7000      8.0893      2.6142      0.0827      2.1705     97.2571
   546.8000      8.0874      2.6073      0.0598      2.5880     98.3689
   546.9000      8.0874      2.6008      0.0795      2.9822     96.3527
   547.0000      8.0823      2.5974      0.0845      3.1853     94.2431
   547.1000      8.0823      2.5885      0.0606      3.7274     96.1123
   547.2000      8.0823      2.5728      0.0692      4.6775    100.7545
   547.3000      8.0754      2.5586      0.0639      5.5407    104.5356
   547.4000      8.0754      2.5538      0.0426      5.8302    105.3748
   547.5000      8.0730      2.5553      0.0567      5.7411    102.6350
   547.6000      8.0730      2.5529      0.0588      5.8842     98.7461
   547.7000      8.0730      2.5519      0.0147      5.9460     98.2318
   547.8000      8.0721      2.5634      0.0440      5.2507    102.9422
   547.9000      8.0721      2.5771      0.0772      4.4188    110.3801
   548.0000      8.0690      2.5787      0.0594      4.3190    115.3291
   548.1000      8.0690      2.5779      0.0284      4.3667    114.6857
   548.2000      8.0690      2.5850      0.0796      3.9369    108.7542
   548.3000      8.0663      2.5925      0.0730      3.4821    100.2263
   548.4000      8.0663      2.5907      0.1007      3.5917     94.6538
   548.5000      8.0655      2.5764      0.0730      4.4635     95.1125
   548.6000      8.0655      2.5608      0.0340      5.4044     98.7624
   548.7000      8.0655      2.5613      0.0422      5.3733     99.6097
   548.8000      8.0670      2.5777      0.0520      4.3801     96.3731
   548.9000      8.0670      2.5945      0.1038      3.3625     93.7701
   549.0000      8.0676      2.6052      0.0833      2.7150     96.1969
   549.1000      8.0676      2.6241      0.0768      1.5716    101.9766
   549.2000      8.0676      2.6616      0.0813     -0.7026    104.8599
   549.3000      8.0650      2.7017      0.1225     -3.1329    103.2354
   549.4000      8.0650      2.7297      0.1422     -4.8274    100.3211
   549.5000      8.0626      2.7576      0.1341     -6.5210     94.6173
   549.6000      8.0626      2.7955      0.1660     -8.8161     84.9858
   549.7000      8.0626      2.8363      0.1304    -11.2916     78.4069
   549.8000      8.0628      2.8736      0.1157    -13.5522     78.7302
   549.9000      8.0628      2.8968      0.1497    -14.9602     80.0262
   550.0000      8.0637      2.8993      0.0698    -15.1098     78.3058
   550.1000      8.0637      2.8918      0.0312    -14.6529     76.6233
   550.2000      8.0637      2.8652      0.0347    -13.0444     77.2338
   550.3000      8.0654      2.8050     -0.0319     -9.3928     79.2556
   550.4000      8.0654      2.7393     -0.0798     -5.4146     79.2413
   550.5000      8.0697      2.6821     -0.0189     -1.9462     76.1163
   550.6000      8.0697      2.6142     -0.0956      2.1667     74.6191
   550.7000      8.0697      2.5585     -0.1044      5.5463     77.4545
   550.8000      8.0765      2.5531     -0.0196      5.8712     81.1729
   550.9000      8.0765      2.5812      0.0979      4.1670     83.2296
   551.0000      8.0818      2.5999      0.0869      3.0358     85.2764
   551.1000      8.0818      2.5970      0.0887      3.2098     87.6484
   551.2000      8.0818      2.5864      0.0444      3.8541     89.8914
   551.3000      8.0837      2.5792      0.0666      4.2882     91.4077
   551.4000      8.0837      2.5784      0.0338      4.3411     91.1278
   551.5000      8.0825      2.5909      0.0793      3.5795     90.7304
   551.6000      8.0825      2.6135      0.1087      2.2127     91.8231
   551.7000      8.0825      2.6242      0.0940      1.5616     92.8646
   551.8000      8.0819      2.6055      0.0876      2.6983     94.2375
   551.9000      8.0819      2.5645      0.0617      5.1829     98.6405
