~Version Information
VERS.                      2.0: CWLS Log ASCII Standard - VERSION 2.0
WRAP.                       NO: One line per depth step
~Well Information Block
STRT.FT                 2.0000: 
STOP.FT               698.7500: 
STEP.FT                 0.2500: 
NULL.                -999.2500: 
COMP.          XTO Energy Inc.: COMPANY
WELL.          Golden Eagle 20-14: WELL
FLD.           Purgatrorie River: FIELD
LOC.           587' FSL & 2478' FWL--: LOCATION
STAT.                       CO: State
CNTY.               Las Animas: COUNTY
CTRY. USA : Country
SECT. 20 : Section
TOWN. 33S : Township
RANG. 67W : Range
SRVC.          Patterson Wireline: SERVICE COMPANY
DATE.          Sat Dec 10 16:49:08 2005: LOG DATE
API.           05 071 08614 00: UNIQUE WELL ID
~Curve Information Block
DEPT.FT            0 000 00 00: Depth
MINMK.                        : Magnetic Mark Ticks
TEMP.degF                     : Downhole Temperature
DTMP.degF                     : Delta Temperature
~Parameter Information Block
~A  Depth      MINMK        TEMP        DTMP    
# ...
   252.5000      0.0000     57.6691      0.0233
   252.7500      0.0000     57.6746      0.0232
   253.0000      0.0000     57.6800      0.0225
   253.2500      0.0000     57.6868      0.0225
   253.5000      0.0000     57.6922      0.0225
   253.7500      0.0000     57.6977      0.0226
   254.0000      0.0000     57.7031      0.0234
   254.2500      0.0000     57.7087      0.0228
   254.5000      0.0000     57.7142      0.0229
   254.7500      0.0000     57.7197      0.0230
   255.0000      0.0000     57.7267      0.0231
   255.2500      0.0000     57.7323      0.0232
   255.5000      0.0000     57.7379      0.0233
   255.7500      0.0000     57.7436      0.0234
   256.0000      0.0000     57.7493      0.0228
   256.2500      0.0000     57.7550      0.0229
   256.5000      0.0000     57.7608      0.0230
   256.7500      0.0000     57.7666      0.0238
   257.0000      0.0000     57.7724      0.0239
   257.2500      0.0000     57.7781      0.0240
   257.5000      0.0000     57.7840      0.0241
   257.7500      0.0000     57.7913      0.0242
   258.0000      0.0000     57.7972      0.0243
   258.2500      0.0000     57.8031      0.0253
   258.5000      0.0000     57.8090      0.0254
   258.7500      0.0000     57.8150      0.0248
   259.0000      0.0000     57.8210      0.0250
   259.2500      0.0000     57.8286      0.0251
   259.5000      0.0000     57.8347      0.0253
   259.7500      0.0000     57.8409      0.0262
   260.0000      0.0000     57.8471      0.0264
   260.2500      0.0000     57.8533      0.0258
   260.5000      0.0000     57.8596      0.0260
   260.7500      0.0000     57.8675      0.0262
   261.0000      0.0000     57.8738      0.0264
   261.2500      0.0000     57.8803      0.0274
   261.5000      0.0000     57.8867      0.0276
   261.7500      0.0000     57.8933      0.0270
   262.0000      0.0000     57.8998      0.0264
   262.2500      0.0000     57.9081      0.0266
   262.5000      0.0000     57.9147      0.0277
   262.7500      0.0000     57.9215      0.0279
   263.0000      0.0000     57.9266      0.0282
   263.2500      0.0000     57.9335      0.0276
   263.5000      0.0000     57.9421      0.0278
   263.7500      0.0000     57.9491      0.0281
   264.0000      0.0000     57.9562      0.0291
   264.2500      0.0000     57.9633      0.0293
   264.5000      0.0000     57.9704      0.0295
   264.7500      0.0000     57.9776      0.0296
   265.0000      0.0000     57.9848      0.0298
   265.2500      0.0000     57.9920      0.0308
   265.5000      0.0000     58.0011      0.0300
   265.7500      0.0000     58.0083      0.0301
   266.0000      0.0000     58.0157      0.0311
   266.2500      0.0000     58.0248      0.0312
   266.5000      0.0000     58.0304      0.0304
   266.7500      0.0000     58.0377      0.0305
   267.0000      0.0000     58.0470      0.0305
   267.2500      0.0000     58.0544      0.0297
   267.5000      0.0000     58.0618      0.0307
   267.7500      0.0000     58.0692      0.0309
   268.0000      0.0000     58.0768      0.0301
   268.2500      0.0000     58.0843      0.0302
   268.5000      0.0000     58.0918      0.0313
   268.7500      0.0000     58.0994      0.0315
   269.0000      0.0000     58.1071      0.0317
   269.2500      0.0000     58.1148      0.0318
   269.5000      0.0000     58.1245      0.0320
   269.7500      0.0000     58.1323      0.0332
   270.0000      0.0000     58.1402      0.0333
   270.2500      0.0000     58.1480      0.0335
   270.5000      0.0000     58.1559      0.0326
   270.7500      0.0000     58.1658      0.0327
   271.0000      0.0000     58.1737      0.0327
   271.2500      0.0000     58.1817      0.0328
   271.5000      0.0000     58.1897      0.0328
   271.7500      0.0000     58.1976      0.0318
   272.0000      0.0000     58.2055      0.0318
   272.2500      0.0000     58.2135      0.0328
   272.5000      0.0000     58.2215      0.0328
   272.7500      0.0000     58.2294      0.0327
   273.0000      0.0000     58.2373      0.0328
   273.2500      0.0000     58.2472      0.0337
   273.5000      0.0000     58.2552      0.0337
   273.7500      0.0000     58.2631      0.0337
   274.0000      0.0000     58.2710      0.0326
   274.2500      0.0000     58.2810      0.0316
   274.5000      0.0000     58.2889      0.0316
   274.7500      0.0000     58.2967      0.0325
   275.0000      0.0000     58.3026      0.0324
   275.2500      0.0000     58.3105      0.0313
   275.5000      0.0000     58.3184      0.0312
   275.7500      0.0000     58.3281      0.0311
   276.0000      0.0000     58.3359      0.0320
   276.2500      0.0000     58.3436      0.0318
   276.5000      0.0000     58.3513      0.0325
   276.7500      0.0000     58.3589      0.0313
   277.0000      0.0000     58.3665      0.0310
   277.2500      0.0000     58.3740      0.0307
   277.5000      0.0000     58.3833      0.0305
   277.7500      0.0000     58.3907      0.0310
   278.0000      0.0000     58.3979      0.0306
   278.2500      0.0000     58.4051      0.0302
   278.5000      0.0000     58.4122      0.0289
   278.7500      0.0000     58.4209      0.0286
   279.0000      0.0000     58.4277      0.0282
   279.2500      0.0000     58.4345      0.0278
   279.5000      0.0000     58.4412      0.0275
   279.7500      0.0000     58.4478      0.0263
   280.0000      0.0000     58.4543      0.0260
   280.2500      0.0000     58.4608      0.0257
   280.5000      0.0000     58.4671      0.0255
   280.7500      0.0000     58.4734      0.0252
   281.0000      0.0000     58.4798      0.0250
   281.2500      0.0000     58.4860      0.0255
   281.5000      0.0000     58.4921      0.0253
   281.7500      0.0000     58.4982      0.0252
   282.0000      0.0000     58.5043      0.0257
   282.2500      0.0000     58.5118      0.0255
   282.5000      0.0000     58.5178      0.0253
   282.7500      0.0000     58.5238      0.0251
   283.0000      0.0000     58.5311      0.0250
   283.2500      0.0000     58.5369      0.0241
   283.5000      0.0000     58.5428      0.0240
   283.7500      0.0000     58.5485      0.0247
   284.0000      0.0000     58.5543      0.0239
   284.2500      0.0000     58.5601      0.0231
   284.5000      0.0000     58.5659      0.0238
   284.7500      0.0000     58.5731      0.0238
   285.0000      0.0000     58.5788      0.0238
   285.2500      0.0000     58.5832      0.0237
   285.5000      0.0000     58.5904      0.0237
   285.7500      0.0000     58.5961      0.0230
   286.0000      0.0000     58.6019      0.0230
   286.2500      0.0000     58.6076      0.0244
   286.5000      0.0000     58.6133      0.0237
   286.7500      0.0000     58.6190      0.0237
   287.0000      0.0000     58.6247      0.0237
   287.2500      0.0000     58.6319      0.0237
   287.5000      0.0000     58.6377      0.0238
   287.7500      0.0000     58.6435      0.0238
   288.0000      0.0000     58.6493      0.0246
   288.2500      0.0000     58.6550      0.0239
   288.5000      0.0000     58.6609      0.0240
   288.7500      0.0000     58.6667      0.0240
   289.0000      0.0000     58.6739      0.0240
   289.2500      0.0000     58.6798      0.0241
   289.5000      0.0000     58.6856      0.0241
   289.7500      0.0000     58.6915      0.0242
   290.0000      0.0000     58.6974      0.0242
   290.2500      0.0000     58.7033      0.0243
   290.5000      0.0000     58.7091      0.0243
   290.7500      0.0000     58.7150      0.0243
   291.0000      0.0000     58.7224      0.0243
   291.2500      0.0000     58.7283      0.0242
   291.5000      0.0000     58.7341      0.0249
   291.7500      0.0000     58.7400      0.0248
   292.0000      0.0000     58.7459      0.0240
   292.2500      0.0000     58.7517      0.0240
   292.5000      0.0000     58.7589      0.0239
   292.7500      0.0000     58.7647      0.0239
   293.0000      0.0000     58.7704      0.0239
   293.2500      0.0000     58.7762      0.0239
   293.5000      0.0000     58.7820      0.0232
   293.7500      0.0000     58.7878      0.0233
   294.0000      0.0000     58.7936      0.0234
