~Version Information
VERS.                      2.0: CWLS Log ASCII Standard - VERSION 2.0
WRAP.                       NO: One line per depth step
~Well Information Block
STRT.FT               245.0000: 
STOP.FT              1273.7500: 
STEP.FT                 0.2500: 
NULL.                -999.2500: 
COMP.          Pioneer Natural Resources: COMPANY
WELL.                 Ray 34-6: WELL
FLD.           Purgatoire River: FIELD
LOC.           684' FSL & 2254' FEL--: LOCATION
CNTY.               Las Animas: COUNTY
SRVC.                Patterson: SERVICE COMPANY
DATE.          Fri May 26 03:08:09 2006: LOG DATE
UWI.           05 071 08695 00: UNIQUE WELL ID
STAT.                 Colorado: STATE
~Curve Information Block
DEPT.FT            0 000 00 00: Depth
SN.Ohm-m                      : IEL Short Normal
SP.mV                         : IEL Spontaneous Potential
DIR.Ohm-m                     : IEL Induction Resistivity
GR.GAPI                       : Gamma Ray
~Parameter Information Block
~A  Depth        SN          SP         DIR          GR     
# ...
  1250.0000     17.7460    158.1632     13.8290   -999.2500
  1250.2500     17.7272    158.9235     13.8139   -999.2500
  1250.5000     17.7084    159.6549     13.8158   -999.2500
  1250.7500     17.6477    160.3603     13.8260   -999.2500
  1251.0000     17.5363    161.0440     13.8300   -999.2500
  1251.2500     17.3835    161.7118     13.8114   -999.2500
  1251.5000     17.1963    162.3706     13.7564   -999.2500
  1251.7500     16.9941    163.0272     13.6563   -999.2500
  1252.0000     16.8240    163.6874     13.5098   -999.2500
  1252.2500     16.7276    164.3554     13.3256   -999.2500
  1252.5000     16.6788    165.0325     13.1212   -999.2500
  1252.7500     16.5985    165.7166     12.9184   -999.2500
  1253.0000     16.4474    166.4025     12.7385   -999.2500
  1253.2500     16.2597    167.0824     12.6000   -999.2500
  1253.5000     16.0973    167.7465     12.5169   -999.2500
  1253.7500     15.9978    168.3841     12.4974   -999.2500
  1254.0000     15.9485    168.9854     12.5413   -999.2500
  1254.2500     15.9066    169.5420     12.6400   -999.2500
  1254.5000     15.8584    170.0479     12.7804   -999.2500
  1254.7500     15.8399    170.5004     12.9526   -999.2500
  1255.0000     15.9048    170.8999     13.1576   -999.2500
  1255.2500     16.1010    171.2498     13.4082   -999.2500
  1255.5000     16.4561    171.5562     13.7200   -999.2500
  1255.7500     16.9457    171.8271     14.0961   -999.2500
  1256.0000     17.4877    172.0716     14.5163   -999.2500
  1256.2500     17.9907    172.2988     14.9406   -999.2500
  1256.5000     18.4055    172.5177     15.3259   -999.2500
  1256.7500     18.7393    172.7354     15.6465   -999.2500
  1257.0000     19.0468    172.9581     15.9028   -999.2500
  1257.2500     19.3901    173.1896     16.1144   -999.2500
  1257.5000     19.7832    173.4325     16.3078   -999.2500
  1257.7500     20.1817    173.6883     16.5063   -999.2500
  1258.0000     20.5294    173.9579     16.7249   -999.2500
  1258.2500     20.8130    174.2427     16.9659   -999.2500
  1258.5000     21.0601    174.5448     17.2161   -999.2500
  1258.7500     21.2824    174.8678     17.4464   -999.2500
  1259.0000     21.4429    175.2163     17.6190   -999.2500
  1259.2500     21.4874    175.5954     17.7001   -999.2500
  1259.5000     21.3763    176.0104     17.6714   -999.2500
  1259.7500     21.1133    176.4651     17.5361   -999.2500
  1260.0000     20.7835    176.9612     17.3201   -999.2500
  1260.2500     20.5089    177.4976     17.0702   -999.2500
  1260.5000     20.3401    178.0698     16.8449   -999.2500
  1260.7500     20.2402    178.6710     16.7436   -999.2500
  1261.0000     20.1608    179.2923     16.7071   -999.2500
  1261.2500     20.0741    179.9240     16.7805   -999.2500
  1261.5000     19.9578    180.5567     16.9335   -999.2500
  1261.7500     19.8093    181.1824     17.1210   -999.2500
  1262.0000     19.6764    181.7947     17.3068   -999.2500
  1262.2500     19.6487    182.3888     17.4820   -999.2500
  1262.5000     19.7826    182.9613     17.6662   -999.2500
  1262.7500     20.0418    183.5094     17.8931   -999.2500
  1263.0000     20.3307    184.0301     18.1978   -999.2500
  1263.2500     20.5580    184.5196     18.6283   -999.2500
  1263.5000     20.6541    184.9729     19.2937   -999.2500
  1263.7500     20.5814    185.3839     20.4365   -999.2500
  1264.0000     20.3482    185.7408     22.5209   -999.2500
  1264.2500     19.9963    186.0347     26.2576   -999.2500
  1264.5000     19.5843    186.2517     33.4584   -999.2500
  1264.7500     19.1796    186.3734     47.5423   -999.2500
  1265.0000     18.8389    186.3747     77.6149   -999.2500
  1265.2500     18.5878    186.2191    153.9670   -999.2500
  1265.5000     18.4292    185.8542    451.0888   -999.2500
  1265.7500     18.3725    185.2042 100000.0000   -999.2500
  1266.0000     18.4301    184.1641 100000.0000   -999.2500
  1266.2500     18.5718    182.5935 100000.0000   -999.2500
  1266.5000     18.7279    180.3158 100000.0000   -999.2500
  1266.7500     18.8590    177.1236 100000.0000   -999.2500
  1267.0000     18.9864    172.7934 100000.0000   -999.2500
  1267.2500     19.1542    167.1100 100000.0000   -999.2500
  1267.5000     19.3834    159.9003 100000.0000   -999.2500
  1267.7500     19.6488    151.0713 100000.0000   -999.2500
  1268.0000     19.8935    140.6442 100000.0000   -999.2500
  1268.2500     20.0722    128.7785 100000.0000   -999.2500
  1268.5000     20.0874    115.7765 100000.0000   -999.2500
  1268.7500     19.5011    102.0647 100000.0000   -999.2500
  1269.0000     17.3404     88.1532 100000.0000   -999.2500
  1269.2500     12.9134     74.5789 100000.0000   -999.2500
  1269.5000      7.2801     61.8428 100000.0000   -999.2500
  1269.7500      2.7313     50.3547 100000.0000   -999.2500
  1270.0000      0.3860     40.3935 100000.0000   -999.2500
  1270.2500     -0.3879     32.0918 100000.0000   -999.2500
  1270.5000     -0.5514     25.4422 100000.0000   -999.2500
  1270.7500     -0.5736     20.3235 100000.0000   -999.2500
  1271.0000   -999.2500     16.5369 100000.0000   -999.2500
  1271.2500   -999.2500     13.8451 100000.0000   -999.2500
  1271.5000   -999.2500     12.0063 100000.0000   -999.2500
  1271.7500   -999.2500     10.7993 100000.0000   -999.2500
  1272.0000   -999.2500     10.0380 100000.0000   -999.2500
  1272.2500   -999.2500      9.5766  20869.3496   -999.2500
  1272.5000   -999.2500      9.3079   9231.1201   -999.2500
  1272.7500   -999.2500      9.1576   7490.7178   -999.2500
  1273.0000   -999.2500      9.0768   7021.3081   -999.2500
  1273.2500   -999.2500      9.0351   6890.8965   -999.2500
  1273.5000   -999.2500      9.0144   6858.0610   -999.2500
  1273.7500   -999.2500      9.0045 100000.0000   -999.2500
