~Version Information
VERS.                      2.0: CWLS Log ASCII Standard - VERSION 2.0
WRAP.                       NO: One line per depth step
~Well Information Block
STRT.FT               325.0000: 
STOP.FT              1013.5000: 
STEP.FT                 0.1000: 
NULL.                -999.2500: 
COMP.          Pioneer Natural Resources: COMPANY
WELL.                Doc 34-30: WELL
FLD.           Purgatoire River: FIELD
LOC.           454' FSL & 1386' FEL: LOCATION
CNTY.               Las Animas: COUNTY
SRVC.                Patterson: SERVICE COMPANY
DATE.          Thu Feb 16 07:19:58 2006: LOG DATE
UWI.           05 071 08694 00: UNIQUE WELL ID
STAT.                 Colorado: STATE
~Curve Information Block
DEPT.FT            0 000 00 00: Depth
DCAL.in                       : CDL Caliper
RHOB.g/cc                     : CDL Bulk Density
RHOC.g/cc                     : CDL Density Correction
DPOR.pu                       : CDL Density Porosity
GR.GAPI                       : Gamma Ray
NPOR.pu                       : Neutron Porosity
~Parameter Information Block
~A  Depth       DCAL        RHOB        RHOC        DPOR         GR         NPOR    
# ...
   680.2000      7.9937      2.5820      0.0216      4.1194     57.9826     22.9549
   680.3000      7.9935      2.5557      0.0079      5.7157     55.0071     23.7673
   680.4000      7.9935      2.5479     -0.0175      6.1856     55.2320     24.2228
   680.5000      7.9947      2.5558      0.0375      5.7071     57.0856     23.7766
   680.6000      7.9947      2.5520      0.0333      5.9407     60.6116     22.8954
   680.7000      7.9947      2.5317     -0.0023      7.1686     64.1412     22.5174
   680.8000      7.9960      2.5160      0.0128      8.1202     66.0410     22.8657
   680.9000      7.9960      2.5111      0.0366      8.4163     68.0630     23.3187
   681.0000      7.9957      2.5086      0.0345      8.5713     68.6686     22.9672
   681.1000      7.9957      2.5063      0.0125      8.7082     65.0572     22.0698
   681.2000      7.9957      2.5118      0.0242      8.3787     61.1812     21.9982
   681.3000      7.9947      2.5261      0.0656      7.5102     60.5469     22.7307
   681.4000      7.9947      2.5437      0.0874      6.4400     61.5666     22.9839
   681.5000      7.9939      2.5602      0.0906      5.4400     61.6131     22.5806
   681.6000      7.9939      2.5690      0.1050      4.9098     60.4787     22.1879
   681.7000      7.9939      2.5673      0.0744      5.0144     59.4208     22.2267
   681.8000      7.9945      2.5639      0.1008      5.2202     59.0204     22.8448
   681.9000      7.9945      2.5652      0.0667      5.1412     59.3669     23.6593
   682.0000      7.9947      2.5649      0.1204      5.1594     61.0695     24.0391
   682.1000      7.9947      2.5545      0.0259      5.7904     63.6366     24.0869
   682.2000      7.9947      2.5349      0.0304      6.9762     63.9755     24.2499
   682.3000      7.9938      2.5131     -0.0189      8.2955     62.2153     24.2450
   682.4000      7.9938      2.4980      0.0060      9.2115     60.3184     23.8877
   682.5000      7.9945      2.4888      0.0278      9.7710     60.3155     23.7982
   682.6000      7.9945      2.4843      0.0140     10.0399     64.9689     24.1591
   682.7000      7.9945      2.4959      0.0092      9.3401     73.3523     24.7486
   682.8000      7.9958      2.5188      0.0530      7.9496     80.4182     25.3991
   682.9000      7.9958      2.5355      0.0314      6.9401     81.2691     25.7511
   683.0000      7.9955      2.5529      0.0195      5.8854     77.2990     25.6226
   683.1000      7.9955      2.5844      0.0575      3.9732     76.0792     24.9284
   683.2000      7.9955      2.6184      0.1160      1.9134     79.9185     24.3140
   683.3000      7.9941      2.6290      0.1489      1.2756     82.8104     24.6858
   683.4000      7.9941      2.6091      0.0668      2.4759     81.5649     25.3964
   683.5000      7.9931      2.5766      0.0506      4.4495     78.1160     25.2819
   683.6000      7.9931      2.5491      0.0456      6.1144     75.3223     24.8308
   683.7000      7.9931      2.5415      0.0402      6.5756     75.4241     25.2458
   683.8000      7.9940      2.5560      0.0661      5.6954     78.9795     26.4346
   683.9000      7.9940      2.5718      0.0577      4.7381     85.1729     27.5417
   684.0000      7.9966      2.5689      0.0626      4.9155     93.3236     28.7892
   684.1000      7.9966      2.5484      0.0608      6.1581    102.3637     30.0520
   684.2000      7.9966      2.5283      0.0383      7.3738    113.1638     30.6142
   684.3000      7.9992      2.5199      0.0200      7.8869    125.1707     30.2318
   684.4000      7.9992      2.5103      0.0787      8.4668    133.3947     29.0464
   684.5000      8.0023      2.4897      0.0212      9.7171    134.6025     27.9977
   684.6000      8.0023      2.4696      0.0003     10.9325    131.3235     27.7903
   684.7000      8.0023      2.4574      0.0243     11.6720    129.6952     28.2746
   684.8000      8.0054      2.4518      0.0117     12.0104    131.4294     29.0793
   684.9000      8.0054      2.4536      0.0261     11.9032    132.9110     29.6386
   685.0000      8.0074      2.4600      0.0374     11.5177    133.8374     29.8139
   685.1000      8.0074      2.4706      0.0296     10.8742    137.9188     29.6741
   685.2000      8.0074      2.4874      0.0372      9.8537    145.9553     28.8562
   685.3000      8.0081      2.5053      0.0747      8.7689    153.6039     27.5726
   685.4000      8.0081      2.5233      0.0312      7.6801    154.7627     26.9763
   685.5000      8.0084      2.5402      0.0875      6.6553    149.9878     27.1403
   685.6000      8.0084      2.5389      0.0881      6.7340    144.6278     26.9362
   685.7000      8.0084      2.5143      0.0486      8.2246    140.5663     26.3199
   685.8000      8.0104      2.4859      0.0253      9.9472    138.6253     26.3924
   685.9000      8.0104      2.4671      0.0596     11.0826    137.8227     27.4051
   686.0000      8.0122      2.4535      0.0320     11.9092    135.3932     28.3607
   686.1000      8.0122      2.4405      0.0185     12.6955    130.4412     28.9517
   686.2000      8.0122      2.4359     -0.0210     12.9776    124.5372     29.6700
   686.3000      8.0122      2.4523     -0.0117     11.9830    120.6060     29.9965
   686.4000      8.0122      2.4840      0.0775     10.0621    119.3296     29.2203
   686.5000      8.0113      2.5055      0.0617      8.7568    118.4356     27.8569
   686.6000      8.0113      2.5090      0.0434      8.5460    115.0076     26.8727
   686.7000      8.0113      2.5122      0.0170      8.3528    107.2063     26.7335
   686.8000      8.0103      2.5186      0.0913      7.9608     99.0758     27.1902
   686.9000      8.0103      2.5098      0.0741      8.4992     96.5218     27.2494
   687.0000      8.0090      2.4875     -0.0003      9.8469     98.2156     26.4199
   687.1000      8.0090      2.4722      0.0068     10.7779     96.6955     25.4879
   687.2000      8.0090      2.4697     -0.0061     10.9265     90.7084     24.8649
   687.3000      8.0072      2.4762      0.0223     10.5357     88.0112     24.5832
   687.4000      8.0072      2.4835      0.0429     10.0921     91.7979     24.9776
   687.5000      8.0061      2.4840      0.0069     10.0603     96.2340     26.1213
   687.6000      8.0061      2.4819     -0.0009     10.1890     98.0050     27.3611
   687.7000      8.0061      2.4820      0.0541     10.1841     98.2375     27.9274
   687.8000      8.0069      2.4824      0.0346     10.1569     96.7312     27.3149
   687.9000      8.0069      2.4871      0.0138      9.8706     94.5827     25.8852
   688.0000      8.0090      2.5014      0.0562      9.0047     97.0429     25.1038
   688.1000      8.0090      2.5166      0.0714      8.0865    104.1140     25.5283
   688.2000      8.0090      2.5239      0.0553      7.6396    108.0831     26.1871
   688.3000      8.0109      2.5330      0.0182      7.0899    104.4174     26.0871
   688.4000      8.0109      2.5491      0.0680      6.1170     96.0732     25.1229
   688.5000      8.0115      2.5627      0.0481      5.2888     86.7676     23.8231
   688.6000      8.0115      2.5690      0.0820      4.9084     80.6722     23.2076
   688.7000      8.0115      2.5634      0.0675      5.2486     80.9206     23.7317
   688.8000      8.0111      2.5508     -0.0080      6.0127     84.6376     24.3180
   688.9000      8.0111      2.5434      0.0527      6.4577     86.1995     24.4375
   689.0000      8.0105      2.5385      0.0263      6.7599     86.2764     24.8150
   689.1000      8.0105      2.5308      0.0187      7.2258     88.1553     24.6360
   689.2000      8.0105      2.5282     -0.0107      7.3815     88.2795     23.2056
   689.3000      8.0106      2.5381      0.0235      6.7830     85.2391     21.9101
   689.4000      8.0106      2.5485      0.0428      6.1517     83.7354     21.7540
   689.5000      8.0108      2.5451      0.0578      6.3548     85.7671     22.3531
   689.6000      8.0108      2.5353      0.0196      6.9500     90.1296     23.0146
   689.7000      8.0108      2.5299      0.0200      7.2769     93.0705     23.3837
