~Version Information
VERS.                      2.0: CWLS Log ASCII Standard - VERSION 2.0
WRAP.                       NO: One line per depth step
~Well Information Block
STRT.FT               -10.7500: 
STOP.FT              1466.2500: 
STEP.FT                 0.2500: 
NULL.                -999.2500: 
COMP.          Pioneer Natural Resources: COMPANY
WELL.             Andrew 23-15: WELL
FLD.           Purgatorie River: FIELD
LOC.           2137' FSL & 2292' FWL--: LOCATION
PROV.                       CO: PROVINCE
CNTY.               Las Animas: COUNTRY
SRVC.          Patterson Wireline: SERVICE COMPANY
DATE.          Thu Aug 18 11:51:45 2005: LOG DATE
UWI.           05 071 08460 00: UNIQUE WELL ID
~Curve Information Block
DEPT.FT            0 000 00 00: Depth
CCL.                          : Casing Collar Locator
TT3.usec                      : CBL 3' Travel Time
AMP3.mV                       : CBL 3' Amplitude
GR.GAPI                       : Gamma Ray
~Parameter Information Block
~A  Depth       CCL         TT3         AMP3         GR     
# ...
   558.7500      0.0000    823.2480     14.0803    113.7096
   559.0000      0.0000    829.2070     13.9796    109.0275
   559.2500      0.0000    832.6010     13.9225    104.9843
   559.5000      0.0000    833.1717     13.8618    102.2770
   559.7500      0.0000    832.2286     13.7469    101.3306
   560.0000      0.0000    831.9320     13.5550    102.2692
   560.2500      0.0000    833.6100     13.2984    105.2463
   560.5000      0.0000    836.7391     13.0116    110.1509
   560.7500      0.0000    839.1581     12.7337    115.7683
   561.0000      0.0000    838.2005     12.4941    120.0006
   561.2500      0.0000    832.2410     12.3039    121.5751
   561.5000      0.0000    822.0760     12.1590    121.1627
   561.7500      0.0000    810.9470     12.0471    120.4666
   562.0000      0.0000    802.2700     11.9430    120.5238
   562.2500      0.0000    796.6060     11.7945    121.1274
   562.5000      0.0000    791.6073     11.5277    121.5142
   562.7500      0.0000    786.0583     11.1001    121.1865
   563.0000      0.0000    783.6818     10.5689    120.1133
   563.2500      0.0000    791.8812     10.0823    118.7129
   563.5000      0.0000    815.9382      9.7568    117.8186
   563.7500      0.0000    853.5256      9.5752    118.1911
   564.0000      0.0000    894.0971      9.4468    119.8055
   564.2500      0.0000    925.4030      9.3315    121.8051
   564.5000      0.0000    943.9278      9.2474    123.2017
   564.7500      0.0000    958.3802      9.1997    123.5290
   565.0000      2.0000    979.3584      9.1663    122.9905
   565.2500     -2.0000   1005.1104      9.1395    122.2720
   565.5000      0.0000   1020.1306      9.1532    122.1064
   565.7500      0.0000   1008.6837      9.2772    122.7744
   566.0000      0.0000    969.3427      9.5719    123.9123
   566.2500      0.0000    916.7300     10.0153    124.6319
   566.5000      0.0000    869.6685     10.4877    123.8231
   566.7500      0.0000    838.0696     10.8739    120.9675
   567.0000      0.0000    820.6314     11.1530    117.0683
   567.2500      0.0000    811.8253     11.3509    114.4471
   567.5000      0.0000    808.1107     11.4569    115.0570
   567.7500      0.0000    808.6604     11.4468    118.8079
   568.0000      0.0000    813.2811     11.3511    123.5751
   568.2500      0.0000    821.0552     11.2454    126.8540
   568.5000      0.0000    830.5116     11.1837    127.4681
   568.7500      0.0000    840.6046     11.1669    125.9171
   569.0000      0.0000    851.9543     11.1701    123.4273
   569.2500      0.0000    866.6290     11.1756    121.0636
   569.5000      0.0000    884.9856     11.1781    119.7034
   569.7500      0.0000    902.0355     11.1736    120.0212
   570.0000      0.0000    909.2365     11.1571    121.8845
   570.2500      0.0000    902.2227     11.1290    124.3109
   570.5000      0.0000    885.6127     11.0985    126.5186
   570.7500      0.0000    868.5972     11.0801    128.5265
   571.0000      0.0000    857.2656     11.0842    130.4112
   571.2500      0.0000    852.4527     11.1043    131.7443
   571.5000      0.0000    853.1818     11.1186    132.2770
   571.7500      0.0000    860.3842     11.1085    132.4470
   572.0000      0.0000    877.3304     11.0754    132.6716
   572.2500      0.0000    905.6160     11.0331    132.7926
   572.5000      0.0000    938.9990     10.9884    132.5770
   572.7500      0.0000    962.5935     10.9382    131.9910
   573.0000      0.0000    962.7917     10.8848    130.4948
   573.2500      0.0000    939.5062     10.8449    126.9561
   573.5000      0.0000    906.1584     10.8402    121.2275
   573.7500      0.0000    877.3474     10.8823    115.3999
   574.0000      0.0000    858.7770     10.9663    112.4542
   574.2500      0.0000    848.0047     11.0761    113.5618
   574.5000      0.0000    840.8726     11.1919    117.1059
   574.7500      0.0000    835.7490     11.2997    120.1321
   575.0000      0.0000    833.1568     11.3974    120.4229
   575.2500      0.0000    832.9446     11.4918    117.7861
   575.5000      0.0000    832.7336     11.5894    114.1929
   575.7500      0.0000    829.7058     11.6895    112.3815
   576.0000      0.0000    823.7358     11.7835    113.5753
   576.2500      0.0000    817.9145     11.8618    116.5748
   576.5000      0.0000    815.4828     11.9222    119.2271
   576.7500      0.0000    816.6607     11.9758    120.2631
   577.0000      0.0000    818.9215     12.0440    119.5832
   577.2500      0.0000    819.4837     12.1427    117.6929
   577.5000      0.0000    816.6388     12.2661    115.4853
   577.7500      0.0000    809.8810     12.3880    114.0226
   578.0000      0.0000    800.3621     12.4842    113.9787
   578.2500      0.0000    790.8190     12.5557    115.5520
   578.5000      0.0000    783.9764     12.6250    118.9457
   578.7500      0.0000    781.0836     12.7100    124.1131
   579.0000      0.0000    781.9554     12.8025    129.7119
   579.2500      0.0000    785.4705     12.8763    133.2749
   579.5000      0.0000    789.6575     12.9152    133.3371
   579.7500      0.0000    792.4266     12.9330    131.2136
   580.0000      0.0000    793.4191     12.9633    129.9991
   580.2500      0.0000    794.7450     13.0299    131.4649
   580.5000      0.0000    798.7640     13.1244    134.1586
   580.7500      0.0000    804.9449     13.2118    134.7464
   581.0000      0.0000    809.6216     13.2536    130.8026
   581.2500      0.0000    809.0920     13.2275    122.0679
   581.5000      0.0000    802.2499     13.1337    110.0745
   581.7500      0.0000    789.8207     12.9905     97.7047
   582.0000      0.0000    772.4893     12.8192     88.4153
   582.2500      0.0000    751.8593     12.6258     84.2957
   582.5000      0.0000    732.7042     12.4009     84.6176
   582.7500      0.0000    721.4083     12.1379     87.0159
   583.0000      0.0000    720.7457     11.8455     90.1414
   583.2500      0.0000    726.9961     11.5426     94.4168
   583.5000      0.0000    732.6576     11.2515     99.9890
   583.7500      0.0000    731.6226     10.9990    104.7930
   584.0000      0.0000    722.4305     10.8134    105.6772
   584.2500      0.0000    708.3026     10.7123    101.5302
   584.5000      0.0000    694.8330     10.6993     94.5489
   584.7500      0.0000    687.0970     10.7765     88.0433
   585.0000      0.0000    688.1220     10.9552     83.5105
   585.2500      0.0000    698.7231     11.2513     80.3224
   585.5000      0.0000    716.9587     11.6743     77.7932
   585.7500      0.0000    737.3564     12.2281     76.5724
   586.0000      0.0000    752.3890     12.9231     77.7907
   586.2500      0.0000    756.3576     13.7898     81.6511
   586.5000      0.0000    747.8943     14.8738     87.3465
   586.7500      0.0000    728.0079     16.1996     93.8257
   587.0000      0.0000    695.9612     17.7213    100.2473
   587.2500      0.0000    648.7215     19.2986    106.1582
   587.5000      0.0000    586.3862     20.7233    111.4456
   587.7500      0.0000    517.7203     21.7863    115.7384
   588.0000      0.0000    457.7037     22.3514    118.1153
   588.2500      0.0000    418.7740     22.3991    118.0582
   588.5000      0.0000    406.3482     22.0178    116.3872
   588.7500      0.0000    422.2656     21.3507    114.6020
   589.0000      0.0000    467.9902     20.5296    113.5173
   589.2500      0.0000    541.0790     19.6313    113.1041
   589.5000      0.0000    631.1213     18.6802    113.4419
   589.7500      0.0000    724.5777     17.6903    115.0649
   590.0000      0.0000    814.1348     16.7086    118.0712
   590.2500      0.0000    898.4302     15.8177    121.3541
   590.5000      0.0000    971.1071     15.1021    122.9830
   590.7500      0.0000   1015.7384     14.6169    121.1307
   591.0000      0.0000   1016.4324     14.3798    114.8581
   591.2500      0.0000    972.8516     14.3774    104.6837
   591.5000      0.0000    902.6364     14.5713     92.3757
   591.7500      0.0000    829.0585     14.9069     79.7434
   592.0000      0.0000    767.9243     15.3270     67.9186
