~Version Information
VERS.                      2.0: CWLS Log ASCII Standard - VERSION 2.0
WRAP.                       NO: One line per depth step
~Well Information Block
STRT.FT                -7.7500: 
STOP.FT              2248.5000: 
STEP.FT                 0.2500: 
NULL.                -999.2500: 
COMP.          Pioneer Natural Resources: COMPANY
WELL.          Interceptor 43-13 Tr: WELL
FLD.           Purgatoire River: FIELD
LOC.           2006' FSL & 438' FEL--: LOCATION
PROV.                       CO: PROVINCE
CNTY.               Las Animas: COUNTRY
SRVC.          Patterson Wireline: SERVICE COMPANY
DATE.          Thu Nov 17 10:14:59 2005: LOG DATE
UWI.           05 071 08549 00: UNIQUE WELL ID
~Curve Information Block
DEPT.FT            0 000 00 00: Depth
CCL.                          : Casing Collar Locator
TT3.usec                      : CBL 3' Travel Time
AMP3.mV                       : CBL 3' Amplitude
GR.GAPI                       : Gamma Ray
~Parameter Information Block
~A  Depth       CCL         TT3         AMP3         GR     
# ...
  1767.7500      0.0000    678.4645      9.2122    106.7030
  1768.0000      0.0000    657.8015     10.2946    112.7059
  1768.2500      0.0000    615.2131     11.5471    116.3553
  1768.5000      0.0000    550.2661     12.9177    117.9354
  1768.7500      0.0000    475.0373     14.2897    118.4790
  1769.0000      0.0000    408.0216     15.5173    118.3417
  1769.2500      0.0000    361.8164     16.4942    116.7449
  1769.5000      0.0000    337.0983     17.1873    113.0449
  1769.7500      0.0000    326.8670     17.6301    108.0027
  1770.0000      0.0000    323.6389     17.9146    103.1958
  1770.2500      0.0000    322.8714     18.1703     99.4795
  1770.5000      0.0000    322.6529     18.5023     96.4439
  1770.7500      0.0000    322.4297     18.9167     93.0824
  1771.0000      0.0000    322.2174     19.3026     88.8171
  1771.2500      0.0000    322.3422     19.4851     84.2008
  1771.5000      0.0000    323.5169     19.2986     80.5790
  1771.7500      0.0000    327.1328     18.6338     78.8050
  1772.0000      0.0000    335.6735     17.4684     78.3984
  1772.2500      0.0000    353.0524     15.8860     78.0804
  1772.5000      0.0000    384.1862     14.0530     76.9145
  1772.7500      0.0000    432.4933     12.1554     74.8574
  1773.0000      0.0000    495.6039     10.3475     72.5790
  1773.2500      0.0000    563.5095      8.7332     70.8798
  1773.5000      0.0000    623.1246      7.3590     70.0860
  1773.7500      0.0000    665.8201      6.2213     69.9585
  1774.0000      0.0000    690.4260      5.2981     70.2472
  1774.2500      0.0000    700.4758      4.5800     71.1521
  1774.5000      0.0000    700.7418      4.0634     73.0579
  1774.7500      0.0000    695.8920      3.7217     75.9314
  1775.0000      0.0000    689.9169      3.4985     79.0020
  1775.2500      0.0000    685.2918      3.3341     80.9598
  1775.5000      0.0000    682.6758      3.1956     80.6663
  1775.7500      0.0000    681.6018      3.0800     78.0844
  1776.0000      0.0000    681.3973      2.9962     74.5823
  1776.2500      0.0000    681.6290      2.9501     72.0350
  1776.5000      0.0000    682.0631      2.9471     71.4292
  1776.7500      0.0000    682.5228      3.0055     72.2821
  1777.0000      0.0000    682.8638      3.1540     73.2332
  1777.2500      0.0000    683.0402      3.4136     73.1759
  1777.5000      0.0000    683.1551      3.7821     72.2014
  1777.7500      0.0000    683.4020      4.2387     71.7148
  1778.0000      0.0000    683.9011      4.7479     73.6797
  1778.2500      0.0000    684.4407      5.2503     79.6694
  1778.5000      0.0000    684.2439      5.6608     90.1553
  1778.7500      0.0000    681.9348      5.9022    104.0106
  1779.0000      0.0000    676.0615      5.9555    118.6476
  1779.2500      0.0000    666.3005      5.8776    131.2789
  1779.5000      0.0000    654.1881      5.7673    140.4295
  1779.7500      0.0000    641.7122      5.7095    146.2725
  1780.0000      0.0000    628.9758      5.7342    149.6195
  1780.2500      0.0000    615.0378      5.8117    150.7815
  1780.5000      0.0000    601.9279      5.8776    149.4202
  1780.7500      0.0000    595.6362      5.8727    145.1643
  1781.0000      0.0000    601.2051      5.7776    138.1195
  1781.2500      0.0000    617.6782      5.6194    129.1876
  1781.5000      0.0000    638.7923      5.4499    120.1966
  1781.7500      0.0000    657.7836      5.3180    113.2704
  1782.0000      0.0000    671.0560      5.2524    109.6265
  1782.2500      0.0000    678.5079      5.2522    108.9343
  1782.5000      0.0000    681.9230      5.2819    109.6314
  1782.7500      0.0000    683.3019      5.2849    109.6419
  1783.0000      0.0000    683.9771      5.2171    107.1663
  1783.2500      0.0000    684.4566      5.0734    101.5010
  1783.5000      0.0000    684.4434      4.8804     93.4092
  1783.7500      0.0000    682.7047      4.6654     84.7443
  1784.0000      0.0000    676.8220      4.4430     77.5673
  1784.2500      0.0000    663.9857      4.2368     73.1267
  1784.5000      0.0000    644.0442      4.1006     71.2427
  1784.7500      0.0000    622.8941      4.0870     70.7822
  1785.0000      0.0000    610.8013      4.1826     70.8559
  1785.2500      0.0000    614.2990      4.2941     71.4427
  1785.5000      0.0000    629.7592      4.3142     72.9830
  1785.7500      0.0000    646.1693      4.1973     75.8025
  1786.0000      0.0000    653.7296      3.9737     80.0240
  1786.2500      0.0000    650.1764      3.7099     85.6487
  1786.5000      0.0000    641.2182      3.4633     92.2977
  1786.7500      0.0000    635.1586      3.2656     98.7760
  1787.0000      0.0000    634.6291      3.1331    103.2018
  1787.2500      0.0000    633.1260      3.0786    104.1084
  1787.5000      0.0000    621.5867      3.1030    101.7141
  1787.7500      0.0000    598.9211      3.1797     98.0047
  1788.0000      0.0000    574.7250      3.2622     95.3138
  1788.2500      0.0000    561.1157      3.3128     94.6222
  1788.5000      0.0000    562.0790      3.3196     95.2749
  1788.7500      0.0000    570.3264      3.2916     96.5424
  1789.0000      0.0000    573.9367      3.2477     99.1880
  1789.2500      0.0000    567.3049      3.2098    104.6947
  1789.5000      0.0000    556.8173      3.1962    112.8564
  1789.7500      0.0000    554.5002      3.2161    121.0621
  1790.0000      0.0000    565.4099      3.2653    126.2740
  1790.2500      0.0000    583.1475      3.3226    127.0120
  1790.5000      0.0000    598.5131      3.3588    123.3184
  1790.7500      0.0000    609.7730      3.3570    115.9275
  1791.0000      0.0000    621.9514      3.3258    106.3850
  1791.2500      0.0000    637.9676      3.2875     97.5497
  1791.5000      0.0000    653.9920      3.2552     92.7722
  1791.7500      0.0000    663.0180      3.2282     93.8355
  1792.0000      0.0000    660.4852      3.2051     99.6548
  1792.2500      0.0000    647.0911      3.1898    107.1401
  1792.5000      0.0000    628.8162      3.1801    113.5237
  1792.7500      0.0000    613.4636      3.1596    118.2974
  1793.0000      0.0000    604.5003      3.1152    123.0946
  1793.2500      0.0000    598.2130      3.0613    129.5131
  1793.5000      0.0000    587.5964      3.0419    137.1728
  1793.7500      0.0000    567.6976      3.1111    143.9981
  1794.0000      0.0000    537.6705      3.2970    147.7300
  1794.2500      0.0000    501.4753      3.5663    146.7135
  1794.5000      0.0000    467.8033      3.8303    140.3335
  1794.7500      0.0000    446.9344      4.0077    129.9398
  1795.0000      2.0000    446.2405      4.0764    118.8734
  1795.2500      0.0000    467.4621      4.0665    110.5608
  1795.5000      0.0000    505.0670      4.0250    106.4472
  1795.7500      0.0000    545.7857      3.9881    105.7846
  1796.0000      0.0000    572.9727      3.9585    107.0216
  1796.2500      0.0000    575.2956      3.9080    109.1143
  1796.5000      0.0000    553.2496      3.8267    111.5577
  1796.7500      0.0000    518.1198      3.7516    113.6672
  1797.0000      0.0000    484.8330      3.7252    114.5501
  1797.2500      0.0000    464.9527      3.7517    114.0088
  1797.5000      0.0000    464.6229      3.8131    112.9665
  1797.7500      0.0000    485.1424      3.9006    112.6299
  1798.0000      0.0000    521.5203      4.0180    113.3095
  1798.2500      0.0000    561.3268      4.1716    114.1977
  1798.5000      0.0000    589.8191      4.3590    114.4112
  1798.7500      0.0000    599.0847      4.5529    114.2434
  1799.0000      0.0000    591.5927      4.6984    115.0332
  1799.2500      0.0000    574.7509      4.7443    117.4144
  1799.5000      0.0000    553.4432      4.6782    120.0018
  1799.7500      0.0000    528.0491      4.5311    120.4823
  1800.0000      0.0000    498.1967      4.3471    118.0148
  1800.2500      0.0000    466.9045      4.1484    113.9696
  1800.5000      0.0000    440.1633      3.9267    110.3552
  1800.7500      0.0000    422.3779      3.6692    107.9947
  1801.0000      0.0000    413.1322      3.3927    106.1871
