~Version Information
VERS.                      2.0: CWLS Log ASCII Standard - VERSION 2.0
WRAP.                       NO: One line per depth step
~Well Information Block
STRT.FT               597.2500: 
STOP.FT              1567.2500: 
STEP.FT                 0.2500: 
NULL.                -999.2500: 
COMP.          Pioneer Natural Resources: COMPANY
WELL.           Butch 33-10 Tr: WELL
FLD.           Purgatoire River: FIELD
LOC.           2309' FSL & 1337' FEL--: LOCATION
PROV.                 Colorado: PROVINCE
CNTY.               Las Animas: COUNTRY
SRVC.                Patterson: SERVICE COMPANY
DATE.          Sat Jan 14 05:18:29 2006: LOG DATE
UWI.           05 071 08649 00: UNIQUE WELL ID
~Curve Information Block
DEPT.FT            0 000 00 00: Depth
SN.Ohm-m                      : IEL Short Normal
SP.mV                         : IEL Spontaneous Potential
DIR.Ohm-m                     : IEL Induction Resistivity
GR.GAPI                       : Gamma Ray
~Parameter Information Block
~A  Depth        SN          SP         DIR          GR     
# ...
   865.2500     43.7694    -93.2204 100000.0000    156.5730
   865.5000     45.7672    -89.9208 100000.0000    157.1543
   865.7500     47.4315    -86.8551 100000.0000    155.6581
   866.0000     48.7643    -83.9333 100000.0000    150.7848
   866.2500     49.6936    -81.0906 100000.0000    147.0662
   866.5000     50.1400    -78.3046 100000.0000    143.7057
   866.7500     50.0656    -75.6033 100000.0000    143.9143
   867.0000     49.4849    -73.0560 100000.0000    146.9177
   867.2500     48.4498    -70.7460 100000.0000    148.9639
   867.5000     47.0358    -68.7335 100000.0000    149.6662
   867.7500     45.3478    -67.0277 100000.0000    148.5740
   868.0000     43.5245    -65.5803 100000.0000    146.5613
   868.2500     41.7096    -64.3031 100000.0000    146.1332
   868.5000     40.0010    -63.1033 100000.0000    147.6573
   868.7500     38.4212    -61.9191 100000.0000    149.9599
   869.0000     36.9370    -60.7395    222.8978    154.4511
   869.2500     35.5068    -59.6023    255.5965    157.4162
   869.5000     34.1109    -58.5728 100000.0000    160.5875
   869.7500     32.7466    -57.7126 100000.0000    161.4055
   870.0000     31.4119    -57.0573 100000.0000    160.5750
   870.2500     30.1057    -56.6062 100000.0000    158.7968
   870.5000     28.8427    -56.3268 100000.0000    154.7483
   870.7500     27.6551    -56.1709 100000.0000    151.6034
   871.0000     26.5696    -56.0914     88.1417    147.3644
   871.2500     25.5873    -56.0548     31.8179    145.4918
   871.5000     24.6899    -56.0464     21.0177    144.7552
   871.7500     23.8679    -56.0691     17.3792    145.7014
   872.0000     23.1358    -56.1389     16.2814    148.6995
   872.2500     22.5144    -56.2778     16.4272    150.9784
   872.5000     22.0037    -56.5080     17.2323    153.2790
   872.7500     21.5799    -56.8455     18.2939    153.6707
   873.0000     21.2197    -57.2942     19.2914    153.3950
   873.2500     20.9163    -57.8398     20.0250    153.5228
   873.5000     20.6708    -58.4436     20.4424    154.7420
   873.7500     20.4700    -59.0431     20.5904    155.7424
   874.0000     20.2726    -59.5565     20.5381    156.3025
   874.2500     20.0177    -59.8962     20.3356    155.7474
   874.5000     19.6492    -59.9861     20.0151    153.9126
   874.7500     19.1422    -59.7808     19.6069    152.5976
   875.0000     18.5152    -59.2794     19.1477    151.7602
   875.2500     17.8225    -58.5286     18.6783    152.6530
   875.5000     17.1379    -57.6136     18.2367    156.5885
   875.7500     16.5369    -56.6388     17.8527    160.4105
   876.0000     16.0800    -55.7049     17.5451    165.9852
   876.2500     15.8000    -54.8886     17.3203    168.4920
   876.5000     15.6980    -54.2321     17.1720    169.5877
   876.7500     15.7492    -53.7417     17.0850    168.6679
   877.0000     15.9166    -53.3961     17.0427    165.5893
   877.2500     16.1631    -53.1587     17.0350    162.9887
   877.5000     16.4570    -52.9891     17.0617    159.3302
   877.7500     16.7710    -52.8526     17.1298    157.6233
   878.0000     17.0819    -52.7242     17.2460    156.7238
   878.2500     17.3728    -52.5895     17.4095    157.0861
   878.5000     17.6332    -52.4430     17.6087    157.9708
   878.7500     17.8538    -52.2851     17.8230    158.0393
   879.0000     18.0234    -52.1199     18.0282    156.8925
   879.2500     18.1313    -51.9526     18.2011    155.6866
   879.5000     18.1733    -51.7881     18.3213    154.3165
   879.7500     18.1533    -51.6301     18.3729    153.9377
   880.0000     18.0796    -51.4812     18.3487    153.4655
   880.2500     17.9615    -51.3425     18.2557    152.6732
   880.5000     17.8086    -51.2148     18.1150    150.8678
   880.7500     17.6334    -51.0990     17.9516    149.8943
   881.0000     17.4519    -50.9964     17.7839    149.7571
   881.2500     17.2810    -50.9094     17.6207    150.6294
   881.5000     17.1350    -50.8410     17.4657    152.7218
   881.7500     17.0211    -50.7944     17.3206    154.0628
   882.0000     16.9350    -50.7718     17.1838    155.4021
   882.2500     16.8621    -50.7740     17.0484    155.9393
   882.5000     16.7888    -50.7999     16.9051    156.5757
   882.7500     16.7144    -50.8460     16.7518    156.7050
   883.0000     16.6511    -50.9071     16.6009    155.4293
   883.2500     16.6130    -50.9762     16.4757    153.2264
   883.5000     16.6052    -51.0454     16.3984    148.8054
   883.7500     16.6227    -51.1066     16.3755    146.3175
   884.0000     16.6562    -51.1519     16.3931    144.5421
   884.2500     16.6981    -51.1744     16.4257    144.2323
   884.5000     16.7450    -51.1696     16.4509    143.2691
   884.7500     16.7954    -51.1354     16.4617    141.6303
   885.0000     16.8487    -51.0726     16.4677    137.8075
   885.2500     16.9065    -50.9851     16.4873    134.7439
   885.5000     16.9753    -50.8788     16.5385    130.0514
   885.7500     17.0664    -50.7618     16.6340    127.3530
   886.0000     17.1931    -50.6428     16.7794    124.8783
   886.2500     17.3684    -50.5308     16.9748    124.4525
   886.5000     17.6042    -50.4344     17.2179    125.0531
   886.7500     17.9086    -50.3611     17.5087    125.8492
   887.0000     18.2809    -50.3170     17.8524    127.3658
   887.2500     18.7101    -50.3056     18.2592    128.4055
   887.5000     19.1803    -50.3277     18.7393    129.1040
   887.7500     19.6811    -50.3807     19.2973    128.4223
   888.0000     20.2159    -50.4593     19.9289    125.4551
   888.2500     20.8018    -50.5560     20.6231    122.4856
   888.5000     21.4618    -50.6623     21.3676    117.1839
   888.7500     22.2119    -50.7699     22.1550    113.2756
   889.0000     23.0535    -50.8719     22.9819    106.8354
   889.2500     23.9721    -50.9630     23.8436    102.1004
   889.5000     24.9411    -51.0398     24.7281     94.4661
   889.7500     25.9213    -51.1002     25.6163     89.2506
   890.0000     26.8555    -51.1431     26.4842     81.5767
   890.2500     27.6658    -51.1682     27.3002     76.6240
   890.5000     28.2711    -51.1760     28.0234     69.5544
   890.7500     28.6237    -51.1671     28.6098     65.2894
   891.0000     28.7381    -51.1425     29.0339     59.9858
   891.2500     28.6907    -51.1033     29.3054     57.2386
   891.5000     28.5877    -51.0508     29.4649     53.9766
   891.7500     28.5197    -50.9855     29.5594     52.1406
   892.0000     28.5256    -50.9076     29.6164     49.8044
   892.2500     28.5819    -50.8171     29.6317     48.6240
   892.5000     28.6257    -50.7131     29.5781     47.4799
   892.7500     28.5959    -50.5953     29.4267     46.9855
   893.0000     28.4684    -50.4634     29.1686     46.1965
   893.2500     28.2642    -50.3181     28.8225     45.4105
   893.5000     28.0311    -50.1609     28.4281     43.6815
   893.7500     27.8165    -49.9941     28.0316     42.1854
   894.0000     27.6488    -49.8207     27.6747     39.6072
   894.2500     27.5332    -49.6441     27.3887     37.8793
   894.5000     27.4570    -49.4673     27.1924     35.8627
   894.7500     27.4015    -49.2935     27.0915     35.2639
   895.0000     27.3535    -49.1252     27.0790     35.7414
   895.2500     27.3107    -48.9648     27.1373     36.7611
   895.5000     27.2784    -48.8144     27.2420     38.4861
   895.7500     27.2602    -48.6762     27.3662     39.2818
   896.0000     27.2553    -48.5520     27.4865     39.7083
   896.2500     27.2622    -48.4435     27.5860     39.7389
   896.5000     27.2812    -48.3520     27.6528     40.0259
   896.7500     27.3100    -48.2780     27.6794     40.5088
   897.0000     27.3388    -48.2211     27.6628     41.3764
   897.2500     27.3526    -48.1798     27.6072     41.8086
   897.5000     27.3380    -48.1513     27.5227     42.1520
   897.7500     27.2871    -48.1322     27.4197     42.3539
   898.0000     27.1986    -48.1183     27.3037     43.0191
   898.2500     27.0796    -48.1054     27.1764     43.8280
   898.5000     26.9452    -48.0894     27.0403     45.5251
