~Version Information
VERS.                      2.0: CWLS Log ASCII Standard - VERSION 2.0
WRAP.                       NO: One line per depth step
~Well Information Block
STRT.FT               615.0000: 
STOP.FT              2815.0000: 
STEP.FT                 0.2500: 
NULL.                -999.2500: 
COMP.          Pioneer Natural Resources: COMPANY
WELL.              Loews 41-32: WELL
FLD.           Purgatoire River: FIELD
LOC.           751' FNL & 128' FEL: LOCATION
CNTY.               Las Animas: COUNTY
SRVC.                Patterson: SERVICE COMPANY
DATE.          Sun Feb 12 02:27:11 2006: LOG DATE
UWI.           05 071 08693 00: UNIQUE WELL ID
STAT.                 Colorado: STATE
~Curve Information Block
DEPT.FT            0 000 00 00: Depth
SN.Ohm-m                      : IEL Short Normal
SP.mV                         : IEL Spontaneous Potential
DIR.Ohm-m                     : IEL Induction Resistivity
GR.GAPI                       : Gamma Ray
~Parameter Information Block
~A  Depth        SN          SP         DIR          GR     
# ...
  1184.5000   2000.0000   2000.0000     35.8781     69.2825
  1184.7500   2000.0000   2000.0000     37.0046     67.8333
  1185.0000   2000.0000   2000.0000     38.0311     65.5521
  1185.2500   2000.0000   2000.0000     39.0110     64.0645
  1185.5000   2000.0000   2000.0000     40.0222     61.8538
  1185.7500   2000.0000   2000.0000     41.1101     60.3774
  1186.0000   2000.0000   2000.0000     42.2408     58.4915
  1186.2500   2000.0000   2000.0000     43.2901     57.9005
  1186.5000   2000.0000   2000.0000     44.0820     58.7627
  1186.7500   2000.0000   2000.0000     44.4787     60.5505
  1187.0000   2000.0000   2000.0000     44.4654     64.1927
  1187.2500   2000.0000   2000.0000     44.1579     66.5407
  1187.5000   2000.0000   2000.0000     43.7200     69.2355
  1187.7500   2000.0000   2000.0000     43.2665     70.5324
  1188.0000   2000.0000   2000.0000     42.8283     72.1678
  1188.2500   2000.0000   2000.0000     42.3828     73.2661
  1188.5000   2000.0000   2000.0000     41.9054     75.0271
  1188.7500   2000.0000   2000.0000     41.3918     76.1220
  1189.0000   2000.0000   2000.0000     40.8344     77.1591
  1189.2500   2000.0000   2000.0000     40.1926     77.3152
  1189.5000   2000.0000   2000.0000     39.4084     77.1803
  1189.7500   2000.0000   2000.0000     38.4650     77.3533
  1190.0000   2000.0000   2000.0000     37.4285     78.6123
  1190.2500   2000.0000   2000.0000     36.4175     80.0202
  1190.5000   2000.0000   2000.0000     35.5279     82.2261
  1190.7500   2000.0000   2000.0000     34.7787     83.4178
  1191.0000   2000.0000   2000.0000     34.1200     85.0068
  1191.2500   2000.0000   2000.0000     33.4755     86.3656
  1191.5000   2000.0000   2000.0000     32.7828     89.2758
  1191.7500   2000.0000   2000.0000     32.0137     91.6824
  1192.0000   2000.0000   2000.0000     31.1785     95.6505
  1192.2500   2000.0000   2000.0000     30.3249     98.4670
  1192.5000   2000.0000   2000.0000     29.5259    102.7831
  1192.7500   2000.0000   2000.0000     28.8561    105.3933
  1193.0000   2000.0000   2000.0000     28.3586    108.2179
  1193.2500   2000.0000   2000.0000     28.0208    109.2347
  1193.5000   2000.0000   2000.0000     27.7760    109.8061
  1193.7500   2000.0000   2000.0000     27.5292    109.8623
  1194.0000   2000.0000   2000.0000     27.1978    109.7741
  1194.2500   2000.0000   2000.0000     26.7400    109.5706
  1194.5000   2000.0000   2000.0000     26.1548    108.7252
  1194.7500   2000.0000   2000.0000     25.4606    107.6199
  1195.0000   2000.0000   2000.0000     24.6762    105.0722
  1195.2500   2000.0000   2000.0000     23.8162    102.7946
  1195.5000   2000.0000   2000.0000     22.8992     98.4580
  1195.7500   2000.0000   2000.0000     21.9569     95.0589
  1196.0000   2000.0000   2000.0000     21.0334     90.1163
  1196.2500   2000.0000   2000.0000     20.1763     87.7758
  1196.5000   2000.0000   2000.0000     19.4274     86.7524
  1196.7500   2000.0000   2000.0000     18.8161     87.7436
  1197.0000   2000.0000   2000.0000     18.3537     90.9423
  1197.2500   2000.0000   2000.0000     18.0296     93.6058
  1197.5000   2000.0000   2000.0000     17.8133     97.5572
  1197.7500   2000.0000   2000.0000     17.6625     99.8959
  1198.0000   2000.0000   2000.0000     17.5398    102.8776
  1198.2500   2000.0000   2000.0000     17.4260    104.5701
  1198.5000   2000.0000   2000.0000     17.3240    106.7537
  1198.7500   2000.0000   2000.0000     17.2508    108.0363
  1199.0000   2000.0000   2000.0000     17.2246    109.8044
  1199.2500   2000.0000   2000.0000     17.2592    110.7521
  1199.5000   2000.0000   2000.0000     17.3689    110.9783
  1199.7500   2000.0000   2000.0000     17.5776    109.6650
  1200.0000   2000.0000   2000.0000     17.9193    104.9750
  1200.2500   2000.0000   2000.0000     18.4225    100.4006
  1200.5000   2000.0000   2000.0000     19.0832     92.8497
  1200.7500   2000.0000   2000.0000     19.8418     88.2889
  1201.0000   2000.0000   2000.0000     20.5851     83.2377
  1201.2500   2000.0000   2000.0000     21.1827     81.3552
  1201.5000   2000.0000   2000.0000     21.5411     80.9986
  1201.7500   2000.0000   2000.0000     21.6367     82.4920
  1202.0000   2000.0000   2000.0000     21.5044     87.2918
  1202.2500   2000.0000   2000.0000     21.1959     91.9997
  1202.5000   2000.0000   2000.0000     20.7466    100.4506
  1202.7500   2000.0000   2000.0000     20.1695    106.0939
  1203.0000   2000.0000   2000.0000     19.4754    112.8201
  1203.2500   2000.0000   2000.0000     18.6942    115.6506
  1203.5000   2000.0000   2000.0000     17.8786    118.1529
  1203.7500   2000.0000   2000.0000     17.0856    119.6753
  1204.0000   2000.0000   2000.0000     16.3555    123.1272
  1204.2500   2000.0000   2000.0000     15.7034    126.2865
  1204.5000   2000.0000   2000.0000     15.1259    131.3356
  1204.7500   2000.0000   2000.0000     14.6150    134.1690
  1205.0000   2000.0000   2000.0000     14.1694    136.8364
  1205.2500   2000.0000   2000.0000     13.7969    137.5146
  1205.5000   2000.0000   2000.0000     13.5068    137.4959
  1205.7500   2000.0000   2000.0000     13.2999    137.3865
  1206.0000   2000.0000   2000.0000     13.1632    137.7497
  1206.2500   2000.0000   2000.0000     13.0737    138.1816
  1206.5000   2000.0000   2000.0000     13.0091    138.1682
  1206.7500   2000.0000   2000.0000     12.9565    137.2936
  1207.0000   2000.0000   2000.0000     12.9147    134.8133
  1207.2500   2000.0000   2000.0000     12.8884    132.9006
  1207.5000   2000.0000   2000.0000     12.8811    130.6660
  1207.7500   2000.0000   2000.0000     12.8922    129.8999
  1208.0000   2000.0000   2000.0000     12.9204    129.5561
  1208.2500   2000.0000   2000.0000     12.9666    129.3559
  1208.5000   2000.0000   2000.0000     13.0319    128.1483
  1208.7500   2000.0000   2000.0000     13.1122    126.4585
  1209.0000   2000.0000   2000.0000     13.1966    123.0608
  1209.2500   2000.0000   2000.0000     13.2741    120.9982
  1209.5000   2000.0000   2000.0000     13.3438    119.5653
  1209.7500   2000.0000   2000.0000     13.4179    120.0099
  1210.0000   2000.0000   2000.0000     13.5136    122.1603
  1210.2500   2000.0000   2000.0000     13.6402    123.8768
  1210.5000   2000.0000   2000.0000     13.7913    125.8560
  1210.7500   2000.0000   2000.0000     13.9501    126.5609
  1211.0000   2000.0000   2000.0000     14.1006    126.9727
  1211.2500   2000.0000   2000.0000     14.2380    127.1291
  1211.5000   2000.0000   2000.0000     14.3681    127.4806
  1211.7500   2000.0000   2000.0000     14.5009    127.7597
  1212.0000   2000.0000   2000.0000     14.6424    128.1717
  1212.2500   2000.0000   2000.0000     14.7916    128.5256
  1212.5000   2000.0000   2000.0000     14.9408    129.3230
  1212.7500   2000.0000   2000.0000     15.0817    129.9055
  1213.0000   2000.0000   2000.0000     15.2110    130.1858
  1213.2500   2000.0000   2000.0000     15.3332    129.5813
  1213.5000   2000.0000   2000.0000     15.4579    127.6250
  1213.7500   2000.0000   2000.0000     15.5945    126.3278
  1214.0000   2000.0000   2000.0000     15.7513    125.7766
  1214.2500   2000.0000   2000.0000     15.9371    126.5173
  1214.5000   2000.0000   2000.0000     16.1625    128.2513
  1214.7500   2000.0000   2000.0000     16.4354    129.0259
  1215.0000   2000.0000   2000.0000     16.7560    129.1347
  1215.2500   2000.0000   2000.0000     17.1165    128.8088
  1215.5000   2000.0000   2000.0000     17.5065    128.4338
  1215.7500   2000.0000   2000.0000     17.9191    128.3962
  1216.0000   2000.0000   2000.0000     18.3523    128.3116
  1216.2500   2000.0000   2000.0000     18.8045    127.8619
  1216.5000   2000.0000   2000.0000     19.2711    126.0236
  1216.7500   2000.0000   2000.0000     19.7516    123.9390
  1217.0000   2000.0000   2000.0000     20.2676    120.0326
  1217.2500   2000.0000   2000.0000     20.8774    117.4915
  1217.5000   2000.0000   2000.0000     21.6682    114.6503
  1217.7500   2000.0000   2000.0000     22.7231    113.4163
