~Version Information
VERS.                      2.0: CWLS Log ASCII Standard - VERSION 2.0
WRAP.                       NO: One line per depth step
~Well Information Block
STRT.FT              1186.0000: 
STOP.FT              1577.0000: 
STEP.FT                 0.2500: 
NULL.                -999.2500: 
COMP.          XTO Energy Inc.: COMPANY
WELL.          Golden Eagle 19-10: WELL
FLD.           Purgatorie River: FIELD
LOC.           2684' FSL & 1825' FEL--: LOCATION
CNTY.               Las Animas: COUNTY
SRVC.          Superior Well Services: SERVICE COMPANY
DATE.          Mon Dec 11 16:19:11 2006: LOG DATE
UWI.           05 071 08697 00: UNIQUE WELL ID
STAT.                       CO: STATE
~Curve Information Block
DEPT.FT            0 000 00 00: Depth
CCL.                          : Casing Collar Locator
TT3.usec                      : CBL 3' Travel Time
AMP3.mV                       : CBL 3' Amplitude
GR.GAPI                       : Gamma Ray
~Parameter Information Block
~A  Depth       CCL         TT3         AMP3         GR     
# ...
  1387.0000      0.0000    260.8470     78.7049     39.8569
  1387.2500      0.0000    260.8477     78.7247     38.8402
  1387.5000      0.0000    260.8527     78.6255     37.1147
  1387.7500      0.0000    260.8592     78.4362     34.5449
  1388.0000      0.0000    260.8647     78.2194     31.6263
  1388.2500      0.0000    260.8687     78.0329     29.3175
  1388.5000      0.0000    260.8726     77.9111     28.2541
  1388.7500      0.0000    260.8760     77.8692     28.2875
  1389.0000      0.0000    260.8767     77.9114     28.7202
  1389.2500      0.0000    260.8730     78.0239     28.8527
  1389.5000      0.0000    260.8657     78.1563     28.4267
  1389.7500      0.0000    260.8596     78.2239     27.7413
  1390.0000      0.0000    260.8598     78.1508     27.2553
  1390.2500      0.0000    260.8689     77.9224     26.9766
  1390.5000      0.0000    260.8852     77.5983     26.3988
  1390.7500      0.0000    260.9037     77.2720     25.2285
  1391.0000      0.0000    260.9191     77.0172     24.0494
  1391.2500      0.0000    260.9285     76.8608     24.0243
  1391.5000      0.0000    260.9325     76.7888     25.8918
  1391.7500      0.0000    260.9337     76.7683     29.3619
  1392.0000      0.0000    260.9336     76.7653     33.5367
  1392.2500      0.0000    260.9327     76.7464     37.8865
  1392.5000      0.0000    260.9324     76.6760     42.6724
  1392.7500      0.0000    260.9348     76.5320     48.1927
  1393.0000      0.0000    260.9402     76.3328     53.6449
  1393.2500      0.0000    260.9466     76.1343     57.2131
  1393.5000      0.0000    260.9520     75.9804     57.5995
  1393.7500      0.0000    260.9582     75.8612     55.2203
  1394.0000      0.0000    260.9711     75.7295     51.7846
  1394.2500      0.0000    260.9991     75.5558     49.1773
  1394.5000      0.0000    261.0492     75.3594     49.0123
  1394.7500      0.0000    261.1223     75.1820     52.7297
  1395.0000      0.0000    261.2109     75.0359     61.3198
  1395.2500      0.0000    261.3043     74.8846     74.5491
  1395.5000      0.0000    261.3952     74.6804     90.4409
  1395.7500      0.0000    261.4817     74.4233    105.8297
  1396.0000      0.0000    261.5638     74.1752    117.9138
  1396.2500      0.0000    261.6428     74.0064    125.7160
  1396.5000      0.0000    261.7213     73.9401    130.2675
  1396.7500      0.0000    261.7995     73.9534    133.4168
  1397.0000      0.0000    261.8670     74.0017    136.2442
  1397.2500      0.0000    261.9058     74.0175    138.2822
  1397.5000      0.0000    261.9057     73.9251    138.2647
  1397.7500      0.0000    261.8762     73.7062    135.7858
  1398.0000      0.0000    261.8372     73.4363    131.8812
  1398.2500      0.0000    261.8050     73.2202    127.7388
  1398.5000      0.0000    261.7867     73.1047    123.5355
  1398.7500      0.0000    261.7841     73.0646    119.0255
  1399.0000      0.0000    261.7957     73.0471    114.6222
  1399.2500      0.0000    261.8174     73.0112    111.3367
  1399.5000      0.0000    261.8425     72.9520    110.1163
  1399.7500      0.0000    261.8615     72.9057    111.6082
  1400.0000      0.0000    261.8604     72.9163    116.0022
  1400.2500      0.0000    261.8255     72.9869    122.4571
  1400.5000      0.0000    261.7542     73.0751    128.8926
  1400.7500      0.0000    261.6627     73.1387    133.2337
  1401.0000      0.0000    261.5761     73.1728    135.2745
  1401.2500      0.0000    261.5120     73.1958    136.7841
  1401.5000      0.0000    261.4731     73.2142    139.3997
  1401.7500      0.0000    261.4532     73.2158    142.8065
  1402.0000      0.0000    261.4449     73.1874    145.1930
  1402.2500      0.0000    261.4424     73.1281    145.1530
  1402.5000      0.0000    261.4441     73.0420    142.9130
  1402.7500      0.0000    261.4516     72.9264    139.8139
  1403.0000      0.0000    261.4674     72.7729    136.8438
  1403.2500      0.0000    261.4921     72.5713    133.9889
  1403.5000      0.0000    261.5252     72.3081    131.0809
  1403.7500      0.0000    261.5676     71.9542    128.7175
  1404.0000      0.0000    261.6222     71.4571    127.6848
  1404.2500      0.0000    261.6934     70.7564    127.7788
  1404.5000      0.0000    261.7837     69.8364    128.0656
  1404.7500      0.0000    261.8884     68.7880    128.3363
  1405.0000      0.0000    261.9924     67.8123    129.5030
  1405.2500      0.0000    262.0727     67.1513    132.3291
  1405.5000      0.0000    262.1046     67.0066    136.3145
  1405.7500      0.0000    262.0697     67.4866    140.0240
  1406.0000      0.0000    261.9677     68.5404    142.2613
  1406.2500      0.0000    261.8266     69.8985    142.9461
  1406.5000      0.0000    261.6953     71.1427    142.9466
  1406.7500      0.0000    261.6167     71.9091    143.0707
  1407.0000      0.0000    261.6065     72.0436    143.4274
  1407.2500      0.0000    261.6538     71.5972    143.8365
  1407.5000      0.0000    261.7344     70.7532    144.3542
  1407.7500      0.0000    261.8214     69.7728    145.0593
  1408.0000      0.0000    261.8907     68.9352    145.6237
  1408.2500      0.0000    261.9220     68.4692    145.5132
  1408.5000      0.0000    261.8980     68.5272    144.6112
  1408.7500      0.0000    261.8079     69.1718    143.3997
  1409.0000      0.0000    261.6590     70.3063    142.4162
  1409.2500      0.0000    261.4847     71.6313    141.7883
  1409.5000      0.0000    261.3300     72.7612    141.5859
  1409.7500      0.0000    261.2267     73.4264    142.3339
  1410.0000      0.0000    261.1827     73.5527    144.7579
  1410.2500      0.0000    261.1913     73.1787    149.0551
  1410.5000      0.0000    261.2437     72.3504    154.6068
  1410.7500      0.0000    261.3338     71.0953    160.3476
  1411.0000      0.0000    261.4579     69.4537    165.3685
  1411.2500      0.0000    261.6137     67.5156    169.3226
  1411.5000      0.0000    261.7959     65.4385    172.3409
  1411.7500      0.0000    261.9916     63.4300    174.5185
  1412.0000      0.0000    262.1813     61.6833    175.5769
  1412.2500      0.0000    262.3480     60.2993    175.1019
  1412.5000      0.0000    262.4863     59.2581    173.0964
  1412.7500      0.0000    262.6014     58.4638    170.3479
  1413.0000      0.0000    262.7008     57.8179    168.1843
  1413.2500      0.0000    262.7841     57.2861    167.5497
  1413.5000      0.0000    262.8368     56.9516    168.0545
  1413.7500      0.0000    262.8318     57.0273    168.0655
  1414.0000      0.0000    262.7426     57.7818    166.1073
  1414.2500      0.0000    262.5612     59.3836    162.1619
  1414.5000      0.0000    262.3074     61.7651    157.3842
  1414.7500      0.0000    262.0218     64.6165    152.7225
  1415.0000      0.0000    261.7520     67.5157    148.3231
  1415.2500      0.0000    261.5440     70.0785    144.3442
  1415.5000      0.0000    261.4688     71.9986    141.5732
  1415.7500      0.0000    261.6885     72.9657    140.4957
  1416.0000      0.0000    262.5251     72.5983    140.3233
  1416.2500      0.0000    264.3631     70.6317    139.8786
  1416.5000      0.0000    267.2474     67.3310    139.0807
  1416.7500      0.0000    270.4628     63.5987    138.5694
  1417.0000      0.0000    272.7794     60.3601    138.0864
  1417.2500      0.0000    273.4218     57.8318    136.1894
  1417.5000      0.0000    272.7101     55.6482    131.5977
  1417.7500      0.0000    271.6018     53.5923    124.1911
  1418.0000      0.0000    270.8038     51.8659    114.7462
  1418.2500      0.0000    270.4778     50.7264    104.4012
  1418.5000      0.0000    270.5536     50.1987     94.6036
  1418.7500      0.0000    271.0700     50.1670     87.0167
  1419.0000      0.0000    272.1580     50.6076     82.8925
  1419.2500      0.0000    273.6555     51.6881     82.2974
  1419.5000      0.0000    274.7608     53.6230     83.9658
  1419.7500      0.0000    274.3648     56.3683     86.0589
  1420.0000      0.0000    272.0408     59.5112     87.2796
  1420.2500      0.0000    268.5722     62.5834     87.3621
