~Version Information
VERS.                      2.0: CWLS Log ASCII Standard - VERSION 2.0
WRAP.                       NO: One line per depth step
~Well Information Block
STRT.FT               370.0000: 
STOP.FT              1259.0000: 
STEP.FT                 0.1000: 
NULL.                -999.2500: 
COMP.          Pioneer Natural Resources: COMPANY
WELL.           Tennis 7-12 Tr: WELL
FLD.           Purgatoire River: FIELD
LOC.           1794' FNL & 1563' FEL: LOCATION
PROV.                 Colorado: PROVINCE
CNTY.               Las Animas: COUNTRY
SRVC.                Patterson: SERVICE COMPANY
DATE.          Tue Dec 20 13:35:40 2005: LOG DATE
UWI.           05 071 08635 00: UNIQUE WELL ID
~Curve Information Block
DEPT.FT            0 000 00 00: Depth
DCAL.in                       : CDL Caliper
RHOB.g/cc                     : CDL Bulk Density
RHOC.g/cc                     : CDL Density Correction
DPOR.pu                       : CDL Density Porosity
GR.GAPI                       : Gamma Ray
~Parameter Information Block
~A  Depth       DCAL        RHOB        RHOC        DPOR         GR     
# ...
   773.2000      7.8746      2.5706      0.0423      4.8133    144.7845
   773.3000      7.8739      2.5657      0.0372      5.1098    145.8186
   773.4000      7.8739      2.5698      0.0589      4.8615    143.7539
   773.5000      7.8728      2.5789      0.0548      4.3063    142.5399
   773.6000      7.8728      2.5810      0.0740      4.1842    143.9934
   773.7000      7.8728      2.5656      0.0723      5.1144    143.8121
   773.8000      7.8728      2.5338      0.0516      7.0400    144.3443
   773.9000      7.8728      2.5047     -0.0283      8.8078    146.9807
   774.0000      7.8731      2.4988     -0.0072      9.1640    146.8443
   774.1000      7.8731      2.5069      0.0524      8.6722    145.5961
   774.2000      7.8731      2.4991      0.0514      9.1453    148.3942
   774.3000      7.8724      2.4682     -0.0070     11.0164    152.8716
   774.4000      7.8724      2.4393     -0.0165     12.7717    151.9465
   774.5000      7.8706      2.4283      0.0219     13.4381    145.0481
   774.6000      7.8706      2.4268      0.0205     13.5295    137.4626
   774.7000      7.8706      2.4230      0.0126     13.7592    133.0168
   774.8000      7.8654      2.4106      0.0143     14.5104    132.8221
   774.9000      7.8654      2.3953      0.0091     15.4343    134.9911
   775.0000      7.8504      2.3898      0.1046     15.7677    137.7364
   775.1000      7.8504      2.3918      0.1278     15.6513    142.0202
   775.2000      7.8504      2.3953      0.1891     15.4344    149.4158
   775.3000      7.8338      2.4145      0.1492     14.2704    156.6189
   775.4000      7.8338      2.4606      0.2115     11.4762    160.4715
   775.5000      7.8429      2.5163      0.2482      8.1059    162.1268
   775.6000      7.8429      2.5657      0.2598      5.1100    160.6146
   775.7000      7.8429      2.6120      0.2703      2.3043    155.4449
   775.8000      7.8832      2.6507      0.2890     -0.0419    149.9827
   775.9000      7.8832      2.6600      0.3102     -0.6062    147.5247
   776.0000      7.9364      2.6288      0.2143      1.2846    150.0584
   776.1000      7.9364      2.5757      0.1681      4.5006    155.9825
   776.2000      7.9364      2.5255      0.0824      7.5461    161.2220
   776.3000      7.9809      2.4864      0.0529      9.9165    163.5488
   776.4000      7.9809      2.4554      0.0429     11.7951    163.2196
   776.5000      8.0019      2.4390     -0.0213     12.7871    161.2758
   776.6000      8.0019      2.4482      0.0054     12.2322    160.5325
   776.7000      8.0019      2.4702      0.0264     10.8945    161.7332
   776.8000      8.0066      2.4863      0.0316      9.9221    159.4397
   776.9000      8.0066      2.4937      0.0648      9.4727    152.1757
   777.0000      8.0092      2.4914      0.0732      9.6148    145.8998
   777.1000      8.0092      2.4789      0.0774     10.3700    147.3316
   777.2000      8.0092      2.4664      0.0447     11.1271    154.6663
   777.3000      8.0185      2.4654      0.0213     11.1851    160.8549
   777.4000      8.0185      2.4784      0.0301     10.3978    164.0257
   777.5000      8.0174      2.4947      0.0895      9.4096    165.1887
   777.6000      8.0174      2.5015      0.1016      9.0011    163.4758
   777.7000      8.0174      2.5026      0.1065      8.9305    160.1076
   777.8000      7.9781      2.5081      0.1297      8.5984    161.6534
   777.9000      7.9781      2.5113      0.2228      8.4040    169.8908
   778.0000      7.9241      2.5050      0.1268      8.7897    175.9394
   778.1000      7.9241      2.4971      0.1342      9.2645    173.8812
   778.2000      7.9241      2.4894      0.1150      9.7317    168.7471
   778.3000      7.8982      2.4798      0.0492     10.3149    164.6946
   778.4000      7.8982      2.4712      0.0380     10.8366    159.9871
   778.5000      7.8960      2.4609      0.0699     11.4613    155.2523
   778.6000      7.8960      2.4496      0.0260     12.1431    153.0085
   778.7000      7.8960      2.4416      0.0344     12.6320    154.1010
   778.8000      7.8978      2.4277      0.0529     13.4715    158.3225
   778.9000      7.8978      2.4049      0.0128     14.8541    163.8805
   779.0000      7.8993      2.3929     -0.0113     15.5822    167.9584
   779.1000      7.8993      2.4047      0.0161     14.8667    169.8200
   779.2000      7.8993      2.4309      0.0196     13.2774    167.5963
   779.3000      7.9005      2.4594      0.0433     11.5491    162.0751
   779.4000      7.9005      2.4789      0.0812     10.3701    157.9131
   779.5000      7.9005      2.4808      0.0881     10.2571    155.7369
   779.6000      7.9005      2.4748      0.0658     10.6211    158.8168
   779.7000      7.9005      2.4701      0.1173     10.9045    170.0595
   779.8000      7.9005      2.4571      0.0938     11.6904    181.0370
   779.9000      7.9005      2.4406      0.0372     12.6885    183.6230
   780.0000      7.9006      2.4425      0.0150     12.5768    177.8274
   780.1000      7.9006      2.4605      0.0937     11.4864    168.0706
   780.2000      7.9006      2.4749      0.0677     10.6116    161.2844
   780.3000      7.8996      2.4767      0.1102     10.5055    162.1950
   780.4000      7.8996      2.4625      0.0891     11.3638    168.2999
   780.5000      7.8991      2.4363      0.0957     12.9536    171.8794
   780.6000      7.8991      2.4178      0.0630     14.0727    166.6335
   780.7000      7.8991      2.4225      0.0808     13.7895    158.3140
   780.8000      7.9000      2.4390      0.0531     12.7904    155.6875
   780.9000      7.9000      2.4495      0.0826     12.1513    159.0650
   781.0000      7.9001      2.4523      0.0566     11.9832    164.6125
   781.1000      7.9001      2.4561      0.0872     11.7520    164.9287
   781.2000      7.9001      2.4633      0.1115     11.3145    157.3378
   781.3000      7.8995      2.4696      0.0887     10.9355    152.7912
   781.4000      7.8995      2.4719      0.0955     10.7938    159.8917
   781.5000      7.9013      2.4728      0.1017     10.7419    172.0512
   781.6000      7.9013      2.4816      0.0748     10.2050    180.9448
   781.7000      7.9013      2.4946      0.1291      9.4170    184.0284
   781.8000      7.9034      2.4935      0.1151      9.4857    181.3441
   781.9000      7.9034      2.4802      0.0920     10.2912    174.5206
   782.0000      7.9023      2.4764      0.0395     10.5220    167.6346
   782.1000      7.9023      2.4931      0.1087      9.5080    167.4052
   782.2000      7.9023      2.5165      0.0981      8.0889    173.0389
   782.3000      7.8997      2.5268      0.0862      7.4695    178.1204
   782.4000      7.8997      2.5220      0.0772      7.7601    180.4648
   782.5000      7.8976      2.5132      0.0344      8.2892    177.5348
   782.6000      7.8976      2.5042      0.0677      8.8335    170.7677
   782.7000      7.8976      2.4944      0.0261      9.4305    165.3101
   782.8000      7.8966      2.4922      0.0315      9.5656    163.4974
   782.9000      7.8966      2.5078      0.0566      8.6203    165.7249
   783.0000      7.8987      2.5410      0.0769      6.6043    169.5234
   783.1000      7.8987      2.5738      0.1096      4.6171    168.9851
   783.2000      7.8987      2.5856      0.1170      3.9023    162.4131
   783.3000      7.9016      2.5783      0.0967      4.3468    157.6008
   783.4000      7.9016      2.5671      0.0819      5.0266    158.2348
   783.5000      7.9052      2.5596      0.0794      5.4777    156.6417
   783.6000      7.9052      2.5543      0.0728      5.7977    150.5583
   783.7000      7.9052      2.5475      0.0702      6.2116    151.3790
   783.8000      7.9074      2.5377      0.0555      6.8069    163.2390
   783.9000      7.9074      2.5184      0.0323      7.9767    174.1307
   784.0000      7.9047      2.4860     -0.0215      9.9374    173.6133
   784.1000      7.9047      2.4615     -0.0599     11.4240    163.5092
   784.2000      7.9047      2.4615      0.0245     11.4227    152.0134
   784.3000      7.9030      2.4770     -0.0084     10.4865    146.4451
