~Version Information
VERS.                      2.0: CWLS Log ASCII Standard - VERSION 2.0
WRAP.                       NO: One line per depth step
~Well Information Block
STRT.FT               240.0000: 
STOP.FT              1252.5000: 
STEP.FT                 0.2500: 
NULL.                -999.2500: 
COMP.          Pioneer Natural Resources: COMPANY
WELL.             Margaux 11-1: WELL
FLD.           Purgatoire River: FIELD
LOC.           1154' FNL & 472' FWL: LOCATION
PROV.                 Colorado: PROVINCE
CNTY.               Las Animas: COUNTRY
SRVC.                Patterson: SERVICE COMPANY
DATE.          Mon Dec 19 04:21:59 2005: LOG DATE
UWI.           05 071 08639 00: UNIQUE WELL ID
~Curve Information Block
DEPT.FT            0 000 00 00: Depth
SN.Ohm-m                      : IEL Short Normal
SP.mV                         : IEL Spontaneous Potential
DIR.Ohm-m                     : IEL Induction Resistivity
GR.GAPI                       : Gamma Ray
~Parameter Information Block
~A  Depth        SN          SP         DIR          GR     
# ...
   876.5000     22.9502      0.6800     24.3781     99.6183
   876.7500     22.7575      0.7887     24.3085     98.0638
   877.0000     22.6464      0.8990     24.2661     93.6927
   877.2500     22.6066      1.0247     24.2566     89.9539
   877.5000     22.8186      1.1715     24.2693     83.9370
   877.7500     23.3485      1.3301     24.2876     79.5628
   878.0000     23.9819      1.4793     24.3143     71.5432
   878.2500     24.4758      1.5960     24.3852     65.0460
   878.5000     24.7511      1.6703     24.5525     55.0246
   878.7500     24.9259      1.7150     24.8452     49.7385
   879.0000     25.2606      1.7589     25.2425     46.0335
   879.2500     25.9298      1.8269     25.6793     46.4809
   879.5000     26.8261      1.9222     26.0852     49.7532
   879.7500     27.6110      2.0240     26.4255     52.2132
   880.0000     27.9316      2.1019     26.7120     54.6397
   880.2500     27.6935      2.1341     26.9756     55.2215
   880.5000     27.2155      2.1179     27.2279     54.8912
   880.7500     26.9934      2.0682     27.4489     53.9779
   881.0000     27.2298      2.0113     27.6119     51.5151
   881.2500     27.7134      1.9726     27.7200     49.2427
   881.5000     28.1836      1.9654     27.8144     45.4655
   881.7500     28.5935      1.9874     27.9376     43.1452
   882.0000     28.9622      2.0276     28.0836     40.6742
   882.2500     29.2174      2.0758     28.1693     40.0258
   882.5000     29.2867      2.1240     28.0529     40.6461
   882.7500     29.1984      2.1653     27.5948     41.7161
   883.0000     29.0237      2.1990     26.7364     43.1195
   883.2500     28.7716      2.2375     25.5423     43.4885
   883.5000     28.3687      2.3057     24.1685     43.5582
   883.7500     27.7829      2.4321     22.7828     43.9327
   884.0000     27.1010      2.6367     21.5002     46.1157
   884.2500     26.3616      2.9250     20.3672     49.2101
   884.5000     25.4051      3.2859     19.3820     57.3378
   884.7500     24.0526      3.6949     18.5209     65.6931
   885.0000     22.4030      4.1168     17.7537     82.8385
   885.2500     20.7625      4.5122     17.0492     96.3396
   885.5000     19.3230      4.8464     16.3774    116.0840
   885.7500     18.1002      5.1015     15.7118    126.7304
   886.0000     17.0793      5.2845     15.0358    137.1849
   886.2500     16.2423      5.4211     14.3498    140.7609
   886.5000     15.5326      5.5399     13.6732    142.4014
   886.7500     14.8972      5.6570     13.0387    141.7152
   887.0000     14.3276      5.7718     12.4800    138.8678
   887.2500     13.8383      5.8725     12.0217    136.1941
   887.5000     13.4517      5.9445     11.6755    132.0126
   887.7500     13.2189      5.9774     11.4419    129.8703
   888.0000     13.2051      5.9695     11.3131    128.5200
   888.2500     13.3808      5.9282     11.2750    128.6561
   888.5000     13.5938      5.8642     11.3105    129.0738
   888.7500     13.7307      5.7833     11.4024    128.8657
   889.0000     13.7878      5.6819     11.5345    127.9590
   889.2500     13.7822      5.5506     11.6913    127.5959
   889.5000     13.7321      5.3846     11.8580    128.4379
   889.7500     13.6915      5.1918     12.0223    129.9622
   890.0000     13.6857      4.9934     12.1778    132.5411
   890.2500     13.6511      4.8178     12.3263    133.4266
   890.5000     13.5488      4.6922     12.4767    132.3816
   890.7500     13.5093      4.6320     12.6436    130.3136
   891.0000     13.7435      4.6317     12.8455    126.7348
   891.2500     14.3047      4.6659     13.1037    125.0144
   891.5000     15.0339      4.7019     13.4395    124.1951
   891.7500     15.7291      4.7153     13.8697    124.6228
   892.0000     16.2824      4.6998     14.3999    125.7858
   892.2500     16.6745      4.6672     15.0219    126.3914
   892.5000     16.9300      4.6402     15.7152    126.4704
   892.7500     17.1300      4.6408     16.4540    125.6213
   893.0000     17.3922      4.6805     17.2151    122.2608
   893.2500     17.8193      4.7543     17.9850    118.4465
   893.5000     18.4628      4.8409     18.7616    110.8873
   893.7500     19.2967      4.9098     19.5486    105.1013
   894.0000     20.2889      4.9346     20.3462     95.6880
   894.2500     21.4346      4.9058     21.1429     88.9801
   894.5000     22.6724      4.8349     21.9162     78.5949
   894.7500     23.8883      4.7474     22.6369     71.7529
   895.0000     25.0160      4.6702     23.2760     62.0559
   895.2500     26.0647      4.6219     23.8116     56.2716
   895.5000     27.0418      4.6086     24.2377     49.3342
   895.7500     27.8767      4.6246     24.5703     46.1898
   896.0000     28.4497      4.6569     24.8405     43.6602
   896.2500     28.6852      4.6908     25.0751     43.1161
   896.5000     28.5883      4.7147     25.2756     43.2761
   896.7500     28.2087      4.7231     25.4160     43.5977
   897.0000     27.6183      4.7159     25.4651     43.8089
   897.2500     26.8951      4.6941     25.4179     43.6104
   897.5000     26.1344      4.6545     25.3076     42.8488
   897.7500     25.4751      4.5875     25.1912     42.1406
   898.0000     25.0380      4.4778     25.1202     40.9592
   898.2500     24.8594      4.3082     25.1184     40.1830
   898.5000     24.9069      4.0662     25.1753     39.1402
   898.7500     25.1207      3.7511     25.2534     38.4726
   899.0000     25.4522      3.3799     25.3070     37.1108
   899.2500     25.8590      2.9862     25.3025     35.6827
   899.5000     26.2680      2.6124     25.2272     32.7359
   899.7500     26.6141      2.2995     25.0774     30.5755
   900.0000     26.9179      2.0782     24.8356     27.8741
   900.2500     27.2623      1.9687     24.4610     26.8469
   900.5000     27.6815      1.9857     23.9055     26.9141
   900.7500     28.1116      2.1417     23.1468     28.0949
   901.0000     28.4212      2.4427     22.2114     31.3161
   901.2500     28.4591      2.8835     21.1661     34.1876
   901.5000     28.0930      3.4482     20.0823     39.5116
   901.7500     27.2105      4.1131     19.0028     44.0466
   902.0000     25.7942      4.8487     17.9355     53.0001
   902.2500     24.0516      5.6217     16.8725     60.3953
   902.5000     22.3172      6.3972     15.8159     72.4120
   902.7500     20.7325      7.1393     14.7867     79.7509
   903.0000     19.1524      7.8124     13.8155     87.5562
   903.2500     17.4492      8.3861     12.9278     90.1923
   903.5000     15.7667      8.8459     12.1382     91.8707
   903.7500     14.3825      9.1990     11.4529     93.1764
   904.0000     13.4146      9.4682     10.8751     97.4348
   904.2500     12.7756      9.6791     10.4065    101.7547
   904.5000     12.4017      9.8510     10.0469    108.8636
   904.7500     12.3642      9.9954      9.7916    112.9926
   905.0000     12.6591     10.1205      9.6316    117.0958
   905.2500     13.0851     10.2319      9.5560    118.0806
   905.5000     13.4073     10.3313      9.5562    116.7822
   905.7500     13.4893     10.4145      9.6296    123.8745
   906.0000     13.3665     10.4729      9.7796    118.5600
   906.2500     13.2819     10.4998     10.0115    114.9685
   906.5000     13.5095     10.4961     10.3276    110.6670
   906.7500     14.1018     10.4695     10.7250    117.1333
   907.0000     14.8550     10.4274     11.2005    114.8847
   907.2500     15.5138     10.3715     11.7585    112.8750
   907.5000     16.0656     10.3010     12.4183    107.2492
   907.7500     16.7712     10.2190     13.2104    101.4066
   908.0000     17.8428     10.1372     14.1650     90.6284
   908.2500     19.2953     10.0739     15.2992     83.3584
   908.5000     21.1245     10.0470     16.6124     74.3782
   908.7500     23.3627     10.0692     18.0913     70.4259
   909.0000     25.9097     10.1444     19.7152     67.7600
   909.2500     28.4417     10.2628     21.4541     67.5515
   909.5000     30.5622     10.3972     23.2584     67.8185
   909.7500     32.0361     10.5117     25.0522     67.7055
