~Version Information
VERS.                      2.0: CWLS Log ASCII Standard - VERSION 2.0
WRAP.                       NO: One line per depth step
~Well Information Block
STRT.FT               545.0000: 
STOP.FT              2200.7000: 
STEP.FT                 0.1000: 
NULL.                -999.2500: 
COMP.          Pioneer Natural Resources: COMPANY
WELL.               Erin 21-15: WELL
FLD.           Purgatoire River: FIELD
LOC.           1217' FNL & 2284' FWL--: LOCATION
CNTY.               Las Animas: COUNTY
SRVC.                Patterson: SERVICE COMPANY
DATE.          Thu Mar 02 09:55:43 2006: LOG DATE
UWI.           05 071 08713 00: UNIQUE WELL ID
STAT.                 Colorado: STATE
~Curve Information Block
DEPT.FT            0 000 00 00: Depth
DCAL.in                       : CDL Caliper
RHOB.g/cc                     : CDL Bulk Density
RHOC.g/cc                     : CDL Density Correction
DPOR.pu                       : CDL Density Porosity
NPOR.pu                       : Neutron Porosity
GR.GAPI                       : Gamma Ray
~Parameter Information Block
~A  Depth       DCAL        RHOB        RHOC        DPOR        NPOR         GR     
# ...
   765.8000      8.1052      2.5827      0.0426      4.0776     25.1403    133.5515
   765.9000      8.1052      2.5691      0.0236      4.9042     24.7995    128.6954
   766.0000      8.1059      2.5663      0.0553      5.0747     24.6593    126.1922
   766.1000      8.1059      2.5758      0.0413      4.5000     24.6066    126.9122
   766.2000      8.1059      2.5859      0.0950      3.8823     24.4618    128.4746
   766.3000      8.1049      2.5916      0.0531      3.5373     24.1596    128.7126
   766.4000      8.1049      2.5936      0.1052      3.4154     23.5484    129.0369
   766.5000      8.1040      2.5863      0.0713      3.8613     22.6978    130.2084
   766.6000      8.1040      2.5717      0.0506      4.7466     22.1173    128.6655
   766.7000      8.1040      2.5576      0.0665      5.6028     22.1371    126.4527
   766.8000      8.1072      2.5452      0.0069      6.3499     22.2808    126.1473
   766.9000      8.1072      2.5356      0.0166      6.9354     21.6781    123.1712
   767.0000      8.1101      2.5309      0.0003      7.2174     20.7271    116.6423
   767.1000      8.1101      2.5397     -0.0146      6.6832     20.3513    110.9611
   767.2000      8.1101      2.5555      0.0284      5.7280     20.3143    108.0928
   767.3000      8.1054      2.5560      0.0200      5.6940     20.1846    105.5086
   767.4000      8.1054      2.5461     -0.0036      6.2950     20.1682    102.1205
   767.5000      8.0963      2.5494      0.0099      6.0967     20.4672    100.4893
   767.6000      8.0963      2.5648      0.0466      5.1661     20.7704    101.5528
   767.7000      8.0963      2.5754      0.0340      4.5199     20.6398    103.2767
   767.8000      8.0898      2.5828      0.0491      4.0724     20.3186    104.2792
   767.9000      8.0898      2.5926      0.0598      3.4783     20.3575    103.9210
   768.0000      8.0846      2.5957      0.0510      3.2922     20.6707    100.0617
   768.1000      8.0846      2.5866      0.0309      3.8449     20.7498     94.0288
   768.2000      8.0846      2.5727      0.0316      4.6847     20.5513     91.5414
   768.3000      8.0803      2.5654      0.0538      5.1254     20.4019     93.9637
   768.4000      8.0803      2.5747      0.0261      4.5661     20.2976     95.5639
   768.5000      8.0806      2.6010      0.0358      2.9680     20.1136     92.2582
   768.6000      8.0806      2.6271      0.0792      1.3883     19.8549     85.6845
   768.7000      8.0806      2.6406      0.0504      0.5717     19.4933     79.5152
   768.8000      8.0893      2.6491      0.0587      0.0563     19.3041     77.7493
   768.9000      8.0893      2.6502      0.1064     -0.0150     19.6521     80.9003
   769.0000      8.1025      2.6360      0.0311      0.8474     20.4504     84.8008
   769.1000      8.1025      2.6165      0.0433      2.0314     21.2734     87.4521
   769.2000      8.1025      2.6082     -0.0118      2.5356     21.4987     89.5674
   769.3000      8.1139      2.6209      0.0438      1.7648     20.8985     87.9026
   769.4000      8.1139      2.6445      0.0562      0.3349     19.9378     84.8692
   769.5000      8.1201      2.6555      0.0503     -0.3304     19.3028     88.6301
   769.6000      8.1201      2.6430      0.0503      0.4255     19.4143     96.1133
   769.7000      8.1201      2.6151      0.0400      2.1167     20.0099    100.4661
   769.8000      8.1224      2.5860     -0.0078      3.8792     20.3313    101.9571
   769.9000      8.1224      2.5719     -0.0106      4.7356     20.2223    100.1576
   770.0000      8.1229      2.5800      0.0247      4.2449     20.0799     94.1661
   770.1000      8.1229      2.6043      0.0062      2.7706     20.0258     85.6229
   770.2000      8.1229      2.6331      0.0689      1.0238     20.1709     75.4064
   770.3000      8.1231      2.6537      0.0287     -0.2235     20.7579     66.8242
   770.4000      8.1231      2.6677      0.0463     -1.0746     21.5215     65.6897
   770.5000      8.1222      2.6780      0.0661     -1.6993     22.0380     72.3826
   770.6000      8.1222      2.6744      0.0448     -1.4804     22.4235     80.9143
   770.7000      8.1222      2.6568      0.0473     -0.4117     22.7447     84.2718
   770.8000      8.1200      2.6406      0.0205      0.5700     22.7997     81.9405
   770.9000      8.1200      2.6313      0.0808      1.1354     22.8384     80.9274
   771.0000      8.1178      2.6227      0.0185      1.6557     22.9941     85.8855
   771.1000      8.1178      2.6195      0.0515      1.8455     23.0246     90.7862
   771.2000      8.1178      2.6231      0.0382      1.6308     23.2431     90.1295
   771.3000      8.1176      2.6170      0.0317      1.9984     24.1489     89.8043
   771.4000      8.1176      2.5927      0.0132      3.4699     25.2207     94.0376
   771.5000      8.1185      2.5626     -0.0171      5.2954     25.8870     99.6183
   771.6000      8.1185      2.5392      0.0235      6.7127     26.4228    106.3170
   771.7000      8.1185      2.5268     -0.0535      7.4646     26.8998    115.0636
   771.8000      8.1192      2.5271     -0.0153      7.4502     27.1863    121.6547
   771.9000      8.1192      2.5339      0.0356      7.0353     27.4293    123.5791
   772.0000      8.1212      2.5376      0.0447      6.8100     27.7723    126.4586
   772.1000      8.1212      2.5298      0.0569      7.2856     28.1997    134.7010
   772.2000      8.1212      2.5064      0.0273      8.7015     28.3060    141.8018
   772.3000      8.1225      2.4729      0.0442     10.7306     27.6282    143.2359
   772.4000      8.1225      2.4438     -0.0214     12.4958     26.6947    139.7284
   772.5000      8.1216      2.4349     -0.0154     13.0389     26.4874    128.5113
   772.6000      8.1216      2.4435      0.0209     12.5162     26.9804    114.6659
   772.7000      8.1216      2.4548      0.0184     11.8321     27.3279    109.7899
   772.8000      8.1198      2.4653     -0.0005     11.1928     27.3159    114.2509
   772.9000      8.1198      2.4819     -0.0244     10.1909     27.2698    125.2898
   773.0000      8.1190      2.5048      0.0473      8.8019     27.2669    139.5187
   773.1000      8.1190      2.5347     -0.0111      6.9867     27.5402    146.1730
   773.2000      8.1190      2.5741      0.0563      4.6006     28.2144    138.7513
   773.3000      8.1175      2.5982      0.0944      3.1393     28.7880    128.2548
   773.4000      8.1175      2.5917      0.0476      3.5353     28.8578    130.5664
   773.5000      8.1159      2.5823      0.0085      4.1030     28.7465    145.4001
   773.6000      8.1159      2.5894      0.0455      3.6746     28.5680    160.1626
   773.7000      8.1159      2.5945      0.0483      3.3633     28.0466    168.0803
   773.8000      8.1159      2.5825      0.0186      4.0933     27.3891    171.0849
   773.9000      8.1159      2.5632     -0.0289      5.2606     27.0703    168.9317
   774.0000      8.1178      2.5483      0.0257      6.1666     27.2012    161.6102
   774.1000      8.1178      2.5399     -0.0186      6.6748     27.5547    152.2839
   774.2000      8.1178      2.5363      0.0505      6.8922     27.7764    142.3555
   774.3000      8.1209      2.5296      0.0535      7.2942     27.8105    133.5064
   774.4000      8.1209      2.5217      0.0187      7.7757     27.8743    126.8985
   774.5000      8.1265      2.5243      0.0170      7.6202     28.1625    122.0474
   774.6000      8.1265      2.5360      0.0295      6.9085     28.5638    123.6184
   774.7000      8.1265      2.5442      0.0072      6.4128     28.5606    133.7646
   774.8000      8.1362      2.5445      0.0240      6.3957     28.0593    141.1070
   774.9000      8.1362      2.5398      0.0246      6.6769     27.5453    137.1784
   775.0000      8.1434      2.5337      0.0085      7.0489     27.2134    130.0401
   775.1000      8.1434      2.5268      0.0598      7.4683     26.8897    131.1445
   775.2000      8.1434      2.5144      0.0771      8.2171     26.7013    137.1269
   775.3000      8.1407      2.5024      0.0462      8.9485     26.8906    138.7294
