~Version Information
VERS.                      2.0: CWLS Log ASCII Standard - VERSION 2.0
WRAP.                       NO: One line per depth step
~Well Information Block
STRT.FT                 0.0000: 
STOP.FT              1906.7500: 
STEP.FT                 0.2500: 
NULL.                -999.2500: 
COMP.          Petrogulf Corporation: COMPANY
WELL.             Kraft 17-23R: WELL
FLD.           Purgatorie River: FIELD
LOC.           1509' FSL & 1673' FWL: LOCATION
STAT.                 Colorado: State
CNTY.               Las Animas: COUNTY
CTRY. USA : Country
SECT. 17 : Section
TOWN. 33S : Township
RANG. 67W : Range
SRVC.                Patterson: SERVICE COMPANY
DATE.          Fri Jan 06 08:59:54 2006: LOG DATE
API. 05-071-08560                         : UNIQUE WELL ID
~Curve Information Block
DEPT.FT            0 000 00 00: Depth
CCL.                          : Casing Collar Locator
TT3.usec                      : CBL 3' Travel Time
AMP3.mV                       : CBL 3' Amplitude
AMP3.mV                       : CBL 3' Amplitude
GR.GAPI                       : Gamma Ray
AMP3.mV                       : CBL 3' Amplitude
~Parameter Information Block
~A  Depth       CCL         TT3         AMP3        AMP3         GR        .AMP3    
# ...
   864.0000      0.0000    661.4274      8.7161      8.7161    121.2185      8.7161
   864.2500      0.0000    698.7078      8.1822      8.1822    116.2943      8.1822
   864.5000      0.0000    725.5475      7.5440      7.5440    111.0693      7.5440
   864.7500      0.0000    738.4625      6.9009      6.9009    108.0327      6.9009
   865.0000      0.0000    741.3115      6.3512      6.3512    108.1146      6.3512
   865.2500      0.0000    738.3976      5.9447      5.9447    110.2540      5.9447
   865.5000      0.0000    731.3389      5.6474      5.6474    112.3228      5.6474
   865.7500      0.0000    720.9073      5.4130      5.4130    112.4474      5.4130
   866.0000      0.0000    707.6783      5.2270      5.2270    109.7992      5.2270
   866.2500      0.0000    694.2585      5.0842      5.0842    104.7738      5.0842
   866.5000      0.0000    686.7568      4.9865      4.9865     98.8155      4.9865
   866.7500      0.0000    687.2194      4.9285      4.9285     93.7885      4.9285
   867.0000      0.0000    688.4113      4.8959      4.8959     91.0001      4.8959
   867.2500      0.0000    683.7665      4.8939      4.8939     90.5434      4.8939
   867.5000      0.0000    676.2211      4.9316      4.9316     91.4899      4.9316
   867.7500      0.0000    671.3022      5.0051      5.0051     92.6413      5.0051
   868.0000      0.0000    669.7009      5.0987      5.0987     93.1887      5.0987
   868.2500      0.0000    669.5439      5.1713      5.1713     92.9923      5.1713
   868.5000      0.0000    669.6827      5.1933      5.1933     92.5569      5.1933
   868.7500      0.0000    669.7564      5.1918      5.1918     92.6726      5.1918
   869.0000      0.0000    669.5972      5.2163      5.2163     93.8351      5.2163
   869.2500      0.0000    668.8738      5.2648      5.2648     95.8830      5.2648
   869.5000      0.0000    666.3933      5.2820      5.2820     98.1154      5.2820
   869.7500      0.0000    660.2148      5.2666      5.2666     99.8142      5.2666
   870.0000      0.0000    651.3738      5.3153      5.3153    100.9479      5.3153
   870.2500      0.0000    646.6476      5.5034      5.5034    102.4340      5.5034
   870.5000      0.0000    650.9053      5.8078      5.8078    105.3361      5.8078
   870.7500      0.0000    659.5972      6.1795      6.1795    109.5287      6.1795
   871.0000      0.0000    665.9913      6.6163      6.6163    113.4544      6.6163
   871.2500      0.0000    669.1348      7.1394      7.1394    115.4526      7.1394
   871.5000      0.0000    671.4258      7.7419      7.7419    115.1937      7.7419
   871.7500      0.0000    674.7290      8.3842      8.3842    113.8859      8.3842
   872.0000      0.0000    678.7814      9.0243      9.0243    113.3175      9.0243
   872.2500      0.0000    681.0084      9.6621      9.6621    114.3369      9.6621
   872.5000      0.0000    680.9836     10.3611     10.3611    115.8820     10.3611
   872.7500      0.0000    684.0281     11.1671     11.1671    115.9691     11.1671
   873.0000      0.0000    694.0207     11.9938     11.9938    114.0683     11.9938
   873.2500      0.0000    704.0986     12.6461     12.6461    111.9817     12.6461
   873.5000      0.0000    702.1341     12.9911     12.9911    111.9809     12.9911
   873.7500      0.0000    684.2778     13.0717     13.0717    114.5177     13.0717
   874.0000      0.0000    654.1459     13.0359     13.0359    118.0679     13.0359
   874.2500      0.0000    614.7058     13.0065     13.0065    120.7374     13.0065
   874.5000      0.0000    573.0075     12.9873     12.9873    121.7284     12.9873
   874.7500      0.0000    542.3901     12.8699     12.8699    121.5816     12.8699
   875.0000      0.0000    531.7313     12.5845     12.5845    121.4420     12.5845
   875.2500      0.0000    542.7069     12.1764     12.1764    122.0924     12.1764
   875.5000      0.0000    573.1887     11.7091     11.7091    123.4616     11.7091
   875.7500      0.0000    612.5593     11.2135     11.2135    124.8520     11.2135
   876.0000      0.0000    644.2638     10.7373     10.7373    125.5588     10.7373
   876.2500      0.0000    660.4930     10.3453     10.3453    125.3572     10.3453
   876.5000      0.0000    664.9162     10.0478     10.0478    124.5087     10.0478
   876.7500      0.0000    661.3007      9.7988      9.7988    123.2728      9.7988
   877.0000      0.0000    648.3752      9.5685      9.5685    121.6206      9.5685
   877.2500      0.0000    628.5897      9.3478      9.3478    119.8277      9.3478
   877.5000      0.0000    614.7452      9.1269      9.1269    119.2316      9.1269
   877.7500      0.0000    617.6650      8.9455      8.9455    121.6074      8.9455
   878.0000      0.0000    634.7175      8.8859      8.8859    127.3722      8.8859
   878.2500      0.0000    654.1405      8.9318      8.9318    134.8079      8.9318
   878.5000      0.0000    661.5665      8.9218      8.9218    141.3561      8.9218
   878.7500      0.0000    648.1063      8.7581      8.7581    145.3914      8.7581
   879.0000      0.0000    616.1709      8.5692      8.5692    146.7542      8.5692
   879.2500      0.0000    580.6314      8.5361      8.5361    146.1894      8.5361
   879.5000      0.0000    561.8633      8.6370      8.6370    144.7956      8.6370
   879.7500      0.0000    569.6740      8.6997      8.6997    143.8282      8.6997
   880.0000      0.0000    598.6351      8.6450      8.6450    144.4865      8.6450
   880.2500      0.0000    636.0579      8.5431      8.5431    147.3885      8.5431
   880.5000      0.0000    668.2407      8.5018      8.5018    151.8205      8.5018
   880.7500      0.0000    686.3201      8.5829      8.5829    155.3549      8.5829
   881.0000      0.0000    691.9622      8.7583      8.7583    154.9669      8.7583
   881.2500      0.0000    693.1456      8.9243      8.9243    149.4813      8.9243
   881.5000      0.0000    692.1061      8.9957      8.9957    140.7555      8.9957
   881.7500      0.0000    686.2811      8.9869      8.9869    131.8684      8.9869
   882.0000      0.0000    678.2715      8.9752      8.9752    124.6485      8.9752
   882.2500      0.0000    673.0948      8.9737      8.9737    119.4135      8.9737
   882.5000      0.0000    671.2465      8.9155      8.9155    116.0812      8.9155
   882.7500      0.0000    670.5916      8.7660      8.7660    114.6149      8.7660
   883.0000      0.0000    670.1138      8.5758      8.5758    114.7836      8.5758
   883.2500      0.0000    669.8953      8.4126      8.4126    115.9320      8.4126
   883.5000      0.0000    669.9258      8.2887      8.2887    117.0012      8.2887
   883.7500      0.0000    669.7573      8.1641      8.1641    117.0468      8.1641
   884.0000      0.0000    667.4333      7.9797      7.9797    116.1102      7.9797
   884.2500      0.0000    657.0197      7.7032      7.7032    115.3478      7.7032
   884.5000      0.0000    631.7233      7.3746      7.3746    115.9746      7.3746
   884.7500      0.0000    595.4721      7.0687      7.0687    118.2137      7.0687
   885.0000      0.0000    563.9059      6.8163      6.8163    121.2951      6.8163
   885.2500      0.0000    547.6193      6.6021      6.6021    124.0595      6.6021
   885.5000      0.0000    544.4209      6.4028      6.4028    125.4225      6.4028
   885.7500      0.0000    547.5317      6.2156      6.2156    124.8257      6.2156
   886.0000      0.0000    552.1730      6.0740      6.0740    122.7766      6.0740
   886.2500      0.0000    556.2399      6.0286      6.0286    120.6994      6.0286
   886.5000      0.0000    557.3611      6.1163      6.1163    119.6830      6.1163
   886.7500      0.0000    553.2606      6.3408      6.3408    119.5020      6.3408
   887.0000      0.0000    545.7334      6.6272      6.6272    119.2687      6.6272
   887.2500      0.0000    540.0109      6.8380      6.8380    118.6449      6.8380
   887.5000      0.0000    542.8853      6.8934      6.8934    117.7352      6.8934
   887.7500      0.0000    558.5878      6.8233      6.8233    116.1668      6.8233
