~Version Information
VERS.                      2.0: CWLS Log ASCII Standard - VERSION 2.0
WRAP.                       NO: One line per depth step
~Well Information Block
STRT.FT               -10.0000: 
STOP.FT              1935.0000: 
STEP.FT                 0.2500: 
NULL.                -999.2500: 
COMP.          Pioneer Natural Resources: COMPANY
WELL.           Willys 32-8 Tr: WELL
FLD.           Purgatorie River: FIELD
LOC.           1843' FNL & 2355' FEL--: LOCATION
CNTY.               Las Animas: COUNTY
SRVC.          Patterson Wireline: SERVICE COMPANY
DATE.          Wed Feb 15 13:29:41 2006: LOG DATE
UWI.           05 071 08688 00: UNIQUE WELL ID
STAT.                       CO: STATE
~Curve Information Block
DEPT.FT            0 000 00 00: Depth
CCL.                          : Casing Collar Locator
TT3.usec                      : CBL 3' Travel Time
AMP3.mV                       : CBL 3' Amplitude
GR.GAPI                       : Gamma Ray
~Parameter Information Block
~A  Depth       CCL         TT3         AMP3         GR     
# ...
   995.0000      0.0000    476.0356     14.0602    131.6094
   995.2500      0.0000    477.9919     13.9200    131.2537
   995.5000      0.0000    476.0617     13.7347    131.8342
   995.7500      0.0000    471.4625     13.5205    132.7655
   996.0000      0.0000    466.5638     13.2881    133.2616
   996.2500      0.0000    464.3340     13.0375    133.4424
   996.5000      0.0000    465.9045     12.7654    133.8359
   996.7500      0.0000    468.8823     12.4775    134.0666
   997.0000      0.0000    468.8426     12.1970    132.6532
   997.2500      0.0000    462.8392     11.9557    128.3652
   997.5000      0.0000    452.0176     11.7770    121.6096
   997.7500      0.0000    441.5057     11.6663    114.2453
   998.0000      0.0000    438.0283     11.6176    108.0233
   998.2500      0.0000    447.2537     11.6239    103.2062
   998.5000      0.0000    471.2599     11.6769     98.6618
   998.7500      0.0000    505.1476     11.7631     93.3066
   999.0000      0.0000    536.3231     11.8647     87.3308
   999.2500      0.0000    552.0529     11.9677     81.9323
   999.5000      0.0000    549.6847     12.0693     78.1182
   999.7500      0.0000    536.2363     12.1750     76.1330
  1000.0000      0.0000    517.8522     12.2861     75.9128
  1000.2500      0.0000    494.7302     12.3879     77.6259
  1000.5000      0.0000    467.8338     12.4538     81.4725
  1000.7500      0.0000    445.8479     12.4650     86.9608
  1001.0000      0.0000    442.2021     12.4252     92.6189
  1001.2500      0.0000    465.9016     12.3535     96.9526
  1001.5000      0.0000    514.5491     12.2641     99.8959
  1001.7500      0.0000    573.9218     12.1578    102.9968
  1002.0000      0.0000    624.8415     12.0331    107.9280
  1002.2500      0.0000    652.5689     11.8968    115.0874
  1002.5000      0.0000    651.0359     11.7550    123.6034
  1002.7500      0.0000    621.5600     11.5894    132.0704
  1003.0000      0.0000    572.4283     11.3496    138.9176
  1003.2500      0.0000    520.2288     10.9831    142.6165
  1003.5000      0.0000    486.1897     10.4838    142.1573
  1003.7500      0.0000    485.7737      9.9205    137.5724
  1004.0000      0.0000    519.2408      9.4117    130.0379
  1004.2500      0.0000    571.4576      9.0440    121.5350
  1004.5000      0.0000    620.7750      8.8008    114.2831
  1004.7500      0.0000    649.2570      8.5989    109.9061
  1005.0000      0.0000    647.6457      8.4148    108.4771
  1005.2500      0.0000    616.3950      8.3322    108.3346
  1005.5000      0.0000    565.7599      8.4410    107.2413
  1005.7500      0.0000    513.1342      8.7366    103.8963
  1006.0000      0.0000    476.0781      9.1415     98.4723
  1006.2500     -2.0000    464.8017      9.5789     92.3662
  1006.5000      0.0000    478.7799     10.0069     87.7490
  1006.7500      0.0000    508.6427     10.4159     86.7548
  1007.0000      0.0000    540.5219     10.8268     90.2751
  1007.2500      0.0000    559.3710     11.2904     97.2916
  1007.5000      0.0000    552.6818     11.8637    105.3582
  1007.7500      0.0000    517.5414     12.5558    111.8505
  1008.0000      0.0000    465.1340     13.2773    115.2142
  1008.2500      0.0000    414.2272     13.8670    115.4515
  1008.5000      0.0000    378.4132     14.2023    113.5450
  1008.7500      0.0000    360.2137     14.2850    110.6285
  1009.0000      0.0000    355.3632     14.2167    107.7831
  1009.2500      0.0000    359.2187     14.1102    106.0216
  1009.5000      0.0000    368.3890     14.0338    105.8958
  1009.7500      0.0000    378.8593     14.0120    107.2686
  1010.0000      0.0000    385.8205     14.0502    109.8009
  1010.2500      0.0000    387.3694     14.1462    113.5260
  1010.5000      0.0000    387.6067     14.2897    118.6723
  1010.7500      0.0000    393.8747     14.4647    125.0623
  1011.0000      0.0000    409.9214     14.6577    131.9025
  1011.2500      0.0000    432.0849     14.8596    138.0125
  1011.5000      0.0000    452.3406     15.0610    142.0465
  1011.7500      0.0000    464.6054     15.2523    142.8672
  1012.0000      0.0000    468.3494     15.4349    140.4781
  1012.2500      0.0000    467.0689     15.6219    136.6463
  1012.5000      0.0000    463.4535     15.8257    133.8347
  1012.7500      0.0000    455.4190     16.0428    133.1945
  1013.0000      0.0000    437.7623     16.2514    133.9028
  1013.2500      0.0000    409.3255     16.4206    134.4384
  1013.5000      0.0000    377.4336     16.5223    134.2209
  1013.7500      0.0000    353.1415     16.5403    133.8903
  1014.0000      0.0000    342.9646     16.4725    134.1389
  1014.2500      0.0000    346.6540     16.3261    134.7105
  1014.5000      0.0000    361.0461     16.1101    134.8760
  1014.7500      0.0000    383.1856     15.8382    134.7907
  1015.0000      0.0000    409.6909     15.5378    135.9045
  1015.2500      0.0000    435.7537     15.2503    139.4652
  1015.5000      0.0000    457.4217     15.0134    144.6478
  1015.7500      0.0000    475.2555     14.8398    148.7099
  1016.0000      0.0000    494.3362     14.7145    149.2027
  1016.2500      0.0000    518.4371     14.6151    145.8191
  1016.5000      0.0000    543.4185     14.5334    140.3322
  1016.7500      0.0000    558.6301     14.4793    135.2545
  1017.0000      0.0000    558.4345     14.4656    132.3712
  1017.2500      0.0000    552.0679     14.4960    131.9056
  1017.5000      0.0000    557.7769     14.5747    132.7029
  1017.7500      0.0000    585.0503     14.7244    133.0453
  1018.0000      0.0000    623.6688     14.9790    131.3212
  1018.2500      0.0000    650.2981     15.3456    126.3270
  1018.5000      0.0000    646.2091     15.7755    117.6732
  1018.7500      0.0000    611.6084     16.1795    106.4591
  1019.0000      0.0000    564.6303     16.4765     95.3758
  1019.2500      0.0000    526.0667     16.6276     87.4148
  1019.5000      0.0000    505.9022     16.6317     84.0547
  1019.7500      0.0000    504.3684     16.5039     84.7816
  1020.0000      0.0000    519.6196     16.2631     88.3570
  1020.2500      0.0000    549.0649     15.9383     94.1168
  1020.5000      0.0000    586.4700     15.5766    101.7948
  1020.7500      0.0000    621.7934     15.2324    110.5173
  1021.0000      0.0000    644.8316     14.9390    118.5592
  1021.2500      0.0000    651.3536     14.6914    124.2626
  1021.5000      0.0000    647.4969     14.4636    127.0417
  1021.7500      0.0000    645.7280     14.2402    127.3376
  1022.0000      0.0000    654.0094     14.0272    125.7771
  1022.2500      0.0000    670.1741     13.8335    122.8538
  1022.5000      0.0000    687.4813     13.6525    119.4588
  1022.7500      0.0000    702.2502     13.4704    117.1580
  1023.0000      0.0000    714.1051     13.2856    117.6349
  1023.2500      0.0000    722.0051     13.1115    121.9144
  1023.5000      0.0000    723.6045     12.9591    129.7596
  1023.7500      0.0000    718.3815     12.8209    139.1923
  1024.0000      0.0000    709.2421     12.6713    146.7833
  1024.2500      0.0000    700.3945     12.4838    149.3753
  1024.5000      0.0000    694.4286     12.2492    146.0556
  1024.7500      0.0000    691.4939     11.9868    138.5609
  1025.0000      0.0000    690.4441     11.7425    129.9894
  1025.2500      0.0000    690.1172     11.5713    123.1328
  1025.5000      0.0000    689.8469     11.5128    119.5061
  1025.7500      0.0000    689.4333     11.5706    119.3402
  1026.0000      0.0000    688.9756     11.7117    122.0192
  1026.2500      0.0000    688.7038     11.8832    126.4362
  1026.5000      0.0000    688.8444     12.0325    131.4872
  1026.7500      0.0000    689.6113     12.1212    136.7233
  1027.0000      0.0000    691.3696     12.1316    142.2044
  1027.2500      0.0000    694.6755     12.0719    147.5172
  1027.5000      0.0000    699.7328     11.9819    151.5773
  1027.7500      0.0000    705.6589     11.9320    153.6818
  1028.0000      0.0000    710.7332     12.0011    154.2687
  1028.2500      0.0000    713.7140     12.2260    154.2224
