~Version Information
VERS.                      2.0: CWLS Log ASCII Standard - VERSION 2.0
WRAP.                       NO: One line per depth step
~Well Information Block
STRT.FT                -7.2500: 
STOP.FT              1196.2500: 
STEP.FT                 0.2500: 
NULL.                -999.2500: 
COMP.          Pioneer Natural Resources: COMPANY
WELL.             Mahalo 12-20: WELL
FLD.           Purgatorie River: FIELD
LOC.           1689' FNL & 479' FWL--: LOCATION
CNTY.               Las Animas: COUNTY
SRVC.          Patterson Wireline: SERVICE COMPANY
DATE.          Tue Mar 14 15:40:32 2006: LOG DATE
UWI.           05 071 08700 00: UNIQUE WELL ID
STAT.                       CO: STATE
~Curve Information Block
DEPT.FT            0 000 00 00: Depth
CCL.                          : Casing Collar Locator
TT3.usec                      : CBL 3' Travel Time
AMP3.mV                       : CBL 3' Amplitude
GR.GAPI                       : Gamma Ray
~Parameter Information Block
~A  Depth       CCL         TT3         AMP3         GR     
# ...
   227.2500      0.0000    597.4443      4.1620     92.8127
   227.5000      0.0000    589.3515      3.9188     90.6409
   227.7500      0.0000    569.5031      3.6539     87.8461
   228.0000      0.0000    544.6998      3.4429     84.6251
   228.2500      0.0000    524.5188      3.3373     81.5535
   228.5000      0.0000    516.7563      3.3569     79.7372
   228.7500      0.0000    524.0196      3.4856     79.9394
   229.0000      0.0000    542.2709      3.6694     81.6025
   229.2500      0.0000    561.2338      3.8304     83.2301
   229.5000      0.0000    567.8854      3.9009     83.9840
   229.7500      0.0000    553.0368      3.8578     84.5692
   230.0000      0.0000    517.1471      3.7313     86.2090
   230.2500      0.0000    470.4908      3.5800     88.8641
   230.5000      0.0000    426.8153      3.4530     90.8554
   230.7500      0.0000    395.3655      3.3678     90.5230
   231.0000      0.0000    377.5409      3.3196     88.0975
   231.2500      0.0000    369.4984      3.3002     85.5229
   231.5000      0.0000    366.6191      3.3073     84.4416
   231.7500      0.0000    366.1003      3.3408     84.7660
   232.0000      0.0000    367.4709      3.3974     85.2123
   232.2500      0.0000    372.5601      3.4670     84.7433
   232.5000      0.0000    385.2623      3.5317     83.4019
   232.7500      0.0000    409.8674      3.5738     82.2131
   233.0000      0.0000    447.5384      3.5943     82.4479
   233.2500      0.0000    493.5863      3.6189     84.6484
   233.5000      0.0000    538.9257      3.6721     88.0230
   233.7500      0.0000    575.1144      3.7525     90.7621
   234.0000      0.0000    598.9472      3.8469     91.2155
   234.2500      0.0000    613.5998      3.9547     89.1060
   234.5000      0.0000    625.7189      4.0779     85.6377
   234.7500     -2.0000    640.2579      4.1999     82.3239
   235.0000      2.0000    657.3219      4.2925     79.7991
   235.2500      0.0000    673.5461      4.3408     77.8781
   235.5000      0.0000    685.5898      4.3575     76.5073
   235.7500      0.0000    692.4619      4.3709     76.2551
   236.0000      0.0000    695.8920      4.3859     77.7121
   236.2500      0.0000    698.8901      4.3482     80.6073
   236.5000      0.0000    703.0264      4.1721     83.8265
   236.7500      0.0000    706.8565      3.8304     86.3408
   237.0000      0.0000    707.7197      3.4027     87.7960
   237.2500      0.0000    705.1170      3.0141     88.1514
   237.5000      0.0000    701.5250      2.7412     87.1160
   237.7500      0.0000    699.6979      2.5867     84.1187
   238.0000      0.0000    699.7844      2.5177     78.7623
   238.2500      0.0000    699.4935      2.5030     71.4024
   238.5000      0.0000    696.7480      2.5187     63.3409
   238.7500      0.0000    691.6682      2.5402     56.2184
   239.0000      0.0000    686.0826      2.5433     51.0397
   239.2500      0.0000    681.7087      2.5134     47.7503
   239.5000      0.0000    679.0485      2.4523     45.6399
   239.7500      0.0000    677.5867      2.3759     44.1096
   240.0000      0.0000    676.4929      2.3065     43.1331
   240.2500      0.0000    675.1093      2.2640     43.0450
   240.5000      0.0000    673.2150      2.2589     43.8627
   240.7500      0.0000    671.3602      2.2832     44.9563
   241.0000      0.0000    671.0399      2.3117     45.6216
   241.2500      0.0000    673.8316      2.3120     45.9818
   241.5000      0.0000    679.5195      2.2624     46.9191
   241.7500      0.0000    685.2798      2.1643     48.8900
   242.0000      0.0000    687.6027      2.0441     51.0846
   242.2500      0.0000    685.2505      1.9388     51.9622
   242.5000      0.0000    680.0437      1.8733     50.5000
   242.7500      0.0000    674.8521      1.8488     47.0108
   243.0000      0.0000    671.0518      1.8532     43.0629
   243.2500      0.0000    667.7476      1.8794     40.5120
   243.5000      0.0000    663.1981      1.9332     40.3787
   243.7500      0.0000    656.7655      2.0231     42.6550
   244.0000      0.0000    649.6292      2.1454     46.9213
   244.2500      0.0000    644.3654      2.2783     52.6932
   244.5000      0.0000    643.9528      2.3914     59.2875
   244.7500      0.0000    649.6887      2.4639     65.6899
   245.0000      0.0000    658.8949      2.4943     70.4680
   245.2500      0.0000    665.5325      2.4947     72.0691
   245.5000      0.0000    664.3687      2.4764     69.9763
   245.7500      0.0000    654.3016      2.4422     65.7176
   246.0000      0.0000    636.7953      2.3884     62.1956
   246.2500      0.0000    611.8846      2.3097     61.6756
   246.5000      0.0000    577.6795      2.2023     64.2433
   246.7500      0.0000    534.4236      2.0679     67.9565
   247.0000      0.0000    487.5420      1.9137     70.4775
   247.2500      0.0000    445.1154      1.7491     70.7386
   247.5000      0.0000    412.6460      1.5838     69.2691
   247.7500      0.0000    390.9143      1.4301     67.4520
   248.0000      0.0000    377.8042      1.3018     66.9826
   248.2500      0.0000    370.6582      1.2096     69.5633
   248.5000      0.0000    367.2260      1.1602     76.0721
   248.7500      0.0000    365.8088      1.1582     85.6512
   249.0000      0.0000    365.3048      1.2015     95.9493
   249.2500      0.0000    365.1485      1.2748    104.5292
   249.5000      0.0000    365.1156      1.3514    110.1219
   249.7500      0.0000    365.1409      1.4028    112.7866
   250.0000      0.0000    365.2068      1.4101    113.2648
   250.2500      0.0000    365.3079      1.3712    112.2787
   250.5000      0.0000    365.4463      1.3027    110.2902
   250.7500      0.0000    365.6218      1.2353    107.7100
   251.0000      0.0000    365.8178      1.1976    105.2294
   251.2500      0.0000    366.0013      1.1993    103.8732
   251.5000      0.0000    366.1443      1.2269    104.5701
   251.7500      0.0000    366.2416      1.2557    107.4672
   252.0000      0.0000    366.3022      1.2665    111.5529
   252.2500      0.0000    366.3228      1.2552    114.7785
   252.5000      0.0000    366.2772      1.2323    114.8078
   252.7500      0.0000    366.1320      1.2173    110.4660
   253.0000      0.0000    365.8777      1.2281    102.8012
   253.2500      0.0000    365.5469      1.2699     94.2368
   253.5000      0.0000    365.2040      1.3321     86.5892
   253.7500      0.0000    364.9131      1.3951     80.3503
   254.0000      0.0000    364.7097      1.4425     75.6284
   254.2500      0.0000    364.5937      1.4684     72.8180
   254.5000      0.0000    364.5419      1.4775     72.1385
   254.7500      0.0000    364.5266      1.4804     73.1773
   255.0000      0.0000    364.5273      1.4858     75.3261
   255.2500      0.0000    364.5331      1.4955     78.4574
   255.5000      0.0000    364.5388      1.5043     82.7921
   255.7500      0.0000    364.5417      1.5049     88.0230
   256.0000      0.0000    364.5418      1.4920     93.1165
   256.2500      0.0000    364.5406      1.4655     97.2646
   256.5000      0.0000    364.5392      1.4311    100.4384
   256.7500      0.0000    364.5366      1.3973    102.6325
   257.0000      0.0000    364.5316      1.3702    103.3210
   257.2500      0.0000    364.5255      1.3507    102.2390
   257.5000      0.0000    364.5218      1.3362    100.0758
   257.7500      0.0000    364.5251      1.3241     97.8456
   258.0000      0.0000    364.5370      1.3144     95.9633
   258.2500      0.0000    364.5540      1.3073     94.1806
   258.5000      0.0000    364.5686      1.3008     92.1273
   258.7500      0.0000    364.5762      1.2914     89.8838
   259.0000      0.0000    364.5797      1.2776     88.2875
   259.2500      0.0000    364.5856      1.2608     88.5436
   259.5000      0.0000    364.5965      1.2455     91.1754
   259.7500      0.0000    364.6073      1.2366     95.3123
   260.0000      0.0000    364.6081      1.2370     99.2562
   260.2500      0.0000    364.5911      1.2449    101.8265
   260.5000      0.0000    364.5576      1.2534    103.1938
