~Version Information
VERS.                      2.0: CWLS Log ASCII Standard - VERSION 2.0
WRAP.                       NO: One line per depth step
~Well Information Block
STRT.FT               440.0000: 
STOP.FT              1300.5000: 
STEP.FT                 0.1000: 
NULL.                -999.2500: 
COMP.          Pioneer Natural Resources: COMPANY
WELL.              Yoshi 14-30: WELL
FLD.           Purgatoire River: FIELD
LOC.           993' FSL & 823' FWL: LOCATION
CNTY.               Las Animas: COUNTY
SRVC.                Patterson: SERVICE COMPANY
DATE.          Fri Feb 17 14:59:28 2006: LOG DATE
UWI.           05 071 08699 00: UNIQUE WELL ID
STAT.                 Colorado: STATE
~Curve Information Block
DEPT.FT            0 000 00 00: Depth
DCAL.in                       : CDL Caliper
RHOB.g/cc                     : CDL Bulk Density
RHOC.g/cc                     : CDL Density Correction
DPOR.pu                       : CDL Density Porosity
GR.GAPI                       : Gamma Ray
NPOR.pu                       : Neutron Porosity
~Parameter Information Block
~A  Depth       DCAL        RHOB        RHOC        DPOR         GR         NPOR    
# ...
  1227.2000      7.9017      2.4860      0.0015      9.9394     79.7686     17.5341
  1227.3000      7.9026      2.4762     -0.0025     10.5345     89.3467     17.1599
  1227.4000      7.9026      2.4709      0.0066     10.8560     96.8282     18.1374
  1227.5000      7.9026      2.4649      0.0532     11.2186     98.5255     19.5262
  1227.6000      7.9026      2.4646      0.0138     11.2393     95.4771     20.2393
  1227.7000      7.9026      2.4755      0.0523     10.5781     92.2352     20.3724
  1227.8000      7.9019      2.4875      0.0420      9.8501     93.8082     20.6576
  1227.9000      7.9019      2.4895      0.0544      9.7296    100.9722     21.4019
  1228.0000      7.9009      2.4823      0.0325     10.1626    108.4254     21.6966
  1228.1000      7.9009      2.4782      0.0175     10.4098    111.4345     21.0257
  1228.2000      7.9009      2.4839      0.0407     10.0667    108.2366     20.4341
  1228.3000      7.9007      2.4819      0.0804     10.1888    100.2376     20.7822
  1228.4000      7.9007      2.4592     -0.0087     11.5641     95.6622     21.7111
  1228.5000      7.9012      2.4339      0.0098     13.0998    101.2949     22.5523
  1228.6000      7.9012      2.4205      0.0037     13.9092    110.1640     23.0091
  1228.7000      7.9012      2.4158      0.0091     14.1945    111.8219     23.0941
  1228.8000      7.9018      2.4170      0.0143     14.1187    109.0224     22.8190
  1228.9000      7.9018      2.4274     -0.0065     13.4913    107.0205     22.4562
  1229.0000      7.9023      2.4465      0.0362     12.3362    104.3825     22.2913
  1229.1000      7.9023      2.4636      0.0063     11.2992    100.1939     22.0219
  1229.2000      7.9023      2.4681      0.0358     11.0272     97.7527     21.6021
  1229.3000      7.9022      2.4602      0.0281     11.5033    101.7653     20.9365
  1229.4000      7.9022      2.4552      0.0179     11.8063    108.8062     20.1710
  1229.5000      7.9021      2.4635      0.0233     11.3013    110.4747     20.0896
  1229.6000      7.9021      2.4720      0.0338     10.7865    109.3700     20.6553
  1229.7000      7.9021      2.4640      0.0414     11.2723    109.6859     21.5027
  1229.8000      7.9028      2.4461      0.0010     12.3598    105.3299     22.3122
  1229.9000      7.9028      2.4349     -0.0086     13.0376     97.5116     22.3010
  1230.0000      7.9026      2.4340      0.0058     13.0907     94.1726     21.4921
  1230.1000      7.9026      2.4420     -0.0208     12.6073     95.5941     20.9041
  1230.2000      7.9026      2.4621      0.0129     11.3857    101.2694     21.2446
  1230.3000      7.9009      2.4918      0.0079      9.5855    108.6661     21.8111
  1230.4000      7.9009      2.5176      0.0516      8.0223    111.6431     21.5456
  1230.5000      7.8995      2.5278      0.0487      7.4070    110.0525     21.0831
  1230.6000      7.8995      2.5288      0.0371      7.3449    105.8374     21.1207
  1230.7000      7.8995      2.5322      0.0468      7.1391    101.9933     21.2089
  1230.8000      7.8989      2.5388      0.0370      6.7371    104.1689     21.4042
  1230.9000      7.8989      2.5495      0.0055      6.0931    110.3314     22.1149
  1231.0000      7.8993      2.5637      0.0781      5.2306    117.7268     22.5712
  1231.1000      7.8993      2.5736      0.0597      4.6312    125.6430     21.9720
  1231.2000      7.8993      2.5780      0.0644      4.3607    127.0435     20.9534
  1231.3000      7.9005      2.5783      0.0548      4.3439    121.7112     20.2681
  1231.4000      7.9005      2.5683      0.0634      4.9522    120.4494     20.5000
  1231.5000      7.9007      2.5479      0.0143      6.1854    125.7992     21.6178
  1231.6000      7.9007      2.5320     -0.0161      7.1528    129.7109     22.2941
  1231.7000      7.9007      2.5310     -0.0021      7.2100    130.9111     22.1159
  1231.8000      7.9004      2.5329      0.0196      7.0968    135.0402     21.3580
  1231.9000      7.9004      2.5246     -0.0148      7.5974    141.1257     20.5437
  1232.0000      7.9003      2.5108     -0.0055      8.4379    140.9171     20.6264
  1232.1000      7.9003      2.4941     -0.0124      9.4485    131.9164     21.1162
  1232.2000      7.9003      2.4789     -0.0445     10.3667    123.4381     21.1204
  1232.3000      7.9000      2.4824     -0.0166     10.1559    119.2011     20.7538
  1232.4000      7.9000      2.5103      0.0246      8.4674    114.0070     20.2161
  1232.5000      7.8993      2.5421      0.0425      6.5390    108.4877     19.5295
  1232.6000      7.8993      2.5523      0.0569      5.9194    104.8389     19.0336
  1232.7000      7.8993      2.5399      0.0282      6.6748    100.1507     19.1537
  1232.8000      7.8983      2.5190      0.0327      7.9384     91.6018     19.7434
  1232.9000      7.8983      2.4968      0.0365      9.2870     81.2976     19.9555
  1233.0000      7.8979      2.4723      0.0207     10.7727     72.8367     19.6134
  1233.1000      7.8979      2.4422      0.0021     12.5939     67.1397     19.2439
  1233.2000      7.8979      2.4120     -0.0234     14.4267     63.6119     18.9834
  1233.3000      7.8976      2.3951     -0.0441     15.4491     62.5617     18.9492
  1233.4000      7.8976      2.3931     -0.0081     15.5688     65.2130     19.0787
  1233.5000      7.8974      2.3990      0.0004     15.2150     70.8991     18.8316
  1233.6000      7.8974      2.4115      0.0075     14.4556     73.6048     18.3993
  1233.7000      7.8974      2.4275      0.0069     13.4864     70.0694     18.4810
  1233.8000      7.8975      2.4386      0.0148     12.8123     65.9929     18.6262
  1233.9000      7.8975      2.4402      0.0198     12.7132     63.9358     18.1803
  1234.0000      7.8982      2.4408     -0.0178     12.6789     61.5397     17.9472
  1234.1000      7.8982      2.4497      0.0308     12.1416     60.1761     18.4065
  1234.2000      7.8982      2.4563      0.0243     11.7376     59.7028     18.6598
  1234.3000      7.8995      2.4509      0.0306     12.0680     57.1951     18.1371
  1234.4000      7.8995      2.4396      0.0273     12.7531     55.8599     17.3267
  1234.5000      7.9003      2.4291      0.0371     13.3881     62.1080     16.7664
  1234.6000      7.9003      2.4254      0.0066     13.6143     73.4824     16.2803
  1234.7000      7.9003      2.4357      0.0077     12.9869     79.7198     15.8961
  1234.8000      7.8995      2.4581      0.0364     11.6290     76.2986     15.9239
  1234.9000      7.8995      2.4802      0.0815     10.2897     69.9992     16.2059
  1235.0000      7.8980      2.4931      0.0734      9.5116     67.8380     16.6711
  1235.1000      7.8980      2.5056      0.0397      8.7495     69.3952     16.9997
  1235.2000      7.8980      2.5211      0.0873      7.8146     71.7984     16.6669
  1235.3000      7.8962      2.5211      0.0632      7.8132     71.3108     16.2217
  1235.4000      7.8962      2.5043      0.0410      8.8318     67.5465     16.3280
  1235.5000      7.8964      2.4924      0.0326      9.5541     66.0126     17.0224
  1235.6000      7.8964      2.4922      0.0330      9.5625     69.0725     17.8971
  1235.7000      7.8964      2.4929      0.0243      9.5227     72.9098     18.4041
  1235.8000      7.8999      2.4911      0.0185      9.6314     73.1939     18.2012
  1235.9000      7.8999      2.4943      0.0364      9.4349     68.4069     17.5320
  1236.0000      7.9025      2.5036      0.0177      8.8733     61.2136     17.4097
  1236.1000      7.9025      2.5101      0.0478      8.4768     55.9804     18.3706
  1236.2000      7.9025      2.5059      0.0288      8.7336     56.0887     19.8267
  1236.3000      7.9016      2.4943      0.0315      9.4372     63.0113     20.6233
  1236.4000      7.9016      2.4850      0.0238     10.0021     70.2913     20.2569
  1236.5000      7.9003      2.4842      0.0315     10.0496     71.5227     19.7180
  1236.6000      7.9003      2.4957      0.0419      9.3533     71.0949     19.7411
  1236.7000      7.9003      2.5132      0.0629      8.2938     72.8686     19.6728
