~Version Information
VERS.                      2.0: CWLS Log ASCII Standard - VERSION 2.0
WRAP.                       NO: One line per depth step
~Well Information Block
STRT.FT               340.0000: 
STOP.FT              2342.7000: 
STEP.FT                 0.1000: 
NULL.                -999.2500: 
COMP.          Pioneer Natural Resources: COMPANY
WELL.          Pinkerton 41-12: WELL
FLD.           Purgatoire River: FIELD
LOC.           1222' FNL & 670' FEL--: LOCATION
CNTY.               Las Animas: COUNTY
SRVC.                Patterson: SERVICE COMPANY
DATE.          Thu Mar 16 06:39:17 2006: LOG DATE
UWI.           05 071 08500 00: UNIQUE WELL ID
STAT.                 Colorado: STATE
~Curve Information Block
DEPT.FT            0 000 00 00: Depth
DCAL.in                       : CDL Caliper
RHOB.g/cc                     : CDL Bulk Density
RHOC.g/cc                     : CDL Density Correction
DPOR.pu                       : CDL Density Porosity
NPOR.pu                       : Neutron Porosity
GR.GAPI                       : Gamma Ray
~Parameter Information Block
~A  Depth       DCAL        RHOB        RHOC        DPOR        NPOR         GR     
   340.0000      0.6399      0.6502     -0.0764    121.1973     43.1715     83.3035
   340.1000      0.6399      0.6214     -0.0738    122.9478     42.8883     82.8057
   340.2000      0.6399      0.6132     -0.0876    123.4400     42.4368     80.5424
   340.3000      0.8125      0.6165     -0.0727    123.2401     41.9977     77.0767
   340.4000      0.8125      0.6221     -0.0628    122.9041     41.5989     74.0393
   340.5000      0.9886      0.6235     -0.0673    122.8178     41.3182     73.3099
   340.6000      0.9886      0.6237     -0.1025    122.8049     41.0121     75.7506
   340.7000      0.9886      0.6274     -0.0732    122.5835     40.4297     79.6697
   340.8000      1.0185      0.6300     -0.0590    122.4252     39.8238     83.0390
   340.9000      1.0185      0.6286     -0.0827    122.5076     39.6323     85.4637
   341.0000      1.0226      0.6279     -0.0914    122.5517     39.8149     87.4211
   341.1000      1.0226      0.6320     -0.0787    122.3008     39.9706     88.4619
   341.2000      1.0226      0.6456     -0.0855    121.4796     39.9040     87.8979
   341.3000      1.0634      0.6691     -0.0750    120.0553     39.8584     88.2889
   341.4000      1.0634      0.6918     -0.0643    118.6775     40.0194     92.0185
   341.5000      1.0925      0.7041     -0.0610    117.9349     40.1548     96.0951
   341.6000      1.0925      0.7081     -0.0566    117.6888     40.1262     94.0425
   341.7000      1.0925      0.7117     -0.0707    117.4737     40.1799     85.0179
   341.8000      1.0447      0.7163     -0.0499    117.1935     40.3660     76.2557
   341.9000      1.0447      0.7176     -0.0486    117.1143     40.4065     72.1505
   342.0000      0.9950      0.7142     -0.0553    117.3231     40.2640     70.9519
   342.1000      0.9950      0.7074     -0.0466    117.7325     40.2715     71.6507
   342.2000      0.9950      0.7021     -0.0930    118.0526     40.6820     75.2529
   342.3000      0.9826      0.7047     -0.0764    117.8945     41.0773     80.9730
   342.4000      0.9826      0.7114     -0.0432    117.4930     40.8446     83.8819
   342.5000      0.9836      0.7162     -0.0615    117.2020     40.1544     81.9444
   342.6000      0.9836      0.7214     -0.0626    116.8852     39.6449     77.4476
   342.7000      0.9836      0.7244     -0.0509    116.7001     39.5714     72.4441
   342.8000      0.9851      0.7207     -0.0782    116.9275     39.7655     68.8607
   342.9000      0.9851      0.7180     -0.0766    117.0923     39.9123     69.3851
   343.0000      0.9868      0.7259     -0.0776    116.6091     39.8087     74.9856
   343.1000      0.9868      0.7399     -0.0618    115.7629     39.5937     81.7666
   343.2000      0.9868      0.7496     -0.0261    115.1738     39.6076     84.5835
   343.3000      0.9896      0.7563     -0.0614    114.7687     39.8852     82.4449
   343.4000      0.9896      0.7652     -0.0421    114.2296     40.0288     78.5899
   343.5000      0.9916      0.7744     -0.0439    113.6754     39.8042     77.3074
   343.6000      0.9916      0.7821     -0.0623    113.2038     39.5190     78.4477
   343.7000      0.9916      0.7905     -0.0478    112.6955     39.4887     79.6021
   343.8000      0.9934      0.8006     -0.0613    112.0848     39.6010     80.4638
   343.9000      0.9934      0.8092     -0.0353    111.5638     39.6065     81.2091
   344.0000      0.9946      0.8120     -0.0493    111.3960     39.5681     81.9906
   344.1000      0.9946      0.8117     -0.0505    111.4143     39.7391     84.4436
   344.2000      0.9946      0.8084     -0.0333    111.6105     39.9730     87.8502
   344.3000      0.9932      0.7928     -0.0414    112.5604     39.9981     88.3379
   344.4000      0.9932      0.7619     -0.0732    114.4274     39.9814     85.5176
   344.5000      0.9925      0.7313     -0.1198    116.2851     40.0981     81.3530
   344.6000      0.9925      0.7154     -0.0922    117.2484     40.1994     78.2361
   344.7000      0.9925      0.7102     -0.0995    117.5616     40.0975     79.6179
   344.8000      0.9920      0.7079     -0.0816    117.7059     39.7311     83.3071
   344.9000      0.9920      0.7082     -0.0830    117.6849     39.2116     82.3286
   345.0000      0.9910      0.7171     -0.0771    117.1452     38.8399     79.2665
   345.1000      0.9910      0.7383     -0.0701    115.8631     38.8304     84.0431
   345.2000      0.9910      0.7652     -0.0506    114.2280     38.9726     93.4954
   345.3000      0.9916      0.7917     -0.0401    112.6240     38.9413     96.4530
   345.4000      0.9916      0.8219     -0.0330    110.7911     39.0266     90.4065
   345.5000      0.9929      0.8597     -0.0172    108.5023     39.5546     82.1648
   345.6000      0.9929      0.8918      0.0224    106.5597     40.0541     79.1043
   345.7000      0.9929      0.8995      0.0023    106.0887     40.0812     80.3647
   345.8000      0.9933      0.8874     -0.0306    106.8227     39.9046     81.1737
   345.9000      0.9933      0.8746     -0.0474    107.5998     39.9165     79.3227
   346.0000      0.9946      0.8670     -0.0415    108.0580     40.1379     74.4766
   346.1000      0.9946      0.8552     -0.0409    108.7785     40.4401     69.2551
   346.2000      0.9946      0.8309     -0.0470    110.2466     40.6295     68.8925
   346.3000      0.9957      0.7961     -0.0696    112.3568     40.5466     74.9614
   346.4000      0.9957      0.7565     -0.0883    114.7577     40.3831     79.5848
   346.5000      0.9958      0.7166     -0.1131    117.1780     40.4226     78.8378
   346.6000      0.9958      0.6795     -0.0984    119.4222     40.4047     80.6823
   346.7000      0.9958      0.6523     -0.1358    121.0747     39.9738     86.1817
   346.8000      0.9929      0.6407     -0.1149    121.7736     39.4295     89.3902
   346.9000      0.9929      0.6417     -0.1189    121.7167     39.2332     89.9893
   347.0000      0.9881      0.6502     -0.1075    121.2011     39.3598     89.2102
   347.1000      0.9881      0.6647     -0.0917    120.3205     39.6907     89.4825
   347.2000      0.9881      0.6880     -0.0661    118.9111     40.0817     93.5253
   347.3000      0.9860      0.7249     -0.0548    116.6704     40.3427     98.5838
   347.4000      0.9860      0.7717      0.0071    113.8365     40.4159     99.8915
   347.5000      0.9876      0.8169      0.0261    111.0959     40.0672     98.1496
   347.6000      0.9876      0.8592      0.0299    108.5355     39.2589     99.2825
   347.7000      0.9876      0.9030      0.0583    105.8793     38.5612    105.7536
   347.8000      1.0275      0.9521      0.0445    102.9010     38.1598    111.5680
   347.9000      1.0275      1.0218     -0.0117     98.6761     37.5477    112.9887
   348.0000      1.4936      1.1213      0.0291     92.6487     36.3110    114.5191
   348.1000      1.4936      1.2217      0.0468     86.5659     34.5474    120.1676
   348.2000      1.4936      1.3066      0.0778     81.4203     32.6084    126.9142
   348.3000      3.5178      1.4474     -0.0254     72.8820     30.7586    128.0648
   348.4000      3.5178      1.7054      0.1524     57.2502     29.1095    122.7616
   348.5000      6.6040      1.9856      0.2635     40.2660     27.5455    116.5145
   348.6000      6.6040      2.1693      0.2792     29.1312     25.8090    113.4525
   348.7000      6.6040      2.2778      0.2882     22.5577     23.7482    112.2922
   348.8000      8.0849      2.3767      0.4016     16.5655     21.7928    110.8707
   348.9000      8.0849      2.4154      0.8689     14.2200     20.4866    109.0975
   349.0000      8.1924      2.3047      0.5272     20.9276     19.7337    108.1517
   349.1000      8.1924      2.1020      0.1469     33.2137     18.9599    106.7241
   349.2000      8.1924      1.9300      0.0874     43.6365     18.0568    101.8308
   349.3000      8.1353      1.8196      0.0472     50.3253     17.5153     95.1956
   349.4000      8.1353      1.7478      0.0064     54.6809     17.5410     92.4852
   349.5000      8.1110      1.7144     -0.0133     56.7047     17.8474     94.6867
