~Version Information
VERS.                      2.0: CWLS Log ASCII Standard - VERSION 2.0
WRAP.                       NO: One line per depth step
~Well Information Block
STRT.FT                -7.7500: 
STOP.FT              1485.2500: 
STEP.FT                 0.2500: 
NULL.                -999.2500: 
COMP.          Pioneer Natural Resources: COMPANY
WELL.          Hammerhead 24-24 Tr: WELL
FLD.           Purgatorie River: FIELD
LOC.           953' FSL & 1922' FWL--: LOCATION
CNTY.               Las Animas: COUNTY
SRVC.          Patterson Wireline: SERVICE COMPANY
DATE.          Thu Feb 02 15:03:23 2006: LOG DATE
UWI.           05 071 08669 00: UNIQUE WELL ID
STAT.                       CO: STATE
~Curve Information Block
DEPT.FT            0 000 00 00: Depth
CCL.                          : Casing Collar Locator
TT3.usec                      : CBL 3' Travel Time
AMP3.mV                       : CBL 3' Amplitude
GR.GAPI                       : Gamma Ray
~Parameter Information Block
~A  Depth       CCL         TT3         AMP3         GR     
# ...
  1365.7500      0.0000    532.7729      7.6691    159.8335
  1366.0000      0.0000    552.3503      7.6343    164.7319
  1366.2500      0.0000    569.8478      7.6077    168.0558
  1366.5000      0.0000    591.8360      7.5847    169.1428
  1366.7500      0.0000    618.3105      7.5587    166.7125
  1367.0000      0.0000    643.2215      7.5343    160.2654
  1367.2500      0.0000    659.6150      7.5375    151.1232
  1367.5000      0.0000    663.3586      7.6014    141.3694
  1367.7500      0.0000    654.5343      7.7317    132.1014
  1368.0000      0.0000    637.9475      7.8839    123.5116
  1368.2500      0.0000    620.8658      7.9767    116.2198
  1368.5000      0.0000    608.1851      7.9290    111.4290
  1368.7500      0.0000    601.0561      7.7066    109.8001
  1369.0000      0.0000    600.2348      7.3616    110.9470
  1369.2500      0.0000    606.9124      7.0136    114.0758
  1369.5000      0.0000    619.6790      6.7562    118.4739
  1369.7500      0.0000    634.0803      6.5886    123.1876
  1370.0000      0.0000    645.7141      6.4699    126.8357
  1370.2500      0.0000    652.6442      6.4039    128.4109
  1370.5000      0.0000    656.0862      6.4223    128.2264
  1370.7500      0.0000    659.3752      6.5143    127.5642
  1371.0000      2.0000    664.5057      6.6247    127.2410
  1371.2500      0.0000    669.4037      6.7094    126.8011
  1371.5000      0.0000    670.3849      6.7754    125.2154
  1371.7500      0.0000    667.1399      6.8803    122.1047
  1372.0000      0.0000    663.2880      7.0842    118.2157
  1372.2500      0.0000    661.9784      7.3693    114.9410
  1372.5000      0.0000    662.6705      7.6218    113.4394
  1372.7500      0.0000    662.7833      7.7434    113.7970
  1373.0000      0.0000    661.3732      7.7683    114.7766
  1373.2500      0.0000    660.1997      7.8174    114.7441
  1373.5000      0.0000    661.4447      7.9575    113.2297
  1373.7500      0.0000    665.2485      8.1503    111.5853
  1374.0000      0.0000    669.6356      8.3137    112.0194
  1374.2500      0.0000    671.9960      8.3883    115.7371
  1374.5000      0.0000    669.9317      8.3548    121.4978
  1374.7500      0.0000    661.4705      8.2218    125.8642
  1375.0000      0.0000    646.1619      8.0145    125.5531
  1375.2500      0.0000    626.0487      7.7686    120.1790
  1375.5000      0.0000    603.2969      7.5255    112.5482
  1375.7500      0.0000    576.0491      7.3209    105.9753
  1376.0000      0.0000    539.7714      7.1754    101.6396
  1376.2500      0.0000    494.8842      7.0887     98.7973
  1376.5000      0.0000    450.5542      7.0395     96.8598
  1376.7500      0.0000    418.7685      6.9961     96.2974
  1377.0000      0.0000    406.4235      6.9354     97.6536
  1377.2500      0.0000    413.3090      6.8558    100.5049
  1377.5000      0.0000    433.7178      6.7743    103.8377
  1377.7500      0.0000    458.0010      6.7152    107.1820
  1378.0000      0.0000    477.2065      6.6978    110.9314
  1378.2500      0.0000    491.2954      6.7246    115.5262
  1378.5000      0.0000    510.7178      6.7766    120.6425
  1378.7500      0.0000    545.2527      6.8225    125.2136
  1379.0000      0.0000    592.0230      6.8370    128.1417
  1379.2500      0.0000    636.8389      6.8139    129.1072
  1379.5000      0.0000    665.8195      6.7626    128.6276
  1379.7500      0.0000    674.5784      6.6939    127.1521
  1380.0000      0.0000    668.9973      6.6069    124.3261
  1380.2500      0.0000    658.8449      6.4935    119.4958
  1380.5000      0.0000    648.5095      6.3551    112.8236
  1380.7500      0.0000    632.7388      6.2117    105.6232
  1381.0000      0.0000    602.6386      6.0908     99.5914
  1381.2500      0.0000    556.0312      6.0089     95.8234
  1381.5000      0.0000    501.4746      5.9674     94.5848
  1381.7500      0.0000    452.3564      5.9623     95.8090
  1382.0000      0.0000    417.5008      5.9950     99.4324
  1382.2500      0.0000    397.1641      6.0694    104.9427
  1382.5000      0.0000    386.4080      6.1822    110.7819
  1382.7500      0.0000    380.5377      6.3181    114.8343
  1383.0000      0.0000    377.6575      6.4559    115.9916
  1383.2500      0.0000    378.1661      6.5766    115.0339
  1383.5000      0.0000    383.7364      6.6673    113.5900
  1383.7500      0.0000    397.2383      6.7170    112.5477
  1384.0000      0.0000    422.7416      6.7131    111.8979
  1384.2500      0.0000    463.4791      6.6453    111.7721
  1384.5000      0.0000    517.6574      6.5201    112.9439
  1384.7500      0.0000    576.4202      6.3687    116.3952
  1385.0000      0.0000    627.9126      6.2357    122.7407
  1385.2500      0.0000    664.3381      6.1578    131.6476
  1385.5000      0.0000    685.1577      6.1512    141.2526
  1385.7500      0.0000    694.9648      6.2105    148.7471
  1386.0000      0.0000    699.6896      6.3109    152.4926
  1386.2500      0.0000    703.6204      6.4172    153.4425
  1386.5000      0.0000    707.9407      6.4967    153.8723
  1386.7500      0.0000    711.4830      6.5289    154.9075
  1387.0000      0.0000    712.7580      6.5075    155.8489
  1387.2500      0.0000    711.0015      6.4413    155.6836
  1387.5000      0.0000    706.1688      6.3555    154.4484
  1387.7500      0.0000    699.4304      6.2854    152.9484
  1388.0000      0.0000    693.5467      6.2611    151.7956
  1388.2500      0.0000    691.5861      6.2914    151.3053
  1388.5000      0.0000    694.9445      6.3624    152.0603
  1388.7500      0.0000    702.8105      6.4527    154.7911
  1389.0000      0.0000    713.2587      6.5512    159.2981
  1389.2500      0.0000    724.3783      6.6568    163.7740
  1389.5000      0.0000    734.5142      6.7654    165.6166
  1389.7500      0.0000    742.2297      6.8633    163.0543
  1390.0000      0.0000    746.5812      6.9339    156.1697
  1390.2500      0.0000    747.2438      6.9690    146.8712
  1390.5000      0.0000    744.2264      6.9743    137.9605
  1390.7500      0.0000    737.8735      6.9647    131.4509
  1391.0000      0.0000    729.5152      6.9510    127.3197
  1391.2500      0.0000    721.4009      6.9319    124.2298
  1391.5000      0.0000    714.9253      6.8998    121.4760
  1391.7500      0.0000    708.5227      6.8543    119.9307
  1392.0000      0.0000    698.2879      6.8056    121.3384
  1392.2500      0.0000    682.3655      6.7652    126.9007
  1392.5000      0.0000    665.4736      6.7366    135.9228
  1392.7500      0.0000    657.0975      6.7138    145.4351
  1393.0000      0.0000    662.7549      6.6835    151.7832
  1393.2500      0.0000    678.2100      6.6339    153.2875
  1393.5000      0.0000    694.4750      6.5690    151.4467
  1393.7500      0.0000    706.7628      6.5125    149.6040
  1394.0000      0.0000    716.0975      6.4928    150.5336
  1394.2500      0.0000    724.0894      6.5215    154.7737
  1394.5000      0.0000    729.6512      6.5864    160.5042
  1394.7500      0.0000    730.8633      6.6628    165.0337
  1395.0000      0.0000    727.4030      6.7273    167.0195
  1395.2500      0.0000    719.8431      6.7636    167.5714
  1395.5000      0.0000    707.5176      6.7652    169.0952
  1395.7500      0.0000    688.1752      6.7387    172.8898
  1396.0000      0.0000    660.9561      6.7018    177.8878
  1396.2500      0.0000    631.1073      6.6733    181.7394
  1396.5000      0.0000    610.8889      6.6658    182.9208
  1396.7500      0.0000    611.3809      6.6888    181.7414
  1397.0000      0.0000    630.9078      6.7483    179.5649
  1397.2500      0.0000    653.5086      6.8374    177.2358
  1397.5000      0.0000    660.2094      6.9320    174.2792
  1397.7500      0.0000    642.2779      7.0056    169.5009
  1398.0000      0.0000    607.0681      7.0438    161.9846
  1398.2500      0.0000    573.5538      7.0459    151.2892
  1398.5000      0.0000    558.2503      7.0192    137.3548
  1398.7500      0.0000    561.2094      6.9760    121.1369
  1399.0000      0.0000    567.7910      6.9316    105.1897
