~Version Information
VERS.                      2.0: CWLS Log ASCII Standard - VERSION 2.0
WRAP.                       NO: One line per depth step
~Well Information Block
STRT.FT               875.0000: 
STOP.FT              2947.2500: 
STEP.FT                 0.2500: 
NULL.                -999.2500: 
COMP.          Pioneer Natural Resources: COMPANY
WELL.          Hanginstone 21-27: WELL
FLD.           Purgatoire River: FIELD
LOC.           1186' FNL & 1606' FWL--: LOCATION
PROV.                 Colorado: PROVINCE
CNTY.               Las Animas: COUNTRY
SRVC.                Patterson: SERVICE COMPANY
DATE.          Sat Jan 07 09:06:14 2006: LOG DATE
UWI.           05 071 08632 00: UNIQUE WELL ID
~Curve Information Block
DEPT.FT            0 000 00 00: Depth
SN.Ohm-m                      : IEL Short Normal
SP.mV                         : IEL Spontaneous Potential
DIR.Ohm-m                     : IEL Induction Resistivity
GR.GAPI                       : Gamma Ray
~Parameter Information Block
~A  Depth        SN          SP         DIR          GR     
# ...
  1980.5000     13.1661     16.6597     11.7010    126.2839
  1980.7500     13.1221     16.8031     11.5059    130.5529
  1981.0000     13.0680     16.9764     11.2719    138.1575
  1981.2500     12.9549     17.1448     11.0071    142.4588
  1981.5000     12.7739     17.2698     10.7295    146.8421
  1981.7500     12.5558     17.3151     10.4649    148.8883
  1982.0000     12.3528     17.2516     10.2413    151.7631
  1982.2500     12.2187     17.0636     10.0846    153.5341
  1982.5000     12.1925     16.7520     10.0164    154.7503
  1982.7500     12.2867     16.3366     10.0528    153.7606
  1983.0000     12.4822     15.8556     10.2004    148.8280
  1983.2500     12.7336     15.3608     10.4513    143.3416
  1983.5000     12.9822     14.9114     10.7793    132.6601
  1983.7500     13.1721     14.5647     11.1395    124.5763
  1984.0000     13.2707     14.3671     11.4743    112.2719
  1984.2500     13.2843     14.3466     11.7250    104.8408
  1984.5000     13.2508     14.5081     11.8453     96.8036
  1984.7500     13.2049     14.8328     11.8117     94.7515
  1985.0000     13.1448     15.2816     11.6261     98.0474
  1985.2500     13.0346     15.8015     11.3126    104.3994
  1985.5000     12.8390     16.3336     10.9099    118.3566
  1985.7500     12.5525     16.8215     10.4614    129.1116
  1986.0000     12.2015     17.2190     10.0072    144.9248
  1986.2500     11.8277     17.4942      9.5779    153.9597
  1986.5000     11.4723     17.6316      9.1954    163.5220
  1986.7500     11.1672     17.6300      8.8758    166.8939
  1987.0000     10.9339     17.5000      8.6337    168.1938
  1987.2500     10.7857     17.2589      8.4831    167.3029
  1987.5000     10.7305     16.9281      8.4371    164.1528
  1987.7500     10.7745     16.5309      8.5051    160.9749
  1988.0000     10.9231     16.0921      8.6913    154.6796
  1988.2500     11.1738     15.6373      8.9925    149.6396
  1988.5000     11.5058     15.1924      9.3959    141.2786
  1988.7500     11.8756     14.7815      9.8770    135.3400
  1989.0000     12.2284     14.4241     10.3983    125.8712
  1989.2500     12.5250     14.1323     10.9143    119.3503
  1989.5000     12.7711     13.9084     11.3847    110.6441
  1989.7500     13.0275     13.7448     11.7904    106.8871
  1990.0000     13.3834     13.6240     12.1404    106.0274
  1990.2500     13.9047     13.5216     12.4641    108.5458
  1990.5000     14.5899     13.4097     12.7934    114.7775
  1990.7500     15.3646     13.2615     13.1484    118.7131
  1991.0000     16.1195     13.0571     13.5328    121.7567
  1991.2500     16.7678     12.7884     13.9383    121.4019
  1991.5000     17.2880     12.4625     14.3545    118.1743
  1991.7500     17.7262     12.1017     14.7780    115.2039
  1992.0000     18.1598     11.7403     15.2170    110.8448
  1992.2500     18.6441     11.4185     15.6892    108.2200
  1992.5000     19.1751     11.1743     16.2131    104.4375
  1992.7500     19.6886     11.0369     16.7956    101.9556
  1993.0000     20.0980     11.0226     17.4219     98.7153
  1993.2500     20.3458     11.1337     18.0498     97.2014
  1993.5000     20.4357     11.3610     18.6150     96.2104
  1993.7500     20.4205     11.6881     19.0450     96.5299
  1994.0000     20.3554     12.0961     19.2756     98.8550
  1994.2500     20.2570     12.5664     19.2650    101.8118
  1994.5000     20.0983     13.0829     19.0036    108.0133
  1994.7500     19.8348     13.6315     18.5206    112.6650
  1995.0000     19.4351     14.1990     17.8792    119.1223
  1995.2500     18.9006     14.7722     17.1612    122.6744
  1995.5000     18.2695     15.3373     16.4456    126.9396
  1995.7500     17.6032     15.8799     15.7941    129.3217
  1996.0000     16.9592     16.3876     15.2431    132.3993
  1996.2500     16.3650     16.8510     14.8023    133.8395
  1996.5000     15.8140     17.2666     14.4562    134.0383
  1996.7500     15.2847     17.6372     14.1714    132.5374
  1997.0000     14.7679     17.9709     13.9103    128.9426
  1997.2500     14.2839     18.2791     13.6456    127.0904
  1997.5000     13.8813     18.5716     13.3703    127.2850
  1997.7500     13.6182     18.8531     13.0962    129.7476
  1998.0000     13.5342     19.1186     12.8457    135.8896
  1998.2500     13.6288     19.3526     12.6404    140.4958
  1998.5000     13.8599     19.5299     12.4937    146.4209
  1998.7500     14.1632     19.6199     12.4097    149.0381
  1999.0000     14.4821     19.5929     12.3865    150.0548
  1999.2500     14.7874     19.4267     12.4213    148.3332
  1999.5000     15.0802     19.1130     12.5148    142.2521
  1999.7500     15.3809     18.6603     12.6728    136.7343
  2000.0000     15.7169     18.0953     12.9064    128.2491
  2000.2500     16.1151     17.4599     13.2299    123.2048
  2000.5000     16.5952     16.8068     13.6559    117.1163
  2000.7500     17.1579     16.1915     14.1869    114.2785
  2001.0000     17.7715     15.6653     14.8064    111.8852
  2001.2500     18.3727     15.2673     15.4721    111.0683
  2001.5000     18.8902     15.0190     16.1189    110.0756
  2001.7500     19.2759     14.9212     16.6746    109.6324
  2002.0000     19.5227     14.9535     17.0842    110.6570
  2002.2500     19.6631     15.0773     17.3282    113.3884
  2002.5000     19.7517     15.2397     17.4243    120.9754
  2002.7500     19.8412     15.3795     17.4155    127.4915
  2003.0000     19.9625     15.4326     17.3555    136.3999
  2003.2500     20.1211     15.3382     17.2954    139.8724
  2003.5000     20.3085     15.0453     17.2758    139.5424
  2003.7500     20.5243     14.5195     17.3217    135.5626
  2004.0000     20.7988     13.7498     17.4437    124.9239
  2004.2500     21.2005     12.7549     17.6446    115.7084
  2004.5000     21.8177     11.5861     17.9283    101.0704
  2004.7500     22.7157     10.3258     18.3025     92.1321
  2005.0000     23.8824      9.0798     18.7699     81.0867
  2005.2500     25.1872      7.9653     19.3109     75.1623
  2005.5000     26.3885      7.0946     19.8658     67.9307
  2005.7500     27.2028      6.5592     20.3302     64.3162
  2006.0000     27.4105      6.4175     20.5734     61.5665
  2006.2500     26.9442      6.6878     20.4834     62.0986
  2006.5000     25.9095      7.3481     20.0206     67.1469
  2006.7500     24.5247      8.3419     19.2382     73.5288
  2007.0000     23.0139      9.5875     18.2546     87.4307
  2007.2500     21.5182     10.9900     17.1975     98.9086
  2007.5000     20.0778     12.4525     16.1609    116.7765
  2007.7500     18.6815     13.8862     15.1917    126.9398
  2008.0000     17.3338     15.2184     14.3040    136.7426
  2008.2500     16.0905     16.3972     13.5013    139.6258
  2008.5000     15.0493     17.3936     12.7950    141.0550
  2008.7500     14.3148     18.2012     12.2079    141.8603
  2009.0000     13.9548     18.8320     11.7678    144.2189
  2009.2500     13.9665     19.3126     11.4980    146.2655
  2009.5000     14.2671     19.6772     11.4101    148.9004
  2009.7500     14.7147     19.9626     11.5011    149.8119
  2010.0000     15.1506     20.2019     11.7516    148.9336
  2010.2500     15.4440     20.4215     12.1270    146.1585
  2010.5000     15.5238     20.6384     12.5826    138.5001
  2010.7500     15.3934     20.8603     13.0743    132.3244
  2011.0000     15.1334     21.0875     13.5716    125.3871
  2011.2500     14.8934     21.3161     14.0664    124.1599
  2011.5000     14.8632     21.5418     14.5731    127.8643
  2011.7500     15.2092     21.7627     15.1168    132.8833
  2012.0000     15.9884     21.9812     15.7147    141.1729
  2012.2500     17.0951     22.2041     16.3583    145.4179
  2012.5000     18.2961     22.4423     17.0042    147.8314
  2012.7500     19.3433     22.7089     17.5830    146.5482
  2013.0000     20.0882     23.0179     18.0261    141.0685
  2013.2500     20.5229     23.3816     18.2969    135.7688
  2013.5000     20.7423     23.8090     18.4072    126.7005
  2013.7500     20.8698     24.3030     18.4073    120.7615
