~Version Information
VERS.                      2.0: CWLS Log ASCII Standard - VERSION 2.0
WRAP.                       NO: One line per depth step
~Well Information Block
STRT.FT               428.8000: 
STOP.FT               951.7000: 
STEP.FT                 0.1000: 
NULL.                -999.2500: 
COMP.          Pioneer Natural Resources: COMPANY
WELL.          Sculpin 32-30 Tr: WELL
FLD.           Purgatoire River: FIELD
LOC.           1600' FNL & 1857' FEL--: LOCATION
CNTY.               Las Animas: COUNTY
SRVC.                Patterson: SERVICE COMPANY
DATE.          Wed Jul 19 09:12:32 2006: LOG DATE
UWI.           05 071 08706 00: UNIQUE WELL ID
STAT.                 Colorado: STATE
~Curve Information Block
DEPT.FT            0 000 00 00: Depth
DCAL.in                       : CDL Caliper
RHOB.g/cc                     : CDL Bulk Density
RHOC.g/cc                     : CDL Density Correction
DPOR.pu                       : CDL Density Porosity
GR.GAPI                       : Gamma Ray
~Parameter Information Block
~A  Depth       DCAL        RHOB        RHOC        DPOR         GR     
# ...
   820.8000      7.9596      2.5443      0.0699      6.4044    137.6684
   820.9000      7.9596      2.5687      0.1236      4.9252    140.9317
   821.0000      7.9621      2.5699      0.1035      4.8561    138.4496
   821.1000      7.9621      2.5522      0.0851      5.9262    137.2052
   821.2000      7.9621      2.5388      0.0592      6.7382    136.3006
   821.3000      7.9632      2.5407      0.0774      6.6247    132.7359
   821.4000      7.9632      2.5555      0.0445      5.7256    129.0614
   821.5000      7.9611      2.5703      0.1266      4.8323    129.0051
   821.6000      7.9611      2.5686      0.0964      4.9361    132.7835
   821.7000      7.9611      2.5571      0.0582      5.6322    135.8672
   821.8000      7.9580      2.5502      0.0711      6.0511    134.8303
   821.9000      7.9580      2.5463      0.0864      6.2824    131.7679
   822.0000      7.9584      2.5472      0.0307      6.2299    128.9833
   822.1000      7.9584      2.5557      0.0828      5.7127    125.9839
   822.2000      7.9584      2.5595      0.0967      5.4822    121.7154
   822.3000      7.9610      2.5550      0.0522      5.7552    118.0456
   822.4000      7.9610      2.5487      0.0760      6.1415    117.3037
   822.5000      7.9626      2.5362      0.0543      6.8945    118.6474
   822.6000      7.9626      2.5211      0.0473      7.8096    121.0626
   822.7000      7.9626      2.5154      0.0473      8.1586    124.5963
   822.8000      7.9657      2.5214      0.0217      7.7959    126.9753
   822.9000      7.9657      2.5369      0.0266      6.8521    125.9154
   823.0000      7.9681      2.5588      0.0720      5.5291    122.7039
   823.1000      7.9681      2.5820      0.0472      4.1195    119.4912
   823.2000      7.9681      2.6042      0.0819      2.7738    114.4583
   823.3000      7.9632      2.6206      0.1026      1.7804    106.1107
   823.4000      7.9632      2.6269      0.0917      1.4005    100.0335
   823.5000      7.9519      2.6274      0.0870      1.3690     98.3730
   823.6000      7.9519      2.6298      0.0815      1.2259     98.7324
   823.7000      7.9519      2.6363      0.0866      0.8294    101.4835
   823.8000      7.9346      2.6447      0.0778      0.3187    105.6763
   823.9000      7.9346      2.6523      0.0984     -0.1402    107.7610
   824.0000      7.9191      2.6519      0.0986     -0.1178    105.1188
   824.1000      7.9191      2.6399      0.0418      0.6132     97.2493
   824.2000      7.9191      2.6252      0.0763      1.5026     87.5941
   824.3000      7.9167      2.6139      0.0524      2.1889     82.2441
   824.4000      7.9167      2.5999      0.0859      3.0356     80.6968
   824.5000      7.9256      2.5838      0.0021      4.0114     77.1092
   824.6000      7.9256      2.5856      0.0155      3.9018     73.6178
   824.7000      7.9256      2.6069      0.0686      2.6144     76.6818
   824.8000      7.9372      2.6165      0.1018      2.0321     82.2299
   824.9000      7.9372      2.6034      0.0298      2.8236     80.5827
   825.0000      7.9464      2.5896      0.0675      3.6620     74.2710
   825.1000      7.9464      2.5835      0.0691      4.0302     74.3708
   825.2000      7.9464      2.5844      0.0332      3.9780     81.9300
   825.3000      7.9464      2.5930      0.0919      3.4550     89.5468
   825.4000      7.9464      2.6000      0.0723      3.0281     93.2588
   825.5000      7.9390      2.6075      0.0368      2.5727     94.4870
   825.6000      7.9390      2.6238      0.0661      1.5897     94.1726
   825.7000      7.9390      2.6387      0.1043      0.6849     91.7548
   825.8000      7.9289      2.6353      0.1182      0.8909     89.9822
   825.9000      7.9289      2.6114      0.0954      2.3367     89.6160
   826.0000      7.9178      2.5858      0.0856      3.8888     87.9262
   826.1000      7.9178      2.5785      0.0764      4.3342     86.2622
   826.2000      7.9178      2.5878      0.1055      3.7706     86.2882
   826.3000      7.9097      2.6004      0.1098      3.0062     87.4908
   826.4000      7.9097      2.6166      0.0893      2.0251     88.9130
   826.5000      7.9073      2.6383      0.1120      0.7095     89.8727
   826.6000      7.9073      2.6466      0.1437      0.2055     89.0649
   826.7000      7.9073      2.6291      0.0843      1.2662     87.9922
   826.8000      7.9116      2.6026      0.0862      2.8697     92.1418
   826.9000      7.9116      2.5829      0.0757      4.0667     98.3434
   827.0000      7.9209      2.5701      0.0471      4.8402     97.7474
   827.1000      7.9209      2.5620      0.0591      5.3334     91.9139
   827.2000      7.9209      2.5556      0.0601      5.7185     88.6896
   827.3000      7.9297      2.5455      0.0239      6.3349     91.4185
   827.4000      7.9297      2.5317      0.0273      7.1669     97.0705
   827.5000      7.9397      2.5265     -0.0010      7.4857    102.6674
   827.6000      7.9397      2.5342      0.0047      7.0186    108.3245
   827.7000      7.9397      2.5447      0.0449      6.3819    113.0680
   827.8000      7.9558      2.5534      0.0377      5.8527    115.0769
   827.9000      7.9558      2.5660      0.0251      5.0926    117.7834
   828.0000      7.9708      2.5801      0.0801      4.2368    124.7352
   828.1000      7.9708      2.5819      0.1005      4.1293    130.3925
   828.2000      7.9708      2.5734      0.0498      4.6438    127.8911
   828.3000      7.9738      2.5734      0.0611      4.6432    120.5415
   828.4000      7.9738      2.5814      0.0996      4.1571    115.7146
   828.5000      7.9677      2.5813      0.0746      4.1649    114.2837
   828.6000      7.9677      2.5686      0.0722      4.9305    112.7089
   828.7000      7.9677      2.5561      0.0245      5.6895    110.3565
   828.8000      7.9660      2.5547      0.0841      5.7744    109.7588
   828.9000      7.9660      2.5574      0.0894      5.6099    111.7391
   829.0000      7.9686      2.5599      0.0920      5.4588    114.5784
   829.1000      7.9686      2.5685      0.0691      4.9398    115.7845
   829.2000      7.9686      2.5827      0.0949      4.0813    114.5153
   829.3000      7.9652      2.5974      0.0834      3.1909    111.8957
   829.4000      7.9652      2.6110      0.0673      2.3628    106.4491
   829.5000      7.9606      2.6166      0.1102      2.0264     98.3440
   829.6000      7.9606      2.6029      0.1035      2.8557     91.6826
   829.7000      7.9606      2.5775      0.0465      4.3947     89.0216
   829.8000      7.9538      2.5593      0.0597      5.4981     87.5304
   829.9000      7.9538      2.5552      0.0407      5.7435     84.9645
   830.0000      7.9419      2.5635      0.0561      5.2454     86.6068
   830.1000      7.9419      2.5733      0.0703      4.6457     95.9220
   830.2000      7.9419      2.5697      0.1196      4.8642    106.8071
   830.3000      7.9299      2.5554      0.0813      5.7343    110.3079
   830.4000      7.9299      2.5513      0.0687      5.9802    105.8354
   830.5000      7.9200      2.5632      0.1047      5.2624     98.4677
   830.6000      7.9200      2.5792      0.1015      4.2897     91.9049
   830.7000      7.9200      2.5972      0.0814      3.1993     89.5844
   830.8000      7.9132      2.6165      0.1137      2.0310     91.8489
   830.9000      7.9132      2.6255      0.1035      1.4830     96.1627
   831.0000      7.9143      2.6162      0.1042      2.0476     99.7558
   831.1000      7.9143      2.5960      0.0886      3.2714     99.9989
   831.2000      7.9143      2.5836      0.0654      4.0226     97.5230
   831.3000      7.9212      2.5841      0.0759      3.9948     94.2940
   831.4000      7.9212      2.5834      0.0916      4.0351     89.3891
   831.5000      7.9268      2.5793      0.0573      4.2823     82.6891
   831.6000      7.9268      2.5814      0.0601      4.1552     77.6623
   831.7000      7.9268      2.5839      0.0819      4.0031     76.1552
   831.8000      7.9264      2.5775      0.0431      4.3911     76.4258
   831.9000      7.9264      2.5681      0.0638      4.9616     75.9390
