~Version Information
VERS.                      2.0: CWLS Log ASCII Standard - VERSION 2.0
WRAP.                       NO: One line per depth step
~Well Information Block
STRT.FT                 0.0000: 
STOP.FT              2062.2500: 
STEP.FT                 0.2500: 
NULL.                -999.2500: 
COMP.          Petrogulf Corporation: COMPANY
WELL.           Montoya 12-44R: WELL
FLD.           Purgatorie River: FIELD
LOC.           713' FSL & 798' FEL: LOCATION
PROV.                 Colorado: PROVINCE
CNTY.               Las Animas: COUNTRY
SRVC.                Patterson: SERVICE COMPANY
DATE.          Wed Nov 09 13:30:24 2005: LOG DATE
UWI.           05-071-08538               : UNIQUE WELL ID
~Curve Information Block
DEPT.FT            0 000 00 00: Depth
CCL.                          : Casing Collar Locator
TT3.usec                      : CBL 3' Travel Time
AMP3.mV                       : CBL 3' Amplitude
GR.GAPI                       : Gamma Ray
~Parameter Information Block
~A  Depth       CCL         TT3         AMP3         GR     
# ...
  1373.5000      0.0000    687.6849      6.1972    103.9455
  1373.7500      0.0000    675.9998      7.9708    105.2132
  1374.0000      0.0000    634.7180     10.3589    105.8806
  1374.2500      0.0000    561.6954     13.1573    107.0529
  1374.5000      0.0000    476.1414     15.6537    109.9521
  1374.7500      0.0000    411.1206     17.0718    115.2937
  1375.0000      0.0000    382.0166     17.2639    123.0931
  1375.2500      0.0000    378.4289     16.7650    132.4322
  1375.5000      0.0000    389.4783     16.2223    141.3988
  1375.7500      0.0000    419.8459     15.9030    147.7534
  1376.0000      0.0000    476.0649     15.6320    149.9739
  1376.2500      0.0000    545.1210     15.0790    147.8027
  1376.5000      0.0000    602.3740     14.1268    142.0433
  1376.7500      0.0000    637.2744     12.9856    134.0610
  1377.0000      0.0000    654.9816     11.9357    125.3999
  1377.2500      0.0000    663.9252     11.0465    117.4783
  1377.5000      0.0000    671.1805     10.2593    111.2226
  1377.7500      0.0000    678.2788      9.6311    106.8347
  1378.0000      0.0000    677.0323      9.2956    103.9795
  1378.2500      0.0000    656.3481      9.2752    102.2541
  1378.5000      0.0000    612.8687      9.5219    101.6169
  1378.7500      0.0000    555.1736     10.0124    102.3959
  1379.0000      0.0000    512.0134     10.6519    104.7788
  1379.2500      0.0000    521.4639     11.1956    108.2533
  1379.5000      0.0000    583.7239     11.3569    111.6302
  1379.7500      0.0000    652.5828     11.0002    113.7927
  1380.0000      0.0000    690.8019     10.2546    114.5763
  1380.2500      0.0000    700.3514      9.4014    114.9281
  1380.5000      0.0000    697.5931      8.6192    116.0156
  1380.7500      0.0000    691.9372      7.9145    118.0877
  1381.0000      0.0000    690.3321      7.3120    120.3294
  1381.2500      0.0000    697.6929      6.9401    121.7769
  1381.5000      0.0000    708.9008      6.8586    122.1293
  1381.7500      0.0000    712.7106      6.9564    121.7860
  1382.0000      0.0000    704.1838      7.0338    121.5012
  1382.2500      0.0000    689.7228      6.9147    122.0223
  1382.5000      0.0000    679.6371      6.5466    123.5992
  1382.7500      0.0000    676.8229      6.0247    125.5002
  1383.0000      0.0000    676.1412      5.4867    126.3380
  1383.2500      0.0000    672.6398      5.0197    125.4447
  1383.5000      0.0000    666.2642      4.6886    123.9058
  1383.7500      0.0000    660.7321      4.5517    123.7509
  1384.0000      0.0000    658.6458      4.6005    125.9669
  1384.2500      0.0000    658.6848      4.7426    129.5415
  1384.5000      0.0000    659.4048      4.8545    132.4719
  1384.7500      0.0000    661.8638      4.8550    133.3708
  1385.0000      0.0000    667.1637      4.7411    131.9873
  1385.2500      0.0000    673.9921      4.5565    128.6145
  1385.5000      0.0000    679.3875      4.3733    123.5654
  1385.7500      0.0000    681.3842      4.2970    117.3731
  1386.0000      0.0000    679.7485      4.3813    111.1093
  1386.2500      0.0000    675.2142      4.5094    106.0394
  1386.5000      0.0000    669.8929      4.4797    102.9367
  1386.7500      0.0000    667.0881      4.2259    101.9563
  1387.0000      0.0000    668.8491      3.8529    103.0853
  1387.2500      0.0000    673.3104      3.4760    106.2898
  1387.5000      0.0000    675.1585      3.1224    111.0436
  1387.7500      0.0000    671.4493      2.7809    116.0406
  1388.0000      0.0000    665.3709      2.4660    119.8106
  1388.2500      0.0000    661.3244      2.2017    121.7312
  1388.5000      0.0000    660.6402      1.9943    122.3874
  1388.7500      0.0000    662.7404      1.8619    123.0165
  1389.0000      0.0000    665.0670      1.8408    124.7292
  1389.2500      0.0000    663.3062      1.9397    128.1011
  1389.5000      0.0000    657.2073      2.1222    132.8728
  1389.7500      0.0000    653.3879      2.3404    137.4682
  1390.0000      0.0000    658.9584      2.5653    139.2694
  1390.2500      0.0000    675.4554      2.8039    136.4653
  1390.5000      0.0000    697.0922      3.1360    129.8639
  1390.7500      0.0000    713.6210      3.6781    122.3470
  1391.0000      0.0000    719.3083      4.4394    116.4559
  1391.2500      2.0000    716.4647      5.3175    112.7351
  1391.5000     -2.0000    706.0663      6.2572    110.1950
  1391.7500      0.0000    677.3304      7.2809    107.9113
  1392.0000      0.0000    618.4709      8.3905    106.0005
  1392.2500      0.0000    550.2502      9.5846    105.1455
  1392.5000      0.0000    515.9241     10.8969    105.5686
  1392.7500      0.0000    520.8585     12.2212    106.7663
  1393.0000      0.0000    526.7816     13.2498    107.9687
  1393.2500      0.0000    500.3352     13.8419    108.4111
  1393.5000      0.0000    441.7485     14.1893    107.3021
  1393.7500      0.0000    381.2949     14.4333    104.2206
  1394.0000      0.0000    344.9626     14.4900     99.9239
  1394.2500      0.0000    331.5938     14.2912     96.2944
  1394.5000      0.0000    328.4705     13.9406     94.8081
  1394.7500      0.0000    328.2152     13.5841     95.1220
  1395.0000      0.0000    330.3332     13.2549     95.6293
  1395.2500      0.0000    340.6751     12.8862     95.2708
  1395.5000      0.0000    372.7271     12.3166     94.3597
  1395.7500      0.0000    438.8927     11.3774     93.8187
  1396.0000      0.0000    530.2481     10.1312     94.3226
  1396.2500      0.0000    616.2466      8.8491     96.3856
  1396.5000      0.0000    674.0396      7.7484    100.6088
  1396.7500      0.0000    704.2073      6.9505    107.0842
  1397.0000      0.0000    717.8032      6.5525    114.6217
  1397.2500      0.0000    721.4349      6.5201    121.1253
  1397.5000      0.0000    712.7197      6.6017    124.9070
  1397.7500      0.0000    689.8902      6.5043    125.6039
  1398.0000      0.0000    664.4557      6.1599    124.2463
  1398.2500      0.0000    653.2004      5.7569    122.7547
  1398.5000      0.0000    659.5213      5.5507    122.8818
  1398.7500      0.0000    669.9190      5.7188    125.0631
  1399.0000      0.0000    663.9640      6.3245    128.1773
  1399.2500      0.0000    623.2198      7.3635    130.4529
  1399.5000      0.0000    544.9026      8.8040    130.7710
  1399.7500      0.0000    453.5394     10.4469    129.3686
  1400.0000      0.0000    382.8913     11.8693    127.3328
  1400.2500      0.0000    345.7939     12.7515    125.3668
  1400.5000      0.0000    332.4727     13.1638    123.1236
  1400.7500      0.0000    329.2322     13.4478    119.7363
  1401.0000      0.0000    328.8214     13.9559    114.7907
  1401.2500      0.0000    329.3744     14.8257    108.6084
  1401.5000      0.0000    331.7346     15.8315    101.7849
  1401.7500      0.0000    339.1113     16.5361     94.9529
  1402.0000      0.0000    357.1874     16.6593     89.0820
  1402.2500      0.0000    390.1973     16.2355     85.3279
  1402.5000      0.0000    429.5850     15.4836     84.1136
  1402.7500      0.0000    451.5486     14.6377     84.6756
  1403.0000      0.0000    447.5212     13.8421     85.8467
  1403.2500      0.0000    446.8865     13.1169     86.9879
  1403.5000      0.0000    476.6927     12.4486     87.9595
  1403.7500      0.0000    514.2011     11.9223     88.6312
  1404.0000      0.0000    515.0681     11.6823     88.8416
  1404.2500      0.0000    482.0915     11.7018     88.7537
  1404.5000      0.0000    468.9416     11.6993     89.0774
  1404.7500      0.0000    512.1860     11.4103     90.8684
  1405.0000      0.0000    589.1736     10.8551     94.8554
  1405.2500      0.0000    651.8654     10.2366    100.7639
  1405.5000      0.0000    680.8110      9.6896    107.3759
  1405.7500      0.0000    688.8105      9.2217    113.2490
  1406.0000      0.0000    692.7897      8.7968    117.2775
  1406.2500      0.0000    700.8281      8.4024    118.7799
  1406.5000      0.0000    710.8828      8.0876    117.6547
  1406.7500      0.0000    712.7346      7.9499    114.8725
