~Version Information
VERS.                      2.0: CWLS Log ASCII Standard - VERSION 2.0
WRAP.                       NO: One line per depth step
~Well Information Block
STRT.FT                -9.2500: 
STOP.FT              1854.7500: 
STEP.FT                 0.2500: 
NULL.                -999.2500: 
COMP.          Pioneer Natural Resources: COMPANY
WELL.          State Wildlife 32-16 Tr: WELL
FLD.           Purgatoire River: FIELD
LOC.           1838' FNL & 1850' FEL--: LOCATION
STAT.                       CO: State
CNTY.               Las Animas: COUNTY
CTRY. USA : Country
SECT. 16 : Section
TOWN. 32S : Township
RANG. 66W : Range
SRVC.          Patterson Wireline: SERVICE COMPANY
DATE.          Tue Nov 22 10:17:13 2005: LOG DATE
API.           05 071 08568 00: UNIQUE WELL ID
~Curve Information Block
DEPT.FT            0 000 00 00: Depth
CCL.                          : Casing Collar Locator
TT3.usec                      : CBL 3' Travel Time
AMP3.mV                       : CBL 3' Amplitude
GR.GAPI                       : Gamma Ray
~Parameter Information Block
~A  Depth       CCL         TT3         AMP3         GR     
# ...
   359.2500      0.0000    792.0738      9.9931     70.6295
   359.5000      0.0000    789.2579      9.9791     69.2612
   359.7500      0.0000    785.0942     10.0427     69.5291
   360.0000      0.0000    781.0094     10.1604     71.5196
   360.2500      0.0000    779.1863     10.3119     75.6909
   360.5000      0.0000    780.6655     10.4832     82.1052
   360.7500      0.0000    784.1580     10.6583     89.7564
   361.0000      0.0000    787.0103     10.8179     96.6324
   361.2500      0.0000    787.0262     10.9498    100.7013
   361.5000      0.0000    783.3774     11.0541    101.0993
   361.7500      0.0000    776.6474     11.1389     98.4538
   362.0000      0.0000    768.5666     11.2161     94.2748
   362.2500      0.0000    761.2432     11.3012     90.3622
   362.5000      0.0000    756.0535     11.4072     88.2948
   362.7500      0.0000    753.1222     11.5298     88.3955
   363.0000      0.0000    751.7658     11.6398     89.2038
   363.2500      0.0000    751.2163     11.6932     88.9568
   363.5000      0.0000    750.9952     11.6560     87.6924
   363.7500      0.0000    750.9072     11.5256     87.2236
   364.0000      0.0000    750.8986     11.3375     89.1825
   364.2500      0.0000    750.9437     11.1485     93.6595
   364.5000      0.0000    751.0011     11.0039     99.3857
   364.7500      0.0000    751.0250     10.9149    104.5463
   365.0000      0.0000    750.9813     10.8622    107.6794
   365.2500      0.0000    750.8580     10.8160    108.5054
   365.5000      0.0000    750.6688     10.7535    108.0311
   365.7500      0.0000    750.4442     10.6658    107.6255
   366.0000      0.0000    750.2132     10.5595    107.6748
   366.2500      0.0000    749.9957     10.4533    106.8901
   366.5000      0.0000    749.8101     10.3704    103.0185
   366.7500      0.0000    749.6730     10.3299     94.6808
   367.0000      0.0000    749.5825     10.3390     82.9054
   367.2500      0.0000    749.5189     10.3979     70.8975
   367.5000      0.0000    749.4729     10.5106     62.0996
   367.7500      0.0000    749.4660     10.6832     58.0628
   368.0000      0.0000    749.5424     10.9044     57.8229
   368.2500      0.0000    749.7434     11.1357     59.3157
   368.5000      0.0000    750.0822     11.3320     61.4248
   368.7500      0.0000    750.5261     11.4709     64.6054
   369.0000      0.0000    751.0006     11.5630     69.9258
   369.2500      0.0000    751.4227     11.6400     78.0368
   369.5000      0.0000    751.7444     11.7344     88.9675
   369.7500      0.0000    751.9672     11.8552    102.1113
   370.0000      0.0000    752.1116     11.9724    115.8091
   370.2500      0.0000    752.1858     12.0326    127.3377
   370.5000      0.0000    752.1978     12.0024    134.0939
   370.7500      0.0000    752.1826     11.9032    134.9330
   371.0000      0.0000    752.1851     11.8010    130.2983
   371.2500      0.0000    752.2074     11.7664    121.8010
   371.5000      0.0000    752.1986     11.8355    112.3125
   371.7500      0.0000    752.1115     11.9922    105.6565
   372.0000      0.0000    751.9614     12.1793    104.7756
   372.2500      0.0000    751.8226     12.3371    109.5089
   372.5000      0.0000    751.7698     12.4388    116.1989
   372.7500      0.0000    751.8217     12.4879    119.8695
   373.0000      0.0000    751.9272     12.4887    117.5868
   373.2500      0.0000    752.0060     12.4306    110.3607
   373.5000      0.0000    752.0087     12.3025    101.9129
   373.7500      0.0000    751.9476     12.1190     95.5786
   374.0000      0.0000    751.8779     11.9299     92.3002
   374.2500      0.0000    751.8540     11.7973     91.0678
   374.5000      0.0000    751.8955     11.7501     90.8376
   374.7500      0.0000    751.9819     11.7562     92.1235
   375.0000      0.0000    752.0743     11.7466     96.6707
   375.2500      0.0000    752.1431     11.6693    105.3231
   375.5000      0.0000    752.1812     11.5193    116.4348
   375.7500      0.0000    752.1951     11.3190    126.6121
   376.0000      0.0000    752.1921     11.0838    132.8098
   376.2500      0.0000    752.1792     10.8164    133.8699
   376.5000      0.0000    752.1647     10.5282    130.9486
   376.7500      0.0000    752.1481     10.2578    126.8519
   377.0000      0.0000    752.1118     10.0614    124.3195
   377.2500      0.0000    752.0370      9.9824    124.3754
   377.5000      0.0000    751.9269     10.0244    126.1918
   377.7500      0.0000    751.8066     10.1496    128.2002
   378.0000      0.0000    751.7090     10.3019    129.0253
   378.2500      0.0000    751.6669     10.4332    127.7672
   378.5000      0.0000    751.7076     10.5203    124.2605
   378.7500      0.0000    751.8347     10.5657    119.4497
   379.0000      0.0000    752.0125     10.5827    115.2523
   379.2500      0.0000    752.1830     10.5840    113.5448
   379.5000      0.0000    752.3066     10.5878    114.8349
   379.7500      0.0000    752.3837     10.6251    117.8487
   380.0000      0.0000    752.4348     10.7297    120.5707
   380.2500      0.0000    752.4789     10.9157    121.6376
   380.5000      0.0000    752.5408     11.1633    121.0924
   380.7500      0.0000    752.6934     11.4199    120.4111
   381.0000      0.0000    753.1028     11.6233    121.5467
   381.2500      0.0000    754.0483     11.7444    125.1202
   381.5000      0.0000    755.8024     11.8177    129.3757
   381.7500      0.0000    758.2715     11.9090    131.2548
   382.0000      0.0000    760.6552     12.0472    128.6144
   382.2500      0.0000    761.7352     12.1999    121.5962
   382.5000      0.0000    760.8518     12.3201    112.4517
   382.7500      0.0000    758.5361     12.3928    104.3662
   383.0000      0.0000    755.9868     12.4282     99.9705
   383.2500      0.0000    754.0567     12.4276     99.9822
   383.5000      0.0000    752.8669     12.3777    102.8334
   383.7500      0.0000    752.1437     12.2754    105.9726
   384.0000      0.0000    751.6402     12.1506    107.8785
   384.2500      0.0000    751.2753     12.0609    108.7119
   384.5000      0.0000    751.0705     12.0572    109.2375
   384.7500      0.0000    751.0536     12.1447    109.8553
   385.0000      0.0000    751.2021     12.2735    110.8285
   385.2500      0.0000    751.4563     12.3730    112.6039
   385.5000      0.0000    751.7581     12.3993    115.3245
   385.7500      0.0000    752.0704     12.3567    118.2240
   386.0000      0.0000    752.3696     12.2821    119.7804
   386.2500      0.0000    752.6412     12.2165    118.6405
   386.5000      0.0000    752.8832     12.1818    114.6226
   386.7500      0.0000    753.1004     12.1706    109.0723
   387.0000      0.0000    753.2930     12.1508    104.3399
   387.2500      0.0000    753.4624     12.0845    102.4890
   387.5000      0.0000    753.6254     11.9515    103.9217
   387.7500      0.0000    753.8000     11.7597    107.1471
   388.0000      0.0000    753.9694     11.5385    110.0806
   388.2500      0.0000    754.0892     11.3252    111.6092
   388.5000      0.0000    754.1429     11.1554    111.9551
   388.7500      0.0000    754.1548     11.0545    111.8928
   389.0000      0.0000    754.1364     11.0268    111.9441
   389.2500      0.0000    754.0603     11.0505    112.1056
   389.5000      0.0000    753.9025     11.0899    111.8544
   389.7500      0.0000    753.6780     11.1191    110.4033
   390.0000      0.0000    753.4241     11.1358    107.3863
   390.2500      0.0000    753.1745     11.1600    103.5602
   390.5000      0.0000    752.9533     11.2190    100.6155
   390.7500      0.0000    752.7684     11.3285    100.0423
   391.0000      0.0000    752.6087     11.4842    102.0496
   391.2500      0.0000    752.4641     11.6672    105.5411
   391.5000      0.0000    752.3796     11.8469    109.1502
   391.7500      0.0000    752.5320     11.9595    112.2907
   392.0000      0.0000    753.5430     11.8854    115.1244
   392.2500      0.0000    757.1038     11.4928    117.8703
   392.5000      0.0000    766.5151     10.7629    120.5895
