~Version Information
VERS.                      2.0: CWLS Log ASCII Standard - VERSION 2.0
WRAP.                       NO: One line per depth step
~Well Information Block
STRT.FT               -12.0000: 
STOP.FT              1728.0000: 
STEP.FT                 0.2500: 
NULL.                -999.2500: 
COMP.          XTO Energy Inc.: COMPANY
WELL.          Apache Canyon 35-06: WELL
FLD.              Vermejo Coal: FIELD
LOC.           2422' FNL & 1889' FWL--: LOCATION
STAT.                       CO: State
CNTY.               Las Animas: COUNTY
CTRY. USA : Country
SECT.  : Section
TOWN.  : Township
RANG.  : Range
SRVC.          Patterson Wireline: SERVICE COMPANY
DATE.          Fri Jan 06 08:11:44 2006: LOG DATE
API.              05 071 08540: UNIQUE WELL ID
~Curve Information Block
DEPT.FT            0 000 00 00: Depth
CCL.                          : Casing Collar Locator
TT3.usec                      : CBL 3' Travel Time
AMP3.mV                       : CBL 3' Amplitude
GR.GAPI                       : Gamma Ray
~Parameter Information Block
~A  Depth       CCL         TT3         AMP3         GR     
# ...
  1026.5000      0.0000    616.7828      5.0514    129.9454
  1026.7500      0.0000    612.1144      5.0311    120.2648
  1027.0000      0.0000    631.8532      5.0351    111.8992
  1027.2500      0.0000    668.8941      5.0634    106.5473
  1027.5000      0.0000    709.1541      5.1075    104.4222
  1027.7500      0.0000    742.7315      5.1559    104.4722
  1028.0000      0.0000    768.1018      5.2031    105.2278
  1028.2500      0.0000    786.5378      5.2501    105.3804
  1028.5000      0.0000    796.5273      5.2959    104.1825
  1028.7500      0.0000    794.4663      5.3292    102.0979
  1029.0000      0.0000    777.4459      5.3337    100.8784
  1029.2500      0.0000    744.6503      5.3027    102.2150
  1029.5000      0.0000    699.6932      5.2495    105.9592
  1029.7500      0.0000    653.2682      5.2011    109.6783
  1030.0000      0.0000    619.4348      5.1853    109.9857
  1030.2500      0.0000    605.0674      5.2217    104.6709
  1030.5000      0.0000    603.6004      5.3164     94.4046
  1030.7500      0.0000    602.1482      5.4594     82.8599
  1031.0000      0.0000    595.6740      5.6274     74.7509
  1031.2500      0.0000    592.7340      5.7882     72.9824
  1031.5000      0.0000    606.3372      5.9058     77.2731
  1031.7500      0.0000    639.7997      5.9480     85.3930
  1032.0000      0.0000    681.6815      5.9031     95.4613
  1032.2500      0.0000    713.4600      5.7935    106.8606
  1032.5000      0.0000    721.5062      5.6651    119.3379
  1032.7500      0.0000    703.5848      5.5595    131.9256
  1033.0000      0.0000    667.9100      5.4947    142.8100
  1033.2500      0.0000    628.0568      5.4669    150.0587
  1033.5000      0.0000    596.8314      5.4641    152.6067
  1033.7500      0.0000    582.1913      5.4771    150.6873
  1034.0000      0.0000    587.0657      5.5034    145.3328
  1034.2500      0.0000    611.0901      5.5415    137.6189
  1034.5000      0.0000    650.6995      5.5825    128.4364
  1034.7500      0.0000    697.5353      5.6084    118.6089
  1035.0000      0.0000    739.0761      5.6033    108.8317
  1035.2500      0.0000    763.8806      5.5714     99.5547
  1035.5000      0.0000    768.2228      5.5439     91.2472
  1035.7500      0.0000    758.1804      5.5594     84.7352
  1036.0000      0.0000    745.0856      5.6259     80.9479
  1036.2500      0.0000    738.3840      5.7103     80.3073
  1036.5000      0.0000    741.3607      5.7745     82.4800
  1036.7500      0.0000    751.3736      5.8110     86.5910
  1037.0000      0.0000    762.7102      5.8342     91.4706
  1037.2500      0.0000    769.8066      5.8495     96.0758
  1037.5000     -2.0000    769.7961      5.8492    100.2872
  1037.7500      0.0000    763.4005      5.8302    105.3015
  1038.0000      0.0000    753.3834      5.8084    112.6888
  1038.2500      0.0000    741.6503      5.8118    122.8757
  1038.5000      0.0000    728.2787      5.8481    134.6812
  1038.7500      0.0000    713.5461      5.8711    145.9370
  1039.0000      0.0000    700.1219      5.7973    154.2164
  1039.2500      0.0000    692.4857      5.5805    157.7641
  1039.5000      0.0000    693.9025      5.2596    156.7835
  1039.7500      0.0000    704.0825      4.9215    153.7006
  1040.0000      0.0000    719.9737      4.6311    151.3503
  1040.2500      0.0000    737.7560      4.4037    150.7400
  1040.5000      0.0000    753.5084      4.2203    150.7698
  1040.7500      0.0000    764.2422      4.0500    149.7233
  1041.0000      0.0000    771.4973      3.8714    146.4374
  1041.2500      0.0000    783.3603      3.6851    140.3508
  1041.5000      0.0000    808.1394      3.5104    131.5057
  1041.7500      0.0000    842.3666      3.3694    121.0755
  1042.0000      0.0000    868.2133      3.2806    111.2916
  1042.2500      0.0000    868.4894      3.2584    104.1787
  1042.5000      0.0000    843.8445      3.3088    100.3794
  1042.7500      0.0000    810.9492      3.4242     99.1624
  1043.0000      0.0000    785.7018      3.5862     99.2959
  1043.2500      0.0000    772.8017      3.7753    100.0200
  1043.5000      0.0000    768.4278      3.9778    101.4135
  1043.7500      0.0000    766.1254      4.1865    103.7027
  1044.0000      0.0000    760.2694      4.3964    106.2211
  1044.2500      0.0000    748.5833      4.5998    107.4676
  1044.5000      0.0000    732.6003      4.7869    106.3093
  1044.7500      0.0000    714.9461      4.9500    102.8923
  1045.0000      0.0000    697.3016      5.0841     98.4025
  1045.2500      0.0000    681.8043      5.1848     94.2178
  1045.5000      0.0000    672.3854      5.2514     91.2667
  1045.7500      0.0000    672.4811      5.2897     89.8301
  1046.0000      0.0000    681.7066      5.3079     89.6596
  1046.2500      0.0000    695.6368      5.3121     90.2096
  1046.5000      0.0000    708.4905      5.3091     90.7149
  1046.7500      0.0000    716.0499      5.3082     90.1139
  1047.0000      0.0000    717.3089      5.3166     87.3448
  1047.2500      0.0000    713.5354      5.3328     82.1159
  1047.5000      0.0000    704.2100      5.3468     75.2667
  1047.7500      0.0000    684.2435      5.3458     68.2250
  1048.0000      0.0000    648.1806      5.3242     62.2597
  1048.2500      0.0000    599.5190      5.2931     58.1901
  1048.5000      0.0000    554.9993      5.2758     56.3399
  1048.7500      0.0000    536.0789      5.2877     56.4662
  1049.0000      0.0000    552.4485      5.3206     57.8288
  1049.2500      0.0000    593.2988      5.3491     59.5759
  1049.5000      0.0000    635.3043      5.3499     61.1857
  1049.7500      0.0000    659.3114      5.3170     62.5755
  1050.0000      0.0000    661.3714      5.2609     63.9101
  1050.2500      0.0000    652.1271      5.1995     65.4401
  1050.5000      0.0000    647.1545      5.1483     67.5439
  1050.7500      0.0000    654.6774      5.1178     70.7466
  1051.0000      0.0000    669.8399      5.1124     75.3953
  1051.2500      0.0000    679.5604      5.1288     81.1000
  1051.5000      0.0000    671.3207      5.1565     86.5684
  1051.7500      0.0000    638.8983      5.1814     90.2666
  1052.0000      0.0000    585.4377      5.1930     91.3785
  1052.2500      0.0000    524.1315      5.1880     90.0575
  1052.5000      0.0000    473.1420      5.1693     86.9069
  1052.7500      0.0000    446.5510      5.1422     82.6423
  1053.0000      0.0000    448.6195      5.1114     78.1781
  1053.2500      0.0000    474.4446      5.0805     74.3930
  1053.5000      0.0000    513.9049      5.0556     71.4741
  1053.7500      0.0000    556.3386      5.0454     68.7834
  1054.0000      0.0000    594.5273      5.0547     65.7029
  1054.2500      0.0000    626.1908      5.0785     62.5352
  1054.5000      0.0000    652.4175      5.1048     60.3352
  1054.7500      0.0000    674.6964      5.1266     59.9378
  1055.0000      0.0000    693.2291      5.1508     61.4537
  1055.2500      0.0000    707.6526      5.1913     64.7858
  1055.5000      0.0000    718.3449      5.2536     70.3785
  1055.7500      0.0000    726.0826      5.3274     79.0963
  1056.0000      0.0000    731.0100      5.3955     91.2049
  1056.2500      0.0000    732.9909      5.4461    105.5138
  1056.5000      0.0000    732.7503      5.4759    119.4992
  1056.7500      0.0000    731.7892      5.4837    130.3451
  1057.0000      0.0000    731.2736      5.4651    136.3835
  1057.2500      0.0000    731.6965      5.4140    138.0324
  1057.5000      0.0000    733.3546      5.3304    137.2635
  1057.7500      0.0000    736.5026      5.2262    135.9183
  1058.0000      0.0000    741.0016      5.1253    134.5240
  1058.2500      0.0000    746.0737      5.0535    132.5584
  1058.5000      0.0000    750.4486      5.0259    129.3571
  1058.7500      0.0000    752.7959      5.0401    124.6942
  1059.0000      0.0000    752.1339      5.0798    118.9063
  1059.2500      0.0000    748.0937      5.1232    112.7468
  1059.5000      0.0000    741.2704      5.1528    107.2105
  1059.7500      0.0000    733.4290      5.1606    103.5051
