~Version Information
VERS.                      2.0: CWLS Log ASCII Standard - VERSION 2.0
WRAP.                       NO: One line per depth step
~Well Information Block
STRT.FT               547.0000: 
STOP.FT              1685.5000: 
STEP.FT                 0.1000: 
NULL.                -999.2500: 
COMP.          Pioneer Natural Resources: COMPANY
WELL.           Pedri 42-33 Tr: WELL
FLD.           Purgatorie River: FIELD
LOC.           1933' FNL & 662' FEL: LOCATION
PROV.                 Colorado: PROVINCE
CNTY.               Las Animas: COUNTRY
SRVC.                Patterson: SERVICE COMPANY
DATE.          Mon Dec 19 13:36:44 2005: LOG DATE
UWI.                          : UNIQUE WELL ID
~Curve Information Block
DEPT.FT            0 000 00 00: Depth
DCAL.in                       : CDL Caliper
RHOB.g/cc                     : CDL Bulk Density
RHOC.g/cc                     : CDL Density Correction
DPOR.pu                       : CDL Density Porosity
GR.GAPI                       : Gamma Ray
~Parameter Information Block
~A  Depth       DCAL        RHOB        RHOC        DPOR         GR     
# ...
  1297.4000      7.9638      2.5651      0.0849      5.1482     40.8003
  1297.5000      7.9564      2.5457      0.0988      6.3240     39.9022
  1297.6000      7.9564      2.5445      0.0760      6.3939     38.2822
  1297.7000      7.9564      2.5560      0.0597      5.6997     38.5513
  1297.8000      7.9549      2.5735      0.0466      4.6380     41.5218
  1297.9000      7.9549      2.5895      0.0954      3.6684     44.1898
  1298.0000      7.9881      2.6018      0.0574      2.9235     45.4841
  1298.1000      7.9881      2.6176      0.0691      1.9622     46.2179
  1298.2000      7.9881      2.6348      0.0942      0.9238     46.3526
  1298.3000      8.0168      2.6409      0.1192      0.5487     46.1348
  1298.4000      8.0168      2.6334      0.0785      1.0058     45.9329
  1298.5000      8.0145      2.6244      0.0271      1.5538     46.1249
  1298.6000      8.0145      2.6295      0.0608      1.2427     47.0029
  1298.7000      8.0145      2.6493      0.0483      0.0398     48.3619
  1298.8000      8.0119      2.6690      0.0753     -1.1522     47.7079
  1298.9000      8.0119      2.6765      0.0615     -1.6064     44.0250
  1299.0000      8.0158      2.6710      0.0725     -1.2748     41.3243
  1299.1000      8.0158      2.6552      0.0572     -0.3142     43.1557
  1299.2000      8.0158      2.6358      0.0350      0.8630     47.4824
  1299.3000      8.0099      2.6217      0.0937      1.7130     50.8723
  1299.4000      8.0099      2.6187      0.0206      1.8969     53.4874
  1299.5000      8.0162      2.6292      0.0474      1.2624     57.6054
  1299.6000      8.0162      2.6488      0.0312      0.0747     63.3378
  1299.7000      8.0162      2.6703      0.0527     -1.2286     68.7645
  1299.8000      7.9927      2.6830      0.0782     -2.0019     72.7244
  1299.9000      7.9927      2.6791      0.1160     -1.7654     77.1085
  1300.0000      7.9855      2.6645      0.0836     -0.8770     84.1710
  1300.1000      7.9855      2.6494      0.1176      0.0368     91.8657
  1300.2000      7.9855      2.6398      0.0708      0.6179     96.9022
  1300.3000      8.0127      2.6403      0.0797      0.5908     98.7506
  1300.4000      8.0127      2.6485      0.0902      0.0936     99.2066
  1300.5000      8.0071      2.6579      0.1133     -0.4795     99.9273
  1300.6000      8.0071      2.6629      0.1199     -0.7801    100.8457
  1300.7000      8.0071      2.6599      0.1273     -0.6024    101.1053
  1300.8000      7.9850      2.6461      0.1246      0.2381    101.4702
  1300.9000      7.9850      2.6163      0.1161      2.0429    103.7172
  1301.0000      7.9845      2.5752      0.0823      4.5346    106.7514
  1301.1000      7.9845      2.5402      0.0742      6.6554    109.0117
  1301.2000      7.9845      2.5270      0.0595      7.4536    112.4659
  1301.3000      8.0037      2.5318      0.0916      7.1636    117.3740
  1301.4000      8.0037      2.5291      0.0783      7.3298    120.3109
  1301.5000      8.0271      2.5020      0.0767      8.9713    120.9683
  1301.6000      8.0271      2.4611      0.0966     11.4495    123.0196
  1301.7000      8.0271      2.4273      0.1034     13.4999    126.2696
  1301.8000      8.0774      2.4044      0.1409     14.8853    129.2025
  1301.9000      8.0774      2.3868      0.1087     15.9510    133.1622
  1302.0000      8.0875      2.3866      0.1019     15.9623    138.0352
  1302.1000      8.0875      2.4201      0.1222     13.9350    140.4406
  1302.2000      8.0875      2.4802      0.2276     10.2929    140.3927
  1302.3000      8.0895      2.5475      0.2667      6.2122    142.4716
  1302.4000      8.0895      2.6089      0.3361      2.4880    147.2237
  1302.5000      8.1088      2.6513      0.3217     -0.0809    152.4445
  1302.6000      8.1088      2.6632      0.3514     -0.8015    156.3896
  1302.7000      8.1088      2.6439      0.3236      0.3673    156.9958
  1302.8000      8.0364      2.5985      0.3022      3.1191    153.7828
  1302.9000      8.0364      2.5187      0.2242      7.9591    147.7816
  1303.0000      8.0599      2.3913      0.1195     15.6800    139.8306
  1303.1000      8.0599      2.2327      0.0669     25.2887    131.1575
  1303.2000      8.0599      2.0816      0.0371     34.4466    124.0313
  1303.3000      8.0809      1.9525      0.0260     42.2746    119.1588
  1303.4000      8.0809      1.8297     -0.0039     49.7140    115.0765
  1303.5000      8.1404      1.7037      0.0054     57.3536    111.0876
  1303.6000      8.1404      1.5891      0.0007     64.2996    107.1640
  1303.7000      8.1404      1.5140      0.0233     68.8456    103.1191
  1303.8000      8.1753      1.4993      0.0518     69.7380     98.3099
  1303.9000      8.1753      1.5551      0.0860     66.3591     92.8994
  1304.0000      8.1454      1.6716      0.2480     59.2983     89.9451
  1304.1000      8.1454      1.8095      0.3733     50.9395     91.8807
  1304.2000      8.1454      1.9344      0.3954     43.3675     95.9735
  1304.3000      8.4754      2.0437      0.3498     36.7447     97.6724
  1304.4000      8.4754      2.1450      0.3604     30.6082     97.6777
  1304.5000      8.5004      2.2374      0.2732     25.0035     99.9310
  1304.6000      8.5004      2.3162      0.2457     20.2298    104.4779
  1304.7000      8.5004      2.3715      0.2150     16.8791    108.8539
  1304.8000      8.2076      2.3963      0.1224     15.3749    113.1706
  1304.9000      8.2076      2.4032      0.0777     14.9548    118.7595
  1305.0000      8.1422      2.4167      0.0972     14.1408    124.5658
  1305.1000      8.1422      2.4489      0.0664     12.1873    127.9967
  1305.2000      8.1422      2.4920      0.1101      9.5729    128.8224
  1305.3000      8.2147      2.5314      0.1645      7.1906    129.5226
  1305.4000      8.2147      2.5602      0.1594      5.4399    131.2829
  1305.5000      8.3170      2.5790      0.1797      4.3030    134.3850
  1305.6000      8.3170      2.5859      0.1809      3.8877    138.2400
  1305.7000      8.3170      2.5731      0.1919      4.6628    141.3000
  1305.8000      8.2097      2.5323      0.1964      7.1361    142.6980
  1305.9000      8.2097      2.4718      0.0475     10.8015    142.3427
  1306.0000      8.1676      2.4217     -0.0101     13.8337    140.3059
  1306.1000      8.1676      2.3975      0.0560     15.3012    139.6283
  1306.2000      8.1676      2.3871      0.0350     15.9334    142.8941
  1306.3000      8.0534      2.3846      0.0430     16.0857    147.3960
  1306.4000      8.0534      2.3978      0.0407     15.2819    148.9617
  1306.5000      8.0241      2.4255      0.1211     13.6075    145.2567
  1306.6000      8.0241      2.4525      0.1429     11.9719    138.7703
  1306.7000      8.0241      2.4777      0.0941     10.4450    132.6675
  1306.8000      7.9911      2.5139      0.1225      8.2499    126.8643
  1306.9000      7.9911      2.5622      0.1639      5.3217    122.4786
  1307.0000      8.0146      2.6092      0.2204      2.4728    119.5587
  1307.1000      8.0146      2.6452      0.1832      0.2912    115.8305
  1307.2000      8.0146      2.6662      0.2033     -0.9807    110.3270
  1307.3000      8.0041      2.6688      0.1061     -1.1404    103.3871
  1307.4000      8.0041      2.6560      0.1050     -0.3609     95.9397
  1307.5000      8.0109      2.6212      0.1014      1.7453     87.9004
  1307.6000      8.0109      2.5594      0.0615      5.4909     79.2263
  1307.7000      8.0109      2.4998     -0.0895      9.1030     70.9930
  1307.8000      8.0035      2.4778      0.0338     10.4360     62.6323
  1307.9000      8.0035      2.4848      0.0862     10.0118     55.0394
  1308.0000      7.9596      2.4969      0.0748      9.2801     50.4384
  1308.1000      7.9596      2.5065      0.0651      8.6968     48.1627
  1308.2000      7.9596      2.5129      0.0700      8.3106     47.5488
  1308.3000      7.9621      2.5189      0.0544      7.9478     48.3000
  1308.4000      7.9621      2.5236      0.0706      7.6598     48.9172
  1308.5000      8.0125      2.5165      0.0663      8.0918     49.3998
