~Version Information
VERS.                      2.0: CWLS Log ASCII Standard - VERSION 2.0
WRAP.                       NO: One line per depth step
~Well Information Block
STRT.FT               245.0000: 
STOP.FT              1217.7000: 
STEP.FT                 0.1000: 
NULL.                -999.2500: 
COMP.          Pioneer Natural Resources: COMPANY
WELL.          Lucky Lady 42-29: WELL
FLD.           Purgatoire River: FIELD
LOC.           2482' FNL & 662' FEL--: LOCATION
CNTY.               Las Animas: COUNTY
SRVC.                Patterson: SERVICE COMPANY
DATE.          Thu Mar 09 18:39:54 2006: LOG DATE
UWI.           05 071 08659 00: UNIQUE WELL ID
STAT.                 Colorado: STATE
~Curve Information Block
DEPT.FT            0 000 00 00: Depth
DCAL.in                       : CDL Caliper
RHOB.g/cc                     : CDL Bulk Density
RHOC.g/cc                     : CDL Density Correction
DPOR.pu                       : CDL Density Porosity
NPOR.pu                       : Neutron Porosity
GR.GAPI                       : Gamma Ray
~Parameter Information Block
~A  Depth       DCAL        RHOB        RHOC        DPOR        NPOR         GR     
# ...
   312.2000      7.9760      2.4854      0.0715      9.9741     19.4169     81.8266
   312.3000      7.9819      2.4840      0.0242     10.0583     19.6225     80.9460
   312.4000      7.9819      2.4789      0.0045     10.3698     19.9146     79.7863
   312.5000      7.9854      2.4762      0.0333     10.5346     19.7750     78.2777
   312.6000      7.9854      2.4699      0.0147     10.9145     19.1488     76.7219
   312.7000      7.9854      2.4560      0.0089     11.7593     18.5616     77.2287
   312.8000      7.9865      2.4401     -0.0057     12.7228     18.1943     76.8944
   312.9000      7.9865      2.4302      0.0189     13.3219     17.7222     71.4320
   313.0000      7.9865      2.4314     -0.0060     13.2473     17.0820     65.5558
   313.1000      7.9865      2.4412      0.0321     12.6562     16.4406     65.5692
   313.2000      7.9865      2.4420      0.0813     12.6087     15.8665     67.2143
   313.3000      7.9872      2.4254      0.0552     13.6097     15.5449     65.6654
   313.4000      7.9872      2.4065      0.0142     14.7567     15.5363     65.5943
   313.5000      7.9898      2.3972      0.0250     15.3227     15.6314     69.9532
   313.6000      7.9898      2.3933      0.0217     15.5548     15.6876     75.2967
   313.7000      7.9898      2.3938     -0.0142     15.5243     15.6481     78.2403
   313.8000      7.9914      2.4061      0.0098     14.7822     15.6583     77.5610
   313.9000      7.9914      2.4286      0.0270     13.4172     16.0163     76.9181
   314.0000      7.9911      2.4483      0.0324     12.2249     16.5702     78.2698
   314.1000      7.9911      2.4533      0.0283     11.9207     16.7865     76.3405
   314.2000      7.9911      2.4423      0.0466     12.5870     16.7743     71.1537
   314.3000      7.9890      2.4252      0.0209     13.6227     16.9487     67.6643
   314.4000      7.9890      2.4143     -0.0116     14.2840     17.0787     67.5969
   314.5000      7.9831      2.4136      0.0429     14.3263     16.8738     70.3123
   314.6000      7.9831      2.4189      0.0105     14.0059     16.6733     72.8363
   314.7000      7.9831      2.4279      0.0224     13.4615     16.8562     72.0533
   314.8000      7.9776      2.4406      0.0105     12.6904     17.3914     69.3653
   314.9000      7.9776      2.4488      0.0475     12.1939     17.7529     68.7092
   315.0000      7.9842      2.4429      0.0116     12.5503     17.4247     70.7054
   315.1000      7.9842      2.4300     -0.0030     13.3344     16.7090     73.0895
   315.2000      7.9842      2.4227      0.0033     13.7733     16.0969     73.2656
   315.3000      8.0005      2.4215      0.0553     13.8497     15.7572     71.2610
   315.4000      8.0005      2.4181      0.0584     14.0552     15.7827     70.9438
   315.5000      8.0144      2.4067      0.0539     14.7427     16.0278     72.9151
   315.6000      8.0144      2.3866      0.0403     15.9614     16.1243     71.9868
   315.7000      8.0144      2.3649      0.0154     17.2777     15.8914     67.5294
   315.8000      8.0197      2.3526     -0.0140     18.0228     15.4266     65.2634
   315.9000      8.0197      2.3532      0.0129     17.9886     15.0577     66.9708
   316.0000      8.0175      2.3592      0.0356     17.6232     15.0329     67.5061
   316.1000      8.0175      2.3659      0.0448     17.2173     15.1868     64.0990
   316.2000      8.0175      2.3772      0.0356     16.5320     15.1890     60.1790
   316.3000      8.0095      2.3940      0.0938     15.5174     15.1024     58.8918
   316.4000      8.0095      2.4086      0.1104     14.6306     15.0157     59.0651
   316.5000      7.9986      2.4189      0.1181     14.0075     14.7181     58.7744
   316.6000      7.9986      2.4303      0.1328     13.3162     14.1927     58.8560
   316.7000      7.9986      2.4420      0.1089     12.6077     13.6726     60.6269
   316.8000      7.9935      2.4473      0.0822     12.2849     13.5532     63.3540
   316.9000      7.9935      2.4446      0.0989     12.4513     13.8703     65.6659
   317.0000      8.0015      2.4340      0.1065     13.0905     14.1028     66.9313
   317.1000      8.0015      2.4191      0.0239     13.9968     13.9329     66.1075
   317.2000      8.0015      2.4120      0.0571     14.4213     13.6450     62.3437
   317.3000      8.0172      2.4169      0.0800     14.1246     13.6140     58.4413
   317.4000      8.0172      2.4214      0.0762     13.8551     13.7989     57.7238
   317.5000      8.0247      2.4181      0.0416     14.0549     13.9375     59.3298
   317.6000      8.0247      2.4159      0.0348     14.1858     13.9013     60.8370
   317.7000      8.0247      2.4259      0.0512     13.5804     13.7430     62.4199
   317.8000      8.0232      2.4459      0.0667     12.3668     13.6310     64.8289
   317.9000      8.0232      2.4611      0.0746     11.4497     13.7807     66.6578
   318.0000      8.0182      2.4582      0.0607     11.6240     14.1768     67.1535
   318.1000      8.0182      2.4449      0.0575     12.4326     14.5083     67.7399
   318.2000      8.0182      2.4440      0.0619     12.4858     14.6093     68.9247
   318.3000      8.0222      2.4595      0.1322     11.5478     14.6284     68.0732
   318.4000      8.0222      2.4696      0.1688     10.9332     14.7135     63.0466
   318.5000      8.0335      2.4587      0.1400     11.5966     14.8115     57.6028
   318.6000      8.0335      2.4381      0.0708     12.8440     14.7384     55.3960
   318.7000      8.0335      2.4281      0.0693     13.4458     14.5374     55.9560
   318.8000      8.0397      2.4274      0.0696     13.4913     14.4744     58.2260
   318.9000      8.0397      2.4256      0.0500     13.6026     14.7040     62.6943
   319.0000      8.0405      2.4235      0.0549     13.7258     15.0419     67.2626
   319.1000      8.0405      2.4211      0.0609     13.8715     15.0249     67.4483
   319.2000      8.0405      2.4139      0.0567     14.3081     14.5207     63.6124
   319.3000      8.0399      2.4049      0.0336     14.8517     14.1288     58.8560
   319.4000      8.0399      2.3999      0.0673     15.1567     14.1822     55.2394
   319.5000      8.0395      2.3929      0.0515     15.5803     14.1948     53.3140
   319.6000      8.0395      2.3822      0.0238     16.2296     13.9117     51.4130
   319.7000      8.0395      2.3802     -0.0141     16.3497     13.7926     49.8641
   319.8000      8.0397      2.3883      0.0495     15.8610     14.0328     51.4198
   319.9000      8.0397      2.3921      0.0689     15.6321     14.2231     54.5524
   320.0000      8.0402      2.3902     -0.0077     15.7457     14.0256     55.5612
   320.1000      8.0402      2.3876      0.0574     15.9052     13.5640     54.2937
   320.2000      8.0402      2.3842      0.0005     16.1074     13.0609     52.9682
   320.3000      8.0355      2.3869      0.0654     15.9455     12.5038     53.7797
   320.4000      8.0355      2.3995      0.0486     15.1799     12.1449     56.4194
   320.5000      8.0247      2.4160      0.0599     14.1808     12.3743     59.3501
   320.6000      8.0247      2.4244      0.0959     13.6710     12.8807     61.1426
   320.7000      8.0247      2.4242      0.0455     13.6856     13.0700     61.5960
   320.8000      8.0167      2.4234      0.0616     13.7360     12.9139     63.6462
   320.9000      8.0167      2.4180      0.0779     14.0576     12.7066     66.2222
   321.0000      8.0156      2.4086      0.0441     14.6291     12.4814     63.9636
   321.1000      8.0156      2.4083      0.0559     14.6475     12.2703     57.7161
   321.2000      8.0156      2.4199      0.0541     13.9474     12.2133     53.9035
   321.3000      8.0180      2.4351      0.0386     13.0231     12.2929     55.5149
   321.4000      8.0180      2.4425      0.0924     12.5755     12.4425     59.4509
   321.5000      8.0224      2.4314      0.0759     13.2506     12.5630     61.3138
   321.6000      8.0224      2.4126      0.0351     14.3856     12.5523     60.6661
   321.7000      8.0224      2.4097      0.0621     14.5614     12.4700     60.6490
