~Version Information
VERS.                      2.0: CWLS Log ASCII Standard - VERSION 2.0
WRAP.                       NO: One line per depth step
~Well Information Block
STRT.FT               875.0000: 
STOP.FT              2947.2500: 
STEP.FT                 0.2500: 
NULL.                -999.2500: 
COMP.          Pioneer Natural Resources: COMPANY
WELL.          Hanginstone 21-27: WELL
FLD.           Purgatoire River: FIELD
LOC.           1186' FNL & 1606' FWL--: LOCATION
PROV.                 Colorado: PROVINCE
CNTY.               Las Animas: COUNTRY
SRVC.                Patterson: SERVICE COMPANY
DATE.          Sat Jan 07 09:06:14 2006: LOG DATE
UWI.           05 071 08632 00: UNIQUE WELL ID
~Curve Information Block
DEPT.FT            0 000 00 00: Depth
SN.Ohm-m                      : IEL Short Normal
SP.mV                         : IEL Spontaneous Potential
DIR.Ohm-m                     : IEL Induction Resistivity
GR.GAPI                       : Gamma Ray
~Parameter Information Block
~A  Depth        SN          SP         DIR          GR     
# ...
  1679.0000     68.3246   -123.9536     53.6885     50.9621
  1679.2500     64.3655   -122.4779     50.3215     53.5324
  1679.5000     60.2141   -120.8059     46.5999     57.6506
  1679.7500     56.3352   -119.0034     42.9663     61.3904
  1680.0000     53.0890   -117.1612     39.7887     70.0828
  1680.2500     50.5809   -115.3816     37.2733     78.2466
  1680.5000     48.6612   -113.7616     35.4646     92.5321
  1680.7500     47.0540   -112.3758     34.2929    101.4243
  1681.0000     45.5158   -111.2620     33.6263    109.9266
  1681.2500     43.9359   -110.4125     33.3101    110.8670
  1681.5000     42.3566   -109.7733     33.1955    105.1550
  1681.7500     40.9353   -109.2520     33.1611     97.9331
  1682.0000     39.8622   -108.7315     33.1248     85.1702
  1682.2500     39.2553   -108.0900     33.0364     76.9913
  1682.5000     39.0881   -107.2216     32.8497     67.0756
  1682.7500     39.2020   -106.0542     32.4980     62.7318
  1683.0000     39.3779   -104.5620     31.9045     60.6197
  1683.2500     39.4043   -102.7675     31.0287     62.7040
  1683.5000     39.1119   -100.7351     29.9069     71.4601
  1683.7500     38.3946    -98.5555     28.6416     80.4865
  1684.0000     37.2286    -96.3264     27.3472     96.1889
  1684.2500     35.6809    -94.1341     26.1006    106.0799
  1684.5000     33.8834    -92.0395     24.9300    117.2141
  1684.7500     31.9746    -90.0718     23.8376    121.4594
  1685.0000     30.0455    -88.2311     22.8282    123.5203
  1685.2500     28.1225    -86.4961     21.9190    122.7961
  1685.5000     26.1909    -84.8357     21.1287    119.6648
  1685.7500     24.2408    -83.2194     20.4609    116.4290
  1686.0000     22.3075    -81.6245     19.8994    109.8785
  1686.2500     20.4829    -80.0389     19.4156    104.6723
  1686.5000     18.8968    -78.4606     18.9819     97.0003
  1686.7500     17.6825    -76.8939     18.5791     93.0838
  1687.0000     16.9385    -75.3460     18.1967     90.6758
  1687.2500     16.6804    -73.8242     17.8283     91.9172
  1687.5000     16.8092    -72.3347     17.4678     97.7951
  1687.7500     17.1322    -70.8816     17.1098    103.4220
  1688.0000     17.4433    -69.4674     16.7525    111.6291
  1688.2500     17.6145    -68.0928     16.4029    115.2715
  1688.5000     17.6346    -66.7560     16.0788    116.7972
  1688.7500     17.5742    -65.4530     15.8041    115.9568
  1689.0000     17.5111    -64.1771     15.5975    114.5345
  1689.2500     17.4728    -62.9202     15.4592    114.5528
  1689.5000     17.4295    -61.6739     15.3645    116.1700
  1689.7500     17.3252    -60.4316     15.2674    117.9583
  1690.0000     17.1168    -59.1901     15.1181    121.4823
  1690.2500     16.7988    -57.9505     14.8834    124.3338
  1690.5000     16.4038    -56.7180     14.5621    128.5437
  1690.7500     15.9827    -55.5010     14.1835    130.4680
  1691.0000     15.5786    -54.3086     13.7918    131.0956
  1691.2500     15.2124    -53.1494     13.4285    130.2690
  1691.5000     14.8879    -52.0300     13.1212    128.8901
  1691.7500     14.6055    -50.9546     12.8816    129.0639
  1692.0000     14.3679    -49.9261     12.7103    132.0798
  1692.2500     14.1760    -48.9480     12.6037    135.7639
  1692.5000     14.0263    -48.0264     12.5598    142.4888
  1692.7500     13.9195    -47.1708     12.5824    146.7906
  1693.0000     13.8736    -46.3943     12.6800    151.4183
  1693.2500     13.9241    -45.7116     12.8627    152.5593
  1693.5000     14.1113    -45.1355     13.1383    150.7018
  1693.7500     14.4636    -44.6731     13.5110    147.3547
  1694.0000     14.9922    -44.3203     13.9817    140.9146
  1694.2500     15.6895    -44.0598     14.5470    136.9031
  1694.5000     16.5266    -43.8593     15.1962    132.4092
  1694.7500     17.4488    -43.6758     15.9104    130.3009
  1695.0000     18.3889    -43.4628     16.6672    127.7086
  1695.2500     19.3033    -43.1818     17.4501    126.0612
  1695.5000     20.2114    -42.8149     18.2586    123.6876
  1695.7500     21.2040    -42.3751     19.1114    122.2863
  1696.0000     22.4050    -41.9106     20.0419    120.4388
  1696.2500     23.8995    -41.4994     21.0872    119.1454
  1696.5000     25.6750    -41.2345     22.2784    116.5109
  1696.7500     27.6126    -41.2028     23.6353    113.8902
  1697.0000     29.5336    -41.4611     25.1665    107.9113
  1697.2500     31.2637    -42.0185     26.8686    102.2633
  1697.5000     32.6784    -42.8279     28.7146     91.5337
  1697.7500     33.7137    -43.7924     30.6293     83.4686
  1698.0000     34.3529    -44.7822     32.4627     71.2876
  1698.2500     34.6027    -45.6582     33.9841     63.8534
  1698.5000     34.4661    -46.2958     34.9224     55.2022
  1698.7500     33.9359    -46.6027     35.0578     52.1671
  1699.0000     33.0179    -46.5289     34.3227     53.3763
  1699.2500     31.7567    -46.0679     32.8437     58.3824
  1699.5000     30.2320    -45.2533     30.8880     71.1628
  1699.7500     28.5348    -44.1514     28.7481     81.7547
  1700.0000     26.7535    -42.8516     26.6477     97.9336
  1700.2500     24.9700    -41.4571     24.7136    107.8124
  1700.5000     23.2555    -40.0718     22.9956    120.8236
  1700.7500     21.6641    -38.7889     21.5009    128.4164
  1701.0000     20.2341    -37.6796     20.2199    137.9129
  1701.2500     18.9908    -36.7862     19.1407    142.4724
  1701.5000     17.9453    -36.1199     18.2564    145.9811
  1701.7500     17.0971    -35.6651     17.5633    146.2407
  1702.0000     16.4406    -35.3875     17.0544    144.7521
  1702.2500     15.9703    -35.2444     16.7094    143.4652
  1702.5000     15.6719    -35.1937     16.4872    142.1876
  1702.7500     15.5124    -35.1999     16.3234    141.8447
  1703.0000     15.4395    -35.2373     16.1350    141.5496
  1703.2500     15.3965    -35.2894     15.8326    141.0162
  1703.5000     15.3439    -35.3455     15.3417    138.8484
  1703.7500     15.2788    -35.3973     14.6311    136.2292
  1704.0000     15.2392    -35.4355     13.7350    131.0098
  1704.2500     15.2849    -35.4481     12.7494    127.3768
  1704.5000     15.4612    -35.4214     11.7965    122.9794
  1704.7500     15.7629    -35.3424     10.9819    121.3542
  1705.0000     16.1183    -35.2028     10.3726    121.4644
  1705.2500     16.4097    -35.0019     10.0080    123.0450
  1705.5000     16.5273    -34.7473      9.9351    126.4522
  1705.7500     16.4268    -34.4539     10.2624    128.7216
  1706.0000     16.1481    -34.1406     11.2494    131.7213
  1706.2500     15.7838    -33.8269     13.5405    133.3756
  1706.5000     15.4256    -33.5306     19.1335    134.7445
  1706.7500     15.1298    -33.2670     38.7793    134.5854
  1707.0000     14.9135    -33.0513 100000.0000    133.3485
  1707.2500     14.7689    -32.9008 100000.0000    132.7659
  1707.5000     14.6781    -32.8389 100000.0000    132.8770
  1707.7500     14.6227    -32.8972 100000.0000    132.7902
  1708.0000     14.5893    -33.1173 100000.0000    130.4273
  1708.2500     14.5715    -33.5512 100000.0000    127.2618
  1708.5000     14.5652    -34.2616 100000.0000    122.4665
  1708.7500     14.5605    -35.3237 100000.0000    121.0316
  1709.0000     14.5385    -36.8286 100000.0000    122.8986
  1709.2500     14.4771    -38.8887 100000.0000    126.1996
  1709.5000     14.3610    -41.6443 100000.0000    131.7411
  1709.7500     14.1853    -45.2677    125.6604    134.4520
  1710.0000     13.9539    -49.9607     39.4681    136.0110
  1710.2500     13.6721    -55.9423     40.0554    135.7116
  1710.5000     13.3403    -63.4207 100000.0000    134.8571
  1710.7500     12.9485    -72.5545 100000.0000    134.9715
  1711.0000     12.4761    -83.4073 100000.0000    136.7161
  1711.2500     11.8946    -95.9081 100000.0000    138.2726
  1711.5000     11.1731   -109.8296 100000.0000    138.9171
  1711.7500     10.2838   -124.7950 100000.0000    137.2505
  1712.0000      9.2168   -140.3126 100000.0000    132.3664
  1712.2500      8.0053   -155.8347 100000.0000    129.0828
