~Version Information
VERS.                      2.0: CWLS Log ASCII Standard - VERSION 2.0
WRAP.                       NO: One line per depth step
~Well Information Block
STRT.FT               240.0000: 
STOP.FT               940.5000: 
STEP.FT                 0.1000: 
NULL.                -999.2500: 
COMP.          Pioneer Natural Resources: COMPANY
WELL.               Ernie 31-6: WELL
FLD.           Purgatoire River: FIELD
LOC.           681' FNL & 2138' FEL: LOCATION
CNTY.               Las Animas: COUNTY
SRVC.                Patterson: SERVICE COMPANY
DATE.          Tue May 30 07:05:10 2006: LOG DATE
UWI.           05 071 08716 00: UNIQUE WELL ID
STAT.                 Colorado: STATE
~Curve Information Block
DEPT.FT            0 000 00 00: Depth
DCAL.in                       : CDL Caliper
RHOB.g/cc                     : CDL Bulk Density
RHOC.g/cc                     : CDL Density Correction
DPOR.pu                       : CDL Density Porosity
GR.GAPI                       : Gamma Ray
NPOR.pu                       : Neutron Porosity
~Parameter Information Block
~A  Depth       DCAL        RHOB        RHOC        DPOR         GR         NPOR    
# ...
   796.8000      7.9719      2.4099      0.0236     14.5512     52.8877     11.2345
   796.9000      7.9719      2.3283      0.0115     19.4979     51.1647      9.8051
   797.0000      7.9762      2.2078     -0.0457     26.8014     50.2777      9.2405
   797.1000      7.9762      2.0779     -0.0837     34.6745     51.7138      9.5619
   797.2000      7.9762      1.9670     -0.0880     41.3965     54.7724     10.1923
   797.3000      7.9765      1.8786     -0.0755     46.7499     57.7208     10.5467
   797.4000      7.9765      1.8170     -0.0849     50.4865     60.7022     10.5865
   797.5000      7.9812      1.7974     -0.0707     51.6716     62.8201     10.7580
   797.6000      7.9812      1.8222      0.0761     50.1679     65.6516     11.3694
   797.7000      7.9812      1.8754      0.1421     46.9431     73.8752     12.4751
   797.8000      8.0117      1.9476      0.2066     42.5711     84.6134     14.0801
   797.9000      8.0117      2.0355      0.2950     37.2448     89.8241     15.9001
   798.0000      8.0177      2.1338      0.2697     31.2867     89.6640     17.4485
   798.1000      8.0177      2.2327      0.3191     25.2914     91.7794     18.7402
   798.2000      8.0177      2.3112      0.2651     20.5338    100.7401     20.2094
   798.3000      7.9678      2.3647      0.2234     17.2932    112.2328     21.8754
   798.4000      7.9678      2.4072      0.1677     14.7125    118.4545     23.2437
   798.5000      7.8914      2.4407      0.1629     12.6860    120.3174     23.9887
   798.6000      7.8914      2.4575      0.1365     11.6661    125.2909     23.7535
   798.7000      7.8914      2.4580      0.1412     11.6364    132.4694     22.6702
   798.8000      7.8794      2.4531      0.1174     11.9336    135.3928     21.4394
   798.9000      7.8794      2.4531      0.1256     11.9331    133.9836     20.3220
   799.0000      7.8796      2.4547      0.1137     11.8385    132.5594     18.9618
   799.1000      7.8796      2.4400      0.0998     12.7298    133.1476     17.1955
   799.2000      7.8796      2.3877      0.1157     15.8944    135.5015     15.5457
   799.3000      7.8791      2.2919      0.0915     21.7038    137.8781     14.3533
   799.4000      7.8791      2.1697      0.0353     29.1090    132.3526     13.5502
   799.5000      7.8805      2.0475      0.0202     36.5158    114.1860     13.2004
   799.6000      7.8805      1.9366     -0.0078     43.2359     93.0933     13.3502
   799.7000      7.8805      1.8305     -0.0295     49.6667     78.5376     13.7015
   799.8000      7.8865      1.7236     -0.0113     56.1434     70.6180     14.0464
   799.9000      7.8865      1.6271     -0.0278     61.9947     66.0925     14.5609
   800.0000      7.8876      1.5749     -0.0332     65.1600     64.0919     15.4160
   800.1000      7.8876      1.5965      0.1094     63.8491     66.4893     16.5328
   800.2000      7.8876      1.6803      0.1994     58.7669     73.2752     17.9311
   800.3000      7.8930      1.7901      0.2747     52.1174     81.5357     19.8023
   800.4000      7.8930      1.9092      0.2461     44.8986     87.4442     21.7052
   800.5000      7.8910      2.0475      0.3014     36.5136     90.5456     22.9679
   800.6000      7.8910      2.2002      0.3840     27.2626     95.9666     23.7224
   800.7000      7.8910      2.3394      0.4353     18.8242    104.8337     24.3782
   800.8000      7.8756      2.4458      0.4135     12.3787    110.9308     25.1504
   800.9000      7.8756      2.5164      0.3226      8.0969    109.8397     25.8734
   801.0000      7.8716      2.5520      0.2952      5.9401    104.7417     26.4086
   801.1000      7.8716      2.5577      0.1710      5.5933    100.8155     26.8737
   801.2000      7.8716      2.5463      0.1268      6.2847    101.4788     27.1623
   801.3000      7.8700      2.5265      0.0965      7.4862    107.2755     27.0892
   801.4000      7.8700      2.5083      0.0414      8.5901    115.9018     26.5778
   801.5000      7.8683      2.5005      0.0440      9.0580    123.7718     25.8721
   801.6000      7.8683      2.4959      0.0768      9.3384    128.1914     25.4457
   801.7000      7.8683      2.4874      0.0166      9.8564    128.5495     25.1180
   801.8000      7.8676      2.4785      0.0285     10.3915    123.8860     24.2756
   801.9000      7.8676      2.4734     -0.0209     10.7009    116.2238     23.2148
   802.0000      7.8661      2.4802      0.0135     10.2935    113.1254     22.8846
   802.1000      7.8661      2.4999      0.0262      9.0946    114.9112     23.2653
   802.2000      7.8661      2.5219      0.0179      7.7645    113.8641     23.3713
   802.3000      7.8667      2.5355      0.0592      6.9422    104.9260     22.9710
   802.4000      7.8667      2.5382      0.0386      6.7770     96.1017     22.6994
   802.5000      7.8694      2.5390      0.0481      6.7280    101.3682     22.6961
   802.6000      7.8694      2.5389      0.0583      6.7308    117.8944     22.6588
   802.7000      7.8694      2.5301      0.0598      7.2661    129.6795     22.6012
   802.8000      7.8680      2.5176      0.0435      8.0248    130.0537     22.2781
   802.9000      7.8680      2.5102      0.0571      8.4712    125.1109     21.5357
   803.0000      7.8680      2.4981      0.0915      9.2051    122.5293     21.2467
   803.1000      7.8680      2.4754      0.0643     10.5821    122.3540     21.3409
   803.2000      7.8680      2.4608      0.0241     11.4689    121.1332     20.8252
   803.3000      7.8670      2.4606      0.1021     11.4806    122.2166     19.9666
   803.4000      7.8670      2.4658      0.0325     11.1642    127.8913     19.7266
   803.5000      7.8697      2.4798      0.0782     10.3134    132.2415     20.6053
   803.6000      7.8697      2.4968      0.1175      9.2861    133.8036     22.0353
   803.7000      7.8697      2.5057      0.0788      8.7478    136.9063     22.6557
   803.8000      7.8858      2.5145      0.1148      8.2146    144.1912     22.1463
   803.9000      7.8858      2.5289      0.1142      7.3370    151.7299     21.4768
   804.0000      7.8714      2.5415      0.1149      6.5769    152.0978     21.2610
   804.1000      7.8714      2.5456      0.1389      6.3296    150.5143     21.3946
   804.2000      7.8714      2.5438      0.1025      6.4350    154.4596     21.5952
   804.3000      7.8686      2.5447      0.0965      6.3800    155.2926     21.7428
   804.4000      7.8686      2.5511      0.0941      5.9919    147.0430     21.9017
   804.5000      7.8672      2.5583      0.1264      5.5560    135.9993     22.1956
   804.6000      7.8672      2.5602      0.1382      5.4408    129.9799     22.7725
   804.7000      7.8672      2.5461      0.1326      6.2954    132.4404     23.8320
   804.8000      7.8635      2.5063      0.0999      8.7112    139.3335     25.1521
   804.9000      7.8635      2.4524      0.0466     11.9735    145.3493     25.9693
   805.0000      7.8683      2.4134      0.0329     14.3387    147.4076     26.2579
   805.1000      7.8683      2.4006      0.0458     15.1137    144.6426     26.5910
   805.2000      7.8683      2.4036      0.0398     14.9315    141.2719     26.9569
   805.3000      7.8684      2.4189      0.0182     14.0081    140.4386     26.9013
   805.4000      7.8684      2.4409      0.0487     12.6701    138.2511     26.5570
   805.5000      7.8689      2.4564      0.0584     11.7329    133.3552     26.5093
   805.6000      7.8689      2.4703      0.0145     10.8935    131.4715     26.8030
   805.7000      7.8689      2.4973      0.0967      9.2532    136.3789     26.8984
   805.8000      7.8679      2.5350      0.0875      6.9688    143.4700     26.6197
   805.9000      7.8679      2.5711      0.1220      4.7818    144.0627     26.1991
   806.0000      7.8676      2.5956      0.1139      3.2949    136.4767     25.7581
   806.1000      7.8676      2.6006      0.1969      2.9912    127.2863     25.3952
   806.2000      7.8676      2.5797      0.1683      4.2635    122.1779     25.2000
   806.3000      7.8676      2.5410      0.1231      6.6033    123.1044     24.9494
