~Version Information
VERS.                      2.0: CWLS Log ASCII Standard - VERSION 2.0
WRAP.                       NO: One line per depth step
~Well Information Block
STRT.FT                -8.0000: 
STOP.FT              1323.7500: 
STEP.FT                 0.2500: 
NULL.                -999.2500: 
COMP.          Pioneer Natural Resources: COMPANY
WELL.              Geyser 41-2: WELL
FLD.           Purgatorie River: FIELD
LOC.           506' FNL & 1127' FEL--: LOCATION
PROV.                       CO: PROVINCE
CNTY.               Las Animas: COUNTRY
SRVC.          Patterson Wireline: SERVICE COMPANY
DATE.          Tue Dec 06 09:28:14 2005: LOG DATE
UWI.           08 071 08598 00: UNIQUE WELL ID
~Curve Information Block
DEPT.FT            0 000 00 00: Depth
CCL.                          : Casing Collar Locator
TT3.usec                      : CBL 3' Travel Time
AMP3.mV                       : CBL 3' Amplitude
GR.GAPI                       : Gamma Ray
~Parameter Information Block
~A  Depth       CCL         TT3         AMP3         GR     
# ...
   159.5000      0.0000    734.1262     12.0397     80.9663
   159.7500      0.0000    736.9397     12.0177     75.6250
   160.0000      0.0000    740.0889     12.0604     72.0905
   160.2500      0.0000    743.2542     12.1790     70.1487
   160.5000      0.0000    745.8354     12.3451     68.9209
   160.7500      0.0000    747.4365     12.5222     67.6807
   161.0000      0.0000    748.0306     12.6833     66.3831
   161.2500      0.0000    747.5816     12.8009     65.4190
   161.5000      0.0000    745.8198     12.8513     65.2125
   161.7500      0.0000    742.5576     12.8517     66.0386
   162.0000      0.0000    738.3047     12.8670     67.7910
   162.2500      0.0000    734.4529     12.9460     69.7199
   162.5000      0.0000    732.7515     13.0571     70.8014
   162.7500      0.0000    734.4721     13.1112     70.8596
   163.0000      0.0000    739.6699     13.0426     71.1332
   163.2500      0.0000    746.8831     12.8572     73.1215
   163.5000      0.0000    753.8596     12.6145     76.6896
   163.7500      0.0000    758.9962     12.3771     79.5656
   164.0000      0.0000    762.1932     12.1796     79.0772
   164.2500      0.0000    765.0541     12.0355     74.6012
   164.5000      0.0000    770.8732     11.9543     68.2506
   164.7500      0.0000    782.9579     11.9338     63.1441
   165.0000      0.0000    801.4951     11.9412     61.1075
   165.2500      0.0000    823.1031     11.9255     61.7281
   165.5000      0.0000    844.3768     11.8574     63.1647
   165.7500      0.0000    864.7043     11.7505     63.8909
   166.0000      0.0000    885.2710     11.6403     63.9711
   166.2500      0.0000    906.5953     11.5547     64.6763
   166.5000      0.0000    927.0128     11.5033     66.8904
   166.7500      0.0000    941.9233     11.4804     70.2717
   167.0000      0.0000    944.8557     11.4654     74.1049
   167.2500      0.0000    932.0759     11.4248     78.3599
   167.5000      0.0000    907.3090     11.3284     83.3234
   167.7500      0.0000    880.2507     11.1752     88.4796
   168.0000      0.0000    859.5330     11.0063     92.4439
   168.2500      0.0000    847.7938     10.8874     94.0776
   168.5000      0.0000    842.8116     10.8719     93.3172
   168.7500      0.0000    841.2689     10.9746     90.8885
   169.0000      0.0000    840.9814     11.1701     87.5555
   169.2500      0.0000    841.0550     11.4084     83.9471
   169.5000      0.0000    841.2699     11.6331     81.0529
   169.7500      0.0000    841.5477     11.7995     80.3511
   170.0000      0.0000    841.7604     11.8891     82.8534
   170.2500      0.0000    841.8417     11.9174     87.9445
   170.5000      0.0000    841.9086     11.9305     93.5695
   170.7500      0.0000    842.1825     11.9849     97.7368
   171.0000      0.0000    842.7700     12.1142     99.6746
   171.2500      0.0000    843.5305     12.3032     99.5782
   171.5000      0.0000    844.1459     12.4982     97.6988
   171.7500      0.0000    844.3362     12.6490     94.0898
   172.0000      0.0000    844.0558     12.7402     89.1242
   172.2500      0.0000    843.5023     12.7858     83.9396
   172.5000      0.0000    842.9394     12.8043     80.1490
   172.7500      0.0000    842.5222     12.8016     78.8887
   173.0000      0.0000    842.2682     12.7688     80.0886
   173.2500      0.0000    842.1071     12.6901     82.8095
   173.5000      0.0000    841.9101     12.5561     86.2490
   173.7500      0.0000    841.3748     12.3656     90.1480
   174.0000      0.0000    839.7760     12.1046     94.2913
   174.2500      0.0000    835.7385     11.7442     97.9789
   174.5000      0.0000    827.8372     11.2846    100.1660
   174.7500      0.0000    816.7148     10.7909    100.1206
   175.0000      0.0000    807.0825     10.3550     98.1229
   175.2500      0.0000    805.6152     10.0215     95.5629
   175.5000      0.0000    814.6484      9.7843     94.0204
   175.7500      0.0000    828.5337      9.6485     93.9028
   176.0000      0.0000    838.1647      9.6391     94.1034
   176.2500      0.0000    839.0948      9.7342     93.2662
   176.5000      0.0000    834.8333      9.8389     91.2942
   176.7500     -2.0000    832.7833      9.8474     89.3989
   177.0000      0.0000    837.1211      9.7212     88.8490
   177.2500      0.0000    845.3469      9.5358     90.0424
   177.5000      0.0000    851.8875      9.4816     92.6660
   177.7500      0.0000    854.2824      9.7711     96.0766
   178.0000      0.0000    854.4048     10.4532     99.3068
   178.2500      0.0000    854.3323     11.3126    101.2815
   178.5000      0.0000    853.6457     12.0207    101.3417
   178.7500      0.0000    851.1088     12.3949     99.4913
   179.0000      0.0000    846.7133     12.4818     96.4017
   179.2500      0.0000    841.0800     12.4345     93.3587
   179.5000      0.0000    834.0500     12.3766     91.5914
   179.7500      0.0000    824.6138     12.3683     91.2547
   180.0000      0.0000    811.9726     12.4320     91.5438
   180.2500      0.0000    796.5707     12.5721     91.9096
   180.5000      0.0000    780.5887     12.7774     92.6239
   180.7500      0.0000    767.2826     13.0219     94.0171
   181.0000      0.0000    759.4100     13.2746     95.7443
   181.2500      0.0000    757.9843     13.5143     97.1931
   181.5000      0.0000    762.0349     13.7345     98.2887
   181.7500      0.0000    768.9428     13.9310     99.3934
   182.0000      0.0000    775.2999     14.0850    100.5193
   182.2500      0.0000    778.3490     14.1614    101.1892
   182.5000      0.0000    777.0327     14.1245    101.2594
   182.7500      0.0000    771.9875     13.9580    101.5090
   183.0000      0.0000    765.0225     13.6752    102.9649
   183.2500      0.0000    758.3821     13.3166    105.6133
   183.5000      0.0000    753.6794     12.9364    108.1051
   183.7500      0.0000    751.2231     12.5862    108.9853
   184.0000      0.0000    750.3724     12.3002    108.0850
   184.2500      0.0000    750.3421     12.0872    106.4827
   184.5000      0.0000    750.6112     11.9332    105.1651
   184.7500      0.0000    750.8677     11.8172    103.9565
   185.0000      0.0000    750.9286     11.7324    101.9579
   185.2500      0.0000    750.7661     11.6895     98.8779
   185.5000      0.0000    750.5029     11.6928     95.5518
   185.7500      0.0000    750.2902     11.7153     93.0435
   186.0000      0.0000    750.1821     11.7107     91.6151
   186.2500      0.0000    750.1293     11.6565     90.8888
   186.5000      0.0000    750.0660     11.5812     90.6714
   186.7500      0.0000    749.9892     11.5532     91.0147
   187.0000      0.0000    749.9976     11.6394     91.5964
   187.2500      0.0000    750.2947     11.8594     91.4868
   187.5000      0.0000    751.1831     12.1645     89.6061
   187.7500      0.0000    752.9579     12.4659     85.4762
   188.0000      0.0000    755.5472     12.6918     79.9232
   188.2500      0.0000    758.1218     12.8204     75.0990
   188.5000      0.0000    759.3812     12.8673     73.1552
   188.7500      0.0000    758.6530     12.8616     74.4657
   189.0000      0.0000    756.6436     12.8378     77.4816
   189.2500      0.0000    754.9175     12.8311     80.4630
   189.5000      0.0000    754.7192     12.8647     82.8621
   189.7500      0.0000    756.1703     12.9360     84.8158
   190.0000      0.0000    758.1602     13.0159     85.9831
   190.2500      0.0000    759.0527     13.0590     85.6875
   190.5000      0.0000    757.9824     13.0231     84.1630
   190.7500      0.0000    755.5457     12.8867     82.8890
   191.0000      0.0000    753.0751     12.6545     83.2790
   191.2500      0.0000    751.4649     12.3566     85.2697
   191.5000      0.0000    750.8959     12.0499     87.6350
   191.7500      0.0000    751.3583     11.8091     89.6841
   192.0000      0.0000    752.9666     11.6949     92.1492
   192.2500      0.0000    755.5820     11.7173     96.0119
   192.5000      0.0000    758.2834     11.8290    100.6877
   192.7500      0.0000    759.6567     11.9626    103.8870
