~Version Information
VERS.                      2.0: CWLS Log ASCII Standard - VERSION 2.0
WRAP.                       NO: One line per depth step
~Well Information Block
STRT.FT               260.8000: 
STOP.FT              1942.0000: 
STEP.FT                 0.1000: 
NULL.                -999.2500: 
COMP.          XTO Energy Inc.: COMPANY
WELL.          Golden Eagle 19-11: WELL
FLD.           Purgatoire River: FIELD
LOC.           2351' FSL & 1926' FWL--: LOCATION
CNTY.               Las Animas: COUNTY
SRVC.                Patterson: SERVICE COMPANY
DATE.          Thu Mar 09 08:41:38 2006: LOG DATE
UWI.           05 071 08696 00: UNIQUE WELL ID
STAT.                 Colorado: STATE
~Curve Information Block
DEPT.FT            0 000 00 00: Depth
DCAL.in                       : CDL Caliper
RHOB.g/cc                     : CDL Bulk Density
RHOC.g/cc                     : CDL Density Correction
DPOR.pu                       : CDL Density Porosity
NPOR.pu                       : Neutron Porosity
GR.GAPI                       : Gamma Ray
~Parameter Information Block
~A  Depth       DCAL        RHOB        RHOC        DPOR        NPOR         GR     
# ...
  1902.4000      7.8192      2.4787      0.0600     10.3838     25.2924   -999.2500
  1902.5000      7.8154      2.4788      0.0414     10.3765     25.6586   -999.2500
  1902.6000      7.8154      2.4847      0.0370     10.0205     26.1563   -999.2500
  1902.7000      7.8154      2.4881      0.0893      9.8107     26.4569   -999.2500
  1902.8000      7.8040      2.4770      0.0577     10.4877     26.5320   -999.2500
  1902.9000      7.8040      2.4599      0.0420     11.5225     26.4729   -999.2500
  1903.0000      7.7905      2.4508      0.0575     12.0748     26.1434   -999.2500
  1903.1000      7.7905      2.4526      0.0287     11.9614     25.5808   -999.2500
  1903.2000      7.7905      2.4648      0.0617     11.2224     25.3323   -999.2500
  1903.3000      7.7886      2.4824      0.0359     10.1573     25.5513   -999.2500
  1903.4000      7.7886      2.4992      0.0617      9.1396     25.7277   -999.2500
  1903.5000      7.7928      2.5044      0.0871      8.8266     25.6506   -999.2500
  1903.6000      7.7928      2.4884      0.0790      9.7910     25.5247   -999.2500
  1903.7000      7.7928      2.4678      0.0314     11.0450     25.5859   -999.2500
  1903.8000      7.7923      2.4664     -0.0078     11.1261     25.7219   -999.2500
  1903.9000      7.7923      2.4796      0.0508     10.3296     25.6181   -999.2500
  1904.0000      7.7879      2.4930      0.0251      9.5130     25.4952   -999.2500
  1904.1000      7.7879      2.5062      0.0843      8.7130     25.7842   -999.2500
  1904.2000      7.7879      2.5128      0.0675      8.3128     26.3936   -999.2500
  1904.3000      7.7885      2.5123      0.0477      8.3454     26.9347   -999.2500
  1904.4000      7.7885      2.5198      0.0197      7.8907     27.2532   -999.2500
  1904.5000      7.7988      2.5401      0.0801      6.6615     27.3021   -999.2500
  1904.6000      7.7988      2.5576      0.1096      5.5972     27.1338   -999.2500
  1904.7000      7.7988      2.5619      0.0935      5.3408     26.7589   -999.2500
  1904.8000      7.8083      2.5572      0.0912      5.6267     26.2817   -999.2500
  1904.9000      7.8083      2.5462      0.1210      6.2914     25.9656   -999.2500
  1905.0000      7.8101      2.5352      0.0497      6.9560     25.6744   -999.2500
  1905.1000      7.8101      2.5419      0.0659      6.5529     25.2236   -999.2500
  1905.2000      7.8101      2.5721      0.0615      4.7228     25.0571   -999.2500
  1905.3000      7.8065      2.5998      0.1245      3.0418     25.3312   -999.2500
  1905.4000      7.8065      2.5911      0.1057      3.5681     25.3829   -999.2500
  1905.5000      7.8002      2.5555      0.0435      5.7245     24.9727   -999.2500
  1905.6000      7.8002      2.5271      0.0834      7.4510     24.5075   -999.2500
  1905.7000      7.8002      2.5143      0.0629      8.2215     24.1289   -999.2500
  1905.8000      7.7939      2.5133      0.0620      8.2860     23.8369   -999.2500
  1905.9000      7.7939      2.5194      0.0960      7.9131     23.9900   -999.2500
  1906.0000      7.7913      2.5204      0.0619      7.8562     24.6981   -999.2500
  1906.1000      7.7913      2.5117      0.0344      8.3790     25.2958   -999.2500
  1906.2000      7.7913      2.5039      0.0259      8.8520     25.2304   -999.2500
  1906.3000      7.7915      2.5066      0.0150      8.6931     24.7745   -999.2500
  1906.4000      7.7915      2.5183      0.0222      7.9809     24.6521   -999.2500
  1906.5000      7.7890      2.5332      0.0364      7.0766     25.1298   -999.2500
  1906.6000      7.7890      2.5482      0.0706      6.1691     26.0845   -999.2500
  1906.7000      7.7890      2.5576      0.0923      5.6003     28.4303   -999.2500
  1906.8000      7.7832      2.5542      0.0958      5.8041     33.9307   -999.2500
  1906.9000      7.7832      2.5426      0.0519      6.5080     41.4841   -999.2500
  1907.0000      7.7813      2.5269      0.0788      7.4587     46.8786   -999.2500
  1907.1000      7.7813      2.4934      0.0627      9.4895     48.8988   -999.2500
  1907.2000      7.7813      2.4438     -0.0265     12.4953     49.3034   -999.2500
  1907.3000      7.7856      2.4144     -0.0207     14.2796     49.3464   -999.2500
  1907.4000      7.7856      2.4265      0.0207     13.5431     49.3489   -999.2500
  1907.5000      7.7947      2.4625      0.0265     11.3631   -999.2500   -999.2500
  1907.6000      7.7947      2.4932      0.0887      9.5017   -999.2500   -999.2500
  1907.7000      7.7947      2.5050      0.0634      8.7881   -999.2500   -999.2500
  1907.8000      7.8059      2.5106      0.0895      8.4480   -999.2500   -999.2500
  1907.9000      7.8059      2.5227      0.0833      7.7140   -999.2500   -999.2500
  1908.0000      7.8143      2.5346      0.1070      6.9962   -999.2500   -999.2500
  1908.1000      7.8143      2.5357      0.1304      6.9290   -999.2500   -999.2500
  1908.2000      7.8143      2.5243      0.1490      7.6174   -999.2500   -999.2500
  1908.3000      7.8029      2.5111      0.0853      8.4177   -999.2500   -999.2500
  1908.4000      7.8029      2.5104      0.0215      8.4596   -999.2500   -999.2500
  1908.5000      7.7729      2.5188      0.0583      7.9520   -999.2500   -999.2500
  1908.6000      7.7729      2.5241      0.0515      7.6287   -999.2500   -999.2500
  1908.7000      7.7729      2.5255      0.0722      7.5483   -999.2500   -999.2500
  1908.8000      7.7574      2.5206      0.0904      7.8395   -999.2500   -999.2500
  1908.9000      7.7574      2.5054      0.0651      8.7609   -999.2500   -999.2500
  1909.0000      7.7564      2.4857      0.0310      9.9553   -999.2500   -999.2500
  1909.1000      7.7564      2.4707      0.0148     10.8666   -999.2500   -999.2500
  1909.2000      7.7564      2.4641     -0.0245     11.2681   -999.2500   -999.2500
  1909.3000      7.7580      2.4660      0.0195     11.1507   -999.2500   -999.2500
  1909.4000      7.7580      2.4738      0.0315     10.6760   -999.2500   -999.2500
  1909.5000      7.7601      2.4874      0.0219      9.8569   -999.2500   -999.2500
  1909.6000      7.7601      2.5042      0.0216      8.8354   -999.2500   -999.2500
  1909.7000      7.7601      2.5113      0.0398      8.4076   -999.2500   -999.2500
  1909.8000      7.7581      2.5029      0.0496      8.9152   -999.2500   -999.2500
  1909.9000      7.7581      2.4979      0.0097      9.2191   -999.2500   -999.2500
  1910.0000      7.7468      2.5118      0.0315      8.3759   -999.2500   -999.2500
  1910.1000      7.7468      2.5291      0.0885      7.3300   -999.2500   -999.2500
  1910.2000      7.7468      2.5320      0.0755      7.1494   -999.2500   -999.2500
  1910.3000      7.7303      2.5260      0.0404      7.5124   -999.2500   -999.2500
  1910.4000      7.7303      2.5207      0.0469      7.8350   -999.2500   -999.2500
  1910.5000      7.7136      2.5244      0.0233      7.6101   -999.2500   -999.2500
  1910.6000      7.7136      2.5394      0.0648      6.7020   -999.2500   -999.2500
  1910.7000      7.7136      2.5488      0.0953      6.1316   -999.2500   -999.2500
  1910.8000      7.7061      2.5433      0.0579      6.4656   -999.2500   -999.2500
  1910.9000      7.7061      2.5383      0.0459      6.7685   -999.2500   -999.2500
  1911.0000      7.7062      2.5414      0.0354      6.5788   -999.2500   -999.2500
  1911.1000      7.7062      2.5395      0.0427      6.6964   -999.2500   -999.2500
  1911.2000      7.7062      2.5227      0.0690      7.7175   -999.2500   -999.2500
  1911.3000      7.7064      2.5049     -0.0053      8.7913   -999.2500   -999.2500
  1911.4000      7.7064      2.5070      0.0507      8.6685   -999.2500   -999.2500
  1911.5000      7.7084      2.5241      0.0613      7.6276   -999.2500   -999.2500
  1911.6000      7.7084      2.5419      0.0748      6.5538   -999.2500   -999.2500
  1911.7000      7.7084      2.5514      0.0844      5.9755   -999.2500   -999.2500
  1911.8000      7.7115      2.5434      0.0827      6.4580   -999.2500   -999.2500
  1911.9000      7.7115      2.5155      0.0585      8.1513   -999.2500   -999.2500
