~Version Information
VERS.                      2.0: CWLS Log ASCII Standard - VERSION 2.0
WRAP.                       NO: One line per depth step
~Well Information Block
STRT.FT               350.0000: 
STOP.FT               906.0000: 
STEP.FT                 0.2500: 
NULL.                -999.2500: 
COMP.          Pioneer Natural Resources: COMPANY
WELL.           Hartford 31-18: WELL
FLD.           Purgatorie River: FIELD
LOC.           375' FNL & 1660' FEL: LOCATION
PROV.                 Colorado: PROVINCE
CNTY.               Las Animas: COUNTRY
SRVC.                Patterson: SERVICE COMPANY
DATE.          Sat Nov 19 19:02:38 2005: LOG DATE
UWI.           05-071-08555               : UNIQUE WELL ID
~Curve Information Block
DEPT.FT            0 000 00 00: Depth
SN.Ohm-m                      : IEL Short Normal
SP.mV                         : IEL Spontaneous Potential
DIR.Ohm-m                     : IEL Induction Resistivity
GR.GAPI                       : Gamma Ray
~Parameter Information Block
~A  Depth        SN          SP         DIR          GR     
# ...
   584.5000     32.0411     98.3277     25.9592     58.2540
   584.7500     31.4103     98.0836     25.9903     58.8289
   585.0000     30.5435     97.8456     26.0019     59.8166
   585.2500     29.9987     97.6187     26.0157     60.3587
   585.5000     30.0134     97.4213     26.0507     60.4564
   585.7500     30.4179     97.2788     26.1158     59.8258
   586.0000     30.9862     97.2139     26.2075     57.9857
   586.2500     31.5513     97.2408     26.3130     56.5413
   586.5000     31.9498     97.3627     26.4154     54.7167
   586.7500     32.1020     97.5665     26.5038     53.8967
   587.0000     32.0600     97.8184     26.5819     53.2777
   587.2500     31.9138     98.0674     26.6714     53.2631
   587.5000     31.7548     98.2604     26.8053     53.6916
   587.7500     31.7187     98.3605     27.0142     54.0843
   588.0000     31.8958     98.3574     27.3147     54.7410
   588.2500     32.2521     98.2686     27.7086     55.4360
   588.5000     32.7523     98.1343     28.1932     57.0303
   588.7500     33.3890     98.0101     28.7694     58.0781
   589.0000     34.0458     97.9554     29.4398     58.7104
   589.2500     34.5185     98.0180     30.1941     58.3766
   589.5000     34.7056     98.2169     30.9970     57.1125
   589.7500     34.7300     98.5346     31.7899     55.7995
   590.0000     35.0158     98.9324     32.5104     52.7189
   590.2500     36.2524     99.3824     33.1180     49.9262
   590.5000     38.7629     99.8903     33.6067     45.7534
   590.7500     41.8319    100.4867     34.0000     43.9606
   591.0000     44.3313    101.1926     34.3382     43.5745
   591.2500     45.8971    101.9817     34.6701     44.4219
   591.5000     46.8779    102.7669     35.0482     45.8334
   591.7500     47.5758    103.4261     35.5186     46.3317
   592.0000     48.1090    103.8592     36.0996     46.7582
   592.2500     48.6111    104.0439     36.7575     47.3989
   592.5000     49.1938    104.0572     37.3934     49.3429
   592.7500     49.8375    104.0486     37.8548     50.9607
   593.0000     50.2937    104.1750     37.9708     52.7798
   593.2500     50.1703    104.5353     37.6012     53.2054
   593.5000     49.4625    105.1379     36.6800     53.0213
   593.7500     48.8686    105.9149     35.2420     52.9260
   594.0000     48.9653    106.7537     33.4167     53.4472
   594.2500     49.1432    107.5260     31.3889     54.0527
   594.5000     48.0905    108.1209     29.3398     54.4922
   594.7500     45.1642    108.4863     27.4001     54.1799
   595.0000     40.6984    108.6568     25.6341     53.1128
   595.2500     35.5658    108.7426     24.0526     52.4369
   595.5000     30.8189    108.8810     22.6372     52.2030
   595.7500     27.1510    109.1804     21.3622     52.9695
   596.0000     24.5710    109.6847     20.2065     56.2381
   596.2500     22.7154    110.3668     19.1564     60.1499
   596.5000     21.2773    111.1458     18.2032     68.4168
   596.7500     20.1313    111.9218     17.3422     74.7514
   597.0000     19.2471    112.6180     16.5726     83.4880
   597.2500     18.5930    113.2105     15.8989     87.9796
   597.5000     18.1139    113.7269     15.3278     92.6213
   597.7500     17.7652    114.2160     14.8639     94.6072
   598.0000     17.5134    114.7102     14.5054     96.1024
   598.2500     17.2978    115.2054     14.2432     96.1689
   598.5000     17.0792    115.6690     14.0642     95.4979
   598.7500     16.9319    116.0689     13.9560     95.1171
   599.0000     16.9595    116.4014     13.9110     95.3646
   599.2500     17.1215    116.6964     13.9268     96.1580
   599.5000     17.2772    117.0025     14.0027     97.9609
   599.7500     17.3644    117.3664     14.1351     99.2797
   600.0000     17.4328    117.8196     14.3145    101.1482
   600.2500     17.5445    118.3717     14.5283    102.4664
   600.5000     17.7055    119.0047     14.7664    105.2951
   600.7500     17.8761    119.6731     15.0264    108.0119
   601.0000     18.0113    120.3148     15.3137    112.4609
   601.2500     18.1147    120.8676     15.6380    114.4814
   601.5000     18.2685    121.2849     16.0090    114.4873
   601.7500     18.5444    121.5462     16.4335    112.5971
   602.0000     18.9044    121.6646     16.9154    108.6782
   602.2500     19.2869    121.6876     17.4569    106.3917
   602.5000     19.7272    121.6870     18.0585    104.1762
   602.7500     20.3363    121.7386     18.7162    103.4502
   603.0000     21.2419    121.9058     19.4186    103.2286
   603.2500     22.5321    122.2264     20.1451    103.4779
   603.5000     24.1855    122.7013     20.8675    103.9142
   603.7500     26.0347    123.2860     21.5552    103.8268
   604.0000     27.7753    123.8969     22.1818    102.4138
   604.2500     29.1086    124.4432     22.7325    100.3820
   604.5000     30.0986    124.8685     23.2060     95.9576
   604.7500     31.2589    125.1708     23.6114     92.5962
   605.0000     32.8353    125.3862     23.9587     87.6449
   605.2500     34.2262    125.5603     24.2489     84.3352
   605.5000     34.6576    125.7297     24.4669     78.7415
   605.7500     34.0778    125.9179     24.5816     74.5554
   606.0000     32.9509    126.1288     24.5528     68.7375
   606.2500     31.5164    126.3407     24.3470     66.2732
   606.5000     29.6458    126.5127     23.9537     66.0734
   606.7500     27.4077    126.6055     23.3983     68.1484
   607.0000     25.3825    126.6044     22.7411     72.8201
   607.2500     24.1545    126.5274     22.0611     75.8308
   607.5000     23.7227    126.4147     21.4341     79.4559
   607.7500     23.6176    126.3063     20.9148     81.4976
   608.0000     23.4236    126.2233     20.5304     84.2258
   608.2500     23.0245    126.1636     20.2841     85.5605
   608.5000     22.5219    126.1137     20.1641     86.4129
   608.7500     22.0970    126.0656     20.1523     86.3418
   609.0000     21.8988    126.0273     20.2302     85.8029
   609.2500     21.9982    126.0209     20.3810     85.3286
   609.5000     22.3926    126.0695     20.5901     84.4685
   609.7500     22.9984    126.1843     20.8459     83.7099
   610.0000     23.6723    126.3575     21.1422     81.9736
   610.2500     24.3348    126.5610     21.4800     80.2862
   610.5000     25.0767    126.7500     21.8664     77.3089
   610.7500     25.9797    126.8692     22.3124     75.4127
   611.0000     26.8773    126.8690     22.8272     72.6938
   611.2500     27.6533    126.7297     23.4136     70.4075
   611.5000     28.5888    126.4739     24.0641     65.5156
   611.7500     29.8843    126.1550     24.7627     61.5833
   612.0000     31.2033    125.8287     25.4938     56.0741
   612.2500     32.1222    125.5316     26.2503     53.2274
   612.5000     32.6106    125.2824     27.0341     50.1601
   612.7500     32.8755    125.0955     27.8441     48.6827
   613.0000     33.0765    124.9892     28.6626     47.3893
   613.2500     33.2803    124.9845     29.4518     47.4191
   613.5000     33.5101    125.1034     30.1658     48.8866
   613.7500     33.7643    125.3724     30.7710     50.4136
   614.0000     34.0468    125.8255     31.2598     52.7233
   614.2500     34.4146    126.4941     31.6478     54.2321
   614.5000     34.9770    127.3854     31.9581     56.8078
   614.7500     35.8133    128.4646     32.2064     58.4829
   615.0000     36.8700    129.6572     32.3973     59.2808
   615.2500     37.9016    130.8683     32.5317     57.7669
   615.5000     38.4907    132.0034     32.6163     52.6715
   615.7500     38.2703    132.9852     32.6680     48.5912
   616.0000     37.3898    133.7690     32.7084     43.7342
   616.2500     36.7072    134.3546     32.7539     42.0094
   616.5000     37.1248    134.7814     32.8063     41.4571
   616.7500     38.6075    135.1046     32.8523     41.8765
   617.0000     40.1325    135.3695     32.8744     42.7232
   617.2500     40.7492    135.6042     32.8635     43.0619
   617.5000     40.3913    135.8319     32.8250     43.0015
   617.7500     39.5810    136.0825     32.7729     42.7297
