~Version Information
VERS.                      2.0: CWLS Log ASCII Standard - VERSION 2.0
WRAP.                       NO: One line per depth step
~Well Information Block
STRT.FT               460.0000: 
STOP.FT              3058.5000: 
STEP.FT                 0.1000: 
NULL.                -999.2500: 
COMP.          Pioneer Natural Resources: COMPANY
WELL.            Cleaver 24-12: WELL
FLD.           Purgatoire River: FIELD
LOC.           204' FSL & 2351' FWL: LOCATION
PROV.                 Colorado: PROVINCE
CNTY.               Las Animas: COUNTRY
SRVC.                Patterson: SERVICE COMPANY
DATE.          Mon Jan 09 13:49:27 2006: LOG DATE
UWI.           05 071 08634 00: UNIQUE WELL ID
~Curve Information Block
DEPT.FT            0 000 00 00: Depth
DCAL.in                       : CDL Caliper
RHOB.g/cc                     : CDL Bulk Density
RHOC.g/cc                     : CDL Density Correction
DPOR.pu                       : CDL Density Porosity
GR.GAPI                       : Gamma Ray
NPOR.pu                       : Neutron Porosity
~Parameter Information Block
~A  Depth       DCAL        RHOB        RHOC        DPOR         GR         NPOR    
# ...
  2178.4000      7.8501      2.5888      0.0634      3.7089    138.5355     24.5637
  2178.5000      7.8617      2.5756      0.0309      4.5117    143.1322     24.2833
  2178.6000      7.8617      2.5769      0.0159      4.4309    140.7550     24.5545
  2178.7000      7.8617      2.5813      0.0549      4.1636    134.9505     25.7198
  2178.8000      7.8718      2.5755      0.0646      4.5143    135.6599     27.1093
  2178.9000      7.8718      2.5632      0.0402      5.2586    140.8431     27.8076
  2179.0000      7.8647      2.5454      0.0814      6.3386    144.8901     27.7247
  2179.1000      7.8647      2.5172      0.0721      8.0497    149.8018     27.3216
  2179.2000      7.8647      2.4922      0.0445      9.5659    154.9238     27.5042
  2179.3000      7.8564      2.4832      0.0764     10.1091    156.9009     28.5959
  2179.4000      7.8564      2.4799      0.0761     10.3106    152.7950     29.7116
  2179.5000      7.8539      2.4678      0.0592     11.0419    142.5265     30.2607
  2179.6000      7.8539      2.4531      0.0516     11.9356    137.3566     30.3386
  2179.7000      7.8539      2.4612      0.0108     11.4439    143.0795     30.1610
  2179.8000      7.8344      2.5131      0.0367      8.2963    149.2394     29.7519
  2179.9000      7.8344      2.6083      0.0856      2.5250    149.7045     29.2209
  2180.0000      7.8350      2.7284      0.1995     -4.7510    146.8137     28.9196
  2180.1000      7.8350      2.8543      0.2045    -12.3811    141.5483     28.5405
  2180.2000      7.8350      2.9724      0.2445    -19.5388    136.5833     27.7992
  2180.3000      7.8117      3.0616      0.2795    -24.9435    132.5354     27.0543
  2180.4000      7.8117      3.1129      0.2032    -28.0548    123.4656     26.0878
  2180.5000      7.8284      3.1411      0.1421    -29.7646    111.3345     24.9605
  2180.6000      7.8284      3.1420      0.1280    -29.8176    105.6453     24.4409
  2180.7000      7.8284      3.0896      0.0440    -26.6414    104.1852     24.6141
  2180.8000      7.8657      2.9829     -0.0563    -20.1772    100.5912     25.0885
  2180.9000      7.8657      2.8515     -0.0967    -12.2146     99.1570     25.4612
  2181.0000      7.8888      2.7292     -0.1704     -4.8015    104.9933     25.6470
  2181.1000      7.8888      2.6374     -0.1930      0.7623    115.1974     25.9474
  2181.2000      7.8888      2.5793     -0.1284      4.2872    125.4475     26.4533
  2181.3000      7.8871      2.5515     -0.0996      5.9701    129.7886     27.0191
  2181.4000      7.8871      2.5498     -0.0467      6.0747    128.6005     27.5967
  2181.5000      7.8913      2.5568      0.0126      5.6457    134.6876     28.2728
  2181.6000      7.8913      2.5595     -0.0690      5.4861    151.1105     28.7049
  2181.7000      7.8913      2.5607      0.0092      5.4093    164.3013     28.7157
  2181.8000      7.9050      2.5571     -0.0031      5.6318    170.1152     28.8279
  2181.9000      7.9050      2.5401      0.0603      6.6622    175.2245     29.0723
  2182.0000      7.9059      2.5215     -0.0404      7.7862    179.7829     29.1710
  2182.1000      7.9059      2.5191      0.0351      7.9322    181.1226     29.3431
  2182.2000      7.9059      2.5237      0.0205      7.6530    179.2275     29.7752
  2182.3000      7.9218      2.5147      0.0369      8.2000    178.3564     30.4171
  2182.4000      7.9218      2.4852      0.0065      9.9904    180.2182     31.0367
  2182.5000      7.9290      2.4474      0.0126     12.2811    177.4305     31.2632
  2182.6000      7.9290      2.4204     -0.0274     13.9163    169.4630     31.0339
  2182.7000      7.9290      2.4173     -0.0256     14.1058    164.1187     30.2423
  2182.8000      7.9368      2.4293      0.0550     13.3741    164.3547     29.3971
  2182.9000      7.9368      2.4271      0.0041     13.5091    168.3242     29.3592
  2183.0000      7.9361      2.4003      0.0083     15.1329    175.2221     29.8957
  2183.1000      7.9361      2.3714      0.0121     16.8865    182.6242     30.1907
  2183.2000      7.9361      2.3664      0.0063     17.1883    183.0570     29.9855
  2183.3000      7.9346      2.3867      0.0811     15.9597    173.1790     29.9308
  2183.4000      7.9346      2.4174      0.0556     14.0997    160.3958     30.6812
  2183.5000      7.9406      2.4550      0.0726     11.8189    152.8704     31.4016
  2183.6000      7.9406      2.4920      0.1041      9.5763    154.1062     30.8161
  2183.7000      7.9406      2.5134      0.0504      8.2760    160.8187     29.4659
  2183.8000      7.9181      2.5265      0.0581      7.4822    162.7148     28.4975
  2183.9000      7.9181      2.5487      0.0611      6.1399    156.5790     28.3352
  2184.0000      7.8927      2.5772      0.1261      4.4151    149.5355     28.6686
  2184.1000      7.8927      2.6003      0.0652      3.0122    146.0174     28.5708
  2184.2000      7.8927      2.6164      0.0874      2.0347    147.8718     27.8106
  2184.3000      7.8900      2.6215      0.0666      1.7273    154.1379     27.1815
  2184.4000      7.8900      2.6115      0.0368      2.3308    157.9398     27.0954
  2184.5000      7.8769      2.5953      0.0103      3.3166    155.4481     27.1900
  2184.6000      7.8769      2.5831      0.0543      4.0546    149.0693     27.1780
  2184.7000      7.8769      2.5760      0.0216      4.4877    147.2235     27.2714
  2184.8000      7.8733      2.5686      0.0938      4.9306    156.2233     27.5463
  2184.9000      7.8733      2.5558      0.0162      5.7085    165.3225     27.8567
  2185.0000      7.8745      2.5391      0.0457      6.7222    162.5238     28.3599
  2185.1000      7.8745      2.5152      0.0638      8.1695    151.2410     28.8666
  2185.2000      7.8745      2.4893     -0.0144      9.7407    143.7296     28.7397
  2185.3000      7.8887      2.4819      0.0273     10.1859    147.1281     28.1861
  2185.4000      7.8887      2.4915      0.0425      9.6052    159.7999     27.7074
  2185.5000      7.8929      2.4960      0.0636      9.3323    172.6514     27.3582
  2185.6000      7.8929      2.4891      0.0098      9.7522    174.7317     27.3550
  2185.7000      7.8929      2.4821      0.0141     10.1775    165.7451     27.5299
  2185.8000      7.9032      2.4811      0.0149     10.2354    157.2148     27.6339
  2185.9000      7.9032      2.4829      0.0320     10.1271    158.9618     27.9069
  2186.0000      7.9276      2.4858      0.0366      9.9523    166.9234     28.0556
  2186.1000      7.9276      2.4848      0.0405     10.0150    167.0778     28.0680
  2186.2000      7.9276      2.4647     -0.0265     11.2279    159.9799     28.4027
  2186.3000      7.9354      2.4115      0.0046     14.4546    160.7901     29.0871
  2186.4000      7.9354      2.3254     -0.0828     19.6719    166.5558     29.9710
  2186.5000      7.9413      2.2230     -0.0898     25.8808    161.3993     30.9097
  2186.6000      7.9413      2.1164     -0.0570     32.3414    145.0070     31.8029
  2186.7000      7.9413      2.0173     -0.0945     38.3466    130.0719     32.1465
  2186.8000      7.9386      1.9446     -0.0993     42.7489    127.0093     31.4702
  2186.9000      7.9386      1.9060     -0.1405     45.0916    133.6515     30.5572
  2187.0000      7.9366      1.9063     -0.1211     45.0746    137.9604     30.2199
  2187.1000      7.9366      1.9559     -0.0443     42.0650    133.4874     30.2443
  2187.2000      7.9366      2.0513      0.0784     36.2846    125.0578     30.3151
  2187.3000      7.9472      2.1687      0.2101     29.1714    117.6697     30.3966
  2187.4000      7.9472      2.2840      0.2599     22.1795    111.6442     30.1030
  2187.5000      7.9740      2.3902      0.2158     15.7456    106.5086     28.9063
  2187.6000      7.9740      2.4827      0.2074     10.1408    104.4433     27.0701
  2187.7000      7.9740      2.5458      0.0995      6.3171    105.4930     25.4037
  2187.8000      7.9909      2.5749      0.0957      4.5519    105.5434     23.9262
  2187.9000      7.9909      2.5893      0.0395      3.6766    102.0294     22.5351
