~Version Information
VERS.                      2.0: CWLS Log ASCII Standard - VERSION 2.0
WRAP.                       NO: One line per depth step
~Well Information Block
STRT.FT               460.0000: 
STOP.FT              1509.0000: 
STEP.FT                 0.2500: 
NULL.                -999.2500: 
COMP.          Pioneer Natural Resources: COMPANY
WELL.           Amore 32-09 Tr: WELL
FLD.           Purgatoire River: FIELD
LOC.           1941' FNL & 2297' FEL: LOCATION
PROV.                 Colorado: PROVINCE
CNTY.               Las Animas: COUNTRY
SRVC.                Patterson: SERVICE COMPANY
DATE.          Mon Nov 14 11:07:52 2005: LOG DATE
UWI.           05 071 08584 00: UNIQUE WELL ID
~Curve Information Block
DEPT.FT            0 000 00 00: Depth
SN.Ohm-m                      : IEL Short Normal
SP.mV                         : IEL Spontaneous Potential
DIR.Ohm-m                     : IEL Induction Resistivity
GR.GAPI                       : Gamma Ray
~Parameter Information Block
~A  Depth        SN          SP         DIR          GR     
# ...
  1465.0000     10.6182    116.0663     10.9831    133.3711
  1465.2500     10.3491    115.8777     10.5894    135.1320
  1465.5000     10.2940    115.6943     10.2751    138.6407
  1465.7500     10.2773    115.5201     10.0376    141.5427
  1466.0000     10.2427    115.3442      9.8726    146.0587
  1466.2500     10.2806    115.1438      9.7755    148.5708
  1466.5000     10.3710    114.8941      9.7400    150.7522
  1466.7500     10.3683    114.5793      9.7557    150.9280
  1467.0000     10.2715    114.1999      9.8066    149.1269
  1467.2500     10.2421    113.7722      9.8734    146.4272
  1467.5000     10.3483    113.3218      9.9398    140.0379
  1467.7500     10.4770    112.8735      9.9988    134.5229
  1468.0000     10.5048    112.4435     10.0552    125.6981
  1468.2500     10.4727    112.0370     10.1212    120.4371
  1468.5000     10.4986    111.6518     10.2085    114.7592
  1468.7500     10.5838    111.2838     10.3224    112.6285
  1469.0000     10.6611    110.9297     10.4605    111.2521
  1469.2500     10.7481    110.5850     10.6143    110.9343
  1469.5000     10.9357    110.2439     10.7717    110.5767
  1469.7500     11.2529    109.9042     10.9208    110.2746
  1470.0000     11.6108    109.5769     11.0534    110.0649
  1470.2500     11.9099    109.2871     11.1697    110.5395
  1470.5000     12.1070    109.0584     11.2814    112.7062
  1470.7500     12.1607    108.8951     11.4114    114.9033
  1471.0000     12.0526    108.7792     11.5890    118.2823
  1471.2500     11.8688    108.6836     11.8385    120.0944
  1471.5000     11.7674    108.5860     12.1657    121.9289
  1471.7500     11.8467    108.4756     12.5502    122.5511
  1472.0000     12.0320    108.3528     12.9513    122.3089
  1472.2500     12.1697    108.2257     13.3262    121.0713
  1472.5000     12.2603    108.1046     13.6517    117.0967
  1472.7500     12.4516    107.9969     13.9326    112.8545
  1473.0000     12.8023    107.9046     14.1916    104.2944
  1473.2500     13.2595    107.8233     14.4533     97.7055
  1473.5000     13.8639    107.7420     14.7367     88.1972
  1473.7500     14.7104    107.6452     15.0581     83.1286
  1474.0000     15.7674    107.5225     15.4357     78.4273
  1474.2500     16.8969    107.3807     15.8851     77.2607
  1474.5000     17.9094    107.2425     16.4035     78.1072
  1474.7500     18.6294    107.1296     16.9579     80.2012
  1475.0000     19.0011    107.0442     17.4898     85.0230
  1475.2500     19.0757    106.9667     17.9371     88.6306
  1475.5000     18.9268    106.8676     18.2561     93.2926
  1475.7500     18.6115    106.7213     18.4251     95.6472
  1476.0000     18.1867    106.5166     18.4352     98.6609
  1476.2500     17.6986    106.2566     18.2886    100.7517
  1476.5000     17.1627    105.9517     18.0042    104.0688
  1476.7500     16.6234    105.6092     17.6184    106.1395
  1477.0000     16.1607    105.2300     17.1742    108.6524
  1477.2500     15.7844    104.8136     16.7089    109.8604
  1477.5000     15.4453    104.3656     16.2505    111.0304
  1477.7500     15.1551    103.9014     15.8215    111.4499
  1478.0000     14.9656    103.4415     15.4415    111.6189
  1478.2500     14.8369    103.0031     15.1269    111.4967
  1478.5000     14.6504    102.5936     14.8876    111.3372
  1478.7500     14.3496    102.2116     14.7254    111.6109
  1479.0000     13.9945    101.8501     14.6346    113.1422
  1479.2500     13.7183    101.5020     14.6041    115.0076
  1479.5000     13.6421    101.1623     14.6210    118.5497
  1479.7500     13.7765    100.8283     14.6725    120.6161
  1480.0000     14.0401    100.4974     14.7450    121.5962
  1480.2500     14.3369    100.1653     14.8253    120.2437
  1480.5000     14.5677     99.8275     14.9064    115.5684
  1480.7500     14.6836     99.4830     14.9946    111.6104
  1481.0000     14.7914     99.1379     15.1109    106.3787
  1481.2500     15.1107     98.8055     15.2826    104.1872
  1481.5000     15.7131     98.5004     15.5298    102.9722
  1481.7500     16.3953     98.2302     15.8580    102.9221
  1482.0000     16.9405     97.9907     16.2591    102.7816
  1482.2500     17.3436     97.7704     16.7185    102.4694
  1482.5000     17.6849     97.5590     17.2180    102.2611
  1482.7500     17.9772     97.3523     17.7355    102.5687
  1483.0000     18.2575     97.1510     18.2426    103.2667
  1483.2500     18.6680     96.9548     18.7091    103.3280
  1483.5000     19.2765     96.7576     19.1136    102.4383
  1483.7500     19.9535     96.5478     19.4534    101.6524
  1484.0000     20.5348     96.3168     19.7448    101.4694
  1484.2500     20.9790     96.0683     20.0145    102.2751
  1484.5000     21.3438     95.8174     20.2897    103.8313
  1484.7500     21.6998     95.5783     20.5920    104.1445
  1485.0000     22.0583     95.3542     20.9354    102.8981
  1485.2500     22.3620     95.1377     21.3238    101.4302
  1485.5000     22.5835     94.9202     21.7476     99.6541
  1485.7500     22.8214     94.7003     22.1831     99.0994
  1486.0000     23.2318     94.4857     22.5986     98.4887
  1486.2500     23.8556     94.2896     22.9698     97.4666
  1486.5000     24.5672     94.1230     23.2995     94.4875
  1486.7500     25.2333     93.9890     23.6278     91.9875
  1487.0000     25.8911     93.8826     24.0230     88.7501
  1487.2500     26.6713     93.7947     24.5555     87.4241
  1487.5000     27.5758     93.7147     25.2686     86.7505
  1487.7500     28.5073     93.6264     26.1621     86.8411
  1488.0000     29.4862     93.5050     27.1937     86.7777
  1488.2500     30.5941     93.3234     28.2938     85.9961
  1488.5000     31.7569     93.0641     29.3828     83.0235
  1488.7500     32.8575     92.7303     30.3804     79.5420
  1489.0000     33.9422     92.3442     31.2097     71.1984
  1489.2500     35.0973     91.9337     31.8126     62.9220
  1489.5000     36.3083     91.5184     32.1780     46.4895
  1489.7500     37.5322     91.1082     32.3582     34.2362
  1490.0000     38.6848     90.7131     32.4480     17.8066
  1490.2500     39.5719     90.3509     32.5308      9.9382
  1490.5000     40.0171     90.0427     32.6238      3.2488
  1490.7500     39.9941     89.7983     32.6519      1.2986
  1491.0000     39.5409     89.6051     32.4881      0.2500
  1491.2500     38.6531     89.4314     32.0496      0.0685
  1491.5000     37.3420     89.2415     31.3734      0.0064
  1491.7500     35.7573     89.0085     30.5832      0.0000
  1492.0000     34.1933     88.7164     29.7819   -999.2500
  1492.2500     32.8998     88.3553     28.9836   -999.2500
  1492.5000     31.8674     87.9206     28.1369   -999.2500
  1492.7500     30.9013     87.4149     27.1939   -999.2500
  1493.0000     29.8665     86.8468     26.1566   -999.2500
  1493.2500     28.7432     86.2262     25.0690   -999.2500
  1493.5000     27.5647     85.5612     23.9817   -999.2500
  1493.7500     26.4496     84.8579     22.9307   -999.2500
  1494.0000     25.5585     84.1186     21.9445   -999.2500
  1494.2500     24.9171     83.3338     21.0630   -999.2500
  1494.5000     24.4283     82.4761     20.3373   -999.2500
  1494.7500     24.0319     81.5059     19.8067   -999.2500
  1495.0000     23.6906     80.3858     19.4715   -999.2500
  1495.2500     23.3610     79.0900     19.2906   -999.2500
  1495.5000     23.0470     77.6005     19.2036   -999.2500
  1495.7500     22.7362     75.8966     19.1616   -999.2500
  1496.0000     22.3458     73.9510     19.0811   -999.2500
  1496.2500     21.8683     71.7382     19.0883   -999.2500
  1496.5000     21.4605     69.2534     19.1326   -999.2500
  1496.7500     21.2690     66.5353     19.2238   -999.2500
  1497.0000     21.2566     63.6878     19.3583   -999.2500
  1497.2500     21.2627     60.8970     19.5077   -999.2500
  1497.5000     21.1490     58.4254     19.6214   -999.2500
  1497.7500     20.8309     56.5499     19.6509   -999.2500
  1498.0000     20.2473     55.4507     19.5903   -999.2500
  1498.2500     19.4293     55.1275     19.4955   -999.2500
