~Version Information
VERS.                      2.0: CWLS Log ASCII Standard - VERSION 2.0
WRAP.                       NO: One line per depth step
~Well Information Block
STRT.FT                -7.0000: 
STOP.FT              2328.5000: 
STEP.FT                 0.2500: 
NULL.                -999.2500: 
COMP.          Pioneer Natural Resources: COMPANY
WELL.              Rolls 14-14: WELL
FLD.           Purgatorie River: FIELD
LOC.           572' FSL & 856' FWL--: LOCATION
PROV.                       CO: PROVINCE
CNTY.               Las Animas: COUNTRY
SRVC.          Patterson Wireline: SERVICE COMPANY
DATE.          Mon Aug 08 10:10:54 2005: LOG DATE
UWI.           05 071 08455 00: UNIQUE WELL ID
~Curve Information Block
DEPT.FT            0 000 00 00: Depth
CCL.                          : Casing Collar Locator
TT3.usec                      : CBL 3' Travel Time
AMP3.mV                       : CBL 3' Amplitude
GR.GAPI                       : Gamma Ray
~Parameter Information Block
~A  Depth       CCL         TT3         AMP3         GR     
# ...
   931.0000      0.0000    806.1224      4.1265     82.8181
   931.2500      0.0000    808.4037      4.0988     85.1914
   931.5000      0.0000    802.0423      4.0398     89.8608
   931.7500      0.0000    786.5630      3.9613     98.5276
   932.0000      0.0000    767.9338      3.8940    110.4827
   932.2500      0.0000    756.0473      3.8693    122.0014
   932.5000      0.0000    758.2473      3.9034    128.6436
   932.7500      0.0000    773.5114      3.9965    128.3717
   933.0000      0.0000    792.6357      4.1390    122.5993
   933.2500      0.0000    805.1114      4.3101    114.6432
   933.5000      0.0000    806.8055      4.4741    107.6120
   933.7500      0.0000    801.2900      4.5890    103.4063
   934.0000      0.0000    794.2677      4.6279    102.6838
   934.2500      0.0000    787.6295      4.5938    105.1692
   934.5000      0.0000    778.4754      4.5142    110.1310
   934.7500      0.0000    762.2644      4.4226    116.7863
   935.0000      0.0000    735.9899      4.3444    124.3196
   935.2500      0.0000    698.9398      4.3003    131.6121
   935.5000      0.0000    652.2939      4.3160    137.1921
   935.7500      0.0000    599.9195      4.4121    139.8548
   936.0000      0.0000    549.0593      4.5747    139.7193
   936.2500      0.0000    507.6722      4.7428    138.5429
   936.5000      0.0000    479.8766      4.8439    138.4350
   936.7500      0.0000    464.2166      4.8512    140.0155
   937.0000      0.0000    455.9227      4.8041    142.1493
   937.2500      0.0000    450.2214      4.7720    143.4495
   937.5000      0.0000    444.4293      4.7941    143.4816
   937.7500      0.0000    438.4025      4.8535    142.6115
   938.0000      0.0000    433.6653      4.9079    141.5640
   938.2500      0.0000    432.2057      4.9395    141.2907
   938.5000      0.0000    436.1653      4.9648    142.3487
   938.7500      0.0000    448.1728      4.9975    143.8606
   939.0000      0.0000    470.6641      5.0180    143.6437
   939.2500      0.0000    503.5455      4.9924    140.0318
   939.5000      0.0000    542.3809      4.9148    133.4717
   939.7500      0.0000    580.0651      4.8199    125.9793
   940.0000      0.0000    611.3694      4.7523    119.2476
   940.2500      0.0000    635.7009      4.7286    113.6499
   940.5000      0.0000    655.2927      4.7325    108.7683
   940.7500      0.0000    672.0521      4.7420    104.1769
   941.0000      0.0000    687.2790      4.7548     99.6069
   941.2500      0.0000    702.7574      4.7789     94.8551
   941.5000      0.0000    719.4258      4.8039     89.9762
   941.7500      0.0000    734.6045      4.7978     85.5903
   942.0000      0.0000    742.2875      4.7402     82.8063
   942.2500      0.0000    737.0954      4.6469     82.6997
   942.5000      0.0000    717.4387      4.5550     85.6332
   942.7500      0.0000    685.4683      4.4930     90.6988
   943.0000      0.0000    646.3483      4.4744     95.7346
   943.2500      0.0000    607.8315      4.5058     98.4623
   943.5000      0.0000    577.7742      4.5800     98.1063
   943.7500      0.0000    560.0491      4.6654     95.7489
   944.0000      0.0000    553.0326      4.7237     92.9514
   944.2500      0.0000    551.8089      4.7442     90.2528
   944.5000      0.0000    550.7553      4.7494     87.1220
   944.7500      0.0000    544.5303      4.7609     83.0681
   945.0000      0.0000    529.2004      4.7692     78.5664
   945.2500      0.0000    504.6280      4.7479     74.9185
   945.5000      0.0000    475.7171      4.6919     73.3701
   945.7500      0.0000    449.8002      4.6300     74.3350
   946.0000      0.0000    431.9102      4.5999     77.2328
   946.2500      0.0000    422.4829      4.6219     80.8846
   946.5000      0.0000    418.9477      4.6953     84.2553
   946.7500      0.0000    418.4539      4.8001     87.1101
   947.0000      0.0000    419.1649      4.8985     89.8614
   947.2500      0.0000    420.2403      4.9523     92.5682
   947.5000      0.0000    421.9274      4.9569     94.2712
   947.7500      0.0000    426.5429      4.9530     93.6250
   948.0000      0.0000    439.1099      4.9888     90.1796
   948.2500      0.0000    464.7427      5.0718     84.9078
   948.5000      0.0000    502.6526      5.1635     79.3976
   948.7500      0.0000    543.4781      5.2156     74.5266
   949.0000      0.0000    576.1442      5.2034     70.1098
   949.2500      0.0000    597.9751      5.1340     65.9268
   949.5000      0.0000    615.2398      5.0401     62.8583
   949.7500      0.0000    633.8518      4.9619     62.6325
   950.0000      0.0000    653.0027      4.9182     66.3944
   950.2500      0.0000    668.3884      4.8889     73.7212
   950.5000      0.0000    678.4247      4.8400     83.1458
   950.7500      0.0000    685.5989      4.7676     93.1304
   951.0000      0.0000    693.1068      4.7064    101.9687
   951.2500      0.0000    701.6849      4.6932    107.4035
   951.5000      0.0000    709.6461      4.7353    107.8338
   951.7500      0.0000    715.1452      4.8156    104.2269
   952.0000      0.0000    717.7822      4.9109     99.9071
   952.2500      0.0000    718.3306      4.9996     98.0297
   952.5000      0.0000    717.6647      5.0658     99.5648
   952.7500      0.0000    715.9153      5.1016    103.6702
   953.0000      0.0000    711.6754      5.1048    109.4613
   953.2500      0.0000    702.3906      5.0749    116.9835
   953.5000      0.0000    687.5616      5.0178    126.3486
   953.7500      0.0000    672.1388      4.9480    136.2207
   954.0000      0.0000    664.6871      4.8857    143.8592
   954.2500      0.0000    670.5325      4.8549    147.1096
   954.5000      0.0000    687.2053      4.8765    146.1847
   954.7500      0.0000    706.8195      4.9524    143.0153
   955.0000      0.0000    721.9861      5.0541    138.8586
   955.2500      0.0000    729.9700      5.1347    133.3059
   955.5000      0.0000    732.8691      5.1480    125.9620
   955.7500      0.0000    734.2340      5.0570    118.1441
   956.0000      0.0000    735.3433      4.8479    112.2240
   956.2500      0.0000    735.0266      4.5537    109.8536
   956.5000      0.0000    732.0706      4.2530    111.1262
   956.7500      0.0000    725.8417      4.0266    114.7954
   957.0000      0.0000    714.9324      3.9121    119.0287
   957.2500      0.0000    698.0517      3.8962    122.5366
   957.5000      0.0000    677.1854      3.9372    125.5221
   957.7500     -1.7535    658.1055      3.9874    129.5565
   958.0000     -2.0000    646.5728      4.0099    136.1557
   958.2500     -2.0000    645.0891      3.9871    144.9717
   958.5000      0.0000    653.3156      3.9169    153.2021
   958.7500      0.0000    669.2819      3.8126    157.2029
   959.0000      0.0000    688.5797      3.7156    155.2896
   959.2500      0.0000    703.6869      3.6933    149.2445
   959.5000      0.0000    707.3377      3.7977    142.8882
   959.7500      0.0000    698.9857      4.0168    138.9144
   960.0000      0.0000    686.4461      4.2748    136.9479
   960.2500      0.0000    677.9722      4.4852    134.3632
   960.5000      0.0000    672.7873      4.6111    128.6980
   960.7500      0.0000    661.6060      4.6764    119.7215
   961.0000      0.0000    636.1984      4.7243    109.8768
   961.2500      0.0000    597.5755      4.7718    102.8325
   961.5000      0.0000    556.9564      4.8110    101.1731
   961.7500      0.0000    530.4338      4.8362    104.9158
   962.0000      0.0000    529.6069      4.8521    111.7659
   962.2500      0.0000    553.4755      4.8599    118.5592
   962.5000      0.0000    587.7556      4.8556    122.8227
   962.7500      0.0000    612.1901      4.8416    123.8111
   963.0000      0.0000    611.0458      4.8295    122.4677
   963.2500      0.0000    581.7574      4.8309    120.1611
   963.5000      0.0000    537.0063      4.8493    117.4262
   963.7500      0.0000    498.0580      4.8767    114.0560
   964.0000      0.0000    483.7510      4.8981    110.0081
   964.2500      0.0000    502.4495      4.8986    105.8373
