~Version Information
VERS.                      2.0: CWLS Log ASCII Standard - VERSION 2.0
WRAP.                       NO: One line per depth step
~Well Information Block
STRT.FT               570.0000: 
STOP.FT              2094.0000: 
STEP.FT                 0.2500: 
NULL.                -999.2500: 
COMP.          XTO Energy Inc.: COMPANY
WELL.          Golden Eagle 19-10: WELL
FLD.           Purgatoire River: FIELD
LOC.           2684' FSL & 1825' FEL: LOCATION
CNTY.               Las Animas: COUNTY
CTRY.                      USA: COUNTRY
API.               05 071 08697:  
SRVC.                Patterson: SERVICE COMPANY
DATE.          Sun Mar 05 02:13:24 2006: LOG DATE
UWI.           05 071 08697 00: UNIQUE WELL ID
STAT.                 Colorado: STATE
~Curve Information Block
DEPT.FT            0 000 00 00: Depth
SP.mV                         : DIL Spontaneous Potential
RILD.Ohm-m                    : DIL Deep Resistivity
RILM.Ohm-m                    : DIL Medium Resistivity
RLL3.Ohm-m                    : DIL Shallow Resistivity
GR.GAPI                       : Gamma Ray
~Parameter Information Block
~A  Depth        SP         RILD        RILM        RLL3         GR     
# ...
  1662.0000     43.7276     15.1305     15.4209     28.2355     80.5309
  1662.2500     44.0632     15.5213     15.8012     28.5868     79.7529
  1662.5000     44.4140     15.9198     16.1672     28.1163     80.3103
  1662.7500     44.7613     16.3164     16.5131     27.4056     81.3390
  1663.0000     45.0796     16.7046     16.8360     27.0698     82.7178
  1663.2500     45.3441     17.0734     17.1363     27.2555     83.0870
  1663.5000     45.5430     17.4029     17.4165     27.6070     82.8613
  1663.7500     45.6849     17.6704     17.6804     27.8618     82.4862
  1664.0000     45.7978     17.8664     17.9308     28.5189     81.8845
  1664.2500     45.9222     18.0049     18.1681     30.6849     81.3345
  1664.5000     46.0991     18.1164     18.3900     34.8592     79.8533
  1664.7500     46.3550     18.2310     18.5928     39.7591     78.3244
  1665.0000     46.6890     18.3648     18.7743     42.7787     75.4155
  1665.2500     47.0728     18.5207     18.9382     42.1099     73.2536
  1665.5000     47.4635     18.6983     19.0953     38.3896     70.0226
  1665.7500     47.8210     18.9032     19.2633     34.0493     68.1675
  1666.0000     48.1168     19.1502     19.4625     31.2348     66.3160
  1666.2500     48.3368     19.4574     19.7106     30.5159     65.6992
  1666.5000     48.4817     19.8364     20.0185     31.1761     65.0422
  1666.7500     48.5686     20.2840     20.3884     32.1749     64.2836
  1667.0000     48.6252     20.7784     20.8140     32.8248     62.3067
  1667.2500     48.6800     21.2822     21.2833     32.9722     60.6635
  1667.5000     48.7515     21.7516     21.7814     32.8274     58.4460
  1667.7500     48.8422     22.1542     22.2932     32.6317     57.3556
  1668.0000     48.9381     22.4875     22.8048     32.4113     56.0075
  1668.2500     49.0133     22.7826     23.3041     32.0117     55.0021
  1668.5000     49.0382     23.0848     23.7799     31.3390     53.3151
  1668.7500     48.9910     23.4236     24.2223     30.5228     52.3947
  1669.0000     48.8683     23.7932     24.6217     29.8269     51.8161
  1669.2500     48.6888     24.1604     24.9689     29.4336     51.9044
  1669.5000     48.4875     24.4948     25.2548     29.3385     52.2622
  1669.7500     48.2985     24.7923     25.4713     29.4194     52.5367
  1670.0000     48.1396     25.0614     25.6117     29.5512     53.3372
  1670.2500     48.0051     25.2782     25.6712     29.6453     54.2827
  1670.5000     47.8741     25.3599     25.6458     29.6227     55.8825
  1670.7500     47.7234     25.2069     25.5298     29.4061     56.5758
  1671.0000     47.5389     24.7931     25.3142     28.9651     56.6169
  1671.2500     47.3200     24.2029     24.9872     28.3728     56.1487
  1671.5000     47.0762     23.5688     24.5395     27.7948     55.4076
  1671.7500     46.8203     22.9819     23.9716     27.3819     55.2383
  1672.0000     46.5628     22.4600     23.3005     27.1444     55.5580
  1672.2500     46.3085     21.9752     22.5597     26.9458     55.8659
  1672.5000     46.0602     21.4962     21.7931     26.6432     55.7909
  1672.7500     45.8268     21.0105     21.0454     26.2209     55.1941
  1673.0000     45.6286     20.5265     20.3538     25.7772     53.7591
  1673.2500     45.4932     20.0632     19.7439     25.4138     52.7859
  1673.5000     45.4429     19.6406     19.2290     25.1680     51.6395
  1673.7500     45.4820     19.2727     18.8132     25.0323     51.0134
  1674.0000     45.5903     18.9653     18.4941     24.9881     50.0266
  1674.2500     45.7250     18.7169     18.2654     25.0089     49.3223
  1674.5000     45.8338     18.5188     18.1178     25.0767     48.4670
  1674.7500     45.8764     18.3559     18.0398     25.2503     48.2706
  1675.0000     45.8417     18.2103     18.0169     25.6989     48.7864
  1675.2500     45.7478     18.0693     18.0321     26.5866     49.4963
  1675.5000     45.6208     17.9315     18.0666     27.8487     50.2407
  1675.7500     45.4716     17.8059     18.1014     29.0805     50.1337
  1676.0000     45.2893     17.7050     18.1193     29.7074     49.5094
  1676.2500     45.0508     17.6373     18.1086     29.3398     49.5703
  1676.5000     44.7370     17.6028     18.0639     28.0174     51.4079
  1676.7500     44.3449     17.5957     17.9877     26.1598     53.6887
  1677.0000     43.8895     17.6091     17.8892     24.2977     57.3841
  1677.2500     43.3983     17.6395     17.7818     22.8094     59.0532
  1677.5000     42.9040     17.6851     17.6807     21.8233     59.3030
  1677.7500     42.4408     17.7415     17.5997     21.2905     58.0628
  1678.0000     42.0385     17.8007     17.5497     21.1084     55.4395
  1678.2500     41.7147     17.8537     17.5376     21.1889     54.1791
  1678.5000     41.4702     17.8973     17.5673     21.4610     53.8470
  1678.7500     41.2930     17.9379     17.6403     21.8583     54.2872
  1679.0000     41.1664     17.9918     17.7566     22.3160     54.5403
  1679.2500     41.0741     18.0794     17.9156     22.7722     53.9500
  1679.5000     40.9997     18.2179     18.1154     23.1853     52.2602
  1679.7500     40.9281     18.4146     18.3529     23.5625     51.1225
  1680.0000     40.8471     18.6640     18.6238     23.9575     49.9481
  1680.2500     40.7494     18.9510     18.9231     24.4296     49.4917
  1680.5000     40.6326     19.2571     19.2460     25.0132     49.0130
  1680.7500     40.5007     19.5678     19.5894     25.7270     48.7753
  1681.0000     40.3668     19.8704     19.9533     26.5956     48.7783
  1681.2500     40.2531     20.1454     20.3411     27.6365     49.2214
  1681.5000     40.1866     20.3658     20.7598     28.8200     50.5422
  1681.7500     40.1910     20.5178     21.2179     30.0687     51.5476
  1682.0000     40.2807     20.6327     21.7232     31.3691     52.5764
  1682.2500     40.4590     20.7930     22.2786     32.9443     52.7770
  1682.5000     40.7195     21.0929     22.8792     35.2636     52.4591
  1682.7500     41.0489     21.5735     23.5093     38.7050     51.9280
  1683.0000     41.4334     22.1802     24.1419     43.0824     50.7190
  1683.2500     41.8657     22.7699     24.7407     47.5925     49.6769
  1683.5000     42.3499     23.1714     25.2624     51.4019     47.9275
  1683.7500     42.9015     23.2634     25.6585     54.2719     46.8763
  1684.0000     43.5429     23.0168     25.8756     56.4630     46.2773
  1684.2500     44.2968     22.4832     25.8571     58.0570     47.0683
  1684.5000     45.1777     21.7553     25.5511     58.5691     50.3721
  1684.7500     46.1833     20.9288     24.9262     57.2748     53.6159
  1685.0000     47.2875     20.0801     23.9893     53.7923     58.8445
  1685.2500     48.4392     19.2573     22.7950     48.3353     62.0821
  1685.5000     49.5690     18.4804     21.4361     41.5945     66.8361
  1685.7500     50.6032     17.7492     20.0194     34.5211     70.5437
  1686.0000     51.4836     17.0517     18.6409     28.1053     77.4579
  1686.2500     52.1837     16.3764     17.3702     23.0788     82.5983
  1686.5000     52.7133     15.7191     16.2477     19.6503     90.0142
  1686.7500     53.1056     15.0846     15.2893     17.5259     94.4253
  1687.0000     53.3991     14.4821     14.4939     16.2055    100.0953
  1687.2500     53.6253     13.9206     13.8496     15.2788    102.9920
  1687.5000     53.8062     13.4059     13.3387     14.5401    105.3368
  1687.7500     53.9570     12.9410     12.9404     13.9495    105.5417
  1688.0000     54.0894     12.5289     12.6331     13.5350    104.8055
  1688.2500     54.2103     12.1744     12.3967     13.3069    104.3218
  1688.5000     54.3178     11.8837     12.2138     13.2333    103.8646
  1688.7500     54.3993     11.6611     12.0711     13.2632    103.3678
  1689.0000     54.4379     11.5064     11.9602     13.3520    101.9102
  1689.2500     54.4223     11.4139     11.8769     13.4685    100.7024
  1689.5000     54.3534     11.3757     11.8197     13.5989     99.3036
  1689.7500     54.2418     11.3836     11.7887     13.7535     98.9081
