~Version Information
VERS.                      2.0: CWLS Log ASCII Standard - VERSION 2.0
WRAP.                       NO: One line per depth step
~Well Information Block
STRT.FT               491.0000: 
STOP.FT              1909.5000: 
STEP.FT                 0.1000: 
NULL.                -999.2500: 
COMP.          Pioneer Natural Resources: COMPANY
WELL.            Corazon 13-10: WELL
FLD.           Purgatoire River: FIELD
LOC.           2510' FSL & 439' FWL: LOCATION
PROV.                 Colorado: PROVINCE
CNTY.               Las Animas: COUNTRY
SRVC.                Patterson: SERVICE COMPANY
DATE.          Thu Dec 01 07:28:46 2005: LOG DATE
UWI.           05 071 08613 00: UNIQUE WELL ID
~Curve Information Block
DEPT.FT            0 000 00 00: Depth
DCAL.in                       : CDL Caliper
RHOB.g/cc                     : CDL Bulk Density
RHOC.g/cc                     : CDL Density Correction
DPOR.pu                       : CDL Density Porosity
GR.GAPI                       : Gamma Ray
NPOR.pu                       : Neutron Porosity
~Parameter Information Block
~A  Depth       DCAL        RHOB        RHOC        DPOR         GR         NPOR    
# ...
   769.4000      8.4035      2.3247     -0.0696     19.7152    124.0649     26.7881
   769.5000      8.4036      2.3603      0.0244     17.5550    122.9942     24.7229
   769.6000      8.4036      2.3952      0.0703     15.4437    121.9473     23.6656
   769.7000      8.4036      2.4145      0.0309     14.2717    122.1153     23.8836
   769.8000      8.4177      2.4170      0.0328     14.1182    121.3107     24.5303
   769.9000      8.4177      2.4056      0.0179     14.8141    119.3831     24.7376
   770.0000      8.3875      2.3866     -0.0191     15.9621    118.4485     24.2179
   770.1000      8.3875      2.3689     -0.0040     17.0364    119.0345     23.3796
   770.2000      8.3875      2.3620     -0.0315     17.4563    121.0701     22.8629
   770.3000      8.3713      2.3759     -0.0615     16.6127    122.9742     22.7062
   770.4000      8.3713      2.4122     -0.0391     14.4102    121.0680     22.5705
   770.5000      8.3694      2.4553      0.0025     11.7976    115.0699     22.3110
   770.6000      8.3694      2.4864      0.0103      9.9167    109.3664     22.6782
   770.7000      8.3694      2.5005      0.0106      9.0633    106.7086     23.8210
   770.8000      8.3679      2.4988      0.0392      9.1610    108.7205     24.2629
   770.9000      8.3679      2.4902     -0.0049      9.6849    115.4107     23.7685
   771.0000      8.3720      2.4798      0.0112     10.3127    120.5338     23.3310
   771.1000      8.3720      2.4555      0.0078     11.7854    119.1461     23.2984
   771.2000      8.3720      2.4186     -0.0258     14.0270    114.8105     23.9142
   771.3000      8.3572      2.3903     -0.0529     15.7392    110.5633     24.4945
   771.4000      8.3572      2.3824      0.0093     16.2187    107.7601     24.2338
   771.5000      8.3558      2.3879     -0.0405     15.8868    110.3641     24.0363
   771.6000      8.3558      2.3932     -0.0164     15.5657    117.6643     24.6674
   771.7000      8.3558      2.3952     -0.0722     15.4409    124.7456     25.2659
   771.8000      8.3577      2.4023     -0.0057     15.0104    132.7796     25.3467
   771.9000      8.3577      2.4122      0.0384     14.4121    145.0446     25.6732
   772.0000      8.3585      2.4246     -0.0049     13.6612    154.0425     26.3586
   772.1000      8.3585      2.4471      0.0572     12.2955    149.8138     26.8716
   772.2000      8.3585      2.4694      0.0842     10.9451    141.2460     27.3943
   772.3000      8.3565      2.4847      0.0856     10.0182    142.3760     28.0217
   772.4000      8.3565      2.5022      0.1207      8.9555    148.0534     28.2111
   772.5000      8.3399      2.5212      0.1356      7.8038    148.1742     27.8522
   772.6000      8.3399      2.5346      0.1335      6.9920    145.2543     27.2505
   772.7000      8.3399      2.5422      0.1127      6.5349    143.7571     26.3349
   772.8000      8.3514      2.5527      0.0590      5.8960    144.6639     25.3805
   772.9000      8.3514      2.5731      0.1377      4.6579    147.6465     25.2730
   773.0000      8.3313      2.5946      0.1305      3.3554    151.7954     26.3287
   773.1000      8.3313      2.6036      0.1199      2.8103    157.4203     27.1382
   773.2000      8.3313      2.5956      0.0911      3.2963    160.9576     26.4387
   773.3000      8.3318      2.5812      0.0683      4.1699    158.8486     25.3476
   773.4000      8.3318      2.5736      0.0877      4.6321    152.5167     25.1778
   773.5000      8.3372      2.5669      0.0347      5.0390    146.3406     25.7949
   773.6000      8.3372      2.5476      0.0288      6.2072    143.6862     26.5000
   773.7000      8.3372      2.5184     -0.0259      7.9755    143.9831     26.8883
   773.8000      8.3075      2.4928      0.0320      9.5282    143.4528     27.1024
   773.9000      8.3075      2.4733     -0.0198     10.7103    138.2950     26.9986
   774.0000      8.3041      2.4503      0.0103     12.1038    129.8558     26.5336
   774.1000      8.3041      2.4210     -0.1235     13.8769    125.8346     26.3688
   774.2000      8.3041      2.4047     -0.1419     14.8652    129.3797     26.3345
   774.3000      8.3080      2.4102     -0.0842     14.5308    136.1127     25.7422
   774.4000      8.3080      2.4221     -0.0163     13.8108    142.6520     25.2092
   774.5000      8.2924      2.4338      0.0050     13.1029    147.5339     25.3644
   774.6000      8.2924      2.4594      0.0352     11.5536    150.5560     25.7972
   774.7000      8.2924      2.5126      0.0393      8.3267    150.7054     25.8698
   774.8000      8.2805      2.5986      0.0630      3.1127    146.4676     25.4789
   774.9000      8.2805      2.7115      0.1204     -3.7268    141.5358     25.4305
   775.0000      8.2715      2.8273      0.1545    -10.7436    136.8191     26.1638
   775.1000      8.2715      2.9168      0.1662    -16.1671    127.6656     26.6741
   775.2000      8.2715      2.9671      0.1859    -19.2195    113.8994     26.1973
   775.3000      8.2724      2.9938      0.1578    -20.8390    101.0644     25.3347
   775.4000      8.2724      3.0190      0.1403    -22.3644     94.1427     24.9199
   775.5000      8.2783      3.0318      0.1351    -23.1384     91.3420     24.9670
   775.6000      8.2783      2.9997      0.0386    -21.1917     87.9796     25.0238
   775.7000      8.2783      2.9121     -0.1372    -15.8823     83.0967     25.2652
   775.8000      8.2682      2.7927     -0.1504     -8.6496     78.1782     25.8076
   775.9000      8.2682      2.6824     -0.2435     -1.9662     73.8421     26.2312
   776.0000      8.2732      2.6136     -0.1811      2.2069     72.9947     26.3489
   776.1000      8.2732      2.5890     -0.1765      3.6974     79.0033     26.0845
   776.2000      8.2732      2.5936     -0.0262      3.4178     86.0758     25.2489
   776.3000      8.2745      2.6022      0.0459      2.8970     86.6149     24.0273
   776.4000      8.2745      2.5893      0.0500      3.6815     81.4403     22.7667
   776.5000      8.2959      2.5544     -0.0030      5.7929     75.4813     21.5979
   776.6000      8.2959      2.5187      0.0038      7.9550     72.5579     21.1903
   776.7000      8.2959      2.4962      0.0118      9.3220     72.9742     21.8810
   776.8000      8.3155      2.4913     -0.0337      9.6153     75.4161     22.7804
   776.9000      8.3155      2.4999      0.0197      9.0955     79.0308     23.0761
   777.0000      8.3447      2.5047      0.0049      8.8051     82.7314     23.0345
   777.1000      8.3447      2.4990     -0.0128      9.1536     86.0751     23.2204
   777.2000      8.3447      2.4924      0.0269      9.5485     89.2107     23.2615
   777.3000      8.3335      2.4914      0.0241      9.6125     90.1177     22.3986
   777.4000      8.3335      2.4942      0.0621      9.4442     87.6296     21.6614
   777.5000      8.3355      2.5045      0.0580      8.8179     83.9822     21.7733
   777.6000      8.3355      2.5297      0.0893      7.2931     82.5184     21.7380
   777.7000      8.3355      2.5687      0.0803      4.9285     84.7456     21.2249
   777.8000      8.3398      2.6143      0.1092      2.1663     87.0474     20.8197
   777.9000      8.3398      2.6541      0.0947     -0.2481     84.0073     20.6050
   778.0000      8.3460      2.6799      0.0727     -1.8149     77.1180     20.7790
   778.1000      8.3460      2.6928      0.0937     -2.5969     72.5931     21.5776
   778.2000      8.3460      2.6990      0.0747     -2.9718     72.7281     22.4808
   778.3000      8.3579      2.7055      0.1133     -3.3647     75.2639     22.9418
   778.4000      8.3579      2.7127      0.1133     -3.7996     78.1250     23.1775
   778.5000      8.3572      2.7171      0.1028     -4.0640     80.5283     23.3206
   778.6000      8.3572      2.7079      0.0871     -3.5070     83.4848     23.0397
   778.7000      8.3572      2.6791     -0.0256     -1.7638     86.2346     22.6470
   778.8000      8.3546      2.6413      0.0001      0.5291     85.4574     23.1100
   778.9000      8.3546      2.6010     -0.0191      2.9682     82.5991     24.3889
