~Version Information
VERS.                      2.0: CWLS Log ASCII Standard - VERSION 2.0
WRAP.                       NO: One line per depth step
~Well Information Block
STRT.FT               240.0000: 
STOP.FT              1342.0000: 
STEP.FT                 0.1000: 
NULL.                -999.2500: 
COMP.          Pioneer Natural Resources: COMPANY
WELL.          Lorencito 9-4-34-66: WELL
FLD.           Purgatoire River: FIELD
LOC.           2540' FSL & 438' FEL: LOCATION
STAT.                 Colorado: State
CNTY.               Las Animas: COUNTY
CTRY. USA : Country
SECT. 4 : Section
TOWN. 34S : Township
RANG. 68W : range
SRVC.                Patterson: SERVICE COMPANY
DATE.          Thu Sep 15 13:16:59 2005: LOG DATE
API.           05 071 08498 00: UNIQUE WELL ID
~Curve Information Block
DEPT.FT            0 000 00 00: Depth
DCAL.in                       : CDL Caliper
RHOB.g/cc                     : CDL Bulk Density
RHOC.g/cc                     : CDL Density Correction
DPOR.pu                       : CDL Density Porosity
GR.GAPI                       : Gamma Ray
NPOR.pu                       : Neutron Porosity
~Parameter Information Block
~A  Depth       DCAL        RHOB        RHOC        DPOR         GR         NPOR    
# ...
   748.8000      8.0903      2.5844      0.2113      3.9774    144.1465     26.9889
   748.9000      8.0903      2.5512      0.1687      5.9898    147.4461     27.8172
   749.0000      8.1555      2.5328      0.1434      7.1059    143.8688     27.6043
   749.1000      8.1555      2.5299      0.0896      7.2812    139.7501     27.1198
   749.2000      8.1555      2.5407      0.0693      6.6256    135.7419     27.1361
   749.3000      8.1454      2.5684      0.0429      4.9427    130.3234     27.4857
   749.4000      8.1454      2.6082      0.1269      2.5352    124.9416     27.4531
   749.5000      8.1302      2.6350      0.1423      0.9064    120.5641     27.0459
   749.6000      8.1302      2.6412      0.0837      0.5323    116.5526     26.5825
   749.7000      8.1302      2.6431      0.0703      0.4164    111.5910     26.2373
   749.8000      8.1162      2.6403      0.0980      0.5851    108.0982     26.5002
   749.9000      8.1162      2.6294      0.0494      1.2485    107.9406     27.5368
   750.0000      8.0891      2.6257      0.0788      1.4749    104.7031     28.4728
   750.1000      8.0891      2.6313      0.0760      1.1358     97.9566     28.5912
   750.2000      8.0891      2.6316      0.0623      1.1169     96.7685     28.0169
   750.3000      8.0835      2.6240      0.0268      1.5782    101.4560     27.1878
   750.4000      8.0835      2.6160      0.0707      2.0610    103.5982     26.4758
   750.5000      8.0697      2.6129      0.0386      2.2476    101.2597     25.9581
   750.6000      8.0697      2.6177      0.0361      1.9559     98.3763     25.9121
   750.7000      8.0697      2.6193      0.0803      1.8601     96.5777     26.5704
   750.8000      8.0609      2.6059      0.0328      2.6725     96.6314     27.7679
   750.9000      8.0609      2.5913      0.0207      3.5602     98.8719     29.1757
   751.0000      8.0837      2.5907      0.0166      3.5922     99.2970     30.2189
   751.1000      8.0837      2.6032      0.0368      2.8377     94.1100     30.2250
   751.2000      8.0837      2.6155      0.0588      2.0931     87.4226     29.2570
   751.3000      8.0725      2.6165      0.0347      2.0300     87.2702     27.9920
   751.4000      8.0725      2.6165      0.0319      2.0281     92.5229     26.6907
   751.5000      8.0878      2.6280      0.0533      1.3336     95.6857     25.1733
   751.6000      8.0878      2.6439      0.0551      0.3703     94.5706     23.4920
   751.7000      8.0878      2.6471      0.0763      0.1748     90.9782     22.4268
   751.8000      8.0350      2.6284      0.0691      1.3097     86.3942     22.3847
   751.9000      8.0350      2.6043      0.0432      2.7679     82.4847     22.6471
   752.0000      8.0476      2.5981      0.0229      3.1454     81.3386     22.6620
   752.1000      8.0476      2.5976      0.0752      3.1728     82.2122     22.8476
   752.2000      8.0476      2.5780      0.0338      4.3619     80.7395     23.4492
   752.3000      8.0252      2.5526      0.0192      5.9004     77.8318     24.0396
   752.4000      8.0252      2.5494      0.0246      6.0957     77.0916     24.0889
   752.5000      8.0308      2.5764      0.0407      4.4587     77.7693     23.2070
   752.6000      8.0308      2.6307      0.0711      1.1701     79.0971     21.7784
   752.7000      8.0308      2.6936      0.1233     -2.6400     81.5858     20.8759
   752.8000      8.0237      2.7324      0.1818     -4.9940     83.6619     20.8684
   752.9000      8.0237      2.7292      0.2015     -4.7982     83.5904     21.0079
   753.0000      8.0331      2.6960      0.0998     -2.7900     81.2812     20.4942
   753.1000      8.0331      2.6571      0.1900     -0.4300     80.0187     19.6685
   753.2000      8.0331      2.6179      0.1282      1.9442     84.1886     19.6488
   753.3000      7.9633      2.5725      0.1611      4.7000     92.2776     20.7139
   753.4000      7.9633      2.5271      0.0332      7.4515     97.6325     22.0871
   753.5000      7.9505      2.5004      0.0196      9.0668     98.0568     22.9659
   753.6000      7.9505      2.4970      0.0228      9.2733     97.8359     23.1114
   753.7000      7.9505      2.5155     -0.0740      8.1485     98.4369     22.7997
   753.8000      7.9836      2.5525      0.1284      5.9093     99.3945     22.8191
   753.9000      7.9836      2.5852      0.1754      3.9249    107.0092     23.5492
   754.0000      8.0498      2.6004      0.2053      3.0075    123.9893     24.5207
   754.1000      8.0498      2.6040      0.1967      2.7853    141.2968     24.7347
   754.2000      8.0498      2.5900      0.2113      3.6337    150.1234     23.3636
   754.3000      8.0696      2.5438      0.1595      6.4393    147.4302     21.0687
   754.4000      8.0696      2.4831      0.0307     10.1145    135.9056     19.7290
   754.5000      8.0618      2.4450      0.0156     12.4252    123.7669     20.3529
   754.6000      8.0618      2.4382      0.0530     12.8351    119.4888     21.9711
   754.7000      8.0618      2.4493      0.0519     12.1619    123.6823     22.9852
   754.8000      8.0538      2.4621      0.1048     11.3870    128.5083     22.8779
   754.9000      8.0538      2.4672      0.0632     11.0781    130.8684     22.3818
   755.0000      8.0630      2.4691      0.1211     10.9608    132.6569     22.1583
   755.1000      8.0630      2.4713      0.0951     10.8304    132.0457     21.9256
   755.2000      8.0630      2.4770      0.0951     10.4863    127.8116     21.5804
   755.3000      8.0821      2.4862      0.1531      9.9293    122.3248     21.9236
   755.4000      8.0821      2.4803      0.1588     10.2878    119.3977     22.9838
   755.5000      8.0917      2.4478      0.1182     12.2526    121.2370     23.5831
   755.6000      8.0917      2.4042      0.0708     14.8991    125.6113     23.2312
   755.7000      8.0917      2.3680      0.0407     17.0907    128.8334     22.5657
   755.8000      8.0878      2.3501      0.0050     18.1734    130.3833     22.3816
   755.9000      8.0878      2.3599     -0.0069     17.5824    130.0215     22.8365
   756.0000      8.1066      2.3909      0.0687     15.7015    127.0997     23.3767
   756.1000      8.1066      2.4165      0.0703     14.1518    123.3429     23.4984
   756.2000      8.1066      2.4193      0.1189     13.9832    122.5061     23.4777
   756.3000      8.0729      2.4059      0.0995     14.7910    124.4664     23.6974
   756.4000      8.0729      2.3871      0.1029     15.9345    125.8147     23.8187
   756.5000      8.0605      2.3627      0.0864     17.4131    125.3050     23.4751
   756.6000      8.0605      2.3452      0.0174     18.4700    123.0234     22.9421
   756.7000      8.0605      2.3608      0.0352     17.5299    121.7272     22.7636
   756.8000      8.0570      2.4000      0.0954     15.1533    124.5641     23.1938
   756.9000      8.0570      2.4260      0.0941     13.5755    129.6048     23.5737
   757.0000      8.0730      2.4326      0.0873     13.1755    131.0449     23.5215
   757.1000      8.0730      2.4424      0.0875     12.5800    125.7013     23.6710
   757.2000      8.0730      2.4727      0.1062     10.7460    117.2481     24.3026
   757.3000      8.1279      2.5199      0.1652      7.8845    111.4623     24.9123
   757.4000      8.1279      2.5569      0.2374      5.6425    109.6462     25.1039
   757.5000      8.1420      2.5619      0.2323      5.3418    111.6035     24.9312
   757.6000      8.1420      2.5471      0.1730      6.2356    116.6037     24.4230
   757.7000      8.1420      2.5320      0.1094      7.1538    121.3317     23.8762
   757.8000      8.1304      2.5183      0.1518      7.9822    125.4987     24.1273
   757.9000      8.1304      2.5079      0.0991      8.6128    129.7784     25.2813
   758.0000      8.0870      2.5048      0.1567      8.7981    129.2513     25.8985
   758.1000      8.0870      2.5032      0.0791      8.8972    122.2683     25.0257
   758.2000      8.0870      2.5039      0.1111      8.8554    118.2793     23.6405
   758.3000      8.0760      2.5131      0.1200      8.2944    119.3883     23.1877
