~Version Information
VERS.                      2.0: CWLS Log ASCII Standard - VERSION 2.0
WRAP.                       NO: One line per depth step
~Well Information Block
STRT.FT               580.0000: 
STOP.FT              1029.0000: 
STEP.FT                 0.1000: 
NULL.                -999.2500: 
COMP.          Pioneer Natural Resources: COMPANY
WELL.             Quartz 13-22: WELL
FLD.           Purgatoire River: FIELD
LOC.           1933' FSL & 675' FWL: LOCATION
PROV.                 Colorado: PROVINCE
CNTY.               Las Animas: COUNTRY
SRVC.                Patterson: SERVICE COMPANY
DATE.          Fri Dec 16 10:30:09 2005: LOG DATE
UWI.           05 071 08638 00: UNIQUE WELL ID
~Curve Information Block
DEPT.FT            0 000 00 00: Depth
DCAL.in                       : CDL Caliper
RHOB.g/cc                     : CDL Bulk Density
RHOC.g/cc                     : CDL Density Correction
DPOR.pu                       : CDL Density Porosity
GR.GAPI                       : Gamma Ray
NPOR.pu                       : Neutron Porosity
~Parameter Information Block
~A  Depth       DCAL        RHOB        RHOC        DPOR         GR         NPOR    
# ...
   666.4000      7.9096      2.6021      0.1298      2.9009     52.4137     21.2829
   666.5000      7.8741      2.6215      0.1170      1.7254     54.9317     21.1123
   666.6000      7.8741      2.6223      0.1792      1.6811     56.0266     20.3350
   666.7000      7.8741      2.6035      0.1178      2.8182     55.8890     19.3649
   666.8000      7.8677      2.5870      0.1008      3.8200     55.7334     18.7244
   666.9000      7.8677      2.5967      0.0879      3.2304     54.5311     18.5161
   667.0000      7.8653      2.6253      0.1231      1.4975     54.0137     18.5262
   667.1000      7.8653      2.6351      0.1257      0.9020     56.2558     18.5700
   667.2000      7.8653      2.6107      0.0765      2.3812     57.1074     18.5804
   667.3000      7.8838      2.5786      0.0598      4.3296     55.9671     18.5522
   667.4000      7.8838      2.5586      0.0840      5.5420     56.8236     18.3799
   667.5000      7.8938      2.5463      0.0482      6.2833     56.4766     17.9545
   667.6000      7.8938      2.5316      0.0873      7.1782     51.7632     17.3766
   667.7000      7.8938      2.5074      0.0791      8.6437     48.0411     16.6414
   667.8000      7.8912      2.4839      0.0191     10.0667     49.3884     15.9739
   667.9000      7.8912      2.4737      0.0217     10.6851     51.8680     15.8592
   668.0000      7.9024      2.4675      0.0647     11.0615     49.7813     16.1994
   668.1000      7.9024      2.4532      0.0307     11.9245     43.2129     16.4491
   668.2000      7.9024      2.4374      0.0624     12.8861     36.4998     16.3154
   668.3000      7.9578      2.4245      0.0644     13.6690     33.6662     15.9928
   668.4000      7.9578      2.4115      0.0226     14.4544     35.6394     15.7350
   668.5000      7.9630      2.4002      0.0549     15.1372     38.9250     15.6056
   668.6000      7.9630      2.3931      0.0204     15.5718     39.0429     15.6037
   668.7000      7.9630      2.3975     -0.0072     15.3020     36.0749     15.8331
   668.8000      7.9717      2.4126      0.0407     14.3866     32.8973     16.3102
   668.9000      7.9717      2.4135      0.0479     14.3316     30.6160     16.8865
   669.0000      7.9797      2.3887     -0.0055     15.8387     30.7041     17.3302
   669.1000      7.9797      2.3597      0.0008     17.5932     33.9013     17.3482
   669.2000      7.9797      2.3522     -0.0160     18.0512     36.8687     16.9328
   669.3000      7.9790      2.3692      0.0194     17.0157     36.5659     16.4884
   669.4000      7.9790      2.3892      0.0347     15.8061     32.9322     16.3106
   669.5000      7.9792      2.3903      0.0502     15.7423     29.5280     16.2853
   669.6000      7.9792      2.3747      0.0121     16.6839     28.2713     16.1409
   669.7000      7.9792      2.3635      0.0005     17.3665     27.0953     15.8529
   669.8000      7.9643      2.3737      0.0036     16.7478     26.8523     15.6684
   669.9000      7.9643      2.3982      0.0742     15.2630     28.5254     15.7850
   670.0000      7.9595      2.4107      0.0771     14.5021     30.2478     16.2041
   670.1000      7.9595      2.4035      0.0466     14.9393     31.7786     16.5166
   670.2000      7.9595      2.3916      0.0296     15.6625     33.4839     16.2727
   670.3000      7.9642      2.3827      0.0786     16.1996     33.8024     15.7687
   670.4000      7.9642      2.3803      0.0041     16.3485     30.6533     15.4423
   670.5000      7.9728      2.3923      0.0585     15.6175     24.9220     15.3406
   670.6000      7.9728      2.4084      0.0867     14.6399     19.8020     15.4911
   670.7000      7.9728      2.4099      0.0714     14.5527     18.2790     15.7707
   670.8000      7.9854      2.4003      0.0326     15.1330     20.4230     15.9298
   670.9000      7.9854      2.3972      0.0303     15.3233     22.5492     15.8591
   671.0000      7.9754      2.4051      0.0033     14.8448     22.7039     15.7165
   671.1000      7.9754      2.4177      0.0024     14.0783     23.2123     15.8247
   671.2000      7.9754      2.4291      0.0652     13.3872     25.6315     16.3620
   671.3000      7.9711      2.4390      0.0451     12.7859     28.5264     17.2598
   671.4000      7.9711      2.4529      0.0451     11.9452     29.6596     18.2319
   671.5000      7.9669      2.4785      0.0380     10.3918     29.6791     19.0850
   671.6000      7.9669      2.5351     -0.0257      6.9666     30.4163     19.7777
   671.7000      7.9669      2.6200      0.0775      1.8164     32.3359     20.1922
   671.8000      7.9637      2.6896      0.0657     -2.3975     36.4208     20.3670
   671.9000      7.9637      2.7171      0.0946     -4.0681     42.2385     20.6429
   672.0000      7.9703      2.7135      0.0366     -3.8482     48.7250     20.9926
   672.1000      7.9703      2.6986      0.0332     -2.9429     54.2380     21.0577
   672.2000      7.9703      2.6882      0.0019     -2.3176     55.9830     20.9187
   672.3000      7.9636      2.6871      0.0357     -2.2460     53.9279     20.6722
   672.4000      7.9636      2.6843     -0.0016     -2.0779     51.8089     20.0129
   672.5000      7.9605      2.6646     -0.0087     -0.8819     52.7509     19.1404
   672.6000      7.9605      2.6234     -0.0519      1.6097     54.5649     18.6920
   672.7000      7.9605      2.5817     -0.0424      4.1382     54.6048     18.6436
   672.8000      7.9558      2.5588      0.0728      5.5280     55.4446     18.5801
   672.9000      7.9558      2.5453      0.0803      6.3439     59.3409     18.5026
   673.0000      7.9536      2.5373      0.0334      6.8282     63.0048     18.6416
   673.1000      7.9536      2.5408      0.0749      6.6181     62.9024     19.0309
   673.2000      7.9536      2.5442      0.0906      6.4150     59.9564     19.4677
   673.3000      7.9523      2.5421      0.0287      6.5375     56.4729     19.8807
   673.4000      7.9523      2.5501      0.0526      6.0576     53.7113     20.3647
   673.5000      7.9590      2.5694      0.1135      4.8878     54.1205     20.6664
   673.6000      7.9590      2.5864      0.0798      3.8563     58.0571     20.7203
   673.7000      7.9590      2.5974      0.1021      3.1894     62.1100     20.9194
   673.8000      7.9658      2.6016      0.0714      2.9329     63.5831     21.3824
   673.9000      7.9658      2.5979      0.0618      3.1605     62.5553     22.0220
   674.0000      7.9721      2.5922      0.0633      3.5021     61.4630     22.7742
   674.1000      7.9721      2.5922      0.0464      3.5044     61.3035     23.4363
   674.2000      7.9721      2.5962      0.0304      3.2599     58.8154     23.6970
   674.3000      7.9694      2.5948      0.0226      3.3431     52.7021     23.3169
   674.4000      7.9694      2.5847      0.0308      3.9561     50.4781     22.4516
   674.5000      7.9516      2.5704      0.0380      4.8214     57.3800     21.4469
   674.6000      7.9516      2.5492      0.0622      6.1091     69.1204     20.6712
   674.7000      7.9516      2.5196      0.0141      7.9054     83.5036     20.3396
   674.8000      7.9552      2.5019     -0.0687      8.9765    101.1932     20.0796
   674.9000      7.9552      2.5116      0.0273      8.3864    116.9809     19.5234
   675.0000      7.9523      2.5378     -0.0046      6.8001    124.1245     19.1505
   675.1000      7.9523      2.5641      0.0281      5.2062    125.3185     19.4179
   675.2000      7.9523      2.5774      0.0904      4.3977    129.9339     20.0064
   675.3000      7.9515      2.5734      0.1119      4.6425    136.0665     20.6120
   675.4000      7.9515      2.5652      0.0797      5.1401    132.7319     21.1954
   675.5000      7.9607      2.5642      0.1812      5.1998    121.7457     21.7218
   675.6000      7.9607      2.5604      0.1610      5.4315    113.3529     22.3345
   675.7000      7.9607      2.5469      0.0651      6.2478    110.8409     23.2586
   675.8000      8.0459      2.5336      0.0758      7.0549    113.4309     24.3060
   675.9000      8.0459      2.5289      0.0523      7.3414    116.7473     25.0465
