~Version Information
VERS.                      2.0: CWLS Log ASCII Standard - VERSION 2.0
WRAP.                       NO: One line per depth step
~Well Information Block
STRT.FT                -8.2500: 
STOP.FT              1580.5000: 
STEP.FT                 0.2500: 
NULL.                -999.2500: 
COMP.          Pioneer Natural Resources: COMPANY
WELL.          Daytona 31-14 Tr: WELL
FLD.           Purgatorie River: FIELD
LOC.           683' FNL & 1943' FEL--: LOCATION
CNTY.               Las Animas: COUNTY
SRVC.          Patterson Wireline: SERVICE COMPANY
DATE.          Thu Feb 02 08:47:22 2006: LOG DATE
UWI.           05 071 08681 00: UNIQUE WELL ID
STAT.                       CO: STATE
~Curve Information Block
DEPT.FT            0 000 00 00: Depth
CCL.                          : Casing Collar Locator
TT3.usec                      : CBL 3' Travel Time
AMP3.mV                       : CBL 3' Amplitude
GR.GAPI                       : Gamma Ray
~Parameter Information Block
~A  Depth       CCL         TT3         AMP3         GR     
# ...
   293.2500      0.0000    691.6821      9.1103    125.4651
   293.5000      0.0000    691.6980      9.0660    116.9000
   293.7500      0.0000    691.6971      9.0342    109.2168
   294.0000      0.0000    691.6986      9.0472    104.8873
   294.2500      0.0000    691.7365      9.1163    105.1186
   294.5000      0.0000    691.8411      9.2308    108.3792
   294.7500      0.0000    692.0203      9.3675    110.9025
   295.0000      0.0000    692.2540      9.4983    109.6255
   295.2500      0.0000    692.5031      9.5956    104.6164
   295.5000      0.0000    692.7130      9.6406     98.2143
   295.7500      0.0000    692.8245      9.6297     92.3266
   296.0000      0.0000    692.8154      9.5717     87.1151
   296.2500      0.0000    692.7286      9.4776     81.6630
   296.5000      0.0000    692.6320      9.3521     75.0269
   296.7500      0.0000    692.5531      9.1932     66.9381
   297.0000      0.0000    692.4719      9.0003     58.2493
   297.2500      0.0000    692.3636      8.7808     50.5903
   297.5000      0.0000    692.2256      8.5482     45.1546
   297.7500      0.0000    692.0671      8.3164     41.9397
   298.0000      0.0000    691.8967      8.1012     40.2196
   298.2500      0.0000    691.7299      7.9244     39.3912
   298.5000      0.0000    691.5969      7.8088     39.2705
   298.7500      0.0000    691.5247      7.7658     39.8495
   299.0000      0.0000    691.5095      7.7896     40.9567
   299.2500      0.0000    691.5147      7.8635     42.1356
   299.5000      0.0000    691.5035      7.9703     42.8024
   299.7500      0.0000    691.4821      8.0983     42.5466
   300.0000      0.0000    691.5450      8.2410     41.3491
   300.2500      0.0000    691.9456      8.3940     39.5603
   300.5000      0.0000    693.2114      8.5548     37.6156
   300.7500      0.0000    696.1564      8.7244     35.8278
   301.0000      0.0000    701.4704      8.9036     34.5899
   301.2500      0.0000    708.8533      9.0862     34.6184
   301.5000      0.0000    716.4587      9.2587     36.6262
   301.7500      0.0000    721.5817      9.4072     40.7268
   302.0000      0.0000    722.3960      9.5246     46.4304
   302.2500      0.0000    719.2605      9.6140     53.3813
   302.5000      0.0000    714.2811      9.6822     61.9534
   302.7500      0.0000    709.4619      9.7301     72.7938
   303.0000      0.0000    705.3667      9.7491     85.5256
   303.2500      0.0000    701.6289      9.7316     98.0416
   303.5000      0.0000    698.2002      9.6802    107.6432
   303.7500      0.0000    695.5396      9.6018    113.2836
   304.0000      0.0000    693.9130      9.4939    116.4807
   304.2500      0.0000    693.0814      9.3448    119.5643
   304.5000      0.0000    692.6196      9.1499    123.0541
   304.7500      0.0000    692.2422      8.9284    125.2024
   305.0000      0.0000    691.8618      8.7227    124.1473
   305.2500      0.0000    691.5149      8.5779    119.9975
   305.5000      0.0000    691.2668      8.5165    114.7815
   305.7500      0.0000    691.1501      8.5282    110.9389
   306.0000      0.0000    691.1755      8.5830    109.9488
   306.2500      0.0000    691.3538      8.6525    111.7800
   306.5000      0.0000    691.7043      8.7228    115.1555
   306.7500      0.0000    692.2877      8.7904    118.3279
   307.0000      0.0000    693.2946      8.8515    119.9217
   307.2500      0.0000    694.9999      8.9024    119.6470
   307.5000      0.0000    697.3647      8.9469    118.6184
   307.7500      0.0000    699.5867      8.9997    118.6671
   308.0000      0.0000    700.3738      9.0778    120.7377
   308.2500      0.0000    699.0077      9.1899    123.9510
   308.5000      0.0000    695.7568      9.3300    126.5328
   308.7500      0.0000    690.5153      9.4784    127.5984
   309.0000      0.0000    680.5510      9.6124    127.6795
   309.2500      0.0000    659.8294      9.7193    127.4753
   309.5000      0.0000    622.1016      9.8030    126.7025
   309.7500      0.0000    567.2820      9.8752    124.6443
   310.0000      0.0000    506.0276      9.9429    121.3418
   310.2500      0.0000    457.0262     10.0063    117.4705
   310.5000      0.0000    438.2035     10.0638    113.3368
   310.7500      0.0000    458.1238     10.1138    108.9704
   311.0000      0.0000    511.5855     10.1523    105.0018
   311.2500      0.0000    581.0530     10.1741    102.2719
   311.5000      0.0000    644.9308     10.1784    100.5900
   311.7500      0.0000    688.4935     10.1691     98.8969
   312.0000      0.0000    709.0754     10.1498     96.6162
   312.2500      0.0000    712.8497     10.1222     94.1480
   312.5000      0.0000    708.4896     10.0873     92.2735
   312.7500      0.0000    702.9830     10.0444     91.6751
   313.0000      0.0000    700.0707      9.9928     92.6726
   313.2500      0.0000    699.6962      9.9358     94.8150
   313.5000      0.0000    697.5591      9.8793     96.8916
   313.7500      0.0000    686.1479      9.8270     97.8041
   314.0000      0.0000    660.0630      9.7801     97.6082
   314.2500      0.0000    624.1517      9.7404     97.5478
   314.5000      0.0000    595.1668      9.7108     98.8468
   314.7500      0.0000    590.2025      9.6912    101.6154
   315.0000      0.0000    611.4919      9.6746    105.1234
   315.2500      0.0000    644.8724      9.6472    108.7328
   315.5000      0.0000    673.1819      9.5954    112.1446
   315.7500      0.0000    688.6445      9.5178    115.1071
   316.0000      0.0000    693.4950      9.4358    117.3091
   316.2500      0.0000    693.3837      9.3884    118.5237
   316.5000      0.0000    692.2830      9.4112    118.8448
   316.7500      0.0000    691.6066      9.5152    118.6335
   317.0000      0.0000    691.3810      9.6824    117.9672
   317.2500      0.0000    691.3214      9.8748    116.4539
   317.5000      0.0000    691.2405     10.0489    114.1093
   317.7500      0.0000    691.0805     10.1682    112.1196
   318.0000      0.0000    690.8504     10.2102    112.0783
   318.2500      0.0000    690.5337     10.1703    114.4072
   318.5000      0.0000    689.8381     10.0656    117.9362
   318.7500      0.0000    687.7616      9.9311    120.9733
   319.0000      0.0000    682.1772      9.7946    122.3978
   319.2500      0.0000    670.5581      9.6407    121.9378
   319.5000      0.0000    652.9260      9.4031    119.9688
   319.7500      0.0000    634.9926      9.0194    117.1066
   320.0000      0.0000    626.5066      8.5243    113.7343
   320.2500      0.0000    633.9808      8.0669    110.0831
   320.5000      0.0000    655.3383      7.7827    106.8467
   320.7500      0.0000    682.8120      7.6558    105.2344
   321.0000      0.0000    709.7292      7.5602    106.2467
   321.2500      0.0000    733.3267      7.4209    110.3354
   321.5000      0.0000    752.9043      7.2711    117.5317
   321.7500      0.0000    768.1315      7.1717    126.9192
   322.0000     -2.0000    778.7272      7.1415    136.0498
   322.2500      2.0000    783.2591      7.1645    142.0253
   322.5000      0.0000    777.7827      7.2308    143.7275
   322.7500      0.0000    758.1738      7.3612    142.7077
   323.0000      0.0000    725.8247      7.5852    141.7586
   323.2500      0.0000    690.8726      7.8781    142.7214
   323.5000      0.0000    667.2266      8.1379    145.3047
   323.7500      0.0000    662.0339      8.2682    147.4514
   324.0000      0.0000    670.6199      8.2664    146.8762
   324.2500      0.0000    682.5726      8.1986    142.6240
   324.5000      0.0000    690.9434      8.1195    135.3734
   324.7500      0.0000    694.8492      8.0525    126.7587
   325.0000      0.0000    696.2385      8.0106    118.7485
   325.2500      0.0000    696.7847      7.9979    113.0761
   325.5000      0.0000    697.1215      7.9991    110.3382
   325.7500      0.0000    697.3156      7.9870    109.5418
   326.0000      0.0000    697.3173      7.9457    108.8957
   326.2500      0.0000    697.1729      7.8776    107.1150
   326.5000      0.0000    696.9677      7.7945    104.1759
