~Version Information
VERS.                      2.0: CWLS Log ASCII Standard - VERSION 2.0
WRAP.                       NO: One line per depth step
~Well Information Block
STRT.FT                -8.7500: 
STOP.FT              1035.7500: 
STEP.FT                 0.2500: 
NULL.                -999.2500: 
COMP.          Pioneer Natural Resources: COMPANY
WELL.                Mac 22-36: WELL
FLD.           Purgatorie River: FIELD
LOC.           2545' FNL & 1398' FWL--: LOCATION
PROV.                       CO: PROVINCE
CNTY.               Las Animas: COUNTRY
SRVC.          Patterson Wireline: SERVICE COMPANY
DATE.          Thu Dec 08 13:20:05 2005: LOG DATE
UWI.           08 071 08594 00: UNIQUE WELL ID
~Curve Information Block
DEPT.FT            0 000 00 00: Depth
CCL.                          : Casing Collar Locator
TT3.usec                      : CBL 3' Travel Time
AMP3.mV                       : CBL 3' Amplitude
GR.GAPI                       : Gamma Ray
~Parameter Information Block
~A  Depth       CCL         TT3         AMP3         GR     
# ...
   527.2500      0.0000    816.4299     11.4919     64.4611
   527.5000      0.0000    831.2223     11.4412     60.2204
   527.7500      0.0000    838.4112     11.3294     57.3329
   528.0000      0.0000    839.9008     11.1671     55.6295
   528.2500      0.0000    838.8109     10.9822     54.3829
   528.5000      0.0000    837.2325     10.8080     53.2811
   528.7500      0.0000    835.9005     10.6698     53.0597
   529.0000      0.0000    834.9070     10.5772     54.7726
   529.2500      0.0000    834.3256     10.5204     58.4349
   529.5000      0.0000    834.4210     10.4742     62.8188
   529.7500      0.0000    835.6416     10.4116     66.7229
   530.0000      0.0000    838.5110     10.3199     70.2090
   530.2500      0.0000    843.3030     10.2063     74.3917
   530.5000      0.0000    849.6518     10.0882     80.1079
   530.7500      0.0000    856.6063      9.9789     86.9852
   531.0000      0.0000    863.2582      9.8793     93.8097
   531.2500      0.0000    868.8329      9.7782     99.5387
   531.5000      0.0000    871.7775      9.6639    103.9196
   531.7500      0.0000    869.8486      9.5373    107.4048
   532.0000      0.0000    862.6365      9.4139    110.5430
   532.2500      0.0000    853.4509      9.3110    113.3017
   532.5000      0.0000    846.9528      9.2363    114.8413
   532.7500      0.0000    844.9211      9.1881    113.9251
   533.0000      0.0000    845.5537      9.1635    109.8392
   533.2500      0.0000    846.4963      9.1617    103.4695
   533.5000      0.0000    847.0366      9.1826     97.4108
   533.7500      0.0000    847.3678      9.2243     94.2952
   534.0000      0.0000    847.2772      9.2824     94.7840
   534.2500      0.0000    846.4406      9.3522     97.5092
   534.5000      0.0000    845.3767      9.4361    100.7407
   534.7500      0.0000    845.3903      9.5468    103.5043
   535.0000      0.0000    847.5638      9.6972    105.3817
   535.2500      0.0000    851.6796      9.8850    106.1979
   535.5000      0.0000    855.8157     10.0908    106.3007
   535.7500      0.0000    857.3333     10.2896    106.5480
   536.0000      0.0000    855.0032     10.4630    107.4697
   536.2500      0.0000    850.1105     10.6014    108.5370
   536.5000      0.0000    845.1396     10.7045    108.5035
   536.7500      0.0000    841.6949     10.7803    106.6478
   537.0000      0.0000    839.8915     10.8390    103.8408
   537.2500      0.0000    839.1026     10.8838    102.1763
   537.5000      0.0000    838.7305     10.9102    103.0022
   537.7500      0.0000    838.4491     10.9122    105.3764
   538.0000      0.0000    838.1531     10.8850    107.0049
   538.2500      0.0000    837.8691     10.8212    106.4923
   538.5000      0.0000    837.7061     10.7122    103.9572
   538.7500      0.0000    837.8538     10.5565     99.8884
   539.0000      0.0000    838.5759     10.3651     94.5760
   539.2500      0.0000    840.1068     10.1559     88.6082
   539.5000      0.0000    842.3648      9.9441     82.9800
   539.7500      0.0000    844.7049      9.7373     78.3677
   540.0000      0.0000    846.3499      9.5341     74.7182
   540.2500      0.0000    847.5540      9.3314     71.8245
   540.5000      0.0000    850.2626      9.1321     70.0275
   540.7500      0.0000    857.1133      8.9359     69.9749
   541.0000      0.0000    868.9861      8.7165     71.7139
   541.2500      0.0000    882.6224      8.4445     74.2325
   541.5000      0.0000    890.7027      8.1577     75.9005
   541.7500      0.0000    886.4827      7.9657     75.5400
   542.0000      0.0000    870.5390      7.9444     73.4173
   542.2500      0.0000    852.5441      8.0542     71.1533
   542.5000     -2.0000    844.3240      8.1904     70.3557
   542.7500      2.0000    849.5372      8.2763     71.3241
   543.0000      0.0000    859.8303      8.2943     73.2451
   543.2500      0.0000    862.2491      8.2695     75.3913
   543.5000      0.0000    851.9665      8.2493     77.6224
   543.7500      0.0000    837.5656      8.2776     79.7947
   544.0000      0.0000    832.8023      8.3789     81.4499
   544.2500      0.0000    843.6320      8.5810     82.5005
   544.5000      0.0000    863.8705      8.9176     83.8879
   544.7500      0.0000    881.7718      9.3676     87.2616
   545.0000      0.0000    888.9920      9.8281     94.0606
   545.2500      0.0000    884.7301     10.1934    104.6716
   545.5000      0.0000    874.4094     10.4377    117.9335
   545.7500      0.0000    865.3095     10.5999    131.3326
   546.0000      0.0000    861.9688     10.7240    142.0698
   546.2500      0.0000    864.8120     10.8311    148.2241
   546.5000      0.0000    872.5952     10.9303    149.1297
   546.7500      0.0000    884.5118     11.0310    145.2144
   547.0000      0.0000    898.9489     11.1399    137.6378
   547.2500      0.0000    911.9222     11.2534    127.5636
   547.5000      0.0000    919.0308     11.3573    115.6130
   547.7500      0.0000    919.3187     11.4337    102.3262
   548.0000      0.0000    916.1323     11.4661     89.1302
   548.2500      0.0000    913.6255     11.4420     78.4166
   548.5000      0.0000    913.3721     11.3594     72.2835
   548.7500      0.0000    915.1830     11.2356     71.0149
   549.0000      0.0000    919.5632     11.1059     72.8956
   549.2500      0.0000    927.0224     11.0079     75.7187
   549.5000      0.0000    935.3155     10.9619     78.3639
   549.7500      0.0000    939.5515     10.9651     80.6440
   550.0000      0.0000    935.8389     11.0038     81.9459
   550.2500      0.0000    924.1741     11.0683     80.9639
   550.5000      0.0000    907.5744     11.1538     77.2302
   550.7500      0.0000    889.2731     11.2514     72.3477
   551.0000      0.0000    871.8000     11.3429     69.0243
   551.2500      0.0000    857.8748     11.4081     68.8325
   551.5000      0.0000    849.2297     11.4379     71.0419
   551.7500      0.0000    843.6839     11.4377     73.5630
   552.0000      0.0000    835.8458     11.4166     74.9495
   552.2500      0.0000    822.1553     11.3698     75.5651
   552.5000      0.0000    803.9619     11.2771     77.0137
   552.7500      0.0000    785.4216     11.1234     80.5771
   553.0000      0.0000    769.9923     10.9232     86.3966
   553.2500      0.0000    759.1393     10.7197     94.0356
   553.5000      0.0000    752.7214     10.5549    103.1757
   553.7500      0.0000    749.6695     10.4424    113.2290
   554.0000      0.0000    748.6956     10.3669    122.5180
   554.2500      0.0000    748.9043     10.3062    128.5750
   554.5000      0.0000    750.0188     10.2545    129.7241
   554.7500      0.0000    751.9825     10.2281    126.4957
   555.0000      0.0000    754.0612     10.2468    121.4613
   555.2500      0.0000    754.4043     10.3083    117.4972
   555.5000      0.0000    751.3337     10.3819    116.0634
   555.7500      0.0000    745.4346     10.4351    116.8425
   556.0000      0.0000    739.5021     10.4621    118.2941
   556.2500      0.0000    735.9933     10.4866    118.2630
   556.5000      0.0000    735.3455     10.5380    114.9790
   556.7500      0.0000    736.7813     10.6258    108.4172
   557.0000      0.0000    739.4543     10.7327    100.7665
   557.2500      0.0000    742.5196     10.8300     95.2923
   557.5000      0.0000    745.1055     10.9005     94.5971
   557.7500      0.0000    746.7138     10.9490     99.6786
   558.0000      0.0000    747.4009     10.9909    110.0288
   558.2500      0.0000    747.5029     11.0325    124.0237
   558.5000      0.0000    747.3404     11.0693    139.2913
   558.7500      0.0000    747.1132     11.1028    153.3746
   559.0000      0.0000    746.9147     11.1528    164.3812
   559.2500      0.0000    746.7723     11.2431    171.1520
   559.5000      0.0000    746.6882     11.3771    173.5152
   559.7500      0.0000    746.6539     11.5341    172.7261
   560.0000      0.0000    746.6498     11.6843    171.1333
   560.2500      0.0000    746.6485     11.8029    170.7410
   560.5000      0.0000    746.6323     11.8739    172.0158
