~Version Information
VERS.                      2.0: CWLS Log ASCII Standard - VERSION 2.0
WRAP.                       NO: One line per depth step
~Well Information Block
STRT.FT               428.8000: 
STOP.FT               951.7000: 
STEP.FT                 0.1000: 
NULL.                -999.2500: 
COMP.          Pioneer Natural Resources: COMPANY
WELL.          Sculpin 32-30 Tr: WELL
FLD.           Purgatoire River: FIELD
LOC.           1600' FNL & 1857' FEL--: LOCATION
CNTY.               Las Animas: COUNTY
SRVC.                Patterson: SERVICE COMPANY
DATE.          Wed Jul 19 09:12:32 2006: LOG DATE
UWI.           05 071 08706 00: UNIQUE WELL ID
STAT.                 Colorado: STATE
~Curve Information Block
DEPT.FT            0 000 00 00: Depth
DCAL.in                       : CDL Caliper
RHOB.g/cc                     : CDL Bulk Density
RHOC.g/cc                     : CDL Density Correction
DPOR.pu                       : CDL Density Porosity
GR.GAPI                       : Gamma Ray
~Parameter Information Block
~A  Depth       DCAL        RHOB        RHOC        DPOR         GR     
# ...
   854.4000      7.9924      2.5350      0.1191      6.9707    148.4506
   854.5000      7.9865      2.5471      0.1106      6.2374    150.6845
   854.6000      7.9865      2.5488      0.0946      6.1320    152.2417
   854.7000      7.9865      2.5429      0.0734      6.4888    150.6471
   854.8000      7.9760      2.5319      0.0918      7.1565    146.6388
   854.9000      7.9760      2.5181      0.0765      7.9913    141.1892
   855.0000      7.9736      2.5113      0.0556      8.4031    137.3977
   855.1000      7.9736      2.5206      0.0626      7.8429    138.7457
   855.2000      7.9736      2.5394      0.0749      6.7046    142.2703
   855.3000      7.9791      2.5526      0.0575      5.9035    142.7424
   855.4000      7.9791      2.5542      0.0451      5.8034    140.9689
   855.5000      7.9884      2.5468      0.0614      6.2553    139.1672
   855.6000      7.9884      2.5325      0.0367      7.1230    140.0066
   855.7000      7.9884      2.5215      0.0317      7.7903    145.7414
   855.8000      7.9991      2.5285      0.0526      7.3659    151.6962
   855.9000      7.9991      2.5489      0.0813      6.1249    151.2091
   856.0000      8.0062      2.5613      0.0897      5.3731    144.9578
   856.1000      8.0062      2.5553      0.0708      5.7397    143.1608
   856.2000      8.0062      2.5397      0.0345      6.6872    151.5206
   856.3000      8.0090      2.5303      0.0496      7.2574    162.3612
   856.4000      8.0090      2.5302      0.0569      7.2579    170.4398
   856.5000      8.0083      2.5271      0.1113      7.4508    174.9016
   856.6000      8.0083      2.5214      0.0006      7.7921    174.6248
   856.7000      8.0083      2.5303      0.0483      7.2555    174.0669
   856.8000      8.0027      2.5431      0.0928      6.4806    170.6280
   856.9000      8.0027      2.5356      0.0511      6.9346    159.9186
   857.0000      8.0019      2.5128      0.0380      8.3155    150.2578
   857.1000      8.0019      2.4953      0.0533      9.3735    148.6699
   857.2000      8.0019      2.4920      0.0773      9.5777    151.9811
   857.3000      8.0148      2.4973      0.0937      9.2567    156.4675
   857.4000      8.0148      2.5044      0.0557      8.8257    160.8333
   857.5000      8.0291      2.5008      0.0958      9.0398    161.9889
   857.6000      8.0291      2.4748      0.0630     10.6173    162.3491
   857.7000      8.0291      2.4409      0.0588     12.6732    163.3996
   857.8000      8.0297      2.4166      0.0715     14.1449    156.0239
   857.9000      8.0297      2.3969      0.0066     15.3405    141.1438
   858.0000      8.0213      2.3676      0.0448     17.1144    131.8771
   858.1000      8.0213      2.3165      0.0480     20.2132    132.4081
   858.2000      8.0213      2.2476      0.0314     24.3875    137.1493
   858.3000      8.0102      2.1917     -0.0410     27.7780    140.8029
   858.4000      8.0102      2.1702      0.0304     29.0793    142.4607
   858.5000      7.9961      2.1731      0.0061     28.9025    144.2308
   858.6000      7.9961      2.1932      0.0203     27.6819    145.8555
   858.7000      7.9961      2.2323      0.0744     25.3127    144.4522
   858.8000      7.9838      2.2857      0.1177     22.0770    139.9978
   858.9000      7.9838      2.3475      0.1889     18.3354    136.6249
   859.0000      7.9881      2.4159      0.1998     14.1884    135.8472
   859.1000      7.9881      2.4882      0.2539      9.8051    135.0396
   859.2000      7.9881      2.5491      0.2703      6.1175    133.0896
   859.3000      7.9973      2.5834      0.2285      4.0371    131.5289
   859.4000      7.9973      2.5910      0.1690      3.5755    132.8082
   859.5000      7.9912      2.5812      0.1207      4.1707    136.8076
   859.6000      7.9912      2.5706      0.0378      4.8110    140.7016
   859.7000      7.9912      2.5667      0.0770      5.0481    138.4254
   859.8000      7.9804      2.5581      0.0685      5.5672    127.7018
   859.9000      7.9804      2.5466      0.0261      6.2690    117.8474
   860.0000      7.9722      2.5475      0.0365      6.2142    117.5619
   860.1000      7.9722      2.5591      0.0503      5.5097    124.2009
   860.2000      7.9722      2.5653      0.0806      5.1308    130.4034
   860.3000      7.9645      2.5631      0.0561      5.2652    134.2410
   860.4000      7.9645      2.5644      0.0579      5.1865    140.6211
   860.5000      7.9627      2.5705      0.0704      4.8196    148.3099
   860.6000      7.9627      2.5659      0.0591      5.0946    150.2433
   860.7000      7.9627      2.5449      0.0365      6.3708    146.4224
   860.8000      7.9686      2.5232      0.0232      7.6837    141.6452
   860.9000      7.9686      2.5187      0.0396      7.9598    138.0878
   861.0000      7.9736      2.5320      0.0181      7.1528    138.1703
   861.1000      7.9736      2.5464      0.0388      6.2765    140.3101
   861.2000      7.9736      2.5402      0.0755      6.6571    139.5916
   861.3000      7.9717      2.5154      0.0144      8.1560    136.3019
   861.4000      7.9717      2.5010      0.0053      9.0279    134.4956
   861.5000      7.9728      2.5107      0.0612      8.4421    135.4776
   861.6000      7.9728      2.5318      0.0503      7.1607    135.9993
   861.7000      7.9728      2.5429      0.0921      6.4909    134.3855
   861.8000      7.9781      2.5271      0.0849      7.4468    130.4800
   861.9000      7.9781      2.4895      0.0310      9.7255    125.5369
   862.0000      7.9807      2.4474      0.0432     12.2786    125.1777
   862.1000      7.9807      2.4133      0.0094     14.3428    129.2266
   862.2000      7.9807      2.3968      0.0118     15.3475    130.9586
   862.3000      7.9743      2.3976      0.0094     15.2989    129.6007
   862.4000      7.9743      2.4082      0.0291     14.6542    129.1699
   862.5000      7.9578      2.4286      0.0360     13.4185    132.9619
   862.6000      7.9578      2.4691      0.0366     10.9633    138.7598
   862.7000      7.9578      2.5317      0.1192      7.1682    139.0109
   862.8000      7.9399      2.6001      0.1668      3.0237    133.5073
   862.9000      7.9399      2.6636      0.1872     -0.8250    130.0657
   863.0000      7.9269      2.7162      0.2416     -4.0111    131.1557
   863.1000      7.9269      2.7483      0.1924     -5.9572    129.3331
   863.2000      7.9269      2.7679      0.1729     -7.1447    120.9645
   863.3000      7.9230      2.7861      0.1465     -8.2469    113.1502
   863.4000      7.9230      2.7910      0.1611     -8.5452    111.3769
   863.5000      7.9322      2.7646      0.1096     -6.9441    113.9988
   863.6000      7.9322      2.7142      0.0289     -3.8893    117.0735
   863.7000      7.9322      2.6617      0.0320     -0.7079    117.6347
   863.8000      7.9474      2.6151     -0.0086      2.1165    118.8593
   863.9000      7.9474      2.5712      0.0087      4.7756    126.1056
   864.0000      7.9579      2.5275     -0.0481      7.4260    135.3862
   864.1000      7.9579      2.4869     -0.0579      9.8864    139.1341
   864.2000      7.9579      2.4546     -0.0336     11.8419    136.5740
   864.3000      7.9655      2.4302      0.0229     13.3212    129.1524
   864.4000      7.9655      2.4027      0.0239     14.9903    119.2828
   864.5000      7.9745      2.3635      0.0205     17.3619    110.8340
   864.6000      7.9745      2.3190     -0.0162     20.0580    107.0234
   864.7000      7.9745      2.2754      0.0217     22.7033    106.9958
   864.8000      7.9767      2.2188      0.0471     26.1352    109.2597
   864.9000      7.9767      2.1330      0.0365     31.3313    113.2982
   865.0000      7.9698      2.0335     -0.0335     37.3631    114.7214
   865.1000      7.9698      1.9611     -0.0348     41.7508    109.7077
   865.2000      7.9698      1.9370      0.0225     43.2103    100.4371
   865.3000      7.9626      1.9516      0.0383     42.3252     93.4223
   865.4000      7.9626      1.9906      0.0669     39.9658     93.7111
   865.5000      7.9631      2.0408      0.1001     36.9242     99.8054
