~Version Information
VERS.                      2.0: CWLS Log ASCII Standard - VERSION 2.0
WRAP.                       NO: One line per depth step
~Well Information Block
STRT.FT               -16.0000: 
STOP.FT              2827.7500: 
STEP.FT                 0.2500: 
NULL.                -999.2500: 
COMP.          Pioneer Natural Resources: COMPANY
WELL.          Touchstone 11-32: WELL
FLD.           Purgatorie River: FIELD
LOC.           853' FNL & 407' FWL--: LOCATION
CNTY.               Las Animas: COUNTY
SRVC.          Patterson Wireline: SERVICE COMPANY
DATE.          Wed Mar 15 10:09:19 2006: LOG DATE
UWI.           05 071 08564 00: UNIQUE WELL ID
STAT.                       CO: STATE
~Curve Information Block
DEPT.FT            0 000 00 00: Depth
CCL.                          : Casing Collar Locator
TT3.usec                      : CBL 3' Travel Time
AMP3.mV                       : CBL 3' Amplitude
GR.GAPI                       : Gamma Ray
~Parameter Information Block
~A  Depth       CCL         TT3         AMP3         GR     
   -16.0000   -999.2500   -999.2500   -999.2500     58.4105
   -15.7500   -999.2500   -999.2500   -999.2500     60.2022
   -15.5000   -999.2500   -999.2500   -999.2500     62.4430
   -15.2500   -999.2500   -999.2500   -999.2500     63.3318
   -15.0000   -999.2500   -999.2500   -999.2500     62.7418
   -14.7500   -999.2500   -999.2500   -999.2500     61.9877
   -14.5000   -999.2500   -999.2500   -999.2500     62.2253
   -14.2500   -999.2500   -999.2500   -999.2500     63.4268
   -14.0000   -999.2500   -999.2500   -999.2500     64.7860
   -13.7500   -999.2500   -999.2500   -999.2500     65.7384
   -13.5000   -999.2500   -999.2500   -999.2500     66.4597
   -13.2500   -999.2500   -999.2500   -999.2500     67.3564
   -13.0000   -999.2500   -999.2500   -999.2500     68.1424
   -12.7500   -999.2500   -999.2500   -999.2500     67.8535
   -12.5000   -999.2500   -999.2500   -999.2500     66.0704
   -12.2500   -999.2500   -999.2500   -999.2500     63.8532
   -12.0000   -999.2500   -999.2500   -999.2500     63.1964
   -11.7500   -999.2500   -999.2500   -999.2500     65.5029
   -11.5000   -999.2500   -999.2500   -999.2500     70.3161
   -11.2500   -999.2500   1161.0000      1.0354     75.2955
   -11.0000   -999.2500   1161.0000      1.0305     77.7172
   -10.7500   -999.2500   1161.0000      1.0253     76.4571
   -10.5000   -999.2500   1161.0000      1.0228     72.7457
   -10.2500   -999.2500   1161.0000      1.0226     69.1377
   -10.0000   -999.2500   1161.0000      1.0227     67.6674
    -9.7500   -999.2500   1161.0000      1.0222     68.6374
    -9.5000   -999.2500   1161.0000      1.0216     70.7854
    -9.2500   -999.2500   1161.0000      1.0233     72.3499
    -9.0000   -999.2500   1161.0000      1.0289     71.9532
    -8.7500   -999.2500   1161.0000      1.0378     68.9519
    -8.5000   -999.2500   1161.0000      1.0464     63.6528
    -8.2500   -999.2500   1161.0000      1.0506     57.3924
    -8.0000   -999.2500   1161.0000      1.0479     52.0961
    -7.7500   -999.2500   1161.0000      1.0381     49.4223
    -7.5000   -999.2500   1161.0000      1.0250     50.0523
    -7.2500   -999.2500   1161.0000      1.0145     53.4670
    -7.0000   -999.2500   1161.0000      1.0110     58.1849
    -6.7500   -999.2500   1161.0000      1.0136     62.3067
    -6.5000   -999.2500   1161.0000      1.0172     64.3072
    -6.2500   -999.2500   1161.0000      1.0171     63.7604
    -6.0000   -999.2500   1161.0000      1.0129     61.4310
    -5.7500   -999.2500   1161.0000      1.0089     58.7501
    -5.5000      0.0000   1161.0000      1.0095     57.2019
    -5.2500      0.0000   1161.0000      1.0154     57.8049
    -5.0000      0.0000   1161.0000      1.0230     60.5856
    -4.7500      0.0000   1161.0000      1.0281     64.4557
    -4.5000      0.0000   1161.0000      1.0280     67.9733
    -4.2500      0.0000   1161.0000      1.0226     70.3145
    -4.0000      0.0000   1161.0000      1.0142     71.3965
    -3.7500      0.0000   1161.0000      1.0076     71.4468
    -3.5000      0.0000   1161.0000      1.0078     70.8084
    -3.2500      0.0000   1161.0000      1.0169     69.7494
    -3.0000      0.0000   1161.0000      1.0329     68.0337
    -2.7500      0.0000   1161.0000      1.0497     65.0105
    -2.5000      0.0000   1161.0000      1.0608     60.6122
    -2.2500      0.0000   1161.0000      1.0621     56.0356
    -2.0000      0.0000   1161.0000      1.0545     53.0036
    -1.7500      0.0000   1161.0000      1.0424     52.3899
    -1.5000      0.0000   1161.0000      1.0314     53.6740
    -1.2500      0.0000   1161.0000      1.0258     55.4729
    -1.0000      0.0000   1161.0000      1.0259     56.2872
    -0.7500      0.0000   1161.0000      1.0289     54.9449
    -0.5000      0.0000   1161.0000      1.0299     51.0327
    -0.2500      0.0000   1161.0000      1.0246     45.2491
     0.0000      0.0000   1161.0000      1.0126     39.0307
     0.2500      0.0000   1161.0000      0.9864     30.0603
     0.5000      0.0000   1161.0000      0.9812     28.6538
     0.7500      0.0000   1161.0000      0.9816     29.7840
     1.0000      0.0000   1161.0000      0.9843     33.2246
     1.2500      2.0000   1161.0000      0.9870     38.0581
     1.5000     -2.0000   1161.0000      0.9895     43.1791
     1.7500      0.0000   1161.0000      0.9927     48.1834
     2.0000      0.0000   1161.0000      0.9967     53.5321
     2.2500      0.0000   1161.0000      1.0002     59.5425
     2.5000      0.0000   1161.0000      1.0015     65.4694
     2.7500      2.0000   1161.0000      1.0012     70.1079
     3.0000      0.0000   1161.0000      1.0033     73.1660
     3.2500     -2.0000   1161.0000      1.0112     75.4196
     3.5000      0.0000   1161.0000      1.0230     77.4639
     3.7500      0.0000   1161.0000      1.0324     78.9702
     4.0000      0.0000   1161.0000      1.0350     79.3629
     4.2500      0.0000   1161.0000      1.0325     78.7393
     4.5000      0.0000   1161.0000      1.0307     77.9516
     4.7500      0.0000   1161.0000      1.0325     78.0014
     5.0000      0.0000   1161.0000      1.0349     79.4336
     5.2500      0.0000   1161.0000      1.0315     82.0919
     5.5000      0.0000   1161.0000      1.0193     85.2999
     5.7500      0.0000   1161.0000      1.0009     88.2392
     6.0000      0.0000   1161.0000      0.9833     90.2449
     6.2500      0.0000   1161.0000      0.9742     91.0038
     6.5000      0.0000   1161.0000      0.9777     90.6012
     6.7500      0.0000   1161.0000      0.9915     89.2763
     7.0000      0.0000   1161.0000      1.0072     87.2838
     7.2500      0.0000   1161.0000      1.0169     85.1753
     7.5000      0.0000   1161.0000      1.0191     83.7645
     7.7500      0.0000   1161.0000      1.0172     83.3834
     8.0000      0.0000   1161.0000      1.0149     83.4988
     8.2500      0.0000   1161.0000      1.0135     83.5163
     8.5000      0.0000   1161.0000      1.0126     83.7769
     8.7500      0.0000   1161.0000      1.0116     85.3304
     9.0000      0.0000   1161.0000      1.0103     88.6712
     9.2500      0.0000   1161.0000      1.0095     92.8755
     9.5000      0.0000   1161.0000      1.0115     96.2098
     9.7500      0.0000   1161.0000      1.0182     97.7168
    10.0000      0.0000   1161.0000      1.0296     97.8989
    10.2500      0.0000   1160.9399      1.0487     97.5031
    10.5000      0.0000   1160.5485      1.0977     96.0666
    10.7500      0.0000   1158.5599      1.2843     92.3404
    11.0000      0.0000   1150.6956      1.9642     86.0002
    11.2500      0.0000   1126.4711      3.9923     78.3227
    11.5000      0.0000   1068.3591      8.7880     71.1002
    11.7500      0.0000    959.7903     17.6929     65.2686
    12.0000      0.0000    801.8204     30.6204     60.6045
    12.2500      0.0000    622.8105     45.2514     56.3615
    12.5000      0.0000    464.8234     58.1171     52.0286
    12.7500      0.0000    356.2231     66.8438     47.6975
    13.0000      0.0000    298.0705     71.3162     43.9219
    13.2500      0.0000    273.8046     72.9310     41.3331
    13.5000      0.0000    265.9102     73.2205     40.4156
    13.7500      0.0000    263.9183     73.1401     41.5379
    14.0000      0.0000    263.5623     73.0886     44.8947
    14.2500      0.0000    263.5780     73.1564     50.1434
    14.5000      0.0000    263.6820     73.2977     56.1291
    14.7500      0.0000    263.7990     73.4107     61.2313
    15.0000      0.0000    263.9182     73.3938     64.1749
    15.2500      0.0000    264.0298     73.2090     64.6374
    15.5000      0.0000    264.1187     72.9085     63.2124
    15.7500      0.0000    264.1706     72.6077     60.8327
    16.0000      0.0000    264.1817     72.4304     58.1798
    16.2500      0.0000    264.1633     72.4539     55.6659
    16.5000      0.0000    264.1343     72.6763     53.8226
    16.7500      0.0000    264.1087     73.0255     53.2653
    17.0000      0.0000    264.0891     73.3958     54.0694
    17.2500      0.0000    264.0707     73.6732     55.4539
