~Version Information
VERS.                      2.0: CWLS Log ASCII Standard - VERSION 2.0
WRAP.                       NO: One line per depth step
~Well Information Block
STRT.FT               550.0000: 
STOP.FT              1981.5000: 
STEP.FT                 0.2500: 
NULL.                -999.2500: 
COMP.          Pioneer Natural Resources: COMPANY
WELL.          Flying Horse 12-11 Tr: WELL
FLD.           Purgatoire River: FIELD
LOC.           2459' FNL & 410' FWL: LOCATION
STAT.                 Colorado: State
CNTY.               Las Animas: COUNTY
CTRY. USA : Country
SECT. 11 : Section
TOWN. 32S : Township
RANG. 66W : Range
SRVC.                Patterson: SERVICE COMPANY
DATE.          Sat Sep 03 20:17:31 2005: LOG DATE
API.           05 071 08485 00: UNIQUE WELL ID
~Curve Information Block
DEPT.FT            0 000 00 00: Depth
SN.Ohm-m                      : IEL Short Normal
SP.mV                         : IEL Spontaneous Potential
DIR.Ohm-m                     : IEL Induction Resistivity
GR.GAPI                       : Gamma Ray
~Parameter Information Block
~A  Depth        SN          SP         DIR          GR     
# ...
   918.5000   2000.0000   2000.0000     39.0189     72.8678
   918.7500   2000.0000   2000.0000     40.5768     72.7166
   919.0000   2000.0000   2000.0000     41.5779     74.0157
   919.2500   2000.0000   2000.0000     41.9888     76.2279
   919.5000   2000.0000   2000.0000     41.9614     80.7576
   919.7500   2000.0000   2000.0000     41.6745     83.4281
   920.0000   2000.0000   2000.0000     41.2483     85.1252
   920.2500   2000.0000   2000.0000     40.8054     84.3229
   920.5000   2000.0000   2000.0000     40.5652     80.6676
   920.7500   2000.0000   2000.0000     40.8316     77.3484
   921.0000   2000.0000   2000.0000     41.8530     72.7042
   921.2500   2000.0000   2000.0000     43.6308     70.5644
   921.5000   2000.0000   2000.0000     45.7763     69.0376
   921.7500   2000.0000   2000.0000     47.5875     68.8036
   922.0000   2000.0000   2000.0000     48.4605     68.8210
   922.2500   2000.0000   2000.0000     48.3181     68.7460
   922.5000   2000.0000   2000.0000     47.5067     68.4729
   922.7500   2000.0000   2000.0000     46.3288     68.4400
   923.0000   2000.0000   2000.0000     44.8047     69.0834
   923.2500   2000.0000   2000.0000     42.8244     70.1412
   923.5000   2000.0000   2000.0000     40.4079     73.0663
   923.7500   2000.0000   2000.0000     37.7611     76.3891
   924.0000   2000.0000   2000.0000     35.1114     84.4335
   924.2500   2000.0000   2000.0000     32.5698     92.0824
   924.5000   2000.0000   2000.0000     30.1392    106.1174
   924.7500   2000.0000   2000.0000     27.8041    115.9762
   925.0000   2000.0000   2000.0000     25.5909    129.2097
   925.2500   2000.0000   2000.0000     23.5544    136.1060
   925.5000   2000.0000   2000.0000     21.7341    143.3320
   925.7500   2000.0000   2000.0000     20.1319    146.5216
   926.0000   2000.0000   2000.0000     18.7199    149.7719
   926.2500   2000.0000   2000.0000     17.4629    151.1093
   926.5000   2000.0000   2000.0000     16.3350    151.6701
   926.7500   2000.0000   2000.0000     15.3265    150.9990
   927.0000   2000.0000   2000.0000     14.4383    148.8289
   927.2500   2000.0000   2000.0000     13.6730    147.1146
   927.5000   2000.0000   2000.0000     13.0294    144.9678
   927.7500   2000.0000   2000.0000     12.5059    144.0549
   928.0000   2000.0000   2000.0000     12.1079    143.5990
   928.2500   2000.0000   2000.0000     11.8491    144.0695
   928.5000   2000.0000   2000.0000     11.7438    146.2896
   928.7500   2000.0000   2000.0000     11.7924    148.6109
   929.0000   2000.0000   2000.0000     11.9725    151.9379
   929.2500   2000.0000   2000.0000     12.2397    152.8132
   929.5000   2000.0000   2000.0000     12.5371    150.2683
   929.7500   2000.0000   2000.0000     12.8113    145.4475
   930.0000   2000.0000   2000.0000     13.0243    133.4889
   930.2500   2000.0000   2000.0000     13.1574    122.7385
   930.5000   2000.0000   2000.0000     13.2086    103.8259
   930.7500   2000.0000   2000.0000     13.1891     90.8135
   931.0000   2000.0000   2000.0000     13.1228     74.3077
   931.2500   2000.0000   2000.0000     13.0451     67.5161
   931.5000   2000.0000   2000.0000     12.9985     65.8936
   931.7500   2000.0000   2000.0000     13.0247     70.4513
   932.0000   2000.0000   2000.0000     13.1546     83.6334
   932.2500   2000.0000   2000.0000     13.3986     94.6720
   932.5000   2000.0000   2000.0000     13.7391    110.6008
   932.7500   2000.0000   2000.0000     14.1284    118.7662
   933.0000   2000.0000   2000.0000     14.4973    125.7434
   933.2500   2000.0000   2000.0000     14.7768    127.0019
   933.5000   2000.0000   2000.0000     14.9231    124.1270
   933.7500   2000.0000   2000.0000     14.9338    118.9340
   934.0000   2000.0000   2000.0000     14.8456    107.0808
   934.2500   2000.0000   2000.0000     14.7168     98.3173
   934.5000   2000.0000   2000.0000     14.6055     88.3534
   934.7500   2000.0000   2000.0000     14.5549     85.8548
   935.0000   2000.0000   2000.0000     14.5920     88.9937
   935.2500   2000.0000   2000.0000     14.7321     94.4013
   935.5000   2000.0000   2000.0000     14.9798    104.0718
   935.7500   2000.0000   2000.0000     15.3234    110.1191
   936.0000   2000.0000   2000.0000     15.7275    118.2835
   936.2500   2000.0000   2000.0000     16.1377    123.6683
   936.5000   2000.0000   2000.0000     16.4983    131.8986
   936.7500   2000.0000   2000.0000     16.7703    136.8148
   937.0000   2000.0000   2000.0000     16.9335    141.7718
   937.2500   2000.0000   2000.0000     16.9769    142.9559
   937.5000   2000.0000   2000.0000     16.8938    141.5640
   937.7500   2000.0000   2000.0000     16.6950    138.9097
   938.0000   2000.0000   2000.0000     16.4214    133.8257
   938.2500   2000.0000   2000.0000     16.1364    131.1219
   938.5000   2000.0000   2000.0000     15.8994    130.6105
   938.7500   2000.0000   2000.0000     15.7455    133.1934
   939.0000   2000.0000   2000.0000     15.6857    139.7152
   939.2500   2000.0000   2000.0000     15.7181    143.7078
   939.5000   2000.0000   2000.0000     15.8350    146.1166
   939.7500   2000.0000   2000.0000     16.0200    144.9356
   940.0000   2000.0000   2000.0000     16.2454    140.4128
   940.2500   2000.0000   2000.0000     16.4782    136.7398
   940.5000   2000.0000   2000.0000     16.6956    131.5560
   940.7500   2000.0000   2000.0000     16.8965    128.5894
   941.0000   2000.0000   2000.0000     17.1009    125.1288
   941.2500   2000.0000   2000.0000     17.3379    123.7081
   941.5000   2000.0000   2000.0000     17.6327    122.9013
   941.7500   2000.0000   2000.0000     18.0008    122.6856
   942.0000   2000.0000   2000.0000     18.4529    121.3083
   942.2500   2000.0000   2000.0000     19.0082    119.0104
   942.5000   2000.0000   2000.0000     19.7035    113.3918
   942.7500   2000.0000   2000.0000     20.5873    108.7793
   943.0000   2000.0000   2000.0000     21.6957    102.2106
   943.2500   2000.0000   2000.0000     23.0264     98.9603
   943.5000   2000.0000   2000.0000     24.5334     96.2480
   943.7500   2000.0000   2000.0000     26.1543     95.3114
   944.0000   2000.0000   2000.0000     27.8531     93.4553
   944.2500   2000.0000   2000.0000     29.6446     91.1746
   944.5000   2000.0000   2000.0000     31.5741     86.1647
   944.7500   2000.0000   2000.0000     33.6702     82.2164
   945.0000   2000.0000   2000.0000     35.9056     76.0171
   945.2500   2000.0000   2000.0000     38.1921     71.8409
   945.5000   2000.0000   2000.0000     40.4039     65.7913
   945.7500   2000.0000   2000.0000     42.4027     62.2880
   946.0000   2000.0000   2000.0000     44.0550     58.6887
   946.2500   2000.0000   2000.0000     45.2538     57.6731
   946.5000   2000.0000   2000.0000     45.9634     57.8618
   946.7500   2000.0000   2000.0000     46.2526     58.5241
   947.0000   2000.0000   2000.0000     46.2850     59.2923
   947.2500   2000.0000   2000.0000     46.2834     59.3918
   947.5000   2000.0000   2000.0000     46.4909     59.3349
   947.7500   2000.0000   2000.0000     47.1148     59.8179
   948.0000   2000.0000   2000.0000     48.2548     62.3872
   948.2500   2000.0000   2000.0000     49.8452     65.3434
   948.5000   2000.0000   2000.0000     51.6606     70.2525
   948.7500   2000.0000   2000.0000     53.4055     72.5152
   949.0000   2000.0000   2000.0000     54.8511     72.2936
   949.2500   2000.0000   2000.0000     55.9287     69.2186
   949.5000   2000.0000   2000.0000     56.7349     61.2973
   949.7500   2000.0000   2000.0000     57.4739     55.3594
   950.0000   2000.0000   2000.0000     58.3729     48.0629
   950.2500   2000.0000   2000.0000     59.5630     44.9527
   950.5000   2000.0000   2000.0000     60.9427     42.5738
   950.7500   2000.0000   2000.0000     62.0973     41.9544
   951.0000   2000.0000   2000.0000     62.4157     41.7074
   951.2500   2000.0000   2000.0000     61.4443     41.7550
   951.5000   2000.0000   2000.0000     59.2195     41.9500
   951.7500   2000.0000   2000.0000     56.2059     42.1214
