~Version Information
VERS.                      2.0: CWLS Log ASCII Standard - VERSION 2.0
WRAP.                       NO: One line per depth step
~Well Information Block
STRT.FT                 0.0000: 
STOP.FT               712.5000: 
STEP.FT                 0.2500: 
NULL.                -999.2500: 
COMP.          Pioneer Natural Resources: COMPANY
WELL.                Mia 21-18: WELL
FLD.           Purgatorie River: FIELD
LOC.           1067' FNL & 1824' FWL: LOCATION
PROV.                 Colorado: PROVINCE
CNTY.               Las Animas: COUNTRY
SRVC.                Patterson: SERVICE COMPANY
DATE.          Mon Nov 28 13:12:22 2005: LOG DATE
UWI.           05-071-08559               : UNIQUE WELL ID
~Curve Information Block
DEPT.FT            0 000 00 00: Depth
CCL.                          : Casing Collar Locator
TT3.usec                      : CBL 3' Travel Time
AMP3.mV                       : CBL 3' Amplitude
GR.GAPI                       : Gamma Ray
~Parameter Information Block
~A  Depth       CCL         TT3         AMP3         GR     
# ...
   100.5000      0.0000    748.5794      7.8853    102.0951
   100.7500      0.0000    735.7448      8.4354    106.6708
   101.0000      0.0000    730.2408      8.6817    110.8666
   101.2500      0.0000    728.4246      8.7529    113.6176
   101.5000      0.0000    728.0190      8.8160    114.0799
   101.7500      0.0000    728.0156      8.8819    112.0564
   102.0000      0.0000    728.0419      8.9074    107.8826
   102.2500      0.0000    727.9576      8.8967    102.5986
   102.5000      0.0000    727.7948      8.8607     97.9302
   102.7500      0.0000    727.7052      8.7710     95.1416
   103.0000      0.0000    727.7845      8.6196     93.7382
   103.2500      0.0000    727.8949      8.4710     91.8448
   103.5000      0.0000    727.8370      8.3806     88.0598
   103.7500      0.0000    727.6298      8.3068     82.7603
   104.0000      0.0000    727.4152      8.1979     77.7049
   104.2500      0.0000    727.2528      8.1213     74.7149
   104.5000      0.0000    727.1465      8.1931     74.6212
   104.7500      0.0000    727.0501      8.4005     76.9648
   105.0000      0.0000    726.8501      8.5925     80.3776
   105.2500      0.0000    726.5416      8.6458     83.2603
   105.5000      0.0000    726.2953      8.5839     84.3157
   105.7500      0.0000    726.2661      8.5072     82.8658
   106.0000      0.0000    726.4658      8.4502     79.1809
   106.2500      0.0000    726.7755      8.3780     74.6881
   106.5000      0.0000    727.0045      8.3014     71.3022
   106.7500      0.0000    727.2381      8.2942     69.9545
   107.0000      0.0000    728.3969      8.3866     69.9007
   107.2500      0.0000    731.8353      8.5456     69.7383
   107.5000      0.0000    736.9172      8.7566     68.8174
   107.7500      0.0000    739.7491      8.9937     67.5146
   108.0000      0.0000    737.5884      9.1271     66.6209
   108.2500      0.0000    732.7745      9.0242     66.8463
   108.5000      0.0000    728.9554      8.7306     68.5791
   108.7500      0.0000    727.0497      8.4325     71.5984
   109.0000      0.0000    726.3883      8.2803     74.9632
   109.2500      0.0000    726.4347      8.2891     77.3894
   109.5000      0.0000    726.8470      8.3505     77.8721
   109.7500      0.0000    727.2458      8.3273     76.2270
   110.0000      0.0000    727.4932      8.1899     73.3945
   110.2500      0.0000    728.3034      8.0516     71.1525
   110.5000      0.0000    731.0582      8.0187     70.9811
   110.7500      0.0000    735.4517      8.0272     72.8706
   111.0000      0.0000    737.8071      7.9280     75.2482
   111.2500      0.0000    735.3142      7.7258     76.1429
   111.5000      0.0000    730.3873      7.5755     74.5824
   111.7500      0.0000    726.9212      7.5532     71.1496
   112.0000      0.0000    725.7435      7.5917     67.2937
   112.2500      0.0000    725.6968      7.6008     64.0599
   112.5000      0.0000    725.8198      7.5414     61.4873
   112.7500      0.0000    725.7602      7.4560     59.1968
   113.0000      0.0000    725.5701      7.4524     57.2652
   113.2500      0.0000    725.4792      7.5773     56.3088
   113.5000      0.0000    725.6042      7.7400     56.8586
   113.7500      0.0000    725.8635      7.8274     58.8106
   114.0000      0.0000    726.1403      7.8492     61.3866
   114.2500      0.0000    726.3853      7.8937     63.6732
   114.5000      0.0000    726.5869      7.9598     65.3364
   114.7500      0.0000    726.7584      7.9454     66.7400
   115.0000      0.0000    726.9312      7.8181     68.2493
   115.2500      0.0000    727.1185      7.6881     69.6833
   115.5000      0.0000    727.3203      7.6694     70.6530
   115.7500      0.0000    727.4921      7.7416     71.2323
   116.0000      0.0000    727.5377      7.7929     72.0303
   116.2500      0.0000    727.4409      7.7599     73.6888
   116.5000      0.0000    727.2783      7.6918     76.4551
   116.7500      0.0000    727.0491      7.7069     80.0674
   117.0000      0.0000    726.6876      7.8935     83.7676
   117.2500      0.0000    726.2509      8.1958     86.5248
   117.5000      0.0000    725.9178      8.4241     87.5834
   117.7500      0.0000    725.8108      8.4370     86.9015
   118.0000      0.0000    725.9104      8.2758     85.0028
   118.2500      0.0000    726.1387      8.0980     82.5911
   118.5000      0.0000    726.4480      8.0250     80.5872
   118.7500      0.0000    726.7962      8.0618     80.2244
   119.0000      0.0000    727.0895      8.1385     82.4014
   119.2500      0.0000    727.2366      8.1902     86.7435
   119.5000      0.0000    727.2777      8.1973     91.5960
   119.7500      0.0000    727.3689      8.1864     95.1484
   120.0000      0.0000    727.6106      8.1890     96.5640
   120.2500      0.0000    727.9528      8.1852     96.1441
   120.5000      0.0000    728.2731      8.1200     94.6874
   120.7500      0.0000    728.4670      7.9753     92.8472
   121.0000      0.0000    728.4432      7.7822     90.9712
   121.2500      0.0000    728.1619      7.5806     89.2534
   121.5000      0.0000    727.7665      7.4116     87.9111
   121.7500      0.0000    727.5344      7.3183     87.3262
   122.0000      0.0000    727.3741      7.3149     87.9931
   122.2500      0.0000    726.1110      7.3763     90.0137
   122.5000      0.0000    721.4376      7.4531     92.5007
   122.7500      0.0000    712.0558      7.4881     93.7579
   123.0000      0.0000    701.2234      7.4591     92.5339
   123.2500      0.0000    695.9713      7.4160     89.2380
   123.5000      0.0000    700.2773      7.4408     85.7344
   123.7500      0.0000    710.5538      7.5608     83.8446
   124.0000      0.0000    719.7914      7.7230     84.1061
   124.2500      0.0000    724.6436      7.8583     85.9174
   124.5000      0.0000    726.3301      7.9439     88.5546
   124.7500      0.0000    726.6996      8.0160     91.7526
   125.0000      0.0000    725.8669      8.1390     95.3651
   125.2500      0.0000    723.0249      8.3271     98.8173
   125.5000      0.0000    719.7720      8.5120    101.1507
   125.7500      0.0000    721.8342      8.6239    101.5487
   126.0000      0.0000    732.3629      8.6629     99.7961
   126.2500      0.0000    744.4432      8.6591     96.3746
   126.5000      0.0000    748.0737      8.6240     92.2387
   126.7500      0.0000    742.6160      8.5817     88.5379
   127.0000      0.0000    735.5659      8.5950     86.3676
   127.2500      0.0000    733.0626      8.7312     86.2751
   127.5000      0.0000    737.5004      9.0293     87.7383
   127.7500      0.0000    749.7343      9.4483     89.4103
   128.0000      0.0000    767.4304      9.8070     90.1092
   128.2500      0.0000    783.8902      9.9040     89.6270
   128.5000      0.0000    792.6049      9.7470     88.7423
   128.7500      0.0000    791.7804      9.5242     88.5402
   129.0000      0.0000    785.3656      9.3837     89.6012
   129.2500      0.0000    781.1681      9.3549     91.6721
   129.5000      0.0000    783.0509      9.4061     93.8891
   129.7500      0.0000    786.0106      9.4870     95.2474
   130.0000      0.0000    783.8049      9.5391     95.1624
   130.2500      0.0000    776.5945      9.5269     93.7546
   130.5000      0.0000    769.7274      9.4805     91.5416
   130.7500      0.0000    767.2285      9.4387     88.9721
   131.0000      0.0000    766.8671      9.3804     86.4260
   131.2500      0.0000    764.9034      9.2919     84.4781
   131.5000      0.0000    761.3022      9.2050     83.8575
   131.7500      0.0000    756.1491      9.1333     85.0130
   132.0000      0.0000    749.8770      9.0713     87.6120
   132.2500      0.0000    748.6216      9.0385     90.5358
   132.5000      0.0000    758.5729      9.0514     92.6571
   132.7500      0.0000    775.9866      9.0660     93.7001
   133.0000      0.0000    790.5837      8.9910     94.1738
   133.2500      0.0000    796.6108      8.7995     94.5467
   133.5000      0.0000    795.6669      8.5863     94.8317
   133.7500      0.0000    791.0424      8.4571     94.9243
