~Version Information
VERS.                      2.0: CWLS Log ASCII Standard - VERSION 2.0
WRAP.                       NO: One line per depth step
~Well Information Block
STRT.FT               420.0000: 
STOP.FT              2888.7500: 
STEP.FT                 0.2500: 
NULL.                -999.2500: 
COMP.          Pioneer Natural Resources: COMPANY
WELL.          Touchstone 11-32: WELL
FLD.           Purgatoire River: FIELD
LOC.           853' FNL & 407' FWL--: LOCATION
CNTY.               Las Animas: COUNTY
SRVC.                Patterson: SERVICE COMPANY
DATE.          Thu Feb 23 14:02:36 2006: LOG DATE
UWI.           05 071 08564 00: UNIQUE WELL ID
STAT.                 Colorado: STATE
~Curve Information Block
DEPT.FT            0 000 00 00: Depth
SN.Ohm-m                      : IEL Short Normal
SP.mV                         : IEL Spontaneous Potential
DIR.Ohm-m                     : IEL Induction Resistivity
GR.GAPI                       : Gamma Ray
~Parameter Information Block
~A  Depth        SN          SP         DIR          GR     
# ...
  2061.5000     23.0633    -27.4984     23.0731     88.8395
  2061.7500     23.4656    -28.3347     23.7918     87.6970
  2062.0000     23.7480    -29.0153     24.2435     87.2835
  2062.2500     23.9028    -29.4967     24.4175     88.0024
  2062.5000     23.9213    -29.7551     24.3501     91.3141
  2062.7500     23.7882    -29.7862     24.0911     94.9458
  2063.0000     23.4760    -29.6015     23.6699    100.8122
  2063.2500     22.9500    -29.2228     23.0859    103.8521
  2063.5000     22.1853    -28.6771     22.3259    106.8216
  2063.7500     21.1842    -27.9930     21.3888    108.5162
  2064.0000     19.9871    -27.1991     20.2996    111.7566
  2064.2500     18.6707    -26.3234     19.1068    114.1980
  2064.5000     17.3327    -25.3935     17.8683    117.0151
  2064.7500     16.0656    -24.4359     16.6384    117.9153
  2065.0000     14.9325    -23.4749     15.4615    118.6299
  2065.2500     13.9582    -22.5313     14.3699    119.8001
  2065.5000     13.1374    -21.6216     13.3834    124.2211
  2065.7500     12.4506    -20.7578     12.5088    129.0355
  2066.0000     11.8771    -19.9482     11.7436    137.3155
  2066.2500     11.4011    -19.1987     11.0815    141.9737
  2066.5000     11.0113    -18.5139     10.5175    146.0841
  2066.7500     10.6996    -17.8971     10.0489    147.2324
  2067.0000     10.4570    -17.3503      9.6737    148.2036
  2067.2500     10.2725    -16.8736      9.3886    148.8896
  2067.5000     10.1342    -16.4650      9.1884    149.4365
  2067.7500     10.0313    -16.1215      9.0653    148.7587
  2068.0000      9.9561    -15.8408      9.0084    145.4796
  2068.2500      9.9045    -15.6237      9.0037    141.9357
  2068.5000      9.8779    -15.4743      9.0357    135.3969
  2068.7500      9.8812    -15.4005      9.0897    130.7739
  2069.0000      9.9180    -15.4098      9.1537    124.4046
  2069.2500      9.9857    -15.5054      9.2207    121.0282
  2069.5000     10.0748    -15.6823      9.2879    117.7034
  2069.7500     10.1716    -15.9245      9.3549    116.6812
  2070.0000     10.2602    -16.2038      9.4202    116.8048
  2070.2500     10.3258    -16.4828      9.4797    117.7383
  2070.5000     10.3594    -16.7182      9.5274    119.4965
  2070.7500     10.3608    -16.8678      9.5577    120.2829
  2071.0000     10.3376    -16.8984      9.5684    120.4058
  2071.2500     10.2992    -16.7942      9.5611    120.0393
  2071.5000     10.2536    -16.5632      9.5406    119.7679
  2071.7500     10.2085    -16.2397      9.5131    120.2162
  2072.0000     10.1721    -15.8797      9.4846    121.9356
  2072.2500     10.1508    -15.5502      9.4616    123.4920
  2072.5000     10.1474    -15.3147      9.4510    125.7689
  2072.7500     10.1626    -15.2192      9.4591    126.9331
  2073.0000     10.1970    -15.2844      9.4888    127.8455
  2073.2500     10.2487    -15.5033      9.5377    127.8627
  2073.5000     10.3102    -15.8463      9.5979    127.2432
  2073.7500     10.3695    -16.2709      9.6592    126.6603
  2074.0000     10.4143    -16.7312      9.7125    125.8807
  2074.2500     10.4375    -17.1830      9.7532    125.4600
  2074.5000     10.4399    -17.5848      9.7812    125.0608
  2074.7500     10.4289    -17.8980      9.7995    125.2193
  2075.0000     10.4140    -18.0838      9.8126    126.6106
  2075.2500     10.4019    -18.1019      9.8247    128.2033
  2075.5000     10.3934    -17.9104      9.8401    130.6065
  2075.7500     10.3863    -17.4713      9.8614    131.6184
  2076.0000     10.3805    -16.7592      9.8881    131.9496
  2076.2500     10.3798    -15.7756      9.9168    131.6455
  2076.5000     10.3907    -14.5633      9.9425    131.0359
  2076.7500     10.4184    -13.2175      9.9616    130.6960
  2077.0000     10.4655    -11.8821      9.9738    130.3030
  2077.2500     10.5299    -10.7336      9.9815    130.2408
  2077.5000     10.6040     -9.9449      9.9875    130.7800
  2077.7500     10.6753     -9.6443      9.9947    131.4110
  2078.0000     10.7298     -9.8803     10.0050    131.7035
  2078.2500     10.7569    -10.6064     10.0198    130.9657
  2078.5000     10.7538    -11.6929     10.0391    128.8842
  2078.7500     10.7241    -12.9619     10.0611    127.5627
  2079.0000     10.6759    -14.2323     10.0823    126.3832
  2079.2500     10.6191    -15.3613     10.0996    126.1542
  2079.5000     10.5656    -16.2688     10.1142    126.8872
  2079.7500     10.5292    -16.9416     10.1344    128.3683
  2080.0000     10.5250    -17.4211     10.1756    131.7926
  2080.2500     10.5752    -17.7831     10.2570    134.0915
  2080.5000     10.7197    -18.1158     10.3959    136.0145
  2080.7500     11.0179    -18.5034     10.6041    135.7187
  2081.0000     11.5288    -19.0156     10.8864    132.5661
  2081.2500     12.2750    -19.7007     11.2437    128.6744
  2081.5000     13.2201    -20.5837     11.6781    120.6379
  2081.7500     14.2899    -21.6633     12.1957    114.5047
  2082.0000     15.4244    -22.9106     12.8060    105.7485
  2082.2500     16.6083    -24.2704     13.5160    100.9590
  2082.5000     17.8425    -25.6652     14.3217     95.8964
  2082.7500     19.0868    -27.0032     15.1987     94.0921
  2083.0000     20.2362    -28.1872     16.0949     94.3895
  2083.2500     21.1552    -29.1277     16.9291     97.0651
  2083.5000     21.7358    -29.7539     17.6019    104.6956
  2083.7500     21.9394    -30.0221     18.0185    111.1423
  2084.0000     21.7991    -29.9198     18.1193    119.7842
  2084.2500     21.3858    -29.4647     17.8993    123.2049
  2084.5000     20.7617    -28.7001     17.4067    123.8637
  2084.7500     19.9546    -27.6871     16.7188    122.1216
  2085.0000     18.9692    -26.4965     15.9147    118.9418
  2085.2500     17.8221    -25.2002     15.0588    117.8380
  2085.5000     16.5693    -23.8647     14.1991    118.6057
  2085.7500     15.3030    -22.5466     13.3715    120.4432
  2086.0000     14.1211    -21.2896     12.6025    124.0931
  2086.2500     13.0935    -20.1242     11.9081    126.5389
  2086.5000     12.2472    -19.0684     11.2928    129.9572
  2086.7500     11.5724    -18.1295     10.7521    132.4103
  2087.0000     11.0402    -17.3067     10.2764    136.9814
  2087.2500     10.6179    -16.5926      9.8563    140.4716
  2087.5000     10.2757    -15.9763      9.4852    145.1710
  2087.7500      9.9893    -15.4453      9.1587    147.2437
  2088.0000      9.7407    -14.9870      8.8735    148.5301
  2088.2500      9.5199    -14.5911      8.6263    148.6517
  2088.5000      9.3248    -14.2506      8.4137    148.8668
  2088.7500      9.1583    -13.9623      8.2328    149.5161
  2089.0000      9.0244    -13.7280      8.0826    151.6068
  2089.2500      8.9254    -13.5531      7.9643    153.6146
  2089.5000      8.8621    -13.4460      7.8809    156.5830
  2089.7500      8.8364    -13.4158      7.8367    157.7948
  2090.0000      8.8509    -13.4704      7.8364    157.7287
  2090.2500      8.9052    -13.6138      7.8830    156.3334
  2090.5000      8.9960    -13.8449      7.9777    151.9274
  2090.7500      9.1209    -14.1567      8.1187    147.2300
  2091.0000      9.2819    -14.5367      8.3025    138.0616
  2091.2500      9.4828    -14.9681      8.5253    131.5514
  2091.5000      9.7239    -15.4309      8.7845    123.0067
  2091.7500      9.9993    -15.9029      9.0784    118.4558
  2092.0000     10.2992    -16.3604      9.4054    112.8153
  2092.2500     10.6126    -16.7786      9.7609    109.7130
  2092.5000     10.9276    -17.1327     10.1365    106.9267
  2092.7500     11.2302    -17.3995     10.5188    106.9028
  2093.0000     11.5041    -17.5604     10.8894    109.3062
  2093.2500     11.7332    -17.6049     11.2263    111.6089
  2093.5000     11.9045    -17.5341     11.5073    114.5809
  2093.7500     12.0113    -17.3632     11.7132    115.8796
  2094.0000     12.0564    -17.1214     11.8325    116.9323
  2094.2500     12.0521    -16.8488     11.8643    117.2506
  2094.5000     12.0177    -16.5903     11.8206    117.4247
  2094.7500     11.9758    -16.3876     11.7255    117.3313
