~Version Information
VERS.                      2.0: CWLS Log ASCII Standard - VERSION 2.0
WRAP.                       NO: One line per depth step
~Well Information Block
STRT.FT               240.0000: 
STOP.FT              1159.2000: 
STEP.FT                 0.1000: 
NULL.                -999.2500: 
COMP.          Pioneer Natural Resources: COMPANY
WELL.               Ryan 41-17: WELL
FLD.           Purgatoire River: FIELD
LOC.           822' FNL & 532' FEL--: LOCATION
CNTY.               Las Animas: COUNTY
SRVC.                Patterson: SERVICE COMPANY
DATE.          Fri Mar 17 07:19:36 2006: LOG DATE
UWI.           05 071 08719 00: UNIQUE WELL ID
STAT.                 Colorado: STATE
~Curve Information Block
DEPT.FT            0 000 00 00: Depth
DCAL.in                       : CDL Caliper
RHOB.g/cc                     : CDL Bulk Density
RHOC.g/cc                     : CDL Density Correction
DPOR.pu                       : CDL Density Porosity
NPOR.pu                       : Neutron Porosity
GR.GAPI                       : Gamma Ray
~Parameter Information Block
~A  Depth       DCAL        RHOB        RHOC        DPOR        NPOR         GR     
# ...
   422.4000      7.8708      2.5538      0.0827      5.8277     22.0598    140.0173
   422.5000      7.8730      2.5801      0.1145      4.2358     21.4088    132.8976
   422.6000      7.8730      2.5844      0.1000      3.9729     20.9724    127.6354
   422.7000      7.8730      2.5709      0.0543      4.7929     20.6986    128.6338
   422.8000      7.8840      2.5647      0.0666      5.1726     20.5887    135.9757
   422.9000      7.8840      2.5713      0.0665      4.7684     20.4003    146.2368
   423.0000      7.8957      2.5785      0.0466      4.3321     19.9448    152.6252
   423.1000      7.8957      2.5745      0.0628      4.5752     19.7181    153.6933
   423.2000      7.8957      2.5646     -0.0115      5.1755     19.9764    148.8054
   423.3000      7.8953      2.5729      0.0190      4.6698     20.4524    136.8315
   423.4000      7.8953      2.5944      0.0762      3.3712     21.1509    123.6120
   423.5000      7.8839      2.5946      0.0908      3.3599     22.0998    114.3719
   423.6000      7.8839      2.5753     -0.0089      4.5265     22.8816    108.8021
   423.7000      7.8839      2.5737     -0.0198      4.6271     23.2653    103.4785
   423.8000      7.8646      2.5958      0.0573      3.2851     23.4957     96.0747
   423.9000      7.8646      2.6142      0.0427      2.1670     23.6608     88.0981
   424.0000      7.8403      2.6208      0.0116      1.7682     23.4580     84.0265
   424.1000      7.8403      2.6252      0.0322      1.5047     22.9062     87.4211
   424.2000      7.8403      2.6288      0.0517      1.2878     22.4988     93.3723
   424.3000      7.8215      2.6279      0.0877      1.3407     22.5169     92.6111
   424.4000      7.8215      2.6173      0.0669      1.9848     22.7341     86.4009
   424.5000      7.8122      2.5988      0.0261      3.1042     22.5954     82.9253
   424.6000      7.8122      2.5818     -0.0170      4.1349     21.8336     83.2810
   424.7000      7.8122      2.5671      0.0640      5.0226     20.9120     85.4401
   424.8000      7.8125      2.5500      0.0194      6.0581     20.2381     89.9585
   424.9000      7.8125      2.5336      0.0078      7.0525     19.7812     93.6034
   425.0000      7.8183      2.5253     -0.0320      7.5600     19.5742     92.7210
   425.1000      7.8183      2.5350     -0.0139      6.9674     19.6023     89.6793
   425.2000      7.8183      2.5655      0.0093      5.1212     19.6745     87.8895
   425.3000      7.8285      2.5922      0.0754      3.5017     19.4882     87.4512
   425.4000      7.8285      2.5869      0.0610      3.8224     19.0529     87.0968
   425.5000      7.8403      2.5607      0.0023      5.4149     18.7977     86.2289
   425.6000      7.8403      2.5478     -0.0045      6.1911     18.9646     84.8345
   425.7000      7.8403      2.5600      0.0177      5.4565     19.2661     84.6387
   425.8000      7.8444      2.5762      0.0625      4.4713     19.1624     86.7613
   425.9000      7.8444      2.5696      0.0468      4.8744     18.6881     89.7873
   426.0000      7.8412      2.5428     -0.0273      6.4959     18.5178     90.5586
   426.1000      7.8412      2.5246     -0.0013      7.5999     18.9266     87.3961
   426.2000      7.8412      2.5247     -0.0204      7.5927     19.3867     83.4266
   426.3000      7.8391      2.5275      0.0127      7.4253     19.4384     81.7605
   426.4000      7.8391      2.5233     -0.0063      7.6798     19.2067     81.5398
   426.5000      7.8391      2.5193      0.0176      7.9230     19.0601     80.1908
   426.6000      7.8391      2.5193      0.0062      7.9193     19.0966     78.6812
   426.7000      7.8391      2.5214      0.0192      7.7946     19.0822     79.6719
   426.8000      7.8407      2.5216      0.0499      7.7814     18.9299     81.4483
   426.9000      7.8407      2.5181      0.0274      7.9961     18.8879     82.2944
   427.0000      7.8439      2.5132      0.0518      8.2909     19.2090     82.4163
   427.1000      7.8439      2.5106      0.0412      8.4479     19.7924     83.1972
   427.2000      7.8439      2.5180      0.0586      7.9985     20.3521     84.7602
   427.3000      7.8390      2.5374      0.0637      6.8254     20.6274     86.7060
   427.4000      7.8390      2.5601      0.0974      5.4460     20.4675     88.8784
   427.5000      7.8237      2.5760      0.1029      4.4821     20.0092     88.6831
   427.6000      7.8237      2.5825      0.0801      4.0935     19.6833     84.1810
   427.7000      7.8237      2.5795      0.1378      4.2708     19.6527     78.8260
   427.8000      7.8199      2.5697      0.0510      4.8657     19.7000     78.7520
   427.9000      7.8199      2.5672      0.0970      5.0165     19.7506     82.2164
   428.0000      7.8393      2.5747      0.0431      4.5618     19.7156     84.3297
   428.1000      7.8393      2.5751      0.0954      4.5395     19.7456     86.2177
   428.2000      7.8393      2.5549      0.0425      5.7616     20.1332     87.6483
   428.3000      7.8691      2.5315     -0.0175      7.1795     20.5782     86.9952
   428.4000      7.8691      2.5335      0.0186      7.0592     20.6933     87.4807
   428.5000      7.8924      2.5571      0.0528      5.6273     20.5037     91.2013
   428.6000      7.8924      2.5743      0.0830      4.5904     20.3179     94.7404
   428.7000      7.8924      2.5699      0.0594      4.8551     20.4283     96.6308
   428.8000      7.9031      2.5498      0.0612      6.0718     20.6114     96.9168
   428.9000      7.9031      2.5302     -0.0121      7.2622     20.7857     94.0874
   429.0000      7.9045      2.5317      0.0079      7.1726     21.2395     90.6747
   429.1000      7.9045      2.5562      0.0326      5.6854     21.9557     90.3073
   429.2000      7.9045      2.5828      0.0623      4.0702     22.6756     92.0435
   429.3000      7.9019      2.5996      0.0562      3.0534     23.2854     94.6764
   429.4000      7.9019      2.6099      0.0729      2.4293     23.5660     98.0440
   429.5000      7.8983      2.6088      0.0743      2.4971     23.3347     99.2605
   429.6000      7.8983      2.5876      0.0692      3.7842     22.9340     99.6787
   429.7000      7.8983      2.5599      0.0235      5.4590     22.8413    102.7949
   429.8000      7.8994      2.5538      0.0267      5.8279     23.1612    107.2859
   429.9000      7.8994      2.5687      0.0788      4.9303     23.6803    111.8353
   430.0000      7.9044      2.5768      0.0295      4.4382     24.1884    116.1658
   430.1000      7.9044      2.5698      0.0222      4.8592     24.4280    118.4984
   430.2000      7.9044      2.5608      0.0159      5.4074     24.3902    119.8338
   430.3000      7.9088      2.5585      0.0422      5.5484     24.3259    122.9421
   430.4000      7.9088      2.5579      0.0509      5.5795     24.2987    125.4922
   430.5000      7.9055      2.5520      0.0529      5.9367     24.3553    124.8155
   430.6000      7.9055      2.5508      0.0268      6.0151     24.2997    124.3681
   430.7000      7.9055      2.5616      0.0934      5.3603     23.9146    126.0053
   430.8000      7.8994      2.5621      0.1257      5.3286     23.5752    125.5105
   430.9000      7.8994      2.5399      0.0483      6.6742     23.4753    122.5162
   431.0000      7.9030      2.5162      0.0250      8.1115     23.4124    122.8547
   431.1000      7.9030      2.5063      0.0527      8.7063     23.3835    125.7400
   431.2000      7.9030      2.5053      0.0413      8.7678     23.3424    127.9999
   431.3000      7.9106      2.5081      0.0373      8.6015     23.1222    133.5437
   431.4000      7.9106      2.5160      0.0271      8.1220     22.9089    142.3596
   431.5000      7.9171      2.5227      0.0926      7.7148     23.0461    149.8003
   431.6000      7.9171      2.5182      0.0835      7.9854     23.4103    155.3849
   431.7000      7.9171      2.5210      0.0172      7.8158     23.6155    158.4071
   431.8000      7.9247      2.5571      0.0449      5.6300     23.6155    156.1712
   431.9000      7.9247      2.6075      0.1249      2.5746     23.5042    150.0061
