~Version Information
VERS.                      2.0: CWLS Log ASCII Standard - VERSION 2.0
WRAP.                       NO: One line per depth step
~Well Information Block
STRT.FT               830.0000: 
STOP.FT              2368.5000: 
STEP.FT                 0.1000: 
NULL.                -999.2500: 
COMP.          Pioneer Natural Resources: COMPANY
WELL.              Rolls 14-14: WELL
FLD.           Purgatoire River: FIELD
LOC.           572' FSL & 856' FWL: LOCATION
PROV.                 Colorado: PROVINCE
CNTY.               Las Animas: COUNTRY
SRVC.                Patterson: SERVICE COMPANY
DATE.          Mon Aug 01 05:48:31 2005: LOG DATE
UWI.           05 071 08455 00: UNIQUE WELL ID
~Curve Information Block
DEPT.FT            0 000 00 00: Depth
DCAL.in                       : CDL Caliper
RHOB.g/cc                     : CDL Bulk Density
RHOC.g/cc                     : CDL Density Correction
DPOR.pu                       : CDL Density Porosity
GR.GAPI                       : Gamma Ray
NPOR.pu                       : Neutron Porosity
~Parameter Information Block
~A  Depth       DCAL        RHOB        RHOC        DPOR         GR         NPOR    
# ...
  1031.6000      8.4148      1.6204      0.1769     62.4014     91.0925     15.4077
  1031.7000      8.4148      1.7251      0.2134     56.0549     96.6580     17.2204
  1031.8000      8.5230      1.8444      0.2575     48.8249    104.6392     18.9397
  1031.9000      8.5230      1.9765      0.2645     40.8168    117.0003     20.2915
  1032.0000      8.5673      2.1326      0.2413     31.3551    129.1791     21.5435
  1032.1000      8.5673      2.2895      0.2989     21.8487    134.1685     22.8472
  1032.2000      8.5673      2.3960      0.2887     15.3946    133.4020     24.0231
  1032.3000      8.4316      2.4438      0.1722     12.4974    134.9166     24.8787
  1032.4000      8.4316      2.4713      0.1527     10.8331    142.1800     25.3864
  1032.5000      8.2424      2.4990      0.2300      9.1545    149.9024     25.9147
  1032.6000      8.2424      2.5165      0.1863      8.0919    154.9553     26.5843
  1032.7000      8.2424      2.5214      0.1457      7.7964    158.7644     26.8460
  1032.8000      8.2076      2.5188      0.1458      7.9534    158.6835     26.4799
  1032.9000      8.2076      2.5126      0.1052      8.3285    154.8176     26.1667
  1033.0000      8.1996      2.5106      0.0595      8.4512    154.1655     26.4681
  1033.1000      8.1996      2.5088      0.0785      8.5549    156.4766     27.1450
  1033.2000      8.1996      2.4947      0.0355      9.4107    156.6929     27.5303
  1033.3000      8.2454      2.4734     -0.0089     10.7044    156.5411     27.3619
  1033.4000      8.2454      2.4702     -0.0468     10.8963    159.9113     26.9918
  1033.5000      8.2465      2.4933      0.0057      9.4951    165.4243     26.5545
  1033.6000      8.2465      2.5104      0.0321      8.4635    166.6457     26.0014
  1033.7000      8.2465      2.4913     -0.0136      9.6158    161.7544     25.5259
  1033.8000      8.2615      2.4477      0.0128     12.2612    155.5383     25.3278
  1033.9000      8.2615      2.4085     -0.0164     14.6341    148.9114     25.4811
  1034.0000      8.2056      2.3910     -0.0171     15.6944    143.2811     25.6246
  1034.1000      8.2056      2.3900     -0.0292     15.7564    144.2963     25.3392
  1034.2000      8.2056      2.4000     -0.0773     15.1491    152.0968     24.8453
  1034.3000      8.2515      2.4231     -0.0299     13.7536    158.8485     24.6127
  1034.4000      8.2515      2.4444      0.0552     12.4596    158.0087     24.8374
  1034.5000      8.1888      2.4573      0.0220     11.6795    151.4665     25.3408
  1034.6000      8.1888      2.4849      0.0966     10.0071    144.5097     25.7938
  1034.7000      8.1888      2.5445      0.1600      6.3949    141.6382     26.0092
  1034.8000      8.1779      2.6327      0.2111      1.0506    141.0885     26.0766
  1034.9000      8.1779      2.7312      0.2718     -4.9236    136.5618     26.2167
  1035.0000      8.1737      2.8210      0.2511    -10.3608    130.5561     26.0923
  1035.1000      8.1737      2.8914      0.2529    -14.6299    127.2933     25.5147
  1035.2000      8.1737      2.9190      0.3458    -16.3018    125.4113     24.9348
  1035.3000      8.1611      2.8955      0.2504    -14.8765    125.3526     24.4317
  1035.4000      8.1611      2.8587      0.1730    -12.6502    128.9109     23.7417
  1035.5000      8.1665      2.8205      0.2150    -10.3326    133.5504     23.0903
  1035.6000      8.1665      2.7438      0.0762     -5.6871    135.5581     22.7023
  1035.7000      8.1665      2.6157     -0.0507      2.0769    137.6798     22.2665
  1035.8000      8.1707      2.4636     -0.0665     11.2984    142.7919     21.7452
  1035.9000      8.1707      2.3448     -0.1406     18.4972    147.9556     21.5608
  1036.0000      8.1709      2.3212     -0.0893     19.9291    151.0609     21.7160
  1036.1000      8.1709      2.3771      0.1901     16.5422    148.1389     21.7826
  1036.2000      8.1709      2.4326      0.1970     13.1744    137.4772     21.6183
  1036.3000      8.2612      2.4269      0.2162     13.5193    129.1894     21.0835
  1036.4000      8.2612      2.3315      0.2640     19.3017    130.3754     19.9686
  1036.5000      8.3773      2.1661      0.1729     29.3268    136.4147     18.7022
  1036.6000      8.3773      1.9938      0.1217     39.7674    142.9723     17.7711
  1036.7000      8.3773      1.8501      0.1295     48.4803    147.4992     16.9725
  1036.8000      8.3752      1.7454     -0.0082     54.8257    147.0737     16.1250
  1036.9000      8.3752      1.7246     -0.0797     56.0846    143.9410     15.3555
  1037.0000      8.4344      1.8295      0.0233     49.7300    142.4734     14.7108
  1037.1000      8.4344      2.0251      0.3327     37.8741    142.9915     14.4035
  1037.2000      8.4344      2.2192      0.5719     26.1063    141.2142     14.7125
  1037.3000      8.5665      2.3536      0.5934     17.9654    135.5152     15.3427
  1037.4000      8.5665      2.4260      0.5659     13.5744    129.5845     15.6645
  1037.5000      8.8129      2.4343      0.5220     13.0737    126.6834     15.7828
  1037.6000      8.8129      2.3804      0.3649     16.3397    128.1239     16.3469
  1037.7000      8.8129      2.3113      0.0436     20.5291    133.5782     17.5772
  1037.8000      9.1491      2.2733      0.0569     22.8280    139.7701     19.1471
  1037.9000      9.1491      2.2603      0.0360     23.6197    142.7394     20.5641
  1038.0000      9.1173      2.2560     -0.0043     23.8779    141.8254     21.7358
  1038.1000      9.1173      2.2642      0.0138     23.3810    138.3116     22.8219
  1038.2000      9.1173      2.2820      0.0282     22.3056    134.0474     23.8222
  1038.3000      8.3721      2.3006      0.0329     21.1767    128.9824     24.4725
  1038.4000      8.3721      2.3229      0.0758     19.8222    123.1085     24.5009
  1038.5000      8.2289      2.3535      0.0793     17.9725    117.6962     24.2633
  1038.6000      8.2289      2.3898      0.0697     15.7701    113.7076     24.4002
  1038.7000      8.2289      2.4274      0.0874     13.4934    111.5798     24.8558
  1038.8000      8.2266      2.4553      0.1090     11.7990    110.2940     25.1007
  1038.9000      8.2266      2.4643      0.0570     11.2533    107.1228     25.1927
  1039.0000      8.2159      2.4594      0.0420     11.5539    101.7378     25.5012
  1039.1000      8.2159      2.4530     -0.0198     11.9367     98.9615     25.7610
  1039.2000      8.2159      2.4599      0.0135     11.5223    100.0944     25.4811
  1039.3000      8.1260      2.4896     -0.0259      9.7228    101.6492     24.8817
  1039.4000      8.1260      2.5298      0.0756      7.2828    103.9117     24.5821
  1039.5000      8.1144      2.5514      0.0446      5.9740    106.8208     24.4522
  1039.6000      8.1144      2.5443      0.0263      6.4053    107.3160     23.9146
  1039.7000      8.1144      2.5250      0.0060      7.5747    105.8824     23.1736
  1039.8000      8.1117      2.5177     -0.0289      8.0157    106.8481     22.9118
  1039.9000      8.1117      2.5243      0.0130      7.6191    111.3205     23.0734
  1040.0000      8.1116      2.5246      0.0260      7.6027    116.2252     23.0658
  1040.1000      8.1116      2.5222     -0.0097      7.7429    118.6930     22.8800
  1040.2000      8.1116      2.5309      0.0889      7.2202    120.9610     23.0821
  1040.3000      8.1101      2.5377      0.0267      6.8086    126.3021     23.6248
  1040.4000      8.1101      2.5350      0.0662      6.9669    131.5427     23.9551
  1040.5000      8.1105      2.5354      0.0631      6.9471    131.9720     24.2246
  1040.6000      8.1105      2.5458      0.0674      6.3162    128.8911     24.7629
  1040.7000      8.1105      2.5583      0.0531      5.5546    126.7201     25.3259
  1040.8000      8.1229      2.5682      0.0776      4.9550    127.0706     25.7798
  1040.9000      8.1229      2.5722      0.0958      4.7130    128.0097     26.1563
  1041.0000      8.1092      2.5655      0.0709      5.1218    127.9238     26.2408
  1041.1000      8.1092      2.5544      0.0289      5.7929    128.3724     25.9824
