~Version Information
VERS.                      2.0: CWLS Log ASCII Standard - VERSION 2.0
WRAP.                       NO: One line per depth step
~Well Information Block
STRT.FT               240.0000: 
STOP.FT              1185.5000: 
STEP.FT                 0.2500: 
NULL.                -999.2500: 
COMP.          Pioneer Natural Resources: COMPANY
WELL.          Whitecoat 14-36: WELL
FLD.           Purgatorie River: FIELD
LOC.           606' FSL & 260' FWL: LOCATION
PROV.                 Colorado: PROVINCE
CNTY.               Las Animas: COUNTRY
SRVC.                Patterson: SERVICE COMPANY
DATE.          Mon Dec 05 16:51:12 2005: LOG DATE
UWI.                          : UNIQUE WELL ID
~Curve Information Block
DEPT.FT            0 000 00 00: Depth
DIR.Ohm-m                     : IEL Induction Resistivity
GR.GAPI                       : Gamma Ray
~Parameter Information Block
~A  Depth       DIR          GR     
# ...
  1132.0000     10.3833    100.1575
  1132.2500     10.5324     98.4119
  1132.5000     10.6768     97.6141
  1132.7500     10.7963     98.0764
  1133.0000     10.8756     99.5653
  1133.2500     10.9117    100.9459
  1133.5000     10.9162    103.4640
  1133.7500     10.9129    104.9651
  1134.0000     10.9316    105.4136
  1134.2500     11.0017    103.7733
  1134.5000     11.1442     98.7075
  1134.7500     11.3639     94.8254
  1135.0000     11.6446     91.0101
  1135.2500     11.9509     90.9401
  1135.5000     12.2372     94.8049
  1135.7500     12.4627     99.2010
  1136.0000     12.6052    106.0520
  1136.2500     12.6648    109.3641
  1136.5000     12.6593    111.1548
  1136.7500     12.6170    110.2531
  1137.0000     12.5739    106.5011
  1137.2500     12.5747    102.9778
  1137.5000     12.6666     97.3980
  1137.7500     12.8821     94.3426
  1138.0000     13.2151     92.0384
  1138.2500     13.6076     92.3717
  1138.5000     13.9630     95.4361
  1138.7500     14.1906     98.6880
  1139.0000     14.2558    104.3213
  1139.2500     14.1942    108.0651
  1139.5000     14.0809    113.0186
  1139.7500     13.9874    115.4851
  1140.0000     13.9611    117.0639
  1140.2500     14.0267    116.2804
  1140.5000     14.1959    112.2942
  1140.7500     14.4700    108.2246
  1141.0000     14.8338    101.4523
  1141.2500     15.2485     97.4618
  1141.5000     15.6552     93.5005
  1141.7500     15.9923     92.4367
  1142.0000     16.2197     92.8038
  1142.2500     16.3313     93.8898
  1142.5000     16.3476     95.9444
  1142.7500     16.3014     97.1617
  1143.0000     16.2294     98.1725
  1143.2500     16.1699     98.0983
  1143.5000     16.1552     96.7179
  1143.7500     16.1966     94.9662
  1144.0000     16.2748     91.4503
  1144.2500     16.3491     88.9906
  1144.5000     16.3843     86.2011
  1144.7500     16.3737     85.5392
  1145.0000     16.3381     87.0920
  1145.2500     16.3062     89.9302
  1145.5000     16.2974     96.1440
  1145.7500     16.3205    100.6879
  1146.0000     16.3765    106.5265
  1146.2500     16.4557    109.2254
  1146.5000     16.5278    111.3792
  1146.7500     16.5452    111.8273
  1147.0000     16.4659    111.6276
  1147.2500     16.2861    111.1074
  1147.5000     16.0521    109.6543
  1147.7500     15.8380    108.1259
  1148.0000     15.7084    105.1923
  1148.2500     15.6911    103.2166
  1148.5000     15.7737    101.1134
  1148.7500     15.9185    100.6497
  1149.0000     16.0871    101.3915
  1149.2500     16.2582    102.5187
  1149.5000     16.4304    104.3086
  1149.7500     16.6088    105.1224
  1150.0000     16.7900    105.4594
  1150.2500     16.9577    105.2458
  1150.5000     17.0926    104.8356
  1150.7500     17.1861    104.7227
  1151.0000     17.2449    104.5897
  1151.2500     17.2835    104.1262
  1151.5000     17.3103    102.2768
  1151.7500     17.3177    100.2757
  1152.0000     17.2821     96.7879
  1152.2500     17.1750     94.7567
  1152.5000     16.9796     93.2364
  1152.7500     16.7015     93.6269
  1153.0000     16.3681     96.0402
  1153.2500     16.0180     98.1598
  1153.5000     15.6882    100.7065
  1153.7500     15.4085    101.5177
  1154.0000     15.1967    101.4961
  1154.2500     15.0564    101.1117
  1154.5000     14.9746    101.0405
  1154.7500     14.9259    101.8243
  1155.0000     14.8836    104.4359
  1155.2500     14.8313    106.8398
  1155.5000     14.7685    110.6143
  1155.7500     14.7062    112.8129
  1156.0000     14.6595    115.1508
  1156.2500     14.6408    115.8786
  1156.5000     14.6535    115.4382
  1156.7500     14.6878    114.0572
  1157.0000     14.7225    110.6636
  1157.2500     14.7337    107.9661
  1157.5000     14.7059    104.2650
  1157.7500     14.6343    102.5902
  1158.0000     14.5197    101.8490
  1158.2500     14.3637    102.4390
  1158.5000     14.1680    103.9947
  1158.7500     13.9386    104.7963
  1159.0000     13.6862    105.0813
  1159.2500     13.4240    104.8584
  1159.5000     13.1619    104.7698
  1159.7500     12.9037    105.2806
  1160.0000     12.6494    106.9600
  1160.2500     12.4034    108.4706
  1160.5000     12.1798    111.0974
  1160.7500     12.0014    113.0642
  1161.0000     11.8902    115.9866
  1161.2500     11.8567    117.4785
  1161.5000     11.8951    118.5899
  1161.7500     11.9862    118.9041
  1162.0000     12.1072    120.0278
  1162.2500     12.2419    121.7007
  1162.5000     12.3855    124.9742
  1162.7500     12.5427    126.6824
  1163.0000     12.7212    127.1974
  1163.2500     12.9273    126.1097
  1163.5000     13.1657    123.2776
  1163.7500     13.4422    121.3585
  1164.0000     13.7629    119.4070
  1164.2500     14.1276    118.8829
  1164.5000     14.5203    118.9480
  1164.7500     14.9080    119.3481
  1165.0000     15.2518    120.7537
  1165.2500     15.5221    122.8612
  1165.5000     15.7061    129.2498
  1165.7500     15.8043    136.2263
  1166.0000     15.8260    149.9901
  1166.2500     15.7885    159.5403
  1166.5000     15.7153    169.9693
  1166.7500     15.6268    172.1507
  1167.0000     15.5288    166.9426
  1167.2500     15.4071    158.5830
  1167.5000     15.2356    141.9165
  1167.7500     14.9924    130.3679
  1168.0000     14.6723    115.7393
  1168.2500     14.2880    108.8097
  1168.5000     13.8604    102.7361
  1168.7500     13.4091    101.1059
  1169.0000     12.9488    101.4619
  1169.2500     12.4923    103.1426
  1169.5000     12.0548    107.0173
  1169.7500     11.6547    109.9927
  1170.0000     11.3084    114.2475
  1170.2500     11.0240    116.5480
  1170.5000     10.7990    118.7373
  1170.7500     10.6235    119.3885
  1171.0000     10.4851    119.8277
  1171.2500     10.3733    120.1882
  1171.5000     10.2794    120.6326
  1171.7500     10.1969    120.1102
  1172.0000     10.1222    116.6837
  1172.2500     10.0562    112.2427
  1172.5000      9.9989    101.9502
  1172.7500      9.9731     92.0819
  1173.0000      9.9825     71.8763
  1173.2500     10.0318     55.6248
  1173.5000     10.1167     31.5900
  1173.7500     10.2252     18.8056
  1174.0000     10.3431      6.8092
  1174.2500     10.4605      2.9210
  1174.5000     10.5756      0.6280
  1174.7500     10.6988      0.1869
  1175.0000     10.8666      0.0215
  1175.2500     11.1642      0.0028
  1175.5000     11.7520   -999.2500
  1175.7500     12.8970   -999.2500
  1176.0000     15.0548   -999.2500
  1176.2500     18.9792   -999.2500
  1176.5000     26.1893   -999.2500
  1176.7500     39.7549   -999.2500
  1177.0000     65.9380   -999.2500
  1177.2500    116.2020   -999.2500
  1177.5000    204.1899   -999.2500
  1177.7500    325.3186   -999.2500
  1178.0000    442.8953   -999.2500
  1178.2500    540.0143   -999.2500
  1178.5000    661.7066   -999.2500
  1178.7500    945.2760   -999.2500
  1179.0000 100000.0000   -999.2500
  1179.2500 100000.0000   -999.2500
  1179.5000 100000.0000   -999.2500
  1179.7500 100000.0000   -999.2500
  1180.0000 100000.0000   -999.2500
  1180.2500 100000.0000   -999.2500
  1180.5000 100000.0000   -999.2500
  1180.7500 100000.0000   -999.2500
  1181.0000 100000.0000   -999.2500
  1181.2500 100000.0000   -999.2500
  1181.5000 100000.0000   -999.2500
  1181.7500 100000.0000   -999.2500
  1182.0000 100000.0000   -999.2500
  1182.2500 100000.0000   -999.2500
  1182.5000 100000.0000   -999.2500
  1182.7500 100000.0000   -999.2500
  1183.0000 100000.0000   -999.2500
  1183.2500 100000.0000   -999.2500
  1183.5000 100000.0000   -999.2500
  1183.7500 100000.0000   -999.2500
  1184.0000 100000.0000   -999.2500
  1184.2500 100000.0000   -999.2500
  1184.5000 100000.0000   -999.2500
  1184.7500 100000.0000   -999.2500
  1185.0000 100000.0000   -999.2500
  1185.2500 100000.0000   -999.2500
  1185.5000 100000.0000   -999.2500
