~Version Information
VERS.                      2.0: CWLS Log ASCII Standard - VERSION 2.0
WRAP.                       NO: One line per depth step
~Well Information Block
STRT.FT               420.0000: 
STOP.FT              2888.7500: 
STEP.FT                 0.2500: 
NULL.                -999.2500: 
COMP.          Pioneer Natural Resources: COMPANY
WELL.          Touchstone 11-32: WELL
FLD.           Purgatoire River: FIELD
LOC.           853' FNL & 407' FWL--: LOCATION
CNTY.               Las Animas: COUNTY
SRVC.                Patterson: SERVICE COMPANY
DATE.          Thu Feb 23 14:02:36 2006: LOG DATE
UWI.           05 071 08564 00: UNIQUE WELL ID
STAT.                 Colorado: STATE
~Curve Information Block
DEPT.FT            0 000 00 00: Depth
SN.Ohm-m                      : IEL Short Normal
SP.mV                         : IEL Spontaneous Potential
DIR.Ohm-m                     : IEL Induction Resistivity
GR.GAPI                       : Gamma Ray
~Parameter Information Block
~A  Depth        SN          SP         DIR          GR     
# ...
  1056.5000   2000.0000   1974.0000     16.9459    132.0749
  1056.7500   2000.0000   1974.0000     15.9999    137.4153
  1057.0000   2000.0000   1974.0000     15.1665    142.7751
  1057.2500   2000.0000   1974.0000     14.4430    145.0234
  1057.5000   2000.0000   1974.0000     13.8351    147.3365
  1057.7500   2000.0000   1974.0000     13.3565    148.5481
  1058.0000   2000.0000   1974.0000     13.0230    149.8898
  1058.2500   2000.0000   1974.0000     12.8454    150.0010
  1058.5000   2000.0000   1974.0000     12.8230    147.8081
  1058.7500   2000.0000   1974.0000     12.9420    144.4493
  1059.0000   2000.0000   1974.0000     13.1765    137.2002
  1059.2500   2000.0000   1974.0000     13.4926    131.6157
  1059.5000   2000.0000   1974.0000     13.8571    123.1259
  1059.7500   2000.0000   1974.0000     14.2474    117.8448
  1060.0000   2000.0000   1974.0000     14.6592    111.3783
  1060.2500   2000.0000   1974.0000     15.1038    108.5195
  1060.5000   2000.0000   1974.0000     15.5968    106.5637
  1060.7500   2000.0000   1974.0000     16.1448    106.4299
  1061.0000   2000.0000   1974.0000     16.7375    107.0503
  1061.2500   2000.0000   1974.0000     17.3502    107.5797
  1061.5000   2000.0000   1974.0000     17.9522    108.0720
  1061.7500   2000.0000   1974.0000     18.5162    108.0600
  1062.0000   2000.0000   1974.0000     19.0226    107.5868
  1062.2500   2000.0000   1974.0000     19.4579    107.1011
  1062.5000   2000.0000   1974.0000     19.8154    106.1982
  1062.7500   2000.0000   1974.0000     20.0974    105.3729
  1063.0000   2000.0000   1974.0000     20.3165    103.6253
  1063.2500   2000.0000   1974.0000     20.4916    102.2604
  1063.5000   2000.0000   1974.0000     20.6401    100.6883
  1063.7500   2000.0000   1974.0000     20.7751    100.4735
  1064.0000   2000.0000   1974.0000     20.9068    101.7097
  1064.2500   2000.0000   1974.0000     21.0432    103.2568
  1064.5000   2000.0000   1974.0000     21.1850    105.5764
  1064.7500   2000.0000   1974.0000     21.3193    106.5378
  1065.0000   2000.0000   1974.0000     21.4221    106.8773
  1065.2500   2000.0000   1974.0000     21.4729    106.7890
  1065.5000   2000.0000   1974.0000     21.4731    107.1468
  1065.7500   2000.0000   1974.0000     21.4507    107.8472
  1066.0000   2000.0000   1974.0000     21.4440    108.8011
  1066.2500   2000.0000   1974.0000     21.4791    108.7625
  1066.5000   2000.0000   1974.0000     21.5539    107.4256
  1066.7500   2000.0000   1974.0000     21.6358    106.0920
  1067.0000   2000.0000   1974.0000     21.6714    104.3786
  1067.2500   2000.0000   1974.0000     21.6043    103.7215
  1067.5000   2000.0000   1974.0000     21.3972    103.5350
  1067.7500   2000.0000   1974.0000     21.0483    103.9933
  1068.0000   2000.0000   1974.0000     20.5921    105.7583
  1068.2500   2000.0000   1974.0000     20.0860    107.6179
  1068.5000   2000.0000   1974.0000     19.5941    110.8789
  1068.7500   2000.0000   1974.0000     19.1772    112.9269
  1069.0000   2000.0000   1974.0000     18.8876    115.1458
  1069.2500   2000.0000   1974.0000     18.7655    115.6431
  1069.5000   2000.0000   1974.0000     18.8336    114.2207
  1069.7500   2000.0000   1974.0000     19.0940    111.7266
  1070.0000   2000.0000   1974.0000     19.5303    106.1521
  1070.2500   2000.0000   1974.0000     20.1191    101.4794
  1070.5000   2000.0000   1974.0000     20.8455     93.0890
  1070.7500   2000.0000   1974.0000     21.7127     86.8155
  1071.0000   2000.0000   1974.0000     22.7364     77.8409
  1071.2500   2000.0000   1974.0000     23.9260     73.1749
  1071.5000   2000.0000   1974.0000     25.2668     68.8185
  1071.7500   2000.0000   1974.0000     26.7167     67.2466
  1072.0000   2000.0000   1974.0000     28.2148     65.6829
  1072.2500   2000.0000   1974.0000     29.6874     64.7928
  1072.5000   2000.0000   1974.0000     31.0344     63.9050
  1072.7500   2000.0000   1974.0000     32.1070     63.8866
  1073.0000   2000.0000   1974.0000     32.7179     64.5386
  1073.2500   2000.0000   1974.0000     32.7174     64.9474
  1073.5000   2000.0000   1974.0000     32.0936     65.1071
  1073.7500   2000.0000   1974.0000     30.9992     65.3431
  1074.0000   2000.0000   1974.0000     29.6721     67.4059
  1074.2500   2000.0000   1974.0000     28.3266     70.7248
  1074.5000   2000.0000   1974.0000     27.0922     79.1079
  1074.7500   2000.0000   1974.0000     26.0121     86.4487
  1075.0000   2000.0000   1974.0000     25.0714     97.7470
  1075.2500   2000.0000   1974.0000     24.2307    103.7106
  1075.5000   2000.0000   1974.0000     23.4523    108.0054
  1075.7500   2000.0000   1974.0000     22.7152    107.3763
  1076.0000   2000.0000   1974.0000     22.0202    102.3534
  1076.2500   2000.0000   1974.0000     21.3836     97.8221
  1076.5000   2000.0000   1974.0000     20.8256     92.3372
  1076.7500   2000.0000   1974.0000     20.3578     90.8543
  1077.0000   2000.0000   1974.0000     19.9752     92.3611
  1077.2500   2000.0000   1974.0000     19.6524     95.2354
  1077.5000   2000.0000   1974.0000     19.3450    100.7815
  1077.7500   2000.0000   1974.0000     18.9981    104.6123
  1078.0000   2000.0000   1974.0000     18.5650    110.1691
  1078.2500   2000.0000   1974.0000     18.0268    113.8608
  1078.5000   2000.0000   1974.0000     17.4023    119.5898
  1078.7500   2000.0000   1974.0000     16.7385    123.4276
  1079.0000   2000.0000   1974.0000     16.0896    128.6025
  1079.2500   2000.0000   1974.0000     15.5007    131.2459
  1079.5000   2000.0000   1974.0000     15.0002    133.6853
  1079.7500   2000.0000   1974.0000     14.6002    134.5540
  1080.0000   2000.0000   1974.0000     14.3009    135.6507
  1080.2500   2000.0000   1974.0000     14.0951    136.5111
  1080.5000   2000.0000   1974.0000     13.9709    137.2321
  1080.7500   2000.0000   1974.0000     13.9127    136.4893
  1081.0000   2000.0000   1974.0000     13.9015    132.8869
  1081.2500   2000.0000   1974.0000     13.9167    129.3693
  1081.5000   2000.0000   1974.0000     13.9404    124.3548
  1081.7500   2000.0000   1974.0000     13.9631    122.2330
  1082.0000   2000.0000   1974.0000     13.9878    121.7949
  1082.2500   2000.0000   1974.0000     14.0304    123.3026
  1082.5000   2000.0000   1974.0000     14.1149    127.3673
  1082.7500   2000.0000   1974.0000     14.2644    130.3769
  1083.0000   2000.0000   1974.0000     14.4914    133.5408
  1083.2500   2000.0000   1974.0000     14.7923    133.7832
  1083.5000   2000.0000   1974.0000     15.1487    130.2993
  1083.7500   2000.0000   1974.0000     15.5360    125.4681
  1084.0000   2000.0000   1974.0000     15.9355    115.9297
  1084.2500   2000.0000   1974.0000     16.3422    109.3879
  1084.5000   2000.0000   1974.0000     16.7602    101.4948
  1084.7500   2000.0000   1974.0000     17.1907     98.3630
  1085.0000   2000.0000   1974.0000     17.6186     97.1908
  1085.2500   2000.0000   1974.0000     18.0109     98.2473
  1085.5000   2000.0000   1974.0000     18.3290    101.1138
  1085.7500   2000.0000   1974.0000     18.5473    103.2086
  1086.0000   2000.0000   1974.0000     18.6636    106.1667
  1086.2500   2000.0000   1974.0000     18.6930    107.8976
  1086.5000   2000.0000   1974.0000     18.6550    109.8085
  1086.7500   2000.0000   1974.0000     18.5682    110.5112
  1087.0000   2000.0000   1974.0000     18.4560    110.9863
  1087.2500   2000.0000   1974.0000     18.3540    111.2071
  1087.5000   2000.0000   1974.0000     18.3088    111.3498
  1087.7500   2000.0000   1974.0000     18.3654    110.8443
  1088.0000   2000.0000   1974.0000     18.5547    108.3332
  1088.2500   2000.0000   1974.0000     18.8862    105.4631
  1088.5000   2000.0000   1974.0000     19.3485    100.1474
  1088.7500   2000.0000   1974.0000     19.9172     96.4952
  1089.0000   2000.0000   1974.0000     20.5638     91.4636
  1089.2500   2000.0000   1974.0000     21.2602     88.5761
  1089.5000   2000.0000   1974.0000     21.9728     85.2487
  1089.7500   2000.0000   1974.0000     22.6537     83.9322
