~Version Information
VERS.                      2.0: CWLS Log ASCII Standard - VERSION 2.0
WRAP.                       NO: One line per depth step
~Well Information Block
STRT.FT               400.0000: 
STOP.FT              1577.5000: 
STEP.FT                 0.1000: 
NULL.                -999.2500: 
COMP.          Pioneer Natural Resources: COMPANY
WELL.          Lorencito 10-36-33-67: WELL
FLD.           Purgatoire River: FIELD
LOC.           2130' FSL & 2362' FEL: LOCATION
STAT.                 Colorado: State
CNTY.               Las Animas: COUNTY
CTRY. USA : Country
SECT. 36 : Section
TOWN. 33S : Township
RANG. 67W : Range
SRVC.                Patterson: SERVICE COMPANY
DATE.          Mon Aug 29 07:03:31 2005: LOG DATE
API.           05 071 08501 00: UNIQUE WELL ID
~Curve Information Block
DEPT.FT            0 000 00 00: Depth
DCAL.in                       : CDL Caliper
RHOB.g/cc                     : CDL Bulk Density
RHOC.g/cc                     : CDL Density Correction
DPOR.pu                       : CDL Density Porosity
GR.GAPI                       : Gamma Ray
NPOR.pu                       : Neutron Porosity
~Parameter Information Block
~A  Depth       DCAL        RHOB        RHOC        DPOR         GR         NPOR    
   400.0000      8.3217      2.2431     -0.5323     24.6580    141.9685     24.3886
   400.1000      8.3217      2.2865     -0.4460     22.0305    154.6200     25.0211
   400.2000      8.3217      2.3343     -0.5079     19.1346    166.2459     25.3432
   400.3000      8.3288      2.3704     -0.4250     16.9482    163.4481     25.3633
   400.4000      8.3288      2.3760     -0.4677     16.6048    145.6858     25.1595
   400.5000      8.3195      2.3706     -0.4780     16.9334    130.5206     24.8618
   400.6000      8.3195      2.3862     -0.4328     15.9863    129.6882     24.9609
   400.7000      8.3195      2.4112     -0.4193     14.4755    135.0745     25.3475
   400.8000      8.3166      2.4165     -0.4352     14.1506    135.5605     25.4400
   400.9000      8.3166      2.4007     -0.4794     15.1110    133.8090     25.0691
   401.0000      8.3119      2.3843     -0.4968     16.1043    135.5237     24.5765
   401.1000      8.3119      2.3815     -0.5041     16.2745    141.6300     24.1093
   401.2000      8.3119      2.3887     -0.4902     15.8349    148.5229     23.6659
   401.3000      8.3085      2.3956     -0.4976     15.4157    151.0322     23.5655
   401.4000      8.3085      2.3968     -0.5017     15.3430    149.1427     23.5837
   401.5000      8.3084      2.3900     -0.4587     15.7604    148.0816     23.1072
   401.6000      8.3084      2.3804     -0.5405     16.3378    147.6406     22.1400
   401.7000      8.3084      2.3750     -0.5358     16.6677    142.5905     21.4598
   401.8000      8.3104      2.3687     -0.5664     17.0503    136.0410     21.6669
   401.9000      8.3104      2.3595     -0.5144     17.6089    137.3607     22.2789
   402.0000      8.3118      2.3481     -0.5694     18.2950    146.6735     22.5381
   402.1000      8.3118      2.3325     -0.5471     19.2442    153.9319     22.2622
   402.2000      8.3118      2.3204     -0.4797     19.9759    151.3829     21.7659
   402.3000      8.3133      2.3326     -0.5466     19.2342    142.1111     21.7078
   402.4000      8.3133      2.3657     -0.4218     17.2317    134.9249     22.2897
   402.5000      8.3133      2.3897     -0.4704     15.7728    135.3676     22.7800
   402.6000      8.3133      2.4005     -0.5132     15.1240    140.6918     23.0839
   402.7000      8.3133      2.4088     -0.4544     14.6200    143.5315     23.6064
   402.8000      8.3121      2.4052     -0.4257     14.8342    142.1013     24.0295
   402.9000      8.3121      2.3868     -0.5004     15.9535    139.0125     23.9101
   403.0000      8.3134      2.3722     -0.5477     16.8386    134.7784     23.4737
   403.1000      8.3134      2.3616     -0.5137     17.4776    129.3190     23.1439
   403.2000      8.3134      2.3366     -0.5239     18.9911    125.3001     22.9015
   403.3000      8.3170      2.3066     -0.5540     20.8103    125.6099     22.5173
   403.4000      8.3170      2.2983     -0.5682     21.3140    131.0067     22.1511
   403.5000      8.3356      2.3147     -0.5647     20.3240    137.1716     22.1020
   403.6000      8.3356      2.3368     -0.5143     18.9826    138.9360     22.3222
   403.7000      8.3356      2.3473     -0.5110     18.3480    138.6078     22.4278
   403.8000      8.3155      2.3497     -0.5092     18.2029    139.5313     22.3201
   403.9000      8.3155      2.3574     -0.4916     17.7328    143.0357     22.4713
   404.0000      8.3091      2.3647     -0.4891     17.2914    148.2634     22.9315
   404.1000      8.3091      2.3567     -0.5015     17.7747    149.6585     23.3013
   404.2000      8.3091      2.3365     -0.5233     18.9990    148.1432     23.2887
   404.3000      8.3094      2.3259     -0.5549     19.6414    150.7373     22.9041
   404.4000      8.3094      2.3287     -0.5201     19.4706    152.3704     22.7540
   404.5000      8.3194      2.3347     -0.5531     19.1115    145.2203     23.0883
   404.6000      8.3194      2.3485     -0.4894     18.2747    135.9780     23.0944
   404.7000      8.3194      2.3733     -0.5062     16.7671    133.0038     22.4945
   404.8000      8.2996      2.4089     -0.5816     14.6107    137.0364     22.2292
   404.9000      8.2996      2.4488     -0.4949     12.1916    143.4370     22.6177
   405.0000      8.3031      2.4821     -0.5460     10.1767    143.6341     22.8319
   405.1000      8.3031      2.5061     -0.4605      8.7239    133.7561     22.7001
   405.2000      8.3031      2.5067     -0.4793      8.6830    120.4372     22.6153
   405.3000      8.3040      2.4653     -0.4378     11.1970    114.5022     22.1488
   405.4000      8.3040      2.3907     -0.4943     15.7168    116.1469     20.8004
   405.5000      8.3017      2.3299     -0.5967     19.3983    118.1477     19.4603
   405.6000      8.3017      2.3230     -0.6586     19.8187    120.6553     19.3802
   405.7000      8.3017      2.3586     -0.5784     17.6613    125.8863     20.4389
   405.8000      8.3077      2.3871     -0.4853     15.9321    128.8699     21.8473
   405.9000      8.3077      2.3780     -0.5459     16.4834    125.5998     22.9880
   406.0000      8.3072      2.3516     -0.5947     18.0839    120.1256     23.3595
   406.1000      8.3072      2.3342     -0.5430     19.1403    117.0604     22.8570
   406.2000      8.3072      2.3207     -0.5265     19.9576    117.8273     21.8761
   406.3000      8.3043      2.3015     -0.5511     21.1227    118.8525     21.2839
   406.4000      8.3043      2.2877     -0.4962     21.9580    116.2459     21.5604
   406.5000      8.3074      2.2953     -0.5649     21.4963    117.2368     22.0540
   406.6000      8.3074      2.3194     -0.5256     20.0359    126.8637     22.3194
   406.7000      8.3074      2.3292     -0.4562     19.4439    136.1681     22.8343
   406.8000      8.3065      2.3180     -0.5620     20.1205    139.1270     23.9432
   406.9000      8.3065      2.3204     -0.5378     19.9764    139.1221     25.0953
   407.0000      8.3060      2.3493     -0.5091     18.2267    137.0204     25.2144
   407.1000      8.3060      2.3845     -0.4934     16.0892    128.7432     24.3429
   407.2000      8.3060      2.4009     -0.4628     15.0947    117.2773     23.7782
   407.3000      8.3075      2.3874     -0.5073     15.9121    112.7417     24.0697
   407.4000      8.3075      2.3600     -0.4915     17.5774    115.3173     24.5561
   407.5000      8.3082      2.3368     -0.4768     18.9835    120.1618     24.5728
   407.6000      8.3082      2.3201     -0.5096     19.9931    125.6519     24.0413
   407.7000      8.3082      2.3146     -0.5291     20.3248    128.6616     23.2579
   407.8000      8.3054      2.3246     -0.5530     19.7199    126.7290     22.5419
   407.9000      8.3054      2.3341     -0.4724     19.1465    123.8422     21.9267
   408.0000      8.3031      2.3307     -0.5507     19.3534    124.0431     21.9131
   408.1000      8.3031      2.3303     -0.5031     19.3769    124.5160     22.7595
   408.2000      8.3031      2.3410     -0.4361     18.7290    123.9928     23.6185
   408.3000      8.2975      2.3456     -0.4469     18.4482    123.9904     23.7323
   408.4000      8.2975      2.3368     -0.5034     18.9817    124.0932     22.9084
   408.5000      8.3113      2.3282     -0.5442     19.5041    124.1590     21.5902
   408.6000      8.3113      2.3324     -0.5042     19.2494    121.1847     20.8045
   408.7000      8.3113      2.3410     -0.5082     18.7243    116.9192     20.7937
   408.8000      8.3082      2.3414     -0.4953     18.7046    120.4095     21.0097
   408.9000      8.3082      2.3387     -0.4773     18.8652    132.1969     21.6144
   409.0000      8.3071      2.3415     -0.4980     18.6964    143.3798     22.7611
   409.1000      8.3071      2.3488     -0.4307     18.2531    145.3637     23.4373
   409.2000      8.3071      2.3517     -0.4225     18.0804    129.1409     22.8989
   409.3000      8.3077      2.3435     -0.4765     18.5767    122.4172     21.7818
   409.4000      8.3077      2.3338     -0.4631     19.1666    119.9349     20.8959
   409.5000      8.3060      2.3388     -0.5281     18.8579    120.3684     20.4891
