~Version Information
VERS.                      2.0: CWLS Log ASCII Standard - VERSION 2.0
WRAP.                       NO: One line per depth step
~Well Information Block
STRT.FT                 0.0000: 
STOP.FT               968.2500: 
STEP.FT                 0.2500: 
NULL.                -999.2500: 
COMP.          Pioneer Natural Resources: COMPANY
WELL.              Atlas 32-18: WELL
FLD.           Purgatorie River: FIELD
LOC.           1892' FNL & 1456' FEL: LOCATION
PROV.                 Colorado: PROVINCE
CNTY.               Las Animas: COUNTRY
SRVC.                Patterson: SERVICE COMPANY
DATE.          Fri Dec 02 11:37:22 2005: LOG DATE
UWI.                          : UNIQUE WELL ID
~Curve Information Block
DEPT.FT            0 000 00 00: Depth
CCL.                          : Casing Collar Locator
TT3.usec                      : CBL 3' Travel Time
AMP3.mV                       : CBL 3' Amplitude
GR.GAPI                       : Gamma Ray
~Parameter Information Block
~A  Depth       CCL         TT3         AMP3         GR     
# ...
   569.5000      0.0000    743.1768     10.3046    150.8914
   569.7500      0.0000    732.0057     10.1133    153.0015
   570.0000      0.0000    726.6287     10.0305    154.3125
   570.2500      0.0000    724.5340     10.1521    154.2613
   570.5000      0.0000    721.9318     10.3021    151.7129
   570.7500      0.0000    711.8862     10.3126    145.5381
   571.0000      0.0000    684.1777     10.1892    135.6210
   571.2500      0.0000    636.2488     10.0360    123.2997
   571.5000      0.0000    580.3835      9.9214    110.7867
   571.7500      0.0000    525.2128      9.8617    100.1819
   572.0000      0.0000    469.1987      9.8554     92.7876
   572.2500      0.0000    420.7905      9.8973     88.8845
   572.5000      0.0000    391.4959      9.9843     87.7535
   572.7500      0.0000    377.2829     10.1059     87.9453
   573.0000      0.0000    367.4422     10.2423     88.0223
   573.2500      0.0000    358.6931     10.3787     87.4855
   573.5000      0.0000    354.8504     10.4875     86.9999
   573.7500      0.0000    359.1251     10.5181     87.6284
   574.0000      0.0000    370.7024     10.4520     89.9856
   574.2500      0.0000    391.3207     10.3294     94.1411
   574.5000      0.0000    433.2602     10.2025     99.8085
   574.7500      0.0000    507.6991     10.1045    106.2116
   575.0000      0.0000    599.1705     10.0499    112.0200
   575.2500      0.0000    672.2198     10.0405    115.9032
   575.5000      0.0000    709.5121     10.0647    117.2158
   575.7500      0.0000    721.5256     10.1087    116.0809
   576.0000      0.0000    724.0209     10.1742    113.0485
   576.2500      0.0000    724.5855     10.2427    108.9595
   576.5000      0.0000    724.8683     10.2686    104.9975
   576.7500      0.0000    724.8743     10.2620    102.4414
   577.0000      0.0000    724.6295     10.2816    102.0955
   577.2500      0.0000    724.3198     10.3286    103.9216
   577.5000      0.0000    724.0765     10.3496    107.1120
   577.7500      0.0000    723.6577     10.3134    110.4104
   578.0000      0.0000    721.1217     10.2331    112.5005
   578.2500      0.0000    708.9780     10.1559    112.4283
   578.5000      0.0000    671.7120     10.1263    109.9136
   578.7500      0.0000    598.3721     10.1387    105.4713
   579.0000      0.0000    505.1990     10.1585    100.3814
   579.2500      0.0000    428.5591     10.1800     96.4184
   579.5000      0.0000    388.4260     10.2216     95.0551
   579.7500      0.0000    376.0568     10.2702     96.2986
   580.0000      0.0000    372.9424     10.2804     98.2684
   580.2500      0.0000    367.9420     10.2188     98.6038
   580.5000      0.0000    360.9578     10.0974     96.6605
   580.7500      0.0000    357.5404      9.9743     94.0203
   581.0000      0.0000    360.9424      9.8970     92.6907
   581.2500      0.0000    368.7269      9.8554     93.2652
   581.5000      0.0000    376.2661      9.8100     95.0007
   581.7500      0.0000    382.7811      9.7430     96.9664
   582.0000      0.0000    394.6212      9.6723     98.4460
   582.2500      0.0000    422.7827      9.6300     98.6457
   582.5000      0.0000    470.3970      9.6378     96.7870
   582.7500      0.0000    525.0865      9.6983     92.6363
   583.0000      0.0000    575.5595      9.8139     86.8440
   583.2500      0.0000    614.0447     10.0019     80.8911
   583.5000      0.0000    615.6089     10.2730     76.5254
   583.7500      0.0000    560.3157     10.6021     74.7840
   584.0000      0.0000    472.8634     10.9322     75.4431
   584.2500      0.0000    401.8923     11.2141     77.4762
   584.5000      0.0000    369.2045     11.4282     79.8058
   584.7500      0.0000    362.9515     11.5770     81.5792
   585.0000      0.0000    366.1184     11.6831     82.2727
   585.2500      0.0000    370.9865     11.7752     81.9125
   585.5000      0.0000    374.2088     11.8680     80.8973
   585.7500      0.0000    372.8588     11.9738     79.4218
   586.0000      0.0000    365.9872     12.1038     77.3802
   586.2500      0.0000    356.4025     12.2526     74.9105
   586.5000      0.0000    349.4171     12.3987     72.5948
   586.7500      0.0000    349.0748     12.4947     70.8899
   587.0000      0.0000    355.6309     12.4819     69.6248
   587.2500      0.0000    365.4171     12.3418     68.2975
   587.5000      0.0000    373.4571     12.1235     66.7916
   587.7500      0.0000    377.6003     11.9214     65.6383
   588.0000      0.0000    378.9661     11.8131     65.5061
   588.2500      0.0000    378.6929     11.8009     66.5191
   588.5000      0.0000    376.0581     11.8092     68.1504
   588.7500      0.0000    370.5110     11.7489     69.6496
   589.0000      0.0000    365.0897     11.5977     70.4174
   589.2500      0.0000    364.6364     11.4032     70.0693
   589.5000      0.0000    369.4995     11.2103     68.4468
   589.7500      0.0000    375.1902     11.0299     65.9216
   590.0000      0.0000    378.2441     10.8576     63.7318
   590.2500      0.0000    378.1230     10.6867     63.3965
   590.5000      0.0000    374.6046     10.5167     65.2401
   590.7500      0.0000    367.4094     10.3427     67.7892
   591.0000      0.0000    358.4425     10.1569     69.1295
   591.2500      0.0000    351.2013      9.9831     68.7791
   591.5000      0.0000    347.2918      9.8540     67.9275
   591.7500      0.0000    345.7683      9.7670     67.9951
   592.0000      0.0000    345.2489      9.7113     69.3011
   592.2500      0.0000    345.0048      9.6855     70.9154
   592.5000      0.0000    344.7844      9.6752     71.4196
   592.7500      0.0000    344.5062      9.6705     69.9997
   593.0000      0.0000    344.1413      9.6812     67.1681
   593.2500      0.0000    343.7655      9.6978     64.3271
   593.5000      0.0000    343.5344      9.6976     62.4526
   593.7500      0.0000    343.5208      9.6819     61.4401
   594.0000      0.0000    343.6530      9.6445     60.7407
   594.2500      0.0000    343.7954      9.5668     60.0833
   594.5000      0.0000    343.8200      9.4780     59.3687
   594.7500      0.0000    343.6833      9.4322     58.3657
   595.0000      0.0000    343.4840      9.4349     56.8891
   595.2500      0.0000    343.3583      9.4693     55.1877
   595.5000      0.0000    343.3438      9.5369     53.9754
   595.7500      0.0000    343.4377      9.6227     53.9003
   596.0000      0.0000    343.7186      9.6841     54.8324
   596.2500      0.0000    344.2979      9.6960     55.8078
   596.5000      0.0000    345.1505      9.6802     55.9272
   596.7500      0.0000    346.0490      9.6852     55.2399
   597.0000      0.0000    346.6840      9.7325     54.5785
   597.2500      0.0000    346.8535      9.8044     54.6796
   597.5000      0.0000    346.5551      9.8859     55.7000
   597.7500      0.0000    345.9411      9.9665     57.3912
   598.0000      0.0000    345.2238     10.0295     59.2926
   598.2500      0.0000    344.5755     10.0804     60.7715
   598.5000      0.0000    344.0580     10.1595     61.3059
   598.7500      0.0000    343.7134     10.3015     60.8945
   599.0000      0.0000    343.8074     10.4802     59.9355
   599.2500      0.0000    345.2232     10.6110     58.6920
   599.5000      0.0000    349.6859     10.6246     57.2685
   599.7500      0.0000    358.3095     10.5362     56.2621
   600.0000      0.0000    368.9910     10.4287     56.9099
   600.2500      0.0000    377.2757     10.3646     60.0232
   600.5000      0.0000    380.3358     10.3395     64.9844
   600.7500      0.0000    377.7961     10.3344     70.3857
   601.0000      0.0000    370.3942     10.3670     75.6790
   601.2500      0.0000    360.7090     10.4635     81.8288
   601.5000      0.0000    352.6390     10.6309     90.1600
   601.7500      0.0000    348.0942     10.8652    100.5216
   602.0000      0.0000    346.2329     11.1182    110.5563
   602.2500      0.0000    345.7335     11.2774    117.0033
   602.5000      0.0000    345.9632     11.2534    117.9694
   602.7500      0.0000    346.6073     11.0729    114.0306
