~Version Information
VERS.                      2.0: CWLS Log ASCII Standard - VERSION 2.0
WRAP.                       NO: One line per depth step
~Well Information Block
STRT.FT               770.0000: 
STOP.FT              2171.0000: 
STEP.FT                 0.1000: 
NULL.                -999.2500: 
COMP.          Pioneer Natural Resources: COMPANY
WELL.              Kermit 32-7: WELL
FLD.           Purgatoire River: FIELD
LOC.           2002' FNL & 2103' FEL: LOCATION
PROV.                 Colorado: PROVINCE
CNTY.               Las Animas: COUNTRY
SRVC.                Patterson: SERVICE COMPANY
DATE.          Thu Jan 12 03:02:28 2006: LOG DATE
UWI.           05 071 08647 00: UNIQUE WELL ID
~Curve Information Block
DEPT.FT            0 000 00 00: Depth
DCAL.in                       : CDL Caliper
RHOB.g/cc                     : CDL Bulk Density
RHOC.g/cc                     : CDL Density Correction
DPOR.pu                       : CDL Density Porosity
GR.GAPI                       : Gamma Ray
NPOR.pu                       : Neutron Porosity
~Parameter Information Block
~A  Depth       DCAL        RHOB        RHOC        DPOR         GR         NPOR    
# ...
  1048.4000      7.9650      2.5637      0.0488      5.2308    132.3356     30.4744
  1048.5000      7.9428      2.5597      0.0349      5.4703    136.7991     30.1139
  1048.6000      7.9428      2.5686      0.0580      4.9360    136.8527     29.6829
  1048.7000      7.9428      2.5819      0.0662      4.1279    132.1539     29.2870
  1048.8000      7.9630      2.5711      0.0750      4.7804    127.8129     28.7866
  1048.9000      7.9630      2.5200      0.0333      7.8806    125.0370     28.3313
  1049.0000      7.9734      2.4526      0.0032     11.9633    122.0831     28.0500
  1049.1000      7.9734      2.4079     -0.0292     14.6756    120.8856     27.9097
  1049.2000      7.9734      2.4019     -0.0055     15.0341    125.3928     27.9897
  1049.3000      7.9761      2.4297      0.0052     13.3486    133.7976     28.1606
  1049.4000      7.9761      2.4859      0.0491      9.9468    139.8266     28.0489
  1049.5000      7.9287      2.5606      0.1245      5.4193    138.7802     27.5492
  1049.6000      7.9287      2.6271      0.1977      1.3879    134.1263     26.9580
  1049.7000      7.9287      2.6609      0.1928     -0.6616    131.9049     26.3976
  1049.8000      7.9198      2.6578      0.2228     -0.4716    131.6436     25.8112
  1049.9000      7.9198      2.6276      0.1544      1.3599    129.7911     25.3493
  1050.0000      7.9171      2.5877      0.1560      3.7758    124.7555     25.0716
  1050.1000      7.9171      2.5514      0.1008      5.9775    117.9562     24.9332
  1050.2000      7.9171      2.5281      0.0358      7.3904    109.8296     25.0038
  1050.3000      7.9067      2.5206      0.0169      7.8438    101.3376     25.1965
  1050.4000      7.9067      2.5201      0.0307      7.8726     96.6132     25.1169
  1050.5000      7.8901      2.5225      0.0796      7.7249     97.6477     24.4953
  1050.6000      7.8901      2.5372      0.0528      6.8359    101.6647     23.5923
  1050.7000      7.8901      2.5679      0.0946      4.9758    104.1616     22.8335
  1050.8000      7.9254      2.5933      0.1015      3.4365    104.0541     22.6406
  1050.9000      7.9254      2.5942      0.1406      3.3831    103.6891     22.9201
  1051.0000      7.9484      2.5798      0.1395      4.2528    103.6945     22.9728
  1051.1000      7.9484      2.5653      0.1004      5.1311    102.1566     22.6425
  1051.2000      7.9484      2.5486      0.1067      6.1474     97.2952     22.2850
  1051.3000      7.9371      2.5291      0.0597      7.3255     93.0244     22.0142
  1051.4000      7.9371      2.5259      0.0475      7.5185     93.0709     21.9439
  1051.5000      7.9011      2.5511      0.0691      5.9944     94.8635     22.1898
  1051.6000      7.9011      2.5878      0.1291      3.7689     94.0397     22.1470
  1051.7000      7.9011      2.6067      0.1657      2.6223     87.6467     21.2587
  1051.8000      7.8941      2.5989      0.1683      3.0997     78.8572     20.2247
  1051.9000      7.8941      2.5828      0.1286      4.0705     74.1280     19.7255
  1052.0000      7.9128      2.5755      0.1472      4.5179     72.8444     19.4256
  1052.1000      7.9128      2.5746      0.1244      4.5706     70.8780     19.1744
  1052.2000      7.9128      2.5700      0.1091      4.8503     67.9296     19.5518
  1052.3000      7.9255      2.5551      0.1286      5.7544     64.2302     20.6448
  1052.4000      7.9255      2.5460      0.0431      6.3013     60.0242     21.6454
  1052.5000      7.9358      2.5664      0.0993      5.0688     58.2517     22.0099
  1052.6000      7.9358      2.6027      0.1531      2.8648     61.0180     22.0402
  1052.7000      7.9358      2.6316      0.1326      1.1123     63.9697     22.1256
  1052.8000      7.9259      2.6618      0.1366     -0.7166     63.0270     22.4029
  1052.9000      7.9259      2.7018      0.2215     -3.1375     60.8180     22.8702
  1053.0000      7.9239      2.7351      0.2519     -5.1584     59.8506     23.2900
  1053.1000      7.9239      2.7471      0.2409     -5.8842     59.3706     23.3038
  1053.2000      7.9239      2.7342      0.1430     -5.1005     56.2907     22.8720
  1053.3000      7.9107      2.6981      0.1572     -2.9178     49.9819     22.3858
  1053.4000      7.9107      2.6517      0.0943     -0.1025     45.3148     22.0568
  1053.5000      7.9118      2.6126      0.0291      2.2677     45.9722     21.7166
  1053.6000      7.9118      2.5885      0.0185      3.7254     50.6302     21.5329
  1053.7000      7.9118      2.5803      0.0404      4.2222     56.7472     21.8661
  1053.8000      7.9354      2.5883      0.0310      3.7381     62.0444     22.4074
  1053.9000      7.9354      2.6135      0.0284      2.2103     64.4688     22.6789
  1054.0000      7.9340      2.6483      0.0651      0.1018     63.0525     22.6655
  1054.1000      7.9340      2.6717      0.1149     -1.3122     58.2723     22.4603
  1054.2000      7.9340      2.6722      0.1151     -1.3476     53.0673     22.3921
  1054.3000      7.9297      2.6596      0.1196     -0.5802     51.3639     22.8363
  1054.4000      7.9297      2.6470      0.0719      0.1822     53.2988     23.7240
  1054.5000      7.8890      2.6429      0.1412      0.4302     55.8903     24.8699
  1054.6000      7.8890      2.6432      0.0990      0.4115     55.5049     25.9799
  1054.7000      7.8890      2.6383      0.0876      0.7113     53.8523     26.6698
  1054.8000      7.8839      2.6247      0.0913      1.5335     57.8968     26.9000
  1054.9000      7.8839      2.6074      0.0287      2.5791     67.8999     26.8830
  1055.0000      7.9268      2.6035      0.0064      2.8187     77.3294     26.8591
  1055.1000      7.9268      2.6182      0.0352      1.9301     84.1142     27.2175
  1055.2000      7.9268      2.6295      0.1595      1.2428     88.8802     28.0955
  1055.3000      7.9682      2.6312      0.0764      1.1422     92.8737     28.8639
  1055.4000      7.9682      2.6436      0.1101      0.3889    101.5911     29.1969
  1055.5000      7.9373      2.6652      0.1022     -0.9218    117.6997     29.4840
  1055.6000      7.9373      2.6813      0.0484     -1.8966    131.2249     30.0166
  1055.7000      7.9373      2.6860      0.0575     -2.1794    131.8922     30.6939
  1055.8000      7.9374      2.6750      0.0221     -1.5163    125.6501     31.1037
  1055.9000      7.9374      2.6664     -0.0361     -0.9928    122.5308     31.0216
  1056.0000      7.9627      2.6895      0.0026     -2.3967    123.7336     30.9545
  1056.1000      7.9627      2.7366      0.0863     -5.2514    126.0596     31.1887
  1056.2000      7.9627      2.7728      0.0635     -7.4397    128.8758     31.2229
  1056.3000      7.9889      2.7858      0.0338     -8.2307    130.6648     30.7387
  1056.4000      7.9889      2.7826      0.0775     -8.0359    127.3359     29.9084
  1056.5000      7.9626      2.7624      0.0502     -6.8122    119.6301     29.1583
  1056.6000      7.9626      2.7229     -0.0138     -4.4210    112.4603     28.8993
  1056.7000      7.9626      2.6635      0.0112     -0.8155    107.6859     28.9143
  1056.8000      7.9664      2.5911     -0.0231      3.5697    103.7476     28.6009
  1056.9000      7.9664      2.5420     -0.0897      6.5458    100.6479     27.9060
  1057.0000      8.0001      2.5445     -0.0200      6.3913    102.0251     27.1838
  1057.1000      8.0001      2.5799      0.0699      4.2459    109.2838     26.8253
  1057.2000      8.0001      2.6138      0.0961      2.1957    113.8108     26.9783
  1057.3000      8.0363      2.6283      0.1477      1.3144    110.3414     27.0469
  1057.4000      8.0363      2.6324      0.1381      1.0674    103.0577     26.6862
  1057.5000      8.0415      2.6480      0.2138      0.1191     94.8200     26.3404
  1057.6000      8.0415      2.6773      0.2308     -1.6539     87.8900     26.2977
  1057.7000      8.0415      2.7025      0.2518     -3.1846     86.4928     26.6757
  1057.8000      7.8816      2.7062      0.2279     -3.4050     89.7742     27.2659
  1057.9000      7.8816      2.6933      0.1475     -2.6267     91.5270     27.6775
