~Version Information
VERS.                      2.0: CWLS Log ASCII Standard - VERSION 2.0
WRAP.                       NO: One line per depth step
~Well Information Block
STRT.FT                10.0000: 
STOP.FT              1458.0000: 
STEP.FT                 0.1000: 
NULL.                -999.2500: 
COMP.          Pioneer Natural Resources: COMPANY
WELL.            Bordeaux 42-2: WELL
FLD.           Purgatorie River: FIELD
LOC.           1963' FNL & 1148' FEL: LOCATION
PROV.                 Colorado: PROVINCE
CNTY.               Las Animas: COUNTRY
SRVC.                Patterson: SERVICE COMPANY
DATE.          Tue Nov 29 07:11:03 2005: LOG DATE
UWI.                          : UNIQUE WELL ID
~Curve Information Block
DEPT.FT            0 000 00 00: Depth
DCAL.in                       : CDL Caliper
RHOB.g/cc                     : CDL Bulk Density
RHOC.g/cc                     : CDL Density Correction
DPOR.pu                       : CDL Density Porosity
GR.GAPI                       : Gamma Ray
NPOR.pu                       : Neutron Porosity
~Parameter Information Block
~A  Depth       DCAL        RHOB        RHOC        DPOR         GR         NPOR    
# ...
   586.0000      8.1493      2.5988     -0.0462      3.1006    123.4478     23.4867
   586.1000      8.1493      2.5748     -0.0403      4.5585    121.3713     23.2668
   586.2000      8.1493      2.5520     -0.0333      5.9417    122.9691     22.9376
   586.3000      8.1472      2.5362      0.0221      6.8992    126.5101     22.8424
   586.4000      8.1472      2.5219      0.0480      7.7656    128.4401     22.7903
   586.5000      8.1564      2.5059      0.0283      8.7318    127.2503     22.4504
   586.6000      8.1564      2.5008      0.0707      9.0415    124.5649     21.9579
   586.7000      8.1564      2.5068      0.0808      8.6813    123.5014     21.5827
   586.8000      8.1679      2.5209     -0.0212      7.8237    124.4091     21.4095
   586.9000      8.1679      2.5468      0.0964      6.2539    125.3934     21.4205
   587.0000      8.1693      2.5700      0.1115      4.8492    126.2911     21.6555
   587.1000      8.1693      2.5796      0.0914      4.2658    127.8259     22.0263
   587.2000      8.1693      2.5865      0.0802      3.8497    129.6897     22.1444
   587.3000      8.1696      2.5992      0.1118      3.0796    131.5546     22.0118
   587.4000      8.1696      2.6072      0.1255      2.5918    133.0350     22.0552
   587.5000      8.1712      2.5956      0.0894      3.2957    132.2859     22.4481
   587.6000      8.1712      2.5679      0.0301      4.9777    129.5760     22.9208
   587.7000      8.1712      2.5394      0.0330      6.7027    128.7038     23.1235
   587.8000      8.1688      2.5228      0.0022      7.7088    129.8891     23.0584
   587.9000      8.1688      2.5240      0.0213      7.6390    130.2622     22.8857
   588.0000      8.1723      2.5341      0.0698      7.0225    128.4498     22.7546
   588.1000      8.1723      2.5373      0.0766      6.8283    125.6105     22.6872
   588.2000      8.1723      2.5297      0.0523      7.2907    126.2242     22.6127
   588.3000      8.1800      2.5172      0.0440      8.0465    130.9815     22.6587
   588.4000      8.1800      2.5048     -0.0093      8.7979    135.0525     22.7003
   588.5000      8.1876      2.4986     -0.0005      9.1730    136.0458     22.3242
   588.6000      8.1876      2.4962     -0.0057      9.3240    135.1783     21.7411
   588.7000      8.1876      2.4765      0.0197     10.5131    136.0093     21.5874
   588.8000      8.1851      2.4345     -0.0712     13.0627    139.5041     21.8436
   588.9000      8.1851      2.4035     -0.0960     14.9403    140.9730     21.9582
   589.0000      8.1835      2.4016      0.0064     15.0573    138.4066     21.7423
   589.1000      8.1835      2.4039      0.0565     14.9182    136.2173     21.3658
   589.2000      8.1835      2.3955      0.0097     15.4245    137.9670     20.9958
   589.3000      8.2021      2.3891      0.0216     15.8141    143.9819     20.8397
   589.4000      8.2021      2.3889      0.0457     15.8255    153.0615     21.0455
   589.5000      8.2394      2.3902      0.0704     15.7445    160.6216     21.4175
   589.6000      8.2394      2.3956      0.0067     15.4201    161.8996     21.6897
   589.7000      8.2394      2.4024      0.0895     15.0053    158.1620     21.9325
   589.8000      8.2621      2.4096      0.0090     14.5675    155.8998     22.1769
   589.9000      8.2621      2.4336      0.0706     13.1121    157.6483     22.2325
   590.0000      8.2741      2.4744      0.1346     10.6438    158.5553     22.2174
   590.1000      8.2741      2.5089      0.1655      8.5509    156.2757     22.4559
   590.2000      8.2741      2.5237      0.1384      7.6520    154.6492     22.9216
   590.3000      8.2525      2.5208      0.1560      7.8314    155.8765     23.4432
   590.4000      8.2525      2.5104      0.1175      8.4594    158.9188     23.8219
   590.5000      8.2198      2.5034      0.1544      8.8874    161.1180     23.9815
   590.6000      8.2198      2.5041      0.1153      8.8430    160.1346     24.1432
   590.7000      8.2198      2.5190      0.1377      7.9382    157.7078     24.3583
   590.8000      8.1933      2.5410      0.1851      6.6041    156.9845     24.4219
   590.9000      8.1933      2.5468      0.1374      6.2525    157.5217     24.3141
   591.0000      8.1939      2.5262      0.1055      7.5012    157.0212     24.0706
   591.1000      8.1939      2.4897      0.0428      9.7162    155.7459     23.8315
   591.2000      8.1939      2.4556      0.0142     11.7790    154.6265     23.8232
   591.3000      8.2252      2.4361     -0.0071     12.9640    153.0364     24.0716
   591.4000      8.2252      2.4369     -0.0511     12.9173    151.4342     24.5716
   591.5000      8.2021      2.4574      0.0100     11.6717    149.2614     25.0963
   591.6000      8.2021      2.4811      0.0066     10.2372    146.8118     25.2639
   591.7000      8.2021      2.4854      0.0369      9.9756    149.1940     25.2144
   591.8000      8.1988      2.4745     -0.0210     10.6384    157.4374     25.3411
   591.9000      8.1988      2.4752      0.0050     10.5934    165.1469     25.6850
   592.0000      8.1955      2.4881      0.0244      9.8095    169.0855     25.8923
   592.1000      8.1955      2.4910      0.0377      9.6387    168.9200     25.8337
   592.2000      8.1955      2.4822     -0.0123     10.1718    163.1109     25.8563
   592.3000      8.2004      2.4717      0.0214     10.8073    153.8620     26.0715
   592.4000      8.2004      2.4546     -0.0222     11.8447    146.8239     26.1337
   592.5000      8.2028      2.4315     -0.0241     13.2400    144.9422     25.8603
   592.6000      8.2028      2.4189     -0.0565     14.0071    146.2218     25.6235
   592.7000      8.2028      2.4279     -0.0342     13.4624    147.6769     25.7270
   592.8000      8.2014      2.4559     -0.0117     11.7659    148.1915     25.8566
   592.9000      8.2014      2.4846      0.0431     10.0250    148.8431     25.7315
   593.0000      8.2105      2.4945      0.0208      9.4218    150.5171     25.3881
   593.1000      8.2105      2.4841      0.0528     10.0544    151.1653     24.9656
   593.2000      8.2105      2.4655      0.0106     11.1825    148.3419     24.6097
   593.3000      8.2069      2.4574     -0.0342     11.6703    143.8847     24.3672
   593.4000      8.2069      2.4640      0.0258     11.2734    140.6130     24.2018
   593.5000      8.2148      2.4671      0.0496     11.0851    139.6002     24.2430
   593.6000      8.2148      2.4594      0.0156     11.5509    141.6796     24.4916
   593.7000      8.2148      2.4521      0.0251     11.9963    145.3971     24.4336
   593.8000      8.2117      2.4468      0.0396     12.3135    147.5246     23.7000
   593.9000      8.2117      2.4309     -0.0081     13.2800    147.1550     22.7161
   594.0000      8.2092      2.3915      0.0339     15.6671    145.9459     22.0846
   594.1000      8.2092      2.3290      0.0169     19.4545    144.4262     21.8295
   594.2000      8.2092      2.2646     -0.0311     23.3562    142.8392     21.6193
   594.3000      8.2105      2.2172     -0.0040     26.2308    143.0462     21.2989
   594.4000      8.2105      2.1839     -0.0415     28.2504    144.9408     20.9331
   594.5000      8.2159      2.1546     -0.0099     30.0218    145.8617     20.7360
   594.6000      8.2159      2.1216      0.0147     32.0264    144.4149     20.7626
   594.7000      8.2159      2.0904     -0.0135     33.9145    141.9198     20.8022
   594.8000      8.2261      2.0792      0.0189     34.5938    141.7769     20.6785
   594.9000      8.2261      2.0916      0.0442     33.8445    145.6973     20.4444
   595.0000      8.2358      2.1200      0.0649     32.1203    149.8017     20.4752
   595.1000      8.2358      2.1581      0.0426     29.8145    150.2391     20.9257
   595.2000      8.2358      2.1877      0.0626     28.0159    148.8138     21.2970
   595.3000      8.2240      2.1910      0.0615     27.8199    146.1996     21.1327
   595.4000      8.2240      2.1823     -0.0147     28.3445    141.9567     20.5913
   595.5000      8.2245      2.1791      0.1423     28.5385    138.2970     19.9937
