~Version Information
VERS.                      2.0: CWLS Log ASCII Standard - VERSION 2.0
WRAP.                       NO: One line per depth step
~Well Information Block
STRT.FT               240.0000: 
STOP.FT               940.5000: 
STEP.FT                 0.1000: 
NULL.                -999.2500: 
COMP.          Pioneer Natural Resources: COMPANY
WELL.               Ernie 31-6: WELL
FLD.           Purgatoire River: FIELD
LOC.           681' FNL & 2138' FEL: LOCATION
CNTY.               Las Animas: COUNTY
SRVC.                Patterson: SERVICE COMPANY
DATE.          Tue May 30 07:05:10 2006: LOG DATE
UWI.           05 071 08716 00: UNIQUE WELL ID
STAT.                 Colorado: STATE
~Curve Information Block
DEPT.FT            0 000 00 00: Depth
DCAL.in                       : CDL Caliper
RHOB.g/cc                     : CDL Bulk Density
RHOC.g/cc                     : CDL Density Correction
DPOR.pu                       : CDL Density Porosity
GR.GAPI                       : Gamma Ray
NPOR.pu                       : Neutron Porosity
~Parameter Information Block
~A  Depth       DCAL        RHOB        RHOC        DPOR         GR         NPOR    
# ...
   931.2000      7.8218      2.6450      0.0420      0.3022   -999.2500   -999.2500
   931.3000      7.8203      2.6550      0.0464     -0.3011   -999.2500   -999.2500
   931.4000      7.8203      2.6448      0.0346      0.3152   -999.2500   -999.2500
   931.5000      7.8198      2.6233      0.0161      1.6186   -999.2500   -999.2500
   931.6000      7.8198      2.6030      0.0313      2.8471   -999.2500   -999.2500
   931.7000      7.8198      2.5844      0.0267      3.9768   -999.2500   -999.2500
   931.8000      7.8202      2.5738     -0.0100      4.6204   -999.2500   -999.2500
   931.9000      7.8202      2.5788     -0.0021      4.3147   -999.2500   -999.2500
   932.0000      7.8213      2.5904      0.0289      3.6124   -999.2500   -999.2500
   932.1000      7.8213      2.5918      0.0249      3.5256   -999.2500   -999.2500
   932.2000      7.8213      2.5756      0.0246      4.5077   -999.2500   -999.2500
   932.3000      7.8213      2.5575     -0.0224      5.6037   -999.2500   -999.2500
   932.4000      7.8213      2.5550      0.0286      5.7598   -999.2500   -999.2500
   932.5000      7.8224      2.5580      0.0228      5.5778   -999.2500   -999.2500
   932.6000      7.8224      2.5537      0.0327      5.8379   -999.2500   -999.2500
   932.7000      7.8224      2.5451      0.0057      6.3582   -999.2500   -999.2500
   932.8000      7.8207      2.5386      0.0172      6.7540   -999.2500   -999.2500
   932.9000      7.8207      2.5324      0.0343      7.1248   -999.2500   -999.2500
   933.0000      7.8201      2.5163      0.0661      8.1059   -999.2500   -999.2500
   933.1000      7.8201      2.4860      0.0117      9.9407   -999.2500   -999.2500
   933.2000      7.8201      2.4583     -0.0209     11.6178   -999.2500   -999.2500
   933.3000      7.8187      2.4488      0.0521     12.1968   -999.2500   -999.2500
   933.4000      7.8187      2.4520      0.0555     11.9990   -999.2500   -999.2500
   933.5000      7.7912      2.4603      0.0536     11.4983   -999.2500   -999.2500
   933.6000      7.7912      2.4716      0.0968     10.8130   -999.2500   -999.2500
   933.7000      7.7912      2.4825      0.1034     10.1496   -999.2500   -999.2500
   933.8000      7.7860      2.4888      0.0846      9.7669   -999.2500   -999.2500
   933.9000      7.7860      2.4857      0.1051      9.9568   -999.2500   -999.2500
   934.0000      7.7858      2.4719      0.0835     10.7950   -999.2500   -999.2500
   934.1000      7.7858      2.4501      0.0654     12.1154   -999.2500   -999.2500
   934.2000      7.7858      2.4274      0.0258     13.4903   -999.2500   -999.2500
   934.3000      7.7855      2.4159     -0.0228     14.1855   -999.2500   -999.2500
   934.4000      7.7855      2.4178      0.0137     14.0716   -999.2500   -999.2500
   934.5000      7.7858      2.4248      0.0385     13.6467   -999.2500   -999.2500
   934.6000      7.7858      2.4380      0.0387     12.8494   -999.2500   -999.2500
   934.7000      7.7858      2.4594      0.0560     11.5544   -999.2500   -999.2500
   934.8000      7.7864      2.4753      0.0739     10.5874   -999.2500   -999.2500
   934.9000      7.7864      2.4736      0.0748     10.6887   -999.2500   -999.2500
   935.0000      7.7877      2.4624      0.0393     11.3686   -999.2500   -999.2500
   935.1000      7.7877      2.4570      0.0504     11.6947   -999.2500   -999.2500
   935.2000      7.7877      2.4638      0.0144     11.2873   -999.2500   -999.2500
   935.3000      7.7864      2.4861      0.0368      9.9347   -999.2500   -999.2500
   935.4000      7.7864      2.5161      0.0498      8.1137   -999.2500   -999.2500
   935.5000      7.7855      2.5403      0.0109      6.6464   -999.2500   -999.2500
   935.6000      7.7855      2.5630      0.0609      5.2735   -999.2500   -999.2500
   935.7000      7.7855      2.5877      0.0924      3.7761   -999.2500   -999.2500
   935.8000      7.7858      2.5969      0.1633      3.2153   -999.2500   -999.2500
   935.9000      7.7858      2.5794      0.1092      4.2774   -999.2500   -999.2500
   936.0000      7.7890      2.5606      0.0190      5.4181   -999.2500   -999.2500
   936.1000      7.7890      2.5647      0.0597      5.1707   -999.2500   -999.2500
   936.2000      7.7890      2.5778      0.0773      4.3735   -999.2500   -999.2500
   936.3000      7.7897      2.5816      0.0666      4.1440   -999.2500   -999.2500
   936.4000      7.7897      2.5768      0.0417      4.4334   -999.2500   -999.2500
   936.5000      7.7804      2.5710      0.0865      4.7861   -999.2500   -999.2500
   936.6000      7.7804      2.5690      0.0672      4.9081   -999.2500   -999.2500
   936.7000      7.7804      2.5707      0.0708      4.8079   -999.2500   -999.2500
   936.8000      7.7184      2.5646      0.0884      5.1770   -999.2500   -999.2500
   936.9000      7.7184      2.5462      0.0247      6.2923   -999.2500   -999.2500
   937.0000      7.7043      2.5299      0.0157      7.2809   -999.2500   -999.2500
   937.1000      7.7043      2.5272      0.0242      7.4426   -999.2500   -999.2500
   937.2000      7.7043      2.5379      0.0305      6.7954   -999.2500   -999.2500
   937.3000      7.7029      2.5530      0.0254      5.8776   -999.2500   -999.2500
   937.4000      7.7029      2.5643      0.0746      5.1918   -999.2500   -999.2500
   937.5000      7.7064      2.5940      0.0248      3.3926   -999.2500   -999.2500
   937.6000      7.7064      2.6907      0.0478     -2.4639   -999.2500   -999.2500
   937.7000      7.7064      2.7294      0.0900     -4.8122   -999.2500   -999.2500
   937.8000      7.7077      2.2802      0.4746     22.4116   -999.2500   -999.2500
   937.9000      7.7077      1.2910      0.0150     82.3633   -999.2500   -999.2500
   938.0000      7.0023      0.4367      0.0150    134.1366   -999.2500   -999.2500
   938.1000      7.0023      0.0828   -999.2500    155.5871   -999.2500   -999.2500
   938.2000      7.0023      0.0085   -999.2500    160.0892   -999.2500   -999.2500
   938.3000      1.6895      0.0005   -999.2500    160.5780   -999.2500   -999.2500
   938.4000      1.6895      0.0000   -999.2500    160.6061   -999.2500   -999.2500
   938.5000      0.9702      0.0000   -999.2500    160.6061   -999.2500   -999.2500
   938.6000      0.9702   -999.2500   -999.2500   -999.2500   -999.2500   -999.2500
   938.7000      0.9702   -999.2500   -999.2500   -999.2500   -999.2500   -999.2500
   938.8000   -999.2500   -999.2500   -999.2500   -999.2500   -999.2500   -999.2500
   938.9000   -999.2500   -999.2500   -999.2500   -999.2500   -999.2500   -999.2500
   939.0000   -999.2500   -999.2500   -999.2500   -999.2500   -999.2500   -999.2500
   939.1000   -999.2500   -999.2500   -999.2500   -999.2500   -999.2500   -999.2500
   939.2000   -999.2500   -999.2500   -999.2500   -999.2500   -999.2500   -999.2500
   939.3000   -999.2500   -999.2500   -999.2500   -999.2500   -999.2500   -999.2500
   939.4000   -999.2500   -999.2500   -999.2500   -999.2500   -999.2500   -999.2500
   939.5000   -999.2500   -999.2500   -999.2500   -999.2500   -999.2500   -999.2500
   939.6000   -999.2500   -999.2500   -999.2500   -999.2500   -999.2500   -999.2500
   939.7000   -999.2500   -999.2500   -999.2500   -999.2500   -999.2500   -999.2500
   939.8000   -999.2500   -999.2500   -999.2500   -999.2500   -999.2500   -999.2500
   939.9000   -999.2500   -999.2500   -999.2500   -999.2500   -999.2500   -999.2500
   940.0000   -999.2500   -999.2500   -999.2500   -999.2500   -999.2500   -999.2500
   940.1000   -999.2500   -999.2500   -999.2500   -999.2500   -999.2500   -999.2500
   940.2000   -999.2500   -999.2500   -999.2500   -999.2500   -999.2500   -999.2500
   940.3000   -999.2500   -999.2500   -999.2500   -999.2500   -999.2500   -999.2500
   940.4000   -999.2500   -999.2500   -999.2500   -999.2500   -999.2500   -999.2500
   940.5000   -999.2500   -999.2500   -999.2500   -999.2500   -999.2500   -999.2500
