~Version Information
 VERS.                                  2.0 : CWLS LAS VERSION
 WRAP.                                   NO : WRAPING MODE
 SWARE .                 MController 2.5.0J : SOFTWARE VERSION
~Well Information
 WELL.                          Rolls 14-14 : WELL
 COMP.    Pioneer Natural Resources USA Inc : COMPANY
 FLD.                      Purgatoire River : FIELD
 LOC.                SW/SW Sec 14 T32S R66W : LOCATION
 DATE.                       07/31-08/01/05 : DATE(S) LOGGED
 SRVC.       BLANCO Geological Services LLC : SERVICE COMPANY
 STAT.                                   CO : STATE
 CNTY.                           Las Animas : COUNTY
 CTRY.                                  USA : COUNTRY
 API.                       05-071-08455-00 : API NUMBER
 STRT.FT                             831.00 : START DEPTH
 STOP.FT                            2365.00 : STOP DEPTH
 STEP.FT                               1.00 : DEPTH INCREMENT
 NULL.                                -9999 : NULL VALUE
~Curve information
 DEPTH.FT                                   :
 ROP.MIN/FT                                 :
 GAS.UNITS                                  :
~ASCII Log data
# ...
      2231.0         0.17        812.3 
      2232.0         0.13        798.1 
      2233.0         0.27        793.3 
      2234.0         0.23        791.1 
      2235.0         0.23        788.8 
      2236.0         0.25        779.0 
      2237.0         0.20        780.6 
      2238.0         0.20        792.3 
      2239.0         0.23        807.6 
      2240.0         0.20        816.1 
      2241.0         0.23        820.9 
      2242.0         0.20        823.8 
      2243.0         0.23        825.3 
      2244.0         0.27        826.3 
      2245.0         0.20        824.4 
      2246.0         3.02        822.5 
      2247.0         0.37        669.2 
      2248.0         0.37        782.2 
      2249.0         0.33        865.3 
      2250.0         0.30        998.6 
      2251.0         0.32       1131.6 
      2252.0         0.33       1218.6 
      2253.0         0.23       1245.2 
      2254.0         0.27       1246.5 
      2255.0         0.23       1193.8 
      2256.0         0.23       1142.4 
      2257.0         0.20       1085.0 
      2258.0         0.23       1023.4 
      2259.0         0.20        973.9 
      2260.0         0.27        932.3 
      2261.0         0.23        896.4 
      2262.0         0.27        850.4 
      2263.0         0.23        824.1 
      2264.0         0.17        805.7 
      2265.0         0.18        802.5 
      2266.0         0.20        800.9 
      2267.0         0.17        799.0 
      2268.0         0.20        797.4 
      2269.0         0.23        792.7 
      2270.0         0.17        786.9 
      2271.0         0.20        783.1 
      2272.0         0.20        774.2 
      2273.0         0.20        767.3 
      2274.0         0.20        758.7 
      2275.0         0.23        752.3 
      2276.0         3.82        744.7 
      2277.0         0.40        812.0 
      2278.0         0.38        958.3 
      2279.0         0.33       1129.4 
      2280.0         0.27       1233.5 
      2281.0         0.30       1329.4 
      2282.0         0.30       1379.8 
      2283.0         0.30       1382.0 
      2284.0         0.27       1358.2 
      2285.0         0.23       1266.8 
      2286.0         0.23       1225.6 
      2287.0         0.20       1139.2 
      2288.0         0.30       1095.1 
      2289.0         0.20        983.1 
      2290.0         0.23        914.2 
      2291.0         0.25        880.6 
      2292.0         0.20        841.5 
      2293.0         0.20        820.3 
      2294.0         0.20        804.4 
      2295.0         0.23        802.2 
      2296.0         0.20        798.1 
      2297.0         0.23        796.1 
      2298.0         0.20        793.9 
      2299.0         0.20        786.0 
      2300.0         0.23        778.7 
      2301.0         0.20        768.2 
      2302.0         0.23        760.3 
      2303.0         0.27        750.4 
      2304.0         0.27        737.1 
      2305.0         0.32        731.1 
      2306.0         3.62        761.9 
      2307.0         0.37        873.0 
      2308.0         0.33        956.1 
      2309.0         0.30       1026.6 
      2310.0         0.30       1098.0 
      2311.0         0.30       1131.0 
      2312.0         0.27       1131.6 
      2313.0         0.23       1097.7 
      2314.0         0.23       1048.2 
      2315.0         0.23       1013.6 
      2316.0         0.27        960.2 
      2317.0         0.25        911.4 
      2318.0         0.20        857.1 
      2319.0         0.30        831.4 
      2320.0         0.27        796.8 
      2321.0         0.30        779.6 
      2322.0         0.27        778.7 
      2323.0         0.30        781.5 
      2324.0         0.27        779.6 
      2325.0         0.30        777.7 
      2326.0         0.27        766.3 
      2327.0         0.30        758.7 
      2328.0         0.33        743.1 
      2329.0         0.35        729.8 
      2330.0         0.37        717.1 
      2331.0         0.27        711.1 
      2332.0         0.27        703.8 
      2333.0         0.27        700.3 
      2334.0         0.30        694.3 
      2335.0         0.37        684.7 
      2336.0         4.52       1010.7 
      2337.0         0.32       1001.5 
      2338.0         0.27        911.4 
      2339.0         0.30        892.6 
      2340.0         0.23        869.5 
      2341.0         0.23        863.4 
      2342.0         0.20        856.1 
      2343.0         0.33        838.0 
      2344.0         0.23        809.8 
      2345.0         0.27        790.8 
      2346.0         0.27        760.3 
      2347.0         0.37        724.4 
      2348.0         0.23        742.8 
      2349.0         0.28        760.6 
      2350.0         0.37        767.9 
      2351.0         0.30        768.2 
      2352.0         0.37        762.5 
      2353.0         0.33        753.9 
      2354.0         0.23        746.0 
      2355.0         0.27        738.1 
      2356.0         0.27        728.2 
      2357.0         0.37        719.7 
      2358.0         0.27        710.5 
      2359.0         0.23        703.5 
      2360.0         0.28        701.9 
      2361.0         0.27        700.0 
      2362.0         0.33        702.8 
      2363.0         0.33        697.4 
      2364.0         0.40        697.1 
      2365.0         0.23        689.5 
