~Version Information
 VERS.                                  2.0 : CWLS LAS VERSION
 WRAP.                                   NO : WRAPING MODE
 SWARE .                 MController 2.5.0N : SOFTWARE VERSION
~Well Information
 WELL.                     Challenger 31-29 : WELL
 COMP.   Pioneer Natural Resources USA, Inc : COMPANY
 FLD.                      Purgatoire River : FIELD
 LOC.               NW/NE Sec 29 T33S  R65W : LOCATION
 DATE.                             09/15/05 : DATE(S) LOGGED
 SRVC.       BLANCO Geological Services LLC : SERVICE COMPANY
 STAT.                                   CO : STATE
 CNTY.                           Las Animas : COUNTY
 CTRY.                                  USA : COUNTRY
 API.                       05-071-08514-00 : API NUMBER
 STRT.FT                             396.00 : START DEPTH
 STOP.FT                            1345.00 : STOP DEPTH
 STEP.FT                               1.00 : DEPTH INCREMENT
 NULL.                                -9999 : NULL VALUE
~Curve information
 DEPTH.FT                                   :
 ROP.MIN/FT                                 :
 GAS.UNITS                                  :
~ASCII Log data
       396.0     -9999.00          3.9 
       397.0         2.78          4.5 
       398.0         0.30          3.5 
       399.0         0.63          4.1 
       400.0         0.30          3.6 
       401.0         0.95          3.9 
       402.0         0.07          3.2 
       403.0         0.27          3.6 
       404.0         0.37          3.6 
       405.0         0.17          3.3 
       406.0         0.13          3.4 
       407.0         0.10          3.1 
       408.0         0.13          3.1 
       409.0         0.30          3.1 
       410.0         0.20          3.6 
       411.0         0.20          2.7 
       412.0         0.10          2.7 
       413.0         0.10          3.0 
       414.0         0.10          2.5 
       415.0         0.10          3.0 
       416.0         1.85          3.3 
       417.0         0.53          3.3 
       418.0         0.20          3.3 
       419.0         0.27          3.2 
       420.0         0.27          2.8 
       421.0         0.20          3.0 
       422.0         0.13          3.5 
       423.0         0.27          2.9 
       424.0         0.18          3.0 
       425.0         0.20          2.8 
       426.0         0.23          2.6 
       427.0         0.17          3.0 
       428.0         0.17          2.9 
       429.0         0.17          2.6 
       430.0         0.20          2.9 
       431.0         0.17          3.3 
       432.0         0.17          3.1 
       433.0         0.13          2.8 
       434.0         0.17          3.0 
       435.0         0.17          3.4 
       436.0         0.20          3.1 
       437.0         0.20          3.0 
       438.0         0.10          3.0 
       439.0         0.27          2.5 
       440.0         0.13          2.8 
       441.0         0.17          2.8 
       442.0         0.17          2.3 
       443.0         0.18          3.1 
       444.0         0.23          3.0 
       445.0         0.20          2.5 
       446.0         1.30          3.2 
       447.0         0.80          3.1 
       448.0         0.30          2.8 
       449.0         0.27          2.5 
       450.0         0.22          2.3 
       451.0         0.20          2.5 
       452.0         0.20          2.3 
       453.0         0.17          2.2 
       454.0         0.13          2.4 
       455.0         0.13          2.2 
       456.0         0.17          2.2 
       457.0         0.20          2.8 
       458.0         0.17          2.1 
       459.0         0.20          2.5 
       460.0         0.17          2.2 
       461.0         0.17          2.6 
       462.0         0.20          2.3 
       463.0         0.17          2.5 
       464.0         0.17          2.2 
       465.0         0.17          2.2 
       466.0         0.17          2.0 
       467.0         0.17          2.6 
       468.0         0.13          2.6 
       469.0         0.17          2.7 
       470.0         0.15          2.7 
       471.0         0.17          2.0 
       472.0         0.13          2.0 
       473.0         0.23          2.5 
       474.0         0.17          2.5 
       475.0         0.13          2.5 
       476.0         1.43          9.5 
       477.0         0.23          8.8 
       478.0         0.33          5.9 
       479.0         0.27          3.5 
       480.0         0.28          2.4 
       481.0         0.20          1.9 
       482.0         0.23          2.4 
       483.0         0.20          2.3 
       484.0         0.17          2.5 
       485.0         0.13          2.5 
       486.0         0.17          2.6 
       487.0         0.17          2.6 
       488.0         0.17          2.6 
       489.0         0.17          2.1 
       490.0         0.17          2.0 
       491.0         0.17          2.0 
       492.0         0.10          2.3 
       493.0         0.20          2.3 
       494.0        14.92          2.2 
       495.0         0.43          1.8 
       496.0         0.30          1.9 
       497.0         0.17          1.9 
       498.0         0.27          2.5 
       499.0         0.23          1.6 
       500.0         0.20          1.6 
       501.0         0.17          3.3 
       502.0         0.20          3.8 
       503.0         0.40          3.9 
       504.0         0.25          2.7 
       505.0         0.10          2.7 
       506.0         0.90          3.7 
       507.0         0.17          3.9 
       508.0         0.27          3.7 
       509.0         0.27          3.6 
       510.0         0.23          2.5 
       511.0         0.27          2.7 
       512.0         0.20          2.6 
       513.0         0.20          2.0 
       514.0         0.13          1.3 
       515.0         0.13          1.5 
       516.0         0.20          1.3 
       517.0         0.20          0.9 
       518.0         0.22          1.2 
       519.0         0.23          1.3 
       520.0         0.20          1.3 
       521.0         0.20          0.5 
       522.0         0.17          0.9 
       523.0         0.20          1.5 
       524.0         0.20          0.7 
       525.0         0.17          0.7 
       526.0         0.13          1.5 
       527.0         0.20          0.9 
       528.0         0.20          1.4 
       529.0         0.20          1.4 
       530.0         0.20          1.3 
       531.0         0.17          1.3 
       532.0         0.20          0.7 
       533.0         0.20          0.7 
       534.0         0.17          0.7 
       535.0         0.28          1.7 
       536.0         1.87          4.1 
       537.0         0.13          4.1 
       538.0         0.27          2.9 
       539.0         0.23          2.4 
       540.0         0.23          1.7 
       541.0         0.20          0.8 
       542.0         0.20          1.5 
       543.0         0.25          1.2 
       544.0         0.20          1.3 
       545.0         0.20          1.1 
       546.0         0.17          1.3 
       547.0         0.20          1.4 
       548.0         0.20          1.3 
       549.0         0.20          0.8 
       550.0         0.17          0.8 
       551.0         0.20          1.0 
       552.0         0.20          0.9 
       553.0         0.20          1.0 
       554.0         0.20          1.0 
       555.0         0.17          1.5 
       556.0         0.20          0.6 
       557.0         0.17          0.9 
       558.0         0.20          1.4 
       559.0         0.20          1.4 
       560.0         0.22          1.4 
       561.0         0.20          1.5 
       562.0         0.17          1.6 
       563.0         0.20          1.6 
       564.0         0.23          1.5 
       565.0         0.27          1.4 
       566.0         1.20          2.1 
       567.0         0.33          2.7 
       568.0         0.30          2.4 
       569.0         0.55          1.9 
       570.0         0.27          1.2 
       571.0         0.20          1.3 
       572.0         0.20          0.3 
       573.0         0.17          1.1 
       574.0         0.23          0.9 
       575.0         0.20          0.2 
       576.0         0.20          1.2 
       577.0         0.20          1.7 
       578.0         0.17          1.2 
       579.0         0.20          1.5 
       580.0         0.17          1.5 
       581.0         0.23          1.3 
       582.0         0.23          1.0 
       583.0         0.23          0.5 
       584.0         0.20          0.9 
       585.0         0.22         10.8 
       586.0         0.27         83.3 
       587.0         0.23         48.7 
       588.0         0.20         19.6 
       589.0         0.23          6.0 
       590.0         0.17          3.5 
       591.0         0.23          1.9 
       592.0         0.23          1.1 
       593.0         0.20          0.9 
       594.0         0.20          0.9 
       595.0         0.23          1.1 
