~Version Information
VERS.                      2.0: CWLS Log ASCII Standard - VERSION 2.0
WRAP.                       NO: One line per depth step
~Well Information Block
STRT.FT               460.0000: 
STOP.FT              1509.0000: 
STEP.FT                 0.2500: 
NULL.                -999.2500: 
COMP.          Pioneer Natural Resources: COMPANY
WELL.           Amore 32-09 Tr: WELL
FLD.           Purgatoire River: FIELD
LOC.           1941' FNL & 2297' FEL: LOCATION
PROV.                 Colorado: PROVINCE
CNTY.               Las Animas: COUNTRY
SRVC.                Patterson: SERVICE COMPANY
DATE.          Mon Nov 14 11:07:52 2005: LOG DATE
UWI.           05 071 08584 00: UNIQUE WELL ID
~Curve Information Block
DEPT.FT            0 000 00 00: Depth
SN.Ohm-m                      : IEL Short Normal
SP.mV                         : IEL Spontaneous Potential
DIR.Ohm-m                     : IEL Induction Resistivity
GR.GAPI                       : Gamma Ray
~Parameter Information Block
~A  Depth        SN          SP         DIR          GR     
# ...
   862.0000   2000.0000   2000.0000     16.5649    153.0641
   862.2500   2000.0000   2000.0000     16.7485    150.7495
   862.5000   2000.0000   2000.0000     16.9889    144.8882
   862.7500   2000.0000   2000.0000     17.3049    139.4535
   863.0000   2000.0000   2000.0000     17.7040    129.6114
   863.2500   2000.0000   2000.0000     18.1860    122.9031
   863.5000   2000.0000   2000.0000     18.7548    114.8570
   863.7500   2000.0000   2000.0000     19.4269    111.8162
   864.0000   2000.0000   2000.0000     20.2347    111.1077
   864.2500   2000.0000   2000.0000     21.2226    112.7335
   864.5000   2000.0000   2000.0000     22.4382    117.0103
   864.7500   2000.0000   2000.0000     23.9165    120.2722
   865.0000   2000.0000   2000.0000     25.6535    124.2417
   865.2500   2000.0000   2000.0000     27.5756    125.2880
   865.5000   2000.0000   2000.0000     29.5178    123.2158
   865.7500   2000.0000   2000.0000     31.2442    119.3909
   866.0000   2000.0000   2000.0000     32.5415    111.4440
   866.2500   2000.0000   2000.0000     33.3528    106.0542
   866.5000   2000.0000   2000.0000     33.8308     99.8403
   866.7500   2000.0000   2000.0000     34.2418     97.2998
   867.0000   2000.0000   2000.0000     34.8028     95.1500
   867.2500   2000.0000   2000.0000     35.5788     94.2160
   867.5000   2000.0000   2000.0000     36.4874     93.1707
   867.7500   2000.0000   2000.0000     37.3816     92.8853
   868.0000   2000.0000   2000.0000     38.1486     93.5024
   868.2500   2000.0000   2000.0000     38.7463     94.5701
   868.5000   2000.0000   2000.0000     39.1701     96.2727
   868.7500   2000.0000   2000.0000     39.4053     96.7484
   869.0000   2000.0000   2000.0000     39.4227     95.9909
   869.2500   2000.0000   2000.0000     39.2150     94.9754
   869.5000   2000.0000   2000.0000     38.8318     94.0746
   869.7500   2000.0000   2000.0000     38.3797     94.4222
   870.0000   2000.0000   2000.0000     37.9856     96.4239
   870.2500   2000.0000   2000.0000     37.7498     98.4913
   870.5000   2000.0000   2000.0000     37.7139    102.1269
   870.7500   2000.0000   2000.0000     37.8582    104.5059
   871.0000   2000.0000   2000.0000     38.1189    107.1198
   871.2500   2000.0000   2000.0000     38.4079    107.6785
   871.5000   2000.0000   2000.0000     38.6347    106.1709
   871.7500   2000.0000   2000.0000     38.7415    103.7195
   872.0000   2000.0000   2000.0000     38.7348     98.9747
   872.2500   2000.0000   2000.0000     38.6793     96.0558
   872.5000   2000.0000   2000.0000     38.6496     93.4433
   872.7500   2000.0000   2000.0000     38.6810     93.2583
   873.0000   2000.0000   2000.0000     38.7633     95.1247
   873.2500   2000.0000   2000.0000     38.8710     97.2595
   873.5000   2000.0000   2000.0000     38.9922    100.3663
   873.7500   2000.0000   2000.0000     39.1196    101.5161
   874.0000   2000.0000   2000.0000     39.2249    101.0257
   874.2500   2000.0000   2000.0000     39.2515     99.3919
   874.5000   2000.0000   2000.0000     39.1497     96.4475
   874.7500   2000.0000   2000.0000     38.9180     95.3293
   875.0000   2000.0000   2000.0000     38.6085     96.2003
   875.2500   2000.0000   2000.0000     38.2849     98.2667
   875.5000   2000.0000   2000.0000     37.9699    101.8104
   875.7500   2000.0000   2000.0000     37.6235    103.3500
   876.0000   2000.0000   2000.0000     37.1703    103.6381
   876.2500   2000.0000   2000.0000     36.5577    102.7612
   876.5000   2000.0000   2000.0000     35.7998    100.9703
   876.7500   2000.0000   2000.0000     34.9725    100.2062
   877.0000   2000.0000   2000.0000     34.1780    100.7747
   877.2500   2000.0000   2000.0000     33.5129    102.5370
   877.5000   2000.0000   2000.0000     33.0448    106.6126
   877.7500   2000.0000   2000.0000     32.7850    109.4001
   878.0000   2000.0000   2000.0000     32.6650    112.3137
   878.2500   2000.0000   2000.0000     32.5495    113.4345
   878.5000   2000.0000   2000.0000     32.3034    115.5195
   878.7500   2000.0000   2000.0000     31.8770    118.0747
   879.0000   2000.0000   2000.0000     31.3322    123.1826
   879.2500   2000.0000   2000.0000     30.7860    126.2663
   879.5000   2000.0000   2000.0000     30.3317    129.1905
   879.7500   2000.0000   2000.0000     29.9985    130.3712
   880.0000   2000.0000   2000.0000     29.7620    132.2178
   880.2500   2000.0000   2000.0000     29.5755    133.6237
   880.5000   2000.0000   2000.0000     29.4006    135.0155
   880.7500   2000.0000   2000.0000     29.2238    134.8612
   881.0000   2000.0000   2000.0000     29.0556    132.9689
   881.2500   2000.0000   2000.0000     28.9096    131.1779
   881.5000   2000.0000   2000.0000     28.7749    129.0588
   881.7500   2000.0000   2000.0000     28.6021    128.6219
   882.0000   2000.0000   2000.0000     28.3199    129.5574
   882.2500   2000.0000   2000.0000     27.8742    130.7067
   882.5000   2000.0000   2000.0000     27.2622    131.7430
   882.7500   2000.0000   2000.0000     26.5316    131.3796
   883.0000   2000.0000   2000.0000     25.7495    129.6708
   883.2500   2000.0000   2000.0000     24.9740    128.7915
   883.5000   2000.0000   2000.0000     24.2469    129.7579
   883.7500   2000.0000   2000.0000     23.5980    132.4324
   884.0000   2000.0000   2000.0000     23.0453    139.1413
   884.2500   2000.0000   2000.0000     22.5871    144.8069
   884.5000   2000.0000   2000.0000     22.1972    153.7331
   884.7500   2000.0000   2000.0000     21.8293    158.9331
   885.0000   2000.0000   2000.0000     21.4283    163.5949
   885.2500   2000.0000   2000.0000     20.9471    163.8106
   885.5000   2000.0000   2000.0000     20.3647    160.0572
   885.7500   2000.0000   2000.0000     19.6999    155.8998
   886.0000   2000.0000   2000.0000     19.0095    149.5451
   886.2500   2000.0000   2000.0000     18.3711    146.4434
   886.5000   2000.0000   2000.0000     17.8608    144.8312
   886.7500   2000.0000   2000.0000     17.5391    145.9778
   887.0000   2000.0000   2000.0000     17.4418    150.3971
   887.2500   2000.0000   2000.0000     17.5746    154.4745
   887.5000   2000.0000   2000.0000     17.9125    160.9289
   887.7500   2000.0000   2000.0000     18.4088    164.5138
   888.0000   2000.0000   2000.0000     19.0112    167.2373
   888.2500   2000.0000   2000.0000     19.6746    166.7973
   888.5000   2000.0000   2000.0000     20.3611    162.9211
   888.7500   2000.0000   2000.0000     21.0388    158.4744
   889.0000   2000.0000   2000.0000     21.6908    148.9029
   889.2500   2000.0000   2000.0000     22.3288    140.2681
   889.5000   2000.0000   2000.0000     22.9918    124.3528
   889.7500   2000.0000   2000.0000     23.7252    113.1318
   890.0000   2000.0000   2000.0000     24.5560     98.6241
   890.2500   2000.0000   2000.0000     25.4899     91.6843
   890.5000   2000.0000   2000.0000     26.5318     85.1289
   890.7500   2000.0000   2000.0000     27.7097     82.3995
   891.0000   2000.0000   2000.0000     29.0708     79.3984
   891.2500   2000.0000   2000.0000     30.6433     77.7700
   891.5000   2000.0000   2000.0000     32.3906     75.6958
   891.7500   2000.0000   2000.0000     34.1973     74.5110
   892.0000   2000.0000   2000.0000     35.9116     73.0823
   892.2500   2000.0000   2000.0000     37.4200     72.4974
   892.5000   2000.0000   2000.0000     38.7103     72.3601
   892.7500   2000.0000   2000.0000     39.8729     72.7322
   893.0000   2000.0000   2000.0000     41.0313     73.7814
   893.2500   2000.0000   2000.0000     42.2386     74.7226
   893.5000   2000.0000   2000.0000     43.4167     76.3281
   893.7500   2000.0000   2000.0000     44.4035     77.2727
   894.0000   2000.0000   2000.0000     45.0922     77.8975
   894.2500   2000.0000   2000.0000     45.5290     77.6274
   894.5000   2000.0000   2000.0000     45.8763     76.5596
   894.7500   2000.0000   2000.0000     46.2915     75.7925
   895.0000   2000.0000   2000.0000     46.8482     74.9572
   895.2500   2000.0000   2000.0000     47.5311     74.6658
