~Version Information
VERS.                      2.0: CWLS Log ASCII Standard - VERSION 2.0
WRAP.                       NO: One line per depth step
~Well Information Block
STRT.FT                14.0000: 
STOP.FT              1631.0000: 
STEP.FT                 0.1000: 
NULL.                -999.2500: 
COMP.          Pioneer Natural Resources: COMPANY
WELL.            Bluesky 44-17: WELL
FLD.           Purgatorie River: FIELD
LOC.           39' FSL & 288' FEL: LOCATION
STAT.                 Colorado: State
CNTY.               Las Animas: COUNTY
CTRY. USA : Country
SECT. 17 : Section
TOWN. 33S : Township
RANG. 66W : Range
SRVC.                Patterson: SERVICE COMPANY
DATE.          Thu Sep 08 07:30:20 2005: LOG DATE
API. 05-071-08511                         : UNIQUE WELL ID
~Curve Information Block
DEPT.FT            0 000 00 00: Depth
DCAL.in                       : CDL Caliper
RHOB.g/cc                     : CDL Bulk Density
RHOC.g/cc                     : CDL Density Correction
DPOR.pu                       : CDL Density Porosity
GR.GAPI                       : Gamma Ray
NPOR.pu                       : Neutron Porosity
~Parameter Information Block
~A  Depth       DCAL        RHOB        RHOC        DPOR         GR         NPOR    
# ...
   436.4000     18.3510      2.1838      2.0000     -0.0093    158.7780     26.9153
   436.5000     18.3529      2.1867      2.0000     -0.0093    155.4162     27.4408
   436.6000     18.3529      2.2179      2.0000     -0.0086    147.9280     28.3684
   436.7000     18.3529      2.2698      2.0000     -0.0076    143.3260     28.8558
   436.8000     18.3507      2.3217      2.0000     -0.0066    140.2034     28.8349
   436.9000     18.3507      2.3530      2.0000     -0.0059    134.8192     28.6742
   437.0000     18.3537      2.3598      2.0000     -0.0058    130.2781     28.7131
   437.1000     18.3537      2.3591      2.0000     -0.0058    132.1485     28.6095
   437.2000     18.3537      2.3599      2.0000     -0.0058    138.4653     27.8871
   437.3000     18.3496      2.3574      2.0000     -0.0059    142.9135     26.9622
   437.4000     18.3496      2.3537      2.0000     -0.0059    142.8251     26.5204
   437.5000     18.3525      2.3528      2.0000     -0.0059    140.0856     26.7372
   437.6000     18.3525      2.3515      2.0000     -0.0060    138.7043     27.0340
   437.7000     18.3525      2.3507      2.0000     -0.0060    140.7812     26.9190
   437.8000     18.3498      2.3552      2.0000     -0.0059    143.4493     26.8733
   437.9000     18.3498      2.3641      2.0000     -0.0057    141.6469     27.2305
   438.0000     18.3553      2.3703      2.0000     -0.0056    135.2383     27.6388
   438.1000     18.3553      2.3731      2.0000     -0.0055    130.1082     27.6293
   438.2000     18.3553      2.3783      2.0000     -0.0054    127.0410     27.0491
   438.3000     18.3552      2.3828      2.0000     -0.0053    123.4862     26.5252
   438.4000     18.3552      2.3799      2.0000     -0.0054    123.0435     26.7118
   438.5000     18.3549      2.3753      2.0000     -0.0055    127.0890     27.1083
   438.6000     18.3549      2.3714      2.0000     -0.0056    129.6150     26.9596
   438.7000     18.3549      2.3545      2.0000     -0.0059    128.9125     26.3593
   438.8000     18.3458      2.3244      2.0000     -0.0065    128.1311     25.8072
   438.9000     18.3458      2.3001      2.0000     -0.0070    126.1787     25.6216
   439.0000     18.3469      2.2867      2.0000     -0.0073    123.4243     26.0493
   439.1000     18.3469      2.2742      2.0000     -0.0075    123.2044     27.0477
   439.2000     18.3469      2.2590      2.0000     -0.0078    125.8418     27.9971
   439.3000     18.3563      2.2412      2.0000     -0.0082    129.2726     28.4455
   439.4000     18.3563      2.2195      2.0000     -0.0086    130.5092     28.4745
   439.5000     18.3574      2.1965      2.0000     -0.0091    129.4534     28.1379
   439.6000     18.3574      2.1816      2.0000     -0.0094    128.5337     27.4664
   439.7000     18.3574      2.1804      2.0000     -0.0094    129.2993     27.0049
   439.8000     18.3560      2.1806      2.0000     -0.0094    132.0362     27.3004
   439.9000     18.3560      2.1742      2.0000     -0.0095    134.2757     27.8452
   440.0000     18.3524      2.1694      2.0000     -0.0096    131.0129     27.7211
   440.1000     18.3524      2.1712      2.0000     -0.0096    123.2404     27.0757
   440.2000     18.3524      2.1780      2.0000     -0.0094    117.2560     26.7049
   440.3000     18.3494      2.1844      2.0000     -0.0093    116.5209     26.6409
   440.4000     18.3494      2.1906      2.0000     -0.0092    118.4915     26.5739
   440.5000     18.3462      2.2040      2.0000     -0.0089    118.4187     26.4665
   440.6000     18.3462      2.2156      2.0000     -0.0087    116.3209     26.3140
   440.7000     18.3462      2.2016      2.0000     -0.0090    113.4882     26.0093
   440.8000     18.3544      2.1552      2.0000     -0.0099    107.9767     25.4086
   440.9000     18.3544      2.0927      2.0000     -0.0112    100.6247     24.9580
   441.0000     18.3511      2.0305      2.0000     -0.0124     96.4948     25.0270
   441.1000     18.3511      1.9762      2.0000     -0.0135     97.1904     25.0249
   441.2000     18.3511      1.9334      2.0000     -0.0143     98.7883     24.7194
   441.3000     18.3480      1.9073      2.0000     -0.0149     97.4367     24.5085
   441.4000     18.3480      1.9057      2.0000     -0.0149     91.7854     24.5496
   441.5000     18.3513      1.9254      2.0000     -0.0145     83.5515     24.6492
   441.6000     18.3513      1.9583      2.0000     -0.0138     78.2833     24.4789
   441.7000     18.3513      2.0016      2.0000     -0.0130     80.2401     24.2448
   441.8000     18.3492      2.0494      2.0000     -0.0120     86.3775     24.3869
   441.9000     18.3492      2.0925      2.0000     -0.0112     89.5814     24.9527
   442.0000     18.3520      2.1237      2.0000     -0.0105     87.7277     25.6604
   442.1000     18.3520      2.1408      2.0000     -0.0102     84.0019     26.0028
   442.2000     18.3520      2.1444      2.0000     -0.0101     80.1985     25.8639
   442.3000     18.3536      2.1323      2.0000     -0.0104     76.8236     25.6313
   442.4000     18.3536      2.1042      2.0000     -0.0109     74.3367     25.5382
   442.5000     18.3548      2.0727      2.0000     -0.0116     72.5466     25.6705
   442.6000     18.3548      2.0634      2.0000     -0.0117     73.1206     26.1302
   442.7000     18.3548      2.0896      2.0000     -0.0112     77.4783     27.0407
   442.8000     18.3542      2.1320      2.0000     -0.0104     82.9546     28.3305
   442.9000     18.3542      2.1547      2.0000     -0.0099     87.5921     29.7032
   443.0000     18.3496      2.1447      2.0000     -0.0101     91.4265     30.9784
   443.1000     18.3496      2.1189      2.0000     -0.0106     93.5798     31.9483
   443.2000     18.3496      2.0981      2.0000     -0.0110     93.7053     32.4858
   443.3000     18.3529      2.0981      2.0000     -0.0110     93.0123     32.8972
   443.4000     18.3529      2.1347      2.0000     -0.0103     93.8316     33.1899
   443.5000     18.3522      2.2150      2.0000     -0.0087     96.3945     33.1052
   443.6000     18.3522      2.3059      2.0000     -0.0069     96.7389     32.7281
   443.7000     18.3522      2.3608      2.0000     -0.0058     94.8504     32.1690
   443.8000     18.3494      2.3787      2.0000     -0.0054     96.6669     31.3458
   443.9000     18.3494      2.3829      2.0000     -0.0053    101.9944     30.3600
   444.0000     18.3464      2.3681      2.0000     -0.0056    106.7008     29.6379
   444.1000     18.3464      2.3200      2.0000     -0.0066    111.3960     29.3862
   444.2000     18.3464      2.2529      2.0000     -0.0079    115.4522     29.2914
   444.3000     18.3548      2.1892      2.0000     -0.0092    117.7491     29.1895
   444.4000     18.3548      2.1379      2.0000     -0.0102    119.8609     29.2283
   444.5000     18.3465      2.0997      2.0000     -0.0110    119.7858     29.0337
   444.6000     18.3465      2.0810      2.0000     -0.0114    115.2785     28.3899
   444.7000     18.3465      2.0826      2.0000     -0.0114    111.7197     28.1486
   444.8000     18.3503      2.1005      2.0000     -0.0110    114.8959     28.6166
   444.9000     18.3503      2.1343      2.0000     -0.0103    121.9740     29.0217
   445.0000     18.3509      2.1716      2.0000     -0.0096    126.9713     29.0609
   445.1000     18.3509      2.1923      2.0000     -0.0092    127.5918     28.9201
   445.2000     18.3509      2.1950      2.0000     -0.0091    124.8073     28.8769
   445.3000     18.3501      2.1930      2.0000     -0.0091    120.7582     28.9836
   445.4000     18.3501      2.1887      2.0000     -0.0092    117.4909     28.8458
   445.5000     18.3515      2.1737      2.0000     -0.0095    114.4703     28.3693
   445.6000     18.3515      2.1456      2.0000     -0.0101    111.1203     28.0428
   445.7000     18.3515      2.1135      2.0000     -0.0107    107.5635     28.0056
   445.8000     18.3486      2.0825      2.0000     -0.0114    102.5085     28.0001
   445.9000     18.3486      2.0415      2.0000     -0.0122     97.0768     27.9130
