~Version Information
VERS.                      2.0: CWLS Log ASCII Standard - VERSION 2.0
WRAP.                       NO: One line per depth step
~Well Information Block
STRT.FT               665.0000: 
STOP.FT              2193.5000: 
STEP.FT                 0.1000: 
NULL.                -999.2500: 
COMP.          Pioneer Natural Resources: COMPANY
WELL.          Bear Cub Federal 11-23: WELL
FLD.           Purgatoire River: FIELD
LOC.           1225' FNL & 1268' FWL--: LOCATION
CNTY.               Las Animas: COUNTY
SRVC.                Patterson: SERVICE COMPANY
DATE.          Tue Jun 20 09:14:02 2006: LOG DATE
UWI.           05 071 08509 00: UNIQUE WELL ID
STAT.                 Colorado: STATE
~Curve Information Block
DEPT.FT            0 000 00 00: Depth
DCAL.in                       : CDL Caliper
RHOB.g/cc                     : CDL Bulk Density
RHOC.g/cc                     : CDL Density Correction
DPOR.pu                       : CDL Density Porosity
NPOR.pu                       : Neutron Porosity
GR.GAPI                       : Gamma Ray
~Parameter Information Block
~A  Depth       DCAL        RHOB        RHOC        DPOR        NPOR         GR     
   665.0000      8.0129      2.4069     -0.1313     14.7330     42.8106     92.8721
   665.1000      8.0129      2.4039     -0.1909     14.9152     43.2267     88.1617
   665.2000      8.0129      2.4181     -0.1677     14.0535     43.3455     88.4885
   665.3000      7.9979      2.4422     -0.1249     12.5953     43.0788     90.4324
   665.4000      7.9979      2.4591     -0.1526     11.5667     42.7631     87.5848
   665.5000      7.9863      2.4677     -0.1601     11.0490     42.7877     80.9552
   665.6000      7.9863      2.4721     -0.1269     10.7846     43.1015     77.4601
   665.7000      7.9863      2.4579     -0.1176     11.6428     43.3605     80.7747
   665.8000      7.9767      2.4219     -0.2066     13.8266     43.2730     86.7757
   665.9000      7.9767      2.3985     -0.2032     15.2435     42.9279     90.7614
   666.0000      7.9684      2.4118     -0.1892     14.4392     42.6582     93.3954
   666.1000      7.9684      2.4422     -0.1176     12.5913     42.6320     94.2001
   666.2000      7.9684      2.4654     -0.1227     11.1905     42.6910     90.9174
   666.3000      7.9665      2.4743     -0.1312     10.6485     42.7187     86.5079
   666.4000      7.9665      2.4628     -0.1142     11.3458     42.9682     84.3504
   666.5000      7.9666      2.4349     -0.1907     13.0357     43.3618     83.9138
   666.6000      7.9666      2.4083     -0.1511     14.6500     43.4555     85.8819
   666.7000      7.9666      2.3889     -0.1907     15.8244     43.2308     90.3022
   666.8000      7.9625      2.3820     -0.1871     16.2399     43.0455     92.5591
   666.9000      7.9625      2.3953     -0.1642     15.4343     42.8890     89.7781
   667.0000      7.9573      2.4307     -0.1577     13.2907     42.5752     85.1459
   667.1000      7.9573      2.4886     -0.1281      9.7792     42.4559     82.0640
   667.2000      7.9573      2.5547     -0.0627      5.7779     42.7605     80.2319
   667.3000      7.9520      2.6012     -0.0782      2.9556     43.0039     82.3024
   667.4000      7.9520      2.6209     -0.1126      1.7613     43.0280     89.0747
   667.5000      7.9429      2.6272     -0.1233      1.3836     43.1143     93.5520
   667.6000      7.9429      2.6261     -0.0818      1.4468     43.1769     93.0175
   667.7000      7.9429      2.6183     -0.1255      1.9223     43.1546     90.9958
   667.8000      7.9329      2.6086     -0.0768      2.5071     43.2292     88.1423
   667.9000      7.9329      2.5923     -0.1291      3.4997     43.5107     85.0992
   668.0000      7.9259      2.5589     -0.1350      5.5187     43.9346     85.0787
   668.1000      7.9259      2.5078     -0.1471      8.6175     44.1708     86.4596
   668.2000      7.9259      2.4468     -0.1507     12.3140     43.9670     85.9727
   668.3000      7.9208      2.3948     -0.2420     15.4677     43.5139     84.3081
   668.4000      7.9208      2.3719     -0.2153     16.8538     43.1613     82.5809
   668.5000      7.9165      2.3821     -0.2116     16.2353     43.1127     81.5655
   668.6000      7.9165      2.4115     -0.1454     14.4545     43.1952     81.2802
   668.7000      7.9165      2.4358     -0.1564     12.9844     43.0930     81.4531
   668.8000      7.9110      2.4505     -0.1809     12.0921     42.9813     82.5598
   668.9000      7.9110      2.4810     -0.1726     10.2423     43.3379     82.7207
   669.0000      7.9043      2.5423     -0.1286      6.5263     44.0505     80.5789
   669.1000      7.9043      2.6171     -0.1157      1.9917     44.6306     78.7442
   669.2000      7.9043      2.6742     -0.0831     -1.4652     44.8691     79.0157
   669.3000      7.8925      2.6788     -0.0288     -1.7464     44.8582     79.6456
   669.4000      7.8925      2.6021     -0.0562      2.9010     44.7822     79.2936
   669.5000      7.8717      2.4483     -0.1786     12.2258     44.8041     78.0241
   669.6000      7.8717      2.2536     -0.3120     24.0215     44.9707     76.0364
   669.7000      7.8717      2.0778     -0.4751     34.6794     45.1252     74.9562
   669.8000      7.8497      1.9924     -0.5244     39.8518     45.0553     76.5639
   669.9000      7.8497      2.0285     -0.5615     37.6692     44.6333     80.5466
   670.0000      7.8377      2.1353     -0.3954     31.1964     43.6041     84.2414
   670.1000      7.8377      2.2214     -0.3021     25.9738     41.6521     84.9087
   670.2000      7.8377      2.2515     -0.3149     24.1512     38.8263     85.3087
   670.3000      7.8407      2.2700     -0.2850     23.0277     35.1768     90.6901
   670.4000      7.8407      2.3179     -0.1341     20.1249     30.8911     98.3274
   670.5000      7.8613      2.3707      0.1185     16.9247     26.7351    101.1746
   670.6000      7.8613      2.3805      0.1781     16.3335     23.3592    102.1122
   670.7000      7.8613      2.3466      0.1565     18.3872     21.1088    108.2949
   670.8000      7.8934      2.3088      0.0971     20.6769     19.9717    114.9855
   670.9000      7.8934      2.2880      0.1077     21.9408     19.5470    114.6196
   671.0000      7.9181      2.2698      0.0879     23.0431     19.5326    109.0869
   671.1000      7.9181      2.2479      0.0630     24.3719     19.8744    104.0327
   671.2000      7.9181      2.2395      0.0412     24.8771     20.5025    102.7479
   671.3000      7.9487      2.2477      0.1233     24.3841     21.1400    104.5996
   671.4000      7.9487      2.2556      0.1022     23.9059     21.4688    107.7810
   671.5000      8.0044      2.2660      0.0216     23.2718     21.5202    110.4823
   671.6000      8.0044      2.2870      0.0803     22.0028     21.4916    111.4989
   671.7000      8.0044      2.3022      0.1019     21.0797     21.2102    111.4186
   671.8000      8.0668      2.3045      0.0696     20.9370     20.5786    112.1130
   671.9000      8.0668      2.3054      0.0959     20.8874     19.9910    112.4987
   672.0000      8.1337      2.3027      0.0863     21.0457     19.6575    111.6141
   672.1000      8.1337      2.2929      0.0549     21.6415     19.3031    112.5683
   672.2000      8.1337      2.2892      0.0465     21.8683     18.7903    115.5344
   672.3000      8.2523      2.2957      0.0848     21.4710     18.4150    119.2702
   672.4000      8.2523      2.2992      0.0650     21.2630     18.4484    123.2463
   672.5000      8.4356      2.2939      0.0771     21.5830     18.8297    125.1594
   672.6000      8.4356      2.2838      0.0824     22.1944     19.4015    122.8769
   672.7000      8.4356      2.2746      0.0441     22.7529     19.9907    117.9242
   672.8000      8.6116      2.2685      0.0759     23.1211     20.5502    114.8282
   672.9000      8.6116      2.2566      0.0831     23.8403     21.1758    115.9299
   673.0000      8.7077      2.2343      0.0518     25.1915     21.7710    120.5689
   673.1000      8.7077      2.2104      0.0857     26.6438     22.2747    126.9970
   673.2000      8.7077      2.1935      0.0543     27.6638     22.6039    129.7944
   673.3000      8.7393      2.1876      0.0854     28.0218     22.6881    124.0790
   673.4000      8.7393      2.1876      0.0993     28.0265     22.8114    115.7604
   673.5000      8.7491      2.1883      0.0910     27.9818     23.3431    115.2436
   673.6000      8.7491      2.1909      0.1148     27.8237     24.1253    119.8247
   673.7000      8.7491      2.1904      0.1495     27.8567     24.7672    122.4457
   673.8000      8.7525      2.1901      0.1163     27.8755     25.0129    124.9838
   673.9000      8.7525      2.2035      0.1728     27.0604     24.7436    127.0683
   674.0000      8.7533      2.2252      0.1934     25.7458     24.1404    126.5725
   674.1000      8.7533      2.2416      0.1770     24.7539     23.5294    125.5867
   674.2000      8.7533      2.2518      0.1709     24.1305     23.1015    125.8106
   674.3000      8.7531      2.2527      0.1913     24.0786     22.9641    126.0433
   674.4000      8.7531      2.2372      0.1393     25.0181     23.1918    123.9065
   674.5000      8.7520      2.2167      0.0850     26.2595     23.6381    120.6232
