~Version Information
VERS.                      2.0: CWLS Log ASCII Standard - VERSION 2.0
WRAP.                       NO: One line per depth step
~Well Information Block
STRT.FT               550.0000: 
STOP.FT              1498.5000: 
STEP.FT                 0.1000: 
NULL.                -999.2500: 
COMP.          Pioneer Natural Resources: COMPANY
WELL.          Surtees 23-34 Tr: WELL
FLD.           Purgatoire River: FIELD
LOC.           1559' FSL & 1997' FWL: LOCATION
PROV.                 Colorado: PROVINCE
CNTY.               Las Animas: COUNTRY
SRVC.                Patterson: SERVICE COMPANY
DATE.          Wed Jul 27 09:35:51 2005: LOG DATE
UWI.           05 071 08449 00: UNIQUE WELL ID
~Curve Information Block
DEPT.FT            0 000 00 00: Depth
DCAL.in                       : CDL Caliper
RHOB.g/cc                     : CDL Bulk Density
RHOC.g/cc                     : CDL Density Correction
DPOR.pu                       : CDL Density Porosity
GR.GAPI                       : Gamma Ray
NPOR.pu                       : Neutron Porosity
~Parameter Information Block
~A  Depth       DCAL        RHOB        RHOC        DPOR         GR         NPOR    
# ...
  1356.4000      8.0580      2.5449      0.0538      6.3710     93.4188     19.9673
  1356.5000      8.0473      2.5319      0.0571      7.1583     88.2520     19.9291
  1356.6000      8.0473      2.5123      0.0658      8.3461     83.2340     19.0035
  1356.7000      8.0473      2.4971      0.0276      9.2686     82.2704     17.8199
  1356.8000      8.0337      2.4945      0.0611      9.4260     82.4544     16.2368
  1356.9000      8.0337      2.4936      0.0502      9.4776     81.2780     14.8261
  1357.0000      8.0330      2.4892      0.0366      9.7465     79.0521     14.7859
  1357.1000      8.0330      2.4962      0.0061      9.3235     77.5157     15.8676
  1357.2000      8.0330      2.5192      0.0562      7.9266     77.3381     16.7233
  1357.3000      8.0320      2.5433      0.0814      6.4660     76.4453     16.8503
  1357.4000      8.0320      2.5595      0.0896      5.4844     74.4944     16.8824
  1357.5000      8.0284      2.5665      0.0862      5.0629     72.5769     17.0342
  1357.6000      8.0284      2.5587      0.1120      5.5342     71.4356     16.9505
  1357.7000      8.0284      2.5323      0.0799      7.1346     72.7403     17.0356
  1357.8000      8.0348      2.5060     -0.0148      8.7283     74.9547     17.6711
  1357.9000      8.0348      2.4984      0.0771      9.1865     74.8551     18.0159
  1358.0000      8.0251      2.5031      0.0098      8.9051     74.0386     17.2831
  1358.1000      8.0251      2.5129      0.0498      8.3097     75.5435     16.2548
  1358.2000      8.0251      2.5201      0.0975      7.8710     78.1474     15.8710
  1358.3000      8.0170      2.5171      0.0574      8.0562     78.4053     16.0539
  1358.4000      8.0170      2.5049      0.0624      8.7934     75.7647     16.5131
  1358.5000      8.0258      2.4904      0.0261      9.6709     72.0541     16.8675
  1358.6000      8.0258      2.4840      0.0478     10.0608     69.0463     16.6488
  1358.7000      8.0258      2.4885      0.0378      9.7874     68.0611     16.2221
  1358.8000      8.0320      2.5080      0.0555      8.6037     70.7410     15.7510
  1358.9000      8.0320      2.5408      0.0907      6.6203     76.2171     15.0483
  1359.0000      8.0141      2.5638      0.1195      5.2214     79.6410     14.8328
  1359.1000      8.0141      2.5611      0.0619      5.3900     80.2930     15.6168
  1359.2000      8.0141      2.5418      0.0778      6.5571     80.1722     16.5577
  1359.3000      8.0112      2.5212      0.0529      7.8079     77.4143     16.7652
  1359.4000      8.0112      2.5116      0.0277      8.3892     71.6561     16.8880
  1359.5000      8.0164      2.5149      0.0689      8.1865     66.8802     17.3691
  1359.6000      8.0164      2.5238      0.0736      7.6486     67.3968     17.6057
  1359.7000      8.0164      2.5352      0.0446      6.9596     73.8353     17.4345
  1359.8000      8.0244      2.5438      0.0542      6.4364     80.9812     17.2535
  1359.9000      8.0244      2.5432      0.0986      6.4716     84.4929     17.5268
  1360.0000      8.0227      2.5408      0.0180      6.6199     84.9848     18.2670
  1360.1000      8.0227      2.5505      0.0417      6.0319     83.1127     18.7181
  1360.2000      8.0227      2.5685      0.0856      4.9408     77.8281     18.3485
  1360.3000      8.0278      2.5782      0.0690      4.3487     72.0647     17.9519
  1360.4000      8.0278      2.5730      0.0765      4.6649     71.4045     18.4997
  1360.5000      8.0156      2.5594      0.0978      5.4899     75.0451     19.4813
  1360.6000      8.0156      2.5427      0.0959      6.5040     78.5300     19.3468
  1360.7000      8.0156      2.5254      0.0407      7.5531     79.8595     18.0137
  1360.8000      8.0248      2.5127      0.0476      8.3202     79.9716     16.9674
  1360.9000      8.0248      2.5045      0.0498      8.8210     82.3227     16.6494
  1361.0000      8.0324      2.5020      0.0306      8.9692     87.1683     15.9558
  1361.1000      8.0324      2.5066      0.0844      8.6907     89.6346     15.0119
  1361.2000      8.0324      2.5094      0.0481      8.5210     87.4284     14.9878
  1361.3000      8.0375      2.5107      0.0295      8.4411     83.7837     15.3986
  1361.4000      8.0375      2.5199      0.0337      7.8875     83.0922     15.2974
  1361.5000      8.0380      2.5328      0.1025      7.1036     86.6508     15.1841
  1361.6000      8.0380      2.5385      0.0884      6.7563     92.0836     15.6445
  1361.7000      8.0380      2.5397      0.0687      6.6868     96.2991     16.2156
  1361.8000      8.0250      2.5393      0.0781      6.7104     96.8467     16.3158
  1361.9000      8.0250      2.5343      0.0462      7.0114     91.8944     16.4529
  1362.0000      8.0100      2.5317      0.0513      7.1670     84.1672     16.8676
  1362.1000      8.0100      2.5390      0.0778      6.7277     78.8970     16.7652
  1362.2000      8.0100      2.5512      0.0924      5.9858     79.1870     15.9014
  1362.3000      8.0157      2.5686      0.0414      4.9314     82.2800     15.4765
  1362.4000      8.0157      2.5944      0.0805      3.3668     83.8908     16.3871
  1362.5000      8.0109      2.6086      0.1076      2.5119     85.7241     17.7362
  1362.6000      8.0109      2.5893      0.0958      3.6786     87.9642     18.2531
  1362.7000      8.0109      2.5480      0.0338      6.1814     87.4955     18.1319
  1362.8000      8.0129      2.5151      0.0156      8.1731     84.8086     18.0137
  1362.9000      8.0129      2.5000      0.0636      9.0938     81.5731     18.1827
  1363.0000      8.0238      2.4952     -0.0159      9.3823     77.2941     18.5282
  1363.1000      8.0238      2.5026     -0.0041      8.9343     73.0083     18.8740
  1363.2000      8.0238      2.5160      0.0337      8.1229     72.0647     19.2861
  1363.3000      8.0303      2.5219      0.0214      7.7629     75.8354     19.5702
  1363.4000      8.0303      2.5193      0.0167      7.9231     81.2769     19.4740
  1363.5000      8.0460      2.5136      0.0642      8.2646     85.0411     18.7598
  1363.6000      8.0460      2.5175      0.0236      8.0295     89.5315     17.4549
  1363.7000      8.0460      2.5339      0.0994      7.0393     95.1866     16.3018
  1363.8000      8.0358      2.5381      0.0787      6.7819     97.2057     15.8056
  1363.9000      8.0358      2.5249      0.0320      7.5795     95.8188     16.0595
  1364.0000      8.0294      2.5176      0.0060      8.0241     93.3714     16.9739
  1364.1000      8.0294      2.5228      0.0705      7.7088     88.9296     18.0758
  1364.2000      8.0294      2.5321      0.0549      7.1436     85.3274     18.9923
  1364.3000      8.0326      2.5355      0.1241      6.9373     85.5354     19.7520
  1364.4000      8.0326      2.5215      0.0622      7.7899     85.7017     20.2868
  1364.5000      8.0434      2.4980      0.0442      9.2101     84.7812     20.2086
  1364.6000      8.0434      2.4846      0.0397     10.0257     85.6419     19.3518
  1364.7000      8.0434      2.4881      0.0447      9.8147     85.2627     18.2100
  1364.8000      8.0388      2.5043      0.0586      8.8306     80.3862     17.4230
  1364.9000      8.0388      2.5264      0.0683      7.4885     73.9731     17.3263
  1365.0000      8.0349      2.5458      0.0455      6.3165     69.7974     17.8491
  1365.1000      8.0349      2.5541      0.0862      5.8114     70.5873     18.6633
  1365.2000      8.0349      2.5492      0.0772      6.1105     74.8810     19.3893
  1365.3000      8.0347      2.5356      0.1054      6.9334     79.6790     20.1685
  1365.4000      8.0347      2.5213      0.0635      7.8013     86.5151     21.1905
  1365.5000      8.0287      2.5118      0.0758      8.3778     91.3933     21.5414
  1365.6000      8.0287      2.5146      0.0522      8.2085     89.0677     20.5566
  1365.7000      8.0287      2.5414      0.0581      6.5837     84.1108     19.0201
  1365.8000      8.0196      2.5751      0.1259      4.5395     80.7523     18.1096
  1365.9000      8.0196      2.5793      0.1103      4.2857     81.1670     17.9943
