~Version Information
 VERS.                                  2.0 : CWLS LAS VERSION
 WRAP.                                   NO : WRAPING MODE
 SWARE .                 MController 2.5.0J : SOFTWARE VERSION
~Well Information
 WELL.                     Hemisphere 32-24 : WELL
 COMP.    Pioneer Natural Resources USA Inc : COMPANY
 FLD.                      Purgatoire River : FIELD
 LOC.                 SE/SW Sec 24 T33 R67W : LOCATION
 DATE.                             08/14/05 : DATE(S) LOGGED
 SRVC.       BLANCO Geological Services LLC : SERVICE COMPANY
 STAT.                                   CO : STATE
 CNTY.                           Las Animas : COUNTY
 CTRY.                                  USA : COUNTRY
 API.                       05-071-08440-00 : API NUMBER
 STRT.FT                             399.00 : START DEPTH
 STOP.FT                            2171.00 : STOP DEPTH
 STEP.FT                               1.00 : DEPTH INCREMENT
 NULL.                                -9999 : NULL VALUE
~Curve information
 DEPTH.FT                                   :
 ROP.MIN/FT                                 :
 GAS.UNITS                                  :
~ASCII Log data
# ...
       999.0         0.30         45.8 
      1000.0         0.27         46.0 
      1001.0         0.30         45.2 
      1002.0         0.23         45.5 
      1003.0         0.23         45.0 
      1004.0         0.27         45.0 
      1005.0         0.23         44.0 
      1006.0         0.23         44.9 
      1007.0         0.30         44.1 
      1008.0         0.23         44.2 
      1009.0         0.28         43.5 
      1010.0         0.23         43.4 
      1011.0         0.27         43.7 
      1012.0         0.20         43.5 
      1013.0         0.23         43.1 
      1014.0         0.20         43.2 
      1015.0         0.20         42.5 
      1016.0         3.25        144.0 
      1017.0         0.27        155.2 
      1018.0         0.28        144.1 
      1019.0         0.23        112.9 
      1020.0         0.23         93.7 
      1021.0         0.17         69.7 
      1022.0         0.20         68.5 
      1023.0         0.23         60.4 
      1024.0         0.17         56.6 
      1025.0         0.20         53.6 
      1026.0         0.23         48.8 
      1027.0         0.23         47.9 
      1028.0         0.23         46.2 
      1029.0         0.23         46.8 
      1030.0         0.23         45.8 
      1031.0         0.33         45.8 
      1032.0         0.45         43.8 
      1033.0         0.37         40.9 
      1034.0         0.30         39.2 
      1035.0         0.23         37.8 
      1036.0         0.30         38.7 
      1037.0         0.30         39.7 
      1038.0         0.30         40.1 
      1039.0         0.30         39.7 
      1040.0         0.23         40.1 
      1041.0         0.27         40.8 
      1042.0         0.27         39.9 
      1043.0         0.30         40.1 
      1044.0         0.32         39.9 
      1045.0         0.53         40.3 
      1046.0         2.58        150.5 
      1047.0         0.30        131.5 
      1048.0         0.37        126.8 
      1049.0         0.30         64.4 
      1050.0         0.27         57.4 
      1051.0         0.33         54.5 
      1052.0         0.30         50.6 
      1053.0         0.30         46.9 
      1054.0         0.27         44.7 
      1055.0         0.30         42.4 
      1056.0         0.30         40.7 
      1057.0         0.28         40.5 
      1058.0         0.30         40.5 
      1059.0         0.30         41.4 
      1060.0         0.20         41.4 
      1061.0         0.17         42.1 
      1062.0         0.23         41.8 
      1063.0         0.23         41.4 
      1064.0         0.27         39.8 
      1065.0         0.27         39.7 
      1066.0         0.17         40.8 
      1067.0         0.57         41.4 
      1068.0         0.37         41.4 
      1069.0         0.45         44.3 
      1070.0         0.37         44.9 
      1071.0         0.20         45.5 
      1072.0         0.23         44.0 
      1073.0         0.23         43.3 
      1074.0         0.30         41.7 
      1075.0         3.02        154.0 
      1076.0         0.20        153.1 
      1077.0         0.30        122.3 
      1078.0         0.30         70.6 
      1079.0         0.27         64.2 
      1080.0         0.27         57.8 
      1081.0         0.23         56.3 
      1082.0         0.17         51.8 
      1083.0         0.17         50.4 
      1084.0         0.13         48.4 
      1085.0         0.22         46.3 
      1086.0         0.17         44.9 
      1087.0         0.20         45.0 
      1088.0         0.20         46.8 
      1089.0         0.20         48.3 
      1090.0         0.20         48.7 
      1091.0         0.17         49.2 
      1092.0         0.17         49.2 
      1093.0         0.27         47.9 
      1094.0         0.20         46.4 
      1095.0         0.20         45.9 
      1096.0         0.23         45.6 
      1097.0         0.23         44.3 
      1098.0         0.20         44.3 
      1099.0         0.20         43.7 
      1100.0         0.23         42.4 
      1101.0         0.25         42.5 
      1102.0         0.23         42.0 
      1103.0         0.27         41.2 
      1104.0         0.37         40.5 
      1105.0         3.55        135.4 
      1106.0         0.37         58.3 
      1107.0         0.53         59.7 
      1108.0         0.40         58.8 
      1109.0         0.27         58.1 
      1110.0         0.43         50.2 
      1111.0         0.35         47.8 
      1112.0         0.27         44.4 
      1113.0         0.23         43.9 
      1114.0         0.30         42.6 
      1115.0         0.47         41.6 
      1116.0         0.37         41.4 
      1117.0         0.30         41.1 
      1118.0         0.27         41.5 
      1119.0         0.37         40.7 
      1120.0         0.37         40.0 
      1121.0         0.27         38.9 
      1122.0         0.28         39.1 
      1123.0         0.27         38.7 
      1124.0         0.27         38.3 
      1125.0         0.20         37.5 
      1126.0         0.23         36.8 
      1127.0         0.23         37.3 
      1128.0         0.27         36.7 
      1129.0         0.27         35.8 
      1130.0         0.27         36.3 
      1131.0         0.27         36.1 
      1132.0         0.37         35.2 
      1133.0         0.17         35.5 
      1134.0         0.13         34.1 
      1135.0         3.42         91.9 
      1136.0         0.58        162.2 
      1137.0         0.43        139.6 
      1138.0         0.37         70.3 
      1139.0         0.40         61.0 
      1140.0         0.33         54.0 
      1141.0         0.27         48.4 
      1142.0         0.30         43.5 
      1143.0         0.23         43.1 
      1144.0         0.30         40.6 
      1145.0         0.20         39.9 
      1146.0         0.25         40.4 
      1147.0         0.27         40.8 
      1148.0         0.23         41.7 
      1149.0         0.27         40.8 
      1150.0         0.30         41.2 
      1151.0         0.33         39.7 
      1152.0         0.27         38.7 
      1153.0         0.27         37.9 
      1154.0         0.40         37.6 
      1155.0         0.40         37.2 
      1156.0         0.33         36.7 
      1157.0         0.28         35.3 
      1158.0         0.33         35.9 
      1159.0         0.50         35.6 
      1160.0         0.27         35.0 
      1161.0         0.23         35.3 
      1162.0         0.27         34.8 
      1163.0         0.33         34.3 
      1164.0         0.30         35.0 
      1165.0         2.92         78.8 
      1166.0         0.43        122.4 
      1167.0         0.43        105.4 
      1168.0         0.40         69.7 
      1169.0         0.38         59.2 
      1170.0         0.37         54.6 
      1171.0         0.30         47.6 
      1172.0         0.30         43.6 
      1173.0         0.37         39.3 
      1174.0         0.23         39.4 
      1175.0         0.23         39.1 
      1176.0         0.17         38.0 
      1177.0         0.20         38.5 
      1178.0         0.17         38.6 
      1179.0         0.13         38.6 
      1180.0         0.20         39.7 
      1181.0         0.20         38.6 
      1182.0         0.28         40.1 
      1183.0         0.33         43.0 
      1184.0         0.37         44.3 
      1185.0         0.30         43.5 
      1186.0         0.27         41.7 
      1187.0         0.27         40.0 
      1188.0         0.33         39.2 
      1189.0         0.43         38.8 
      1190.0         0.37         37.8 
      1191.0         0.30         36.3 
      1192.0         0.28         36.5 
      1193.0         0.37         35.7 
      1194.0         0.40         35.5 
      1195.0         0.20         35.3 
      1196.0         2.72        111.8 
      1197.0         0.37        117.6 
      1198.0         0.33        103.3 
