~Version Information
VERS.                      2.0: CWLS Log ASCII Standard - VERSION 2.0
WRAP.                       NO: One line per depth step
~Well Information Block
STRT.FT               480.0000: 
STOP.FT              1946.0000: 
STEP.FT                 0.1000: 
NULL.                -999.2500: 
COMP.          XTO Energy Inc.: COMPANY
WELL.          Golden Eagle 19-15: WELL
FLD.           Purgatoire River: FIELD
LOC.           1121' FSL & 2332' FEL--: LOCATION
CNTY.               Las Animas: COUNTY
SRVC.                Patterson: SERVICE COMPANY
DATE.          Mon Mar 13 10:27:20 2006: LOG DATE
UWI.           05 071 08717 00: UNIQUE WELL ID
STAT.                 Colorado: STATE
~Curve Information Block
DEPT.FT            0 000 00 00: Depth
DCAL.in                       : CDL Caliper
RHOB.g/cc                     : CDL Bulk Density
RHOC.g/cc                     : CDL Density Correction
DPOR.pu                       : CDL Density Porosity
NPOR.pu                       : Neutron Porosity
GR.GAPI                       : Gamma Ray
~Parameter Information Block
~A  Depth       DCAL        RHOB        RHOC        DPOR        NPOR         GR     
# ...
  1718.4000      7.7921      2.4608      0.0891     11.4661     24.3082     82.0033
  1718.5000      7.7937      2.4601      0.0476     11.5094     24.5948     89.9790
  1718.6000      7.7937      2.4621      0.0507     11.3859     24.6743     94.1606
  1718.7000      7.7937      2.4589      0.0783     11.5842     24.4815     95.3206
  1718.8000      7.7929      2.4485      0.0505     12.2096     24.3006     95.6055
  1718.9000      7.7929      2.4454      0.0685     12.4004     24.1925     92.0443
  1719.0000      7.7921      2.4574      0.0575     11.6701     23.8921     83.2973
  1719.1000      7.7921      2.4805      0.0683     10.2705     23.8488     76.0035
  1719.2000      7.7921      2.5043      0.0944      8.8306     24.2881     75.5686
  1719.3000      7.7930      2.5138      0.1365      8.2548     24.5668     81.1902
  1719.4000      7.7930      2.5008      0.1172      9.0447     24.4671     88.8837
  1719.5000      7.7939      2.4781      0.0750     10.4195     24.4629     92.1764
  1719.6000      7.7939      2.4671      0.0711     11.0853     24.6409     90.1189
  1719.7000      7.7939      2.4776      0.0467     10.4490     24.6884     88.0583
  1719.8000      7.7954      2.4981      0.1217      9.2082     24.3708     86.2751
  1719.9000      7.7954      2.5035      0.0971      8.8784     23.8168     85.8745
  1720.0000      7.7958      2.4937      0.0371      9.4715     23.6124     87.3828
  1720.1000      7.7958      2.4914      0.0475      9.6143     23.8576     84.7444
  1720.2000      7.7958      2.5015      0.0658      8.9971     23.9440     77.4241
  1720.3000      7.7954      2.5086      0.0582      8.5668     23.6044     73.2261
  1720.4000      7.7954      2.5046      0.0562      8.8123     22.9973     74.9971
  1720.5000      7.7964      2.4996      0.0645      9.1147     22.5241     78.2363
  1720.6000      7.7964      2.5036      0.0517      8.8719     22.6556     79.0005
  1720.7000      7.7964      2.5141      0.0715      8.2387     23.0967     76.4935
  1720.8000      7.7976      2.5176      0.0887      8.0269     23.2933     73.0511
  1720.9000      7.7976      2.5013      0.0776      9.0101     23.2413     71.2640
  1721.0000      7.7989      2.4765      0.0557     10.5175     23.0735     72.7365
  1721.1000      7.7989      2.4632      0.0526     11.3185     22.9451     77.0910
  1721.2000      7.7989      2.4585      0.0511     11.6064     23.0679     81.4881
  1721.3000      7.7975      2.4516      0.0381     12.0258     23.2263     86.4575
  1721.4000      7.7975      2.4463      0.0588     12.3425     23.1287     93.9435
  1721.5000      7.7935      2.4466      0.0435     12.3264     23.0992     97.9832
  1721.6000      7.7935      2.4445      0.0325     12.4527     23.5318     91.6863
  1721.7000      7.7935      2.4357      0.0335     12.9873     24.1650     83.1367
  1721.8000      7.7924      2.4299     -0.0118     13.3381     24.4263     82.5000
  1721.9000      7.7924      2.4354      0.0324     13.0062     24.2176     84.9962
  1722.0000      7.7948      2.4476      0.0527     12.2638     23.8460     83.0326
  1722.1000      7.7948      2.4586      0.0635     11.6011     23.5409     77.5551
  1722.2000      7.7948      2.4585      0.0894     11.6042     23.2380     72.6822
  1722.3000      7.7964      2.4460      0.0287     12.3650     23.0448     71.5438
  1722.4000      7.7964      2.4346      0.0346     13.0536     23.3786     75.3740
  1722.5000      7.7965      2.4317      0.0469     13.2308     24.1072     78.9193
  1722.6000      7.7965      2.4304      0.0188     13.3112     24.6447     78.6183
  1722.7000      7.7965      2.4261      0.0354     13.5688     24.6582     77.8222
  1722.8000      7.7964      2.4227      0.0426     13.7738     24.3416     77.7746
  1722.9000      7.7964      2.4222      0.0539     13.8042     24.2508     75.3255
  1723.0000      7.7963      2.4179      0.0347     14.0650     24.4338     70.7917
  1723.1000      7.7963      2.4073      0.0186     14.7088     24.5567     69.3434
  1723.2000      7.7963      2.4015     -0.0038     15.0627     24.8784     71.4026
  1723.3000      7.7948      2.4121      0.0340     14.4191     25.4191     73.6886
  1723.4000      7.7948      2.4319      0.0533     13.2156     25.3389     76.0726
  1723.5000      7.7922      2.4425      0.0473     12.5739     24.4206     79.6742
  1723.6000      7.7922      2.4385      0.0588     12.8192     23.6423     84.1423
  1723.7000      7.7922      2.4288      0.0222     13.4047     23.5630     87.3345
  1723.8000      7.7905      2.4209      0.0537     13.8838     23.8091     89.3465
  1723.9000      7.7905      2.4161      0.0081     14.1731     23.9923     91.5375
  1724.0000      7.7909      2.4194      0.0441     13.9786     24.0570     90.9758
  1724.1000      7.7909      2.4318      0.0311     13.2227     23.9471     85.3520
  1724.2000      7.7909      2.4424      0.0849     12.5815     23.5611     77.4409
  1724.3000      7.7920      2.4356      0.0655     12.9950     23.3748     70.8875
  1724.4000      7.7920      2.4122      0.0244     14.4127     23.9913     67.6374
  1724.5000      7.7918      2.3896      0.0105     15.7818     24.8490     70.5450
  1724.6000      7.7918      2.3813     -0.0105     16.2849     25.0197     81.0372
  1724.7000      7.7918      2.3907      0.0339     15.7175     24.6271     92.8031
  1724.8000      7.7921      2.4162      0.0123     14.1668     24.4858     97.6278
  1724.9000      7.7921      2.4498      0.0641     12.1348     24.7663     95.6250
  1725.0000      7.7940      2.4726      0.0676     10.7498     24.9927     90.9041
  1725.1000      7.7940      2.4741      0.0536     10.6596     25.0430     87.9102
  1725.2000      7.7940      2.4646      0.0386     11.2340     25.0228     88.0259
  1725.3000      7.7954      2.4563      0.0538     11.7378     24.9707     88.8790
  1725.4000      7.7954      2.4461      0.0467     12.3587     25.0846     88.3256
  1725.5000      7.7958      2.4314      0.0142     13.2510     25.2676     84.9930
  1725.6000      7.7958      2.4174      0.0387     14.0957     25.2020     82.6964
  1725.7000      7.7958      2.4062      0.0548     14.7757     24.7255     83.2563
  1725.8000      7.7944      2.3955      0.0293     15.4221     23.9868     82.8945
  1725.9000      7.7944      2.3921      0.0035     15.6313     23.5807     83.0501
  1726.0000      7.7943      2.4078      0.0045     14.6794     23.5455     86.2802
  1726.1000      7.7943      2.4337      0.0739     13.1097     23.3285     88.6571
  1726.2000      7.7943      2.4458      0.0558     12.3728     22.9484     88.9646
  1726.3000      7.7959      2.4408      0.0201     12.6779     22.7651     91.5094
  1726.4000      7.7959      2.4309      0.0350     13.2796     22.9349     95.2784
  1726.5000      7.7963      2.4183      0.0321     14.0418     23.3304     95.8178
  1726.6000      7.7963      2.4061     -0.0027     14.7831     23.6904     94.0466
  1726.7000      7.7963      2.4073      0.0061     14.7095     23.9412     92.8344
  1726.8000      7.7949      2.4220      0.0487     13.8187     24.1881     91.0498
  1726.9000      7.7949      2.4375      0.0354     12.8769     24.3548     90.7469
  1727.0000      7.7940      2.4526      0.0211     11.9658     24.2778     95.2869
  1727.1000      7.7940      2.4657      0.0565     11.1702     24.1759     99.2806
  1727.2000      7.7940      2.4676      0.0567     11.0555     24.2595     97.3914
  1727.3000      7.7951      2.4603      0.0476     11.4989     24.3432     92.3553
  1727.4000      7.7951      2.4581      0.0384     11.6324     24.2417     86.3750
  1727.5000      7.7950      2.4674      0.0476     11.0679     23.9944     81.7374
  1727.6000      7.7950      2.4795      0.0584     10.3333     23.6812     82.8491
  1727.7000      7.7950      2.4840      0.0460     10.0579     23.4858     89.0951
  1727.8000      7.7936      2.4757      0.0568     10.5638     23.6258     95.9744
  1727.9000      7.7936      2.4546      0.0438     11.8443     23.8165    100.9110
