~Version Information
VERS.                      2.0: CWLS Log ASCII Standard - VERSION 2.0
WRAP.                       NO: One line per depth step
~Well Information Block
STRT.FT               310.0000: 
STOP.FT              2295.5000: 
STEP.FT                 0.1000: 
NULL.                -999.2500: 
COMP.          Pioneer Natural Resources: COMPANY
WELL.               Relay 12-7: WELL
FLD.           Purgatoire River: FIELD
LOC.           1999' FNL & 848' FWL: LOCATION
PROV.                 Colorado: PROVINCE
CNTY.               Las Animas: COUNTRY
SRVC.                Patterson: SERVICE COMPANY
DATE.          Mon Dec 19 07:37:11 2005: LOG DATE
UWI.           05 071 08453 00: UNIQUE WELL ID
~Curve Information Block
DEPT.FT            0 000 00 00: Depth
DCAL.in                       : CDL Caliper
RHOB.g/cc                     : CDL Bulk Density
RHOC.g/cc                     : CDL Density Correction
DPOR.pu                       : CDL Density Porosity
GR.GAPI                       : Gamma Ray
NPOR.pu                       : Neutron Porosity
~Parameter Information Block
~A  Depth       DCAL        RHOB        RHOC        DPOR         GR         NPOR    
# ...
   962.8000      9.2070      2.5162      0.2723      8.1120    138.3657     34.3510
   962.9000      9.2070      2.4836      0.2210     10.0827    140.9665     34.2550
   963.0000      9.5090      2.4559      0.1639     11.7644    137.5588     33.5330
   963.1000      9.5090      2.4481      0.1034     12.2382    130.7910     31.5823
   963.2000      9.5090      2.4693      0.1462     10.9523    126.4137     29.5539
   963.3000      9.9699      2.4993      0.1786      9.1324    125.2631     28.8229
   963.4000      9.9699      2.5200      0.1015      7.8802    125.0984     29.0641
   963.5000      9.8856      2.5331      0.1248      7.0831    126.4362     29.1866
   963.6000      9.8856      2.5362      0.0995      6.8998    128.8133     29.1363
   963.7000      9.8856      2.5186      0.1483      7.9631    128.0268     29.0947
   963.8000      8.4987      2.4755      0.0721     10.5781    124.3609     28.8420
   963.9000      8.4987      2.4214      0.0058     13.8539    120.4274     28.2844
   964.0000      8.2363      2.3886     -0.0481     15.8431    116.8790     27.4056
   964.1000      8.2363      2.3977     -0.0453     15.2930    114.1704     26.5219
   964.2000      8.2363      2.4235     -0.0009     13.7268    113.5874     26.0539
   964.3000      8.2235      2.4239     -0.0455     13.7003    116.4694     26.3325
   964.4000      8.2235      2.3941     -0.0749     15.5061    120.1780     27.2841
   964.5000      8.2120      2.3495     -0.0197     18.2125    120.2391     28.3480
   964.6000      8.2120      2.3100     -0.0529     20.6038    115.9206     28.4860
   964.7000      8.2120      2.3038     -0.0293     20.9807    112.1753     27.4890
   964.8000      8.2411      2.3334     -0.0123     19.1901    113.0083     26.8267
   964.9000      8.2411      2.3811      0.0101     16.2970    114.1738     27.3186
   965.0000      8.2164      2.4370      0.0630     12.9065    113.0868     28.1940
   965.1000      8.2164      2.4828      0.1427     10.1304    114.7696     28.5064
   965.2000      8.2164      2.4992      0.1659      9.1398    119.8180     28.4446
   965.3000      8.2141      2.4947      0.1676      9.4104    124.8156     28.8521
   965.4000      8.2141      2.4828      0.1861     10.1307    130.6423     29.4518
   965.5000      8.2194      2.4628      0.1683     11.3437    137.7739     29.2764
   965.6000      8.2194      2.4393      0.0717     12.7673    140.1287     28.3090
   965.7000      8.2194      2.4253      0.0239     13.6195    136.2313     27.7563
   965.8000      8.2225      2.4233      0.0291     13.7379    131.7171     28.1984
   965.9000      8.2225      2.4192      0.0858     13.9858    128.5868     29.0101
   966.0000      8.2163      2.4038     -0.0015     14.9219    125.8426     29.6971
   966.1000      8.2163      2.3864      0.0478     15.9737    123.2365     29.7305
   966.2000      8.2163      2.3779      0.0180     16.4927    121.3314     29.1756
   966.3000      8.2159      2.3801      0.0394     16.3599    122.5068     29.0038
   966.4000      8.2159      2.3890     -0.0029     15.8187    128.6262     29.2826
   966.5000      8.2141      2.4074     -0.0144     14.7050    136.5760     29.4188
   966.6000      8.2141      2.4419      0.0151     12.6091    142.3033     29.5443
   966.7000      8.2141      2.4856      0.1079      9.9641    143.0020     29.6473
   966.8000      8.1999      2.5138      0.1603      8.2537    137.7477     29.2729
   966.9000      8.1999      2.5088      0.1155      8.5569    129.7888     28.6047
   967.0000      8.1971      2.4783      0.1075     10.4067    122.5639     28.5273
   967.1000      8.1971      2.4388      0.0912     12.8009    117.2592     28.8092
   967.2000      8.1971      2.4080      0.0253     14.6639    112.2846     28.2017
   967.3000      8.2060      2.3978      0.0592     15.2852    109.0593     26.5076
   967.4000      8.2060      2.4030     -0.0108     14.9711    111.1570     25.0101
   967.5000      8.1975      2.4113      0.0817     14.4654    117.3711     24.6589
   967.6000      8.1975      2.4133      0.0329     14.3450    123.0757     25.2467
   967.7000      8.1975      2.4120      0.0830     14.4260    127.2476     26.1096
   967.8000      8.1936      2.4117      0.1095     14.4413    131.2946     26.9096
   967.9000      8.1936      2.4153      0.1096     14.2234    134.8629     27.7682
   968.0000      8.1944      2.4350      0.1214     13.0324    135.3460     28.6439
   968.1000      8.1944      2.4770      0.1450     10.4860    129.1353     29.1042
   968.2000      8.1944      2.5312      0.1428      7.1996    118.4865     28.6442
   968.3000      8.1884      2.5891      0.1754      3.6887    110.8551     27.3714
   968.4000      8.1884      2.6423      0.2551      0.4641    107.6528     26.5013
   968.5000      8.1761      2.6720      0.2394     -1.3359    106.0017     26.6961
   968.6000      8.1761      2.6799      0.2065     -1.8150    104.4013     27.0837
   968.7000      8.1761      2.6921      0.1491     -2.5512    101.0384     26.9713
   968.8000      8.1693      2.7169      0.1707     -4.0568     93.4851     26.7302
   968.9000      8.1693      2.7358      0.1756     -5.1972     83.3283     26.8021
   969.0000      8.1673      2.7350      0.1083     -5.1545     77.4820     26.7720
   969.1000      8.1673      2.7246      0.0084     -4.5209     80.2650     26.1220
   969.2000      8.1673      2.7198      0.0342     -4.2292     85.3762     25.4394
   969.3000      8.1551      2.7221      0.0216     -4.3721     87.9606     25.0221
   969.4000      8.1551      2.7261      0.0026     -4.6102     89.7594     24.4213
   969.5000      8.1106      2.7221      0.0362     -4.3672     89.7978     23.8898
   969.6000      8.1106      2.6958      0.0704     -2.7745     88.6587     23.8301
   969.7000      8.1106      2.6483     -0.0140      0.1003     88.8364     24.2732
   969.8000      8.1057      2.6005     -0.0438      2.9979     86.6413     25.2932
   969.9000      8.1057      2.5601     -0.0226      5.4514     80.5258     26.3414
   970.0000      8.1034      2.5231     -0.0527      7.6932     78.2714     26.6417
   970.1000      8.1034      2.4938     -0.0324      9.4668     83.4991     26.2622
   970.2000      8.1034      2.4733     -0.0103     10.7077     92.5250     25.7071
   970.3000      8.1063      2.4559     -0.0380     11.7656    102.9941     25.2710
   970.4000      8.1063      2.4461     -0.0105     12.3591    113.6535     24.7993
   970.5000      8.1086      2.4530     -0.0083     11.9412    124.4368     24.0415
   970.6000      8.1086      2.4698      0.0746     10.9214    136.5366     23.5181
   970.7000      8.1086      2.4836      0.0647     10.0875    146.4322     24.0071
   970.8000      8.1005      2.4984      0.1057      9.1850    146.6395     24.8923
   970.9000      8.1005      2.5226      0.1101      7.7194    137.0692     24.9315
   971.0000      8.0885      2.5507      0.1219      6.0194    127.5568     24.6550
   971.1000      8.0885      2.5676      0.1967      4.9940    123.1104     25.1050
   971.2000      8.0885      2.5620      0.1411      5.3358    119.1160     25.6357
   971.3000      8.1004      2.5484      0.0985      6.1595    114.2424     25.6403
   971.4000      8.1004      2.5534      0.0942      5.8544    113.1247     25.6056
   971.5000      8.0847      2.5694      0.1910      4.8838    114.8706     25.9614
   971.6000      8.0847      2.5640      0.1568      5.2109    116.1563     26.4355
   971.7000      8.0847      2.5351      0.0818      6.9611    114.9685     26.7772
   971.8000      8.0875      2.5151      0.0747      8.1783    109.5387     27.1225
   971.9000      8.0875      2.5219      0.1019      7.7662    102.9805     27.3630
   972.0000      8.0885      2.5426      0.1294      6.5081    100.2167     27.0965
   972.1000      8.0885      2.5527      0.1457      5.8944    102.5922     26.3810
   972.2000      8.0885      2.5407      0.0735      6.6259    105.9953     25.6364
   972.3000      8.0873      2.5223      0.0598      7.7419    104.2742     25.1130
