~Version Information
VERS.                      2.0: CWLS Log ASCII Standard - VERSION 2.0
WRAP.                       NO: One line per depth step
~Well Information Block
STRT.FT               845.0000: 
STOP.FT              2102.0000: 
STEP.FT                 0.1000: 
NULL.                -999.2500: 
COMP.          Petrogulf Corporation: COMPANY
WELL.               YWAM 7-32R: WELL
FLD.           Purgatorie River: FIELD
LOC.           2355' FNL & 2376' FEL: LOCATION
PROV.                 Colorado: PROVINCE
CNTY.               Las Animas: COUNTRY
SRVC.                Patterson: SERVICE COMPANY
DATE.          Fri Sep 30 11:07:31 2005: LOG DATE
UWI.                          : UNIQUE WELL ID
~Curve Information Block
DEPT.FT            0 000 00 00: Depth
DCAL.in                       : CDL Caliper
RHOB.g/cc                     : CDL Bulk Density
RHOC.g/cc                     : CDL Density Correction
DPOR.pu                       : CDL Density Porosity
GR.GAPI                       : Gamma Ray
NPOR.pu                       : Neutron Porosity
~Parameter Information Block
~A  Depth       DCAL        RHOB        RHOC        DPOR         GR         NPOR    
# ...
  1507.4000      8.0123      2.4463      0.0945     12.3430     87.1437     20.8196
  1507.5000      8.0310      2.3140     -0.0100     20.3612     86.8542     21.0802
  1507.6000      8.0310      2.1496     -0.0443     30.3284     88.1067     21.7617
  1507.7000      8.0310      2.0028     -0.1440     39.2241     87.4073     22.6977
  1507.8000      8.0257      1.8821     -0.1286     46.5420     84.9011     23.5813
  1507.9000      8.0257      1.7637     -0.1632     53.7134     84.2752     24.2897
  1508.0000      7.9892      1.6573     -0.2247     60.1657     86.0444     25.1012
  1508.1000      7.9892      1.6123     -0.1699     62.8899     86.5786     26.2990
  1508.2000      7.9892      1.6491     -0.0777     60.6624     84.6508     27.6664
  1508.3000      8.0746      1.7389      0.0830     55.2161     82.4807     28.8639
  1508.4000      8.0746      1.8569      0.1038     48.0691     82.9343     29.7781
  1508.5000      8.4185      1.9917      0.2062     39.8966     84.3210     30.4034
  1508.6000      8.4185      2.1132      0.1990     32.5324     82.5454     30.8678
  1508.7000      8.4185      2.2057      0.1776     26.9297     79.9998     31.2874
  1508.8000      8.4033      2.2914      0.1923     21.7320     80.7531     31.4973
  1508.9000      8.4033      2.3842      0.2383     16.1083     83.3317     31.3036
  1509.0000      8.1277      2.4723      0.1928     10.7705     88.2395     30.6375
  1509.1000      8.1277      2.5419      0.0782      6.5502     96.4077     29.6340
  1509.2000      8.1277      2.5837      0.0743      4.0174    103.8466     28.8035
  1509.3000      8.1066      2.5954      0.0544      3.3084    107.1574     28.2886
  1509.4000      8.1066      2.5847      0.0544      3.9599    107.8223     27.7833
  1509.5000      7.9547      2.5627      0.0323      5.2894    109.5224     27.1357
  1509.6000      7.9547      2.5471     -0.0203      6.2366    112.0949     26.2557
  1509.7000      7.9547      2.5505      0.0106      6.0322    112.0519     25.1989
  1509.8000      7.9653      2.5676     -0.0136      4.9965    110.1839     24.2582
  1509.9000      7.9653      2.5849     -0.0014      3.9466    109.8876     23.6290
  1510.0000      7.9757      2.5944      0.0509      3.3689    111.8586     23.2285
  1510.1000      7.9757      2.6007      0.0298      2.9892    114.9781     22.9488
  1510.2000      7.9757      2.6066      0.0565      2.6317    116.7362     22.8337
  1510.3000      7.9797      2.6031      0.0160      2.8429    117.1998     22.9145
  1510.4000      7.9797      2.5889      0.0162      3.7042    120.1180     23.3089
  1510.5000      7.9576      2.5729     -0.0070      4.6699    125.2610     23.9368
  1510.6000      7.9576      2.5616     -0.0032      5.3604    128.7383     24.3956
  1510.7000      7.9576      2.5554      0.0020      5.7303    130.3612     24.4078
  1510.8000      7.9781      2.5556     -0.0067      5.7214    133.7441     24.1856
  1510.9000      7.9781      2.5560      0.0415      5.6970    138.8704     24.2098
  1511.0000      8.0503      2.5453     -0.0002      6.3442    140.9708     24.5697
  1511.1000      8.0503      2.5321     -0.0212      7.1467    139.5541     24.9654
  1511.2000      8.0503      2.5300      0.0021      7.2751    140.0297     25.1881
  1511.3000      8.1284      2.5369      0.0040      6.8564    142.1118     25.1845
  1511.4000      8.1284      2.5469      0.0248      6.2471    141.8628     25.0355
  1511.5000      8.0792      2.5583      0.0495      5.5573    143.1848     25.1144
  1511.6000      8.0792      2.5688      0.0532      4.9225    150.2352     25.6178
  1511.7000      8.0792      2.5755      0.0071      4.5126    158.8419     26.2785
  1511.8000      8.0692      2.5789      0.0053      4.3089    162.8233     26.7800
  1511.9000      8.0692      2.5778      0.0426      4.3747    162.6638     26.9408
  1512.0000      8.0662      2.5758      0.0164      4.4996    161.5602     26.8552
  1512.1000      8.0662      2.5811      0.0333      4.1776    158.0728     26.8090
  1512.2000      8.0662      2.5942      0.0364      3.3824    149.8749     26.6330
  1512.3000      8.0818      2.6087      0.0198      2.5040    139.7696     26.0466
  1512.4000      8.0818      2.6172      0.0409      1.9888    130.4182     25.3701
  1512.5000      8.0672      2.6161      0.0121      2.0561    120.7964     24.8656
  1512.6000      8.0672      2.6126      0.0061      2.2638    112.2842     24.3247
  1512.7000      8.0672      2.6143      0.0237      2.1610    107.5374     23.7166
  1512.8000      8.0453      2.6169      0.0210      2.0068    104.9575     23.3430
  1512.9000      8.0453      2.6146      0.0088      2.1472    100.9763     23.3907
  1513.0000      7.9679      2.6072      0.0148      2.5931     95.1608     23.5968
  1513.1000      7.9679      2.5962     -0.0083      3.2627     91.1951     23.6144
  1513.2000      7.9679      2.5849     -0.0107      3.9432     89.6969     23.2871
  1513.3000      7.9727      2.5772      0.0321      4.4124     88.1059     22.7475
  1513.4000      7.9727      2.5679      0.0485      4.9765     86.7649     22.4275
  1513.5000      7.9838      2.5506      0.0022      6.0255     86.8184     22.5458
  1513.6000      7.9838      2.5353     -0.0129      6.9535     87.7646     22.8195
  1513.7000      7.9838      2.5354     -0.0144      6.9469     87.6934     22.7707
  1513.8000      8.0142      2.5463      0.0040      6.2873     85.2023     22.1753
  1513.9000      8.0142      2.5536      0.0189      5.8413     81.8640     21.6122
  1514.0000      8.0169      2.5586      0.0311      5.5401     80.4161     21.8184
  1514.1000      8.0169      2.5766      0.0232      4.4481     82.0775     22.5739
  1514.2000      8.0169      2.6104      0.1020      2.4024     84.6295     23.2544
  1514.3000      7.9846      2.6403      0.1362      0.5880     85.7851     23.5289
  1514.4000      7.9846      2.6496      0.0919      0.0218     85.1654     23.4858
  1514.5000      8.0210      2.6363      0.1118      0.8280     83.2752     23.4007
  1514.6000      8.0210      2.6023      0.1020      2.8885     82.9546     23.2680
  1514.7000      8.0210      2.5617      0.0100      5.3529     86.1148     22.9992
  1514.8000      8.0278      2.5344      0.0232      7.0053     90.6643     22.5983
  1514.9000      8.0278      2.5258     -0.0193      7.5261     92.9713     22.1585
  1515.0000      8.0065      2.5319      0.0160      7.1582     91.4759     21.8747
  1515.1000      8.0065      2.5462      0.0066      6.2886     88.2115     21.8826
  1515.2000      8.0065      2.5647      0.0367      5.1703     88.0948     22.1972
  1515.3000      7.9916      2.5796      0.0248      4.2651     92.5595     22.4807
  1515.4000      7.9916      2.5720      0.0833      4.7262     97.1038     22.3718
  1515.5000      8.0035      2.5396      0.0122      6.6922     97.6802     22.2740
  1515.6000      8.0035      2.5144     -0.0251      8.2166     95.0752     22.7048
  1515.7000      8.0035      2.5162     -0.0141      8.1081     93.4357     23.3932
  1515.8000      7.9837      2.5226      0.0270      7.7185     95.3535     23.7026
  1515.9000      7.9837      2.5110     -0.0080      8.4264     97.8643     23.5043
  1516.0000      8.0064      2.4945     -0.0418      9.4242     95.9332     23.2621
  1516.1000      8.0064      2.4931     -0.0115      9.5114     90.0052     23.3057
  1516.2000      8.0064      2.5030      0.0167      8.9095     83.4205     23.3607
  1516.3000      8.0367      2.5155      0.0152      8.1532     78.1470     23.1097
  1516.4000      8.0367      2.5267      0.0377      7.4750     74.7088     22.7420
  1516.5000      8.0471      2.5282      0.0349      7.3808     72.5825     22.6301
  1516.6000      8.0471      2.5152      0.0107      8.1669     71.0868     22.7945
  1516.7000      8.0471      2.4975     -0.0043      9.2445     70.3737     23.0382
  1516.8000      8.0501      2.4916     -0.0236      9.6003     70.1284     23.1734
  1516.9000      8.0501      2.5022      0.0141      8.9590     68.2828     22.9920
