~Version Information
VERS.                      2.0: CWLS Log ASCII Standard - VERSION 2.0
WRAP.                       NO: One line per depth step
~Well Information Block
STRT.FT                -5.0000: 
STOP.FT               912.2500: 
STEP.FT                 0.2500: 
NULL.                -999.2500: 
COMP.          Pioneer Natural Resources: COMPANY
WELL.               Ernie 31-6: WELL
FLD.           Purgatoire River: FIELD
LOC.           681' FNL & 2138' FEL: LOCATION
CNTY.               Las Animas: COUNTY
SRVC.                         : SERVICE COMPANY
DATE.          Tue Jun 27 10:36:58 2006: LOG DATE
UWI.           05 071 08716 00: UNIQUE WELL ID
STAT.                       CO: STATE
~Curve Information Block
DEPT.FT            0 000 00 00: Depth
GR.GAPI                       : Gamma Ray
CCL.                          : Casing Collar Locator
TT3.usec                      : CBL 3' Travel Time
AMP3.mV                       : CBL 3' Amplitude
~Parameter Information Block
~A  Depth        GR         CCL         TT3         AMP3    
# ...
    95.5000     76.7978      0.0000    777.4358      6.4573
    95.7500     72.9329      0.0000    841.5527      6.2873
    96.0000     72.5163      0.0000    883.8596      6.1077
    96.2500     74.7052      0.0000    886.6033      5.9771
    96.5000     77.8684      0.0000    859.9344      5.9208
    96.7500     81.1050      0.0000    830.6877      5.9317
    97.0000     84.7065      0.0000    817.6213      5.9894
    97.2500     89.5308      0.0000    820.5234      6.0752
    97.5000     95.9168      0.0000    829.3302      6.1731
    97.7500    102.7641      0.0000    836.5501      6.2638
    98.0000    107.6857      0.0000    840.5884      6.3239
    98.2500    108.6592      0.0000    842.6569      6.3325
    98.5000    105.8531      0.0000    843.9028      6.2864
    98.7500    101.6354      0.0000    844.7122      6.2087
    99.0000     98.6161      0.0000    844.7993      6.1392
    99.2500     97.7912      0.0000    842.8924      6.1079
    99.5000     98.5511      0.0000    836.0320      6.1195
    99.7500     99.9754      0.0000    819.6590      6.1585
   100.0000    101.5133      0.0000    789.9155      6.2042
   100.2500    102.5175      0.0000    747.6655      6.2412
   100.5000    101.9043      0.0000    700.4591      6.2624
   100.7500     98.7107      0.0000    658.9003      6.2663
   101.0000     92.7526      0.0000    629.8607      6.2516
   101.2500     84.6420      0.0000    613.4703      6.2159
   101.5000     75.5705      0.0000    606.5989      6.1616
   101.7500     67.2312      0.0000    608.2260      6.1055
   102.0000     61.5183      0.0000    620.9755      6.0746
   102.2500     59.7454      0.0000    647.8286      6.0879
   102.5000     61.8773      0.0000    687.3186      6.1431
   102.7500     66.6039      0.0000    731.8770      6.2248
   103.0000     72.4065      0.0000    771.5036      6.3217
   103.2500     78.5897      0.0000    799.6472      6.4334
   103.5000     85.1010      0.0000    815.7201      6.5618
   103.7500     91.5479      0.0000    822.5183      6.6986
   104.0000     96.8317      0.0000    821.6560      6.8220
   104.2500     99.7162      0.0000    811.0924      6.9095
   104.5000     99.4887      0.0000    786.9224      6.9577
   104.7500     96.3143      0.0000    748.3918      6.9901
   105.0000     91.3579      0.0000    701.5364      7.0458
   105.2500     86.3974      0.0000    657.0792      7.1545
   105.5000     82.8550      0.0000    624.1870      7.3151
   105.7500     81.0101      0.0000    606.4421      7.4966
   106.0000     80.1746      0.0000    603.7103      7.6617
   106.2500     79.5267      0.0000    616.6852      7.7883
   106.5000     78.8423      0.0000    648.1945      7.8733
   106.7500     78.7510      0.0000    698.8920      7.9256
   107.0000     80.2897      0.0000    761.4157      7.9616
   107.2500     83.8533      0.0000    820.6859      8.0008
   107.5000     88.6852      0.0000    863.4774      8.0580
   107.7500     93.7949      0.0000    889.3850      8.1305
   108.0000     98.9991      0.0000    910.0696      8.1899
   108.2500    104.4652      0.0000    934.3998      8.1903
   108.5000    109.6442      0.0000    954.8695      8.0965
   108.7500    113.4704      0.0000    952.7153      7.9096
   109.0000    115.4521      0.0000    919.9038      7.6669
   109.2500    116.0647      0.0000    874.6129      7.4176
   109.5000    116.1141      0.0000    849.0695      7.1918
   109.7500    115.7537      0.0000    859.0161      6.9837
   110.0000    114.1958      0.0000    888.8358      6.7672
   110.2500    110.7814      0.0000    909.3607      6.5329
   110.5000    106.2254      0.0000    906.0547      6.3083
   110.7500    102.2684      0.0000    886.3227      6.1342
   111.0000    100.2905      0.0000    865.0066      6.0308
   111.2500    100.5797      0.0000    850.0549      5.9870
   111.5000    102.4664      0.0000    840.8101      5.9748
   111.7500    104.6994      0.0000    833.5217      5.9671
   112.0000    106.0282      0.0000    825.8357      5.9499
   112.2500    105.8769      0.0000    817.8467      5.9238
   112.5000    104.5503      0.0000    810.9550      5.8986
   112.7500    102.9936      0.0000    806.2042      5.8833
   113.0000    102.4272      0.0000    803.5798      5.8791
   113.2500    103.7297      0.0000    802.5051      5.8738
   113.5000    106.6518      0.0000    802.7133      5.8470
   113.7500    109.6545      0.0000    804.6348      5.7892
   114.0000    110.7901      0.0000    808.9237      5.7171
   114.2500    108.8456      0.0000    815.4310      5.6636
   114.5000    103.9184      0.0000    822.5920      5.6521
   114.7500     97.4694      0.0000    828.1469      5.6805
   115.0000     91.8722      0.0000    830.8111      5.7271
   115.2500     89.2351      0.0000    831.2832      5.7637
   115.5000     90.1608      0.0000    831.4938      5.7734
   115.7500     93.5622      0.0000    832.8157      5.7623
   116.0000     97.4854      0.0000    835.0781      5.7590
   116.2500     99.9719      0.0000    837.0290      5.7947
   116.5000     99.6822      0.0000    837.1423      5.8820
   116.7500     96.5575      0.0000    833.6802      6.0107
   117.0000     92.2001      0.0000    825.0011      6.1628
   117.2500     89.0846      0.0000    811.6269      6.3238
   117.5000     88.7552      0.0000    798.5529      6.4786
   117.7500     90.7451      0.0000    793.3538      6.6063
   118.0000     93.4931      0.0000    799.7168      6.6884
   118.2500     96.2348      0.0000    813.5444      6.7252
   118.5000     99.5846      0.0000    826.8549      6.7396
   118.7500    104.1649      0.0000    834.6459      6.7600
   119.0000    109.1412      0.0000    837.2663      6.7977
   119.2500    112.5280      0.0000    837.7845      6.8424
   119.5000    112.7903      0.0000    838.5562      6.8757
   119.7500    109.9291      0.0000    839.9088      6.8839
   120.0000    105.1499      0.0000    840.7782      6.8588
   120.2500     99.7142      0.0000    839.6377      6.7945
   120.5000     94.1379      0.0000    834.5580      6.6896
   120.7500     88.3008      0.0000    823.2209      6.5533
   121.0000     82.1052      0.0000    804.5339      6.4146
   121.2500     76.0364      0.0000    781.0647      6.3156
   121.5000     71.2301      0.0000    759.2070      6.2863
   121.7500     68.8942      0.0000    746.1299      6.3231
   122.0000     69.3589      0.0000    746.6307      6.3921
   122.2500     71.5377      0.0000    761.9371      6.4487
   122.5000     73.4982      0.0000    790.1184      6.4582
   122.7500     73.9127      0.0000    827.6803      6.4127
   123.0000     72.9895      0.0000    870.3165      6.3328
   123.2500     71.8657      0.0000    910.6453      6.2491
   123.5000     71.3792      0.0000    937.6859      6.1788
   123.7500     71.8166      0.0000    943.4645      6.1192
   124.0000     73.5636      0.0000    930.1694      6.0550
   124.2500     77.1373      0.0000    907.8343      5.9728
   124.5000     82.1150      0.0000    885.6147      5.8720
   124.7500     86.4630      0.0000    867.2849      5.7601
   125.0000     87.7997      0.0000    852.8189      5.6418
   125.2500     85.6493      0.0000    840.5838      5.5160
   125.5000     81.9424      0.0000    827.8328      5.3869
   125.7500     79.0204      0.0000    811.8936      5.2692
   126.0000     77.6317      0.0000    793.3116      5.1794
   126.2500     77.0323      0.0000    778.7077      5.1238
   126.5000     76.3399      0.0000    778.5736      5.0980
   126.7500     75.2077      0.0000    797.6637      5.0960
   127.0000     73.5327      0.0000    825.2320      5.1109
   127.2500     71.2386      0.0000    838.3463      5.1249
   127.5000     68.6484      0.0000    819.8212      5.1130
   127.7500     66.7422      0.0000    773.4442      5.0632
   128.0000     66.5960      0.0000    720.8682      4.9896
   128.2500     68.4238      0.0000    684.6750      4.9214
   128.5000     71.2409      0.0000    673.8693      4.8805
   128.7500     73.5593      0.0000    682.0635      4.8693
