~Version Information
VERS.                      2.0: CWLS Log ASCII Standard - VERSION 2.0
WRAP.                       NO: One line per depth step
~Well Information Block
STRT.FT               400.0000: 
STOP.FT              2232.0000: 
STEP.FT                 0.2500: 
NULL.                -999.2500: 
COMP.          Evergreen Operating Corporation: COMPANY
WELL.                Croc 42-9: WELL
FLD.           Purgatorie River: FIELD
LOC.           2262' FNL & 238' FEL: LOCATION
STAT.                 Colorado: State
CNTY.               Las Animas: COUNTY
CTRY. USA : Country
SECT. 9 : Section
TOWN. 32S : Township
RANG. 66W : Range
SRVC.                Patterson: SERVICE COMPANY
DATE.          Wed Jul 21 23:25:54 2004: LOG DATE
API.           05 071 08106 00: UNIQUE WELL ID
~Curve Information Block
DEPT.FT            0 000 00 00: Depth
SN.Ohm-m                      : IEL Short Normal
SP.mV                         : IEL Spontaneous Potential
DIR.Ohm-m                     : IEL Induction Resistivity
GR.GAPI                       : Gamma Ray
~Parameter Information Block
~A  Depth        SN          SP         DIR          GR     
# ...
  1740.0000     24.2161    111.8713     21.5277     71.6695
  1740.2500     23.6935    112.0059     21.3852     78.4691
  1740.5000     23.1761    112.1547     21.2226     87.6694
  1740.7500     22.7632    112.3061     21.0435     92.4089
  1741.0000     22.5199    112.4522     20.8535     96.5004
  1741.2500     22.4417    112.5957     20.6667     96.9967
  1741.5000     22.4513    112.7427     20.5016     95.1261
  1741.7500     22.4550    112.8874     20.3709     93.0664
  1742.0000     22.4101    113.0035     20.2753     90.0984
  1742.2500     22.3239    113.0517     20.2072     88.4189
  1742.5000     22.2054    113.0007     20.1566     86.0269
  1742.7500     22.0465    112.8486     20.1141     84.2810
  1743.0000     21.8548    112.6288     20.0686     81.3434
  1743.2500     21.6663    112.3926     20.0052     79.3150
  1743.5000     21.5109    112.1840     19.9097     76.5714
  1743.7500     21.3943    112.0216     19.7779     75.1437
  1744.0000     21.3148    111.8958     19.6231     73.7405
  1744.2500     21.2576    111.7802     19.4719     73.2294
  1744.5000     21.1941    111.6499     19.3494     72.9076
  1744.7500     21.1216    111.4929     19.2671     73.0739
  1745.0000     21.0800    111.3070     19.2205     74.6012
  1745.2500     21.1016    111.0913     19.1971     76.8518
  1745.5000     21.1750    110.8452     19.1854     81.4959
  1745.7500     21.2687    110.5788     19.1802     84.2049
  1746.0000     21.3568    110.3180     19.1795     85.3214
  1746.2500     21.4198    110.0918     19.1778     83.5782
  1746.5000     21.4611    109.9113     19.1631     78.4109
  1746.7500     21.5235    109.7634     19.1267     74.5165
  1747.0000     21.6485    109.6297     19.0792     69.5085
  1747.2500     21.8355    109.5068     19.0550     66.9752
  1747.5000     22.0633    109.4054     19.0925     64.2654
  1747.7500     22.3145    109.3316     19.2052     63.0455
  1748.0000     22.5621    109.2717     19.3756     61.6273
  1748.2500     22.7769    109.1985     19.5811     60.4963
  1748.5000     22.9678    109.0943     19.8275     57.9236
  1748.7500     23.1831    108.9691     20.1496     55.7811
  1749.0000     23.4603    108.8553     20.5760     52.9651
  1749.2500     23.7972    108.7837     21.0925     51.8331
  1749.5000     24.1629    108.7634     21.6384     51.1788
  1749.7500     24.5250    108.7778     22.1375     51.1563
  1750.0000     24.8704    108.7935     22.5359     51.5600
  1750.2500     25.2023    108.7761     22.8192     52.1343
  1750.5000     25.5099    108.7053     23.0036     53.2396
  1750.7500     25.7499    108.5877     23.1191     53.8643
  1751.0000     25.8786    108.4580     23.1981     54.1832
  1751.2500     25.9048    108.3679     23.2737     53.8740
  1751.5000     25.9010    108.3629     23.3805     53.0029
  1751.7500     25.9535    108.4601     23.5449     52.7731
  1752.0000     26.1029    108.6371     23.7680     54.2599
  1752.2500     26.3273    108.8417     24.0106     56.8177
  1752.5000     26.5671    109.0159     24.2016     62.0420
  1752.7500     26.7658    109.1209     24.2732     65.1856
  1753.0000     26.9067    109.1514     24.2031     67.6812
  1753.2500     27.0141    109.1342     24.0303     67.8591
  1753.5000     27.1142    109.1148     23.8325     67.0861
  1753.7500     27.2085    109.1391     23.6834     66.4147
  1754.0000     27.2915    109.2377     23.6206     65.2515
  1754.2500     27.3739    109.4167     23.6377     64.3795
  1754.5000     27.4622    109.6594     23.6989     63.7947
  1754.7500     27.5264    109.9364     23.7633     64.8717
  1755.0000     27.5018    110.2204     23.8049     70.4993
  1755.2500     27.3260    110.4947     23.8200     77.6685
  1755.5000     27.0033    110.7480     23.8219     93.5076
  1755.7500     26.6317    110.9661     23.8272    106.0905
  1756.0000     26.3527    111.1325     23.8432    123.0565
  1756.2500     26.2791    111.2394     23.8652    129.7624
  1756.5000     26.4366    111.2952     23.8829    129.8309
  1756.7500     26.7645    111.3204     23.8898    123.9124
  1757.0000     27.1720    111.3376     23.8902    110.2383
  1757.2500     27.5699    111.3645     23.9028    100.6879
  1757.5000     27.8698    111.4071     23.9605     89.5530
  1757.7500     28.0037    111.4579     24.1005     85.8239
  1758.0000     27.9764    111.5016     24.3427     87.0500
  1758.2500     27.8914    111.5279     24.6685     91.9377
  1758.5000     27.8902    111.5374     25.0173    101.9667
  1758.7500     28.0480    111.5345     25.3148    107.5273
  1759.0000     28.3245    111.5171     25.5196    110.2791
  1759.2500     28.6124    111.4767     25.6484    107.9821
  1759.5000     28.8288    111.4108     25.7544    100.4903
  1759.7500     28.9571    111.3324     25.8748     94.4038
  1760.0000     29.0246    111.2633     25.9959     85.1025
  1760.2500     29.0727    111.2159     26.0604     78.9280
  1760.5000     29.1408    111.1835     26.0123     69.9388
  1760.7500     29.2527    111.1496     25.8412     64.6183
  1761.0000     29.3992    111.1078     25.5988     58.5496
  1761.2500     29.5465    111.0698     25.3821     55.8657
  1761.5000     29.6832    111.0568     25.2995     53.2953
  1761.7500     29.8448    111.0856     25.4273     52.2017
  1762.0000     30.0778    111.1595     25.7703     51.3558
  1762.2500     30.3837    111.2669     26.2470     51.4344
  1762.5000     30.7128    111.3875     26.7137     52.8818
  1762.7500     31.0194    111.5047     27.0206     55.0990
  1763.0000     31.3044    111.6153     27.0637     60.9001
  1763.2500     31.5913    111.7295     26.8052     66.1742
  1763.5000     31.8761    111.8610     26.2634     73.8977
  1763.7500     32.0783    112.0155     25.4943     76.9415
  1764.0000     32.0387    112.1891     24.5749     76.3245
  1764.2500     31.5925    112.3785     23.5889     73.1795
  1764.5000     30.6574    112.5890     22.6150     68.6989
  1764.7500     29.2909    112.8342     21.7140     69.0735
  1765.0000     27.6841    113.1288     20.9184     78.6279
  1765.2500     26.0670    113.4784     20.2278     91.3591
  1765.5000     24.5931    113.8674     19.6166    117.1971
  1765.7500     23.2922    114.2555     19.0501    136.1557
  1766.0000     22.0992    114.5902     18.5007    162.4817
  1766.2500     20.9285    114.8315     17.9569    176.6064
  1766.5000     19.7541    114.9723     17.4220    191.2815
  1766.7500     18.6451    115.0409     16.9104    197.2588
  1767.0000     17.7296    115.0844     16.4430    202.6866
  1767.2500     17.1357    115.1444     16.0455    204.9520
  1767.5000     16.9517    115.2384     15.7462    206.4428
  1767.7500     17.1857    115.3565     15.5712    205.4751
  1768.0000     17.7283    115.4712     15.5370    200.0264
  1768.2500     18.3830    115.5566     15.6451    194.0174
  1768.5000     18.9894    115.6021     15.8784    183.6015
  1768.7500     19.5139    115.6146     16.2038    177.0872
  1769.0000     19.9984    115.6100     16.5796    168.9209
  1769.2500     20.4761    115.6019     16.9657    164.2686
  1769.5000     20.9555    115.5957     17.3335    157.3802
  1769.7500     21.4454    115.5897     17.6682    152.2334
  1770.0000     21.9666    115.5802     17.9662    143.3550
  1770.2500     22.5277    115.5656     18.2315    137.0284
  1770.5000     23.0977    115.5472     18.4737    127.7657
  1770.7500     23.6114    115.5281     18.7060    121.9316
  1771.0000     24.0009    115.5139     18.9416    113.7542
  1771.2500     24.2334    115.5114     19.1874    108.8423
  1771.5000     24.3135    115.5229     19.4405    102.5689
  1771.7500     24.2486    115.5412     19.6868     99.0730
  1772.0000     24.0416    115.5533     19.9032     94.4764
  1772.2500     23.7257    115.5491     20.0599     91.5653
  1772.5000     23.3610    115.5264     20.1273     86.9332
  1772.7500     22.9865    115.4866     20.0866     83.4521
  1773.0000     22.6328    115.4302     19.9405     77.7465
  1773.2500     22.3578    115.3554     19.7166     74.0712
