~Version Information
VERS.                      2.0: CWLS Log ASCII Standard - VERSION 2.0
WRAP.                       NO: One line per depth step
~Well Information Block
STRT.FT                -8.0000: 
STOP.FT              1472.2500: 
STEP.FT                 0.2500: 
NULL.                -999.2500: 
COMP.          Pioneer Natural Resources: COMPANY
WELL.           Amore 32-09 Tr: WELL
FLD.           Purgatoire River: FIELD
LOC.           1941' FNL & 2297' FEL--: LOCATION
PROV.                       CO: PROVINCE
CNTY.               Las Animas: COUNTRY
SRVC.          Patterson Wireline: SERVICE COMPANY
DATE.          Tue Nov 22 11:37:00 2005: LOG DATE
UWI.           05 071 08584 00: UNIQUE WELL ID
~Curve Information Block
DEPT.FT            0 000 00 00: Depth
CCL.                          : Casing Collar Locator
TT3.usec                      : CBL 3' Travel Time
AMP3.mV                       : CBL 3' Amplitude
GR.GAPI                       : Gamma Ray
~Parameter Information Block
~A  Depth       CCL         TT3         AMP3         GR     
# ...
  1131.0000      0.0000    586.3853      8.5758    114.8092
  1131.2500      0.0000    554.2345      8.5284    111.4067
  1131.5000      0.0000    543.1426      8.4699    108.4461
  1131.7500      0.0000    561.9026      8.4256    107.0278
  1132.0000      0.0000    600.8560      8.4268    107.2992
  1132.2500      0.0000    640.4761      8.4874    108.8354
  1132.5000      0.0000    667.4247      8.5902    111.6291
  1132.7500      0.0000    680.5922      8.6938    116.2041
  1133.0000      0.0000    684.9236      8.7486    122.6802
  1133.2500      0.0000    684.9374      8.7134    130.0040
  1133.5000      0.0000    684.6257      8.5714    136.2633
  1133.7500      0.0000    688.4724      8.3443    139.8081
  1134.0000      0.0000    698.6852      8.0893    140.2326
  1134.2500      0.0000    712.5471      7.8767    138.6151
  1134.5000      0.0000    724.8525      7.7668    136.9313
  1134.7500      0.0000    732.4815      7.7912    136.8856
  1135.0000      0.0000    735.7416      7.9372    138.7504
  1135.2500      0.0000    736.2999      8.1508    141.1630
  1135.5000      0.0000    735.0074      8.3578    142.2047
  1135.7500      0.0000    731.2208      8.4862    140.8464
  1136.0000      0.0000    723.6589      8.4803    137.4369
  1136.2500      0.0000    712.5946      8.3204    133.0025
  1136.5000      0.0000    701.8322      8.0418    128.2614
  1136.7500      0.0000    697.2153      7.7294    123.3556
  1137.0000      0.0000    701.6573      7.4802    118.3261
  1137.2500      0.0000    712.1916      7.3602    113.5717
  1137.5000      0.0000    722.9375      7.3887    109.8236
  1137.7500      0.0000    730.1136      7.5545    107.8772
  1138.0000      0.0000    733.5571      7.8402    108.2625
  1138.2500      0.0000    734.8261      8.2226    110.8348
  1138.5000      0.0000    735.1934      8.6438    114.5618
  1138.7500      0.0000    734.9927      8.9861    117.9365
  1139.0000      0.0000    733.9080      9.0775    119.8920
  1139.2500      0.0000    731.6928      8.7552    120.4057
  1139.5000      0.0000    729.0471      7.9810    119.9618
  1139.7500      0.0000    727.8705      6.9321    118.2975
  1140.0000      0.0000    730.3035      5.9397    114.0840
  1140.2500      0.0000    736.8789      5.2806    106.4171
  1140.5000      0.0000    745.5680      5.0155     96.6106
  1140.7500      0.0000    753.2581      5.0291     88.0429
  1141.0000      0.0000    758.3266      5.1850     84.0093
  1141.2500      2.0000    760.7205      5.4070     85.6854
  1141.5000      0.0000    759.3106      5.6583     91.8418
  1141.7500      0.0000    751.1134      5.9156    100.0413
  1142.0000      0.0000    734.8005      6.1719    107.9914
  1142.2500      0.0000    714.2076      6.4222    114.3091
  1142.5000      0.0000    696.6873      6.6272    118.7321
  1142.7500      0.0000    687.2967      6.7243    121.8630
  1143.0000      0.0000    684.8113      6.6898    124.4118
  1143.2500      0.0000    683.6316      6.5675    126.4317
  1143.5000      0.0000    679.5595      6.4271    127.3504
  1143.7500      0.0000    673.8260      6.3123    126.7579
  1144.0000      0.0000    671.7667      6.2332    124.8930
  1144.2500      0.0000    677.1478      6.1877    122.2491
  1144.5000      0.0000    687.4530      6.1770    119.2800
  1144.7500      0.0000    695.3487      6.2028    116.9912
  1145.0000      0.0000    695.1907      6.2592    117.2473
  1145.2500      0.0000    687.5171      6.3327    121.4454
  1145.5000      0.0000    677.3201      6.4094    128.6994
  1145.7500      0.0000    669.2009      6.4813    135.8046
  1146.0000      0.0000    664.6816      6.5454    139.4916
  1146.2500      0.0000    662.9063      6.5971    138.9817
  1146.5000      0.0000    662.4688      6.6272    136.2984
  1146.7500      0.0000    662.3832      6.6237    134.2174
  1147.0000      0.0000    662.0373      6.5816    134.3061
  1147.2500      0.0000    660.7692      6.5074    136.5887
  1147.5000      0.0000    657.6787      6.4114    140.0711
  1147.7500      0.0000    652.0835      6.2946    143.2648
  1148.0000      0.0000    644.6802      6.1514    144.8642
  1148.2500      0.0000    638.5449      5.9860    144.4562
  1148.5000      0.0000    638.3957      5.8208    142.6932
  1148.7500      0.0000    647.6206      5.6935    140.7731
  1149.0000      0.0000    665.2748      5.6492    139.5523
  1149.2500      0.0000    686.2562      5.7228    138.6613
  1149.5000      0.0000    704.7546      5.9075    136.2992
  1149.7500      0.0000    717.3557      6.1445    130.4599
  1150.0000      0.0000    723.4468      6.3596    121.0209
  1150.2500      0.0000    724.3729      6.5096    110.5445
  1150.5000      0.0000    722.9373      6.5912    102.5810
  1150.7500      0.0000    722.4211      6.6149     99.1433
  1151.0000      0.0000    724.6282      6.5836     99.7375
  1151.2500      0.0000    728.8242      6.4957    102.3402
  1151.5000      0.0000    732.9869      6.3681    104.9814
  1151.7500      0.0000    735.7977      6.2488    106.5532
  1152.0000      0.0000    737.2461      6.1905    106.5641
  1152.2500      0.0000    737.9199      6.2039    104.6417
  1152.5000      0.0000    738.2532      6.2505    100.6853
  1152.7500      0.0000    738.2816      6.2838     95.4774
  1153.0000      0.0000    737.6576      6.2897     90.7691
  1153.2500      0.0000    735.6534      6.2823     88.4259
  1153.5000      0.0000    731.2767      6.2690     89.2836
  1153.7500      0.0000    723.9319      6.2245     92.6428
  1154.0000      0.0000    714.5565      6.1045     96.8658
  1154.2500      0.0000    706.2119      5.8828    100.5868
  1154.5000      0.0000    703.2601      5.5704    103.4549
  1154.7500      0.0000    709.7658      5.2073    105.8208
  1155.0000      0.0000    727.5512      4.8646    107.8295
  1155.2500      0.0000    753.6210      4.6630    109.0765
  1155.5000      0.0000    778.8931      4.7466    109.3490
  1155.7500      0.0000    792.3833      5.1892    109.3945
  1156.0000      0.0000    789.8335      5.9236    110.5154
  1156.2500      0.0000    777.5317      6.7814    113.5268
  1156.5000      0.0000    764.6406      7.6156    118.2835
  1156.7500      0.0000    751.4881      8.4022    123.9857
  1157.0000      0.0000    729.4553      9.2236    129.9015
  1157.2500      0.0000    695.4142     10.1113    136.0973
  1157.5000      0.0000    662.5052     10.8942    143.2570
  1157.7500      0.0000    649.7005     11.2943    151.1823
  1158.0000      0.0000    659.6549     11.2255    157.7070
  1158.2500      0.0000    672.1010     10.9221    159.8942
  1158.5000      0.0000    661.4514     10.7246    156.4645
  1158.7500      0.0000    619.1123     10.7914    148.9316
  1159.0000      0.0000    559.2308     11.0334    140.7171
  1159.2500      0.0000    506.7740     11.2561    135.1544
  1159.5000      0.0000    480.9164     11.3179    133.4140
  1159.7500      0.0000    485.3586     11.1935    133.7953
  1160.0000      0.0000    509.5269     10.9560    133.4874
  1160.2500      0.0000    538.8193     10.7208    131.3132
  1160.5000      0.0000    565.5620     10.5796    128.5108
  1160.7500      0.0000    590.2361     10.5597    127.0717
  1161.0000      0.0000    614.1006     10.6312    127.9827
  1161.2500      0.0000    634.7626     10.7415    130.8656
  1161.5000      0.0000    649.0518     10.8436    134.4251
  1161.7500      0.0000    656.5734     10.9129    137.1779
  1162.0000      0.0000    659.0202     10.9515    138.4335
  1162.2500      0.0000    657.3212     10.9721    138.6917
  1162.5000      0.0000    649.4578     10.9764    138.8439
  1162.7500      0.0000    630.2409     10.9578    139.2290
  1163.0000      0.0000    594.3069     10.9270    139.6708
  1163.2500      0.0000    541.9529     10.9161    139.8044
  1163.5000      0.0000    482.5375     10.9440    138.7450
  1163.7500      0.0000    430.0735     10.9886    134.9817
  1164.0000      0.0000    394.0928     11.0039    127.7633
  1164.2500      0.0000    375.0048     10.9609    118.8361
