~Version Information
VERS.                      2.0: CWLS Log ASCII Standard - VERSION 2.0
WRAP.                       NO: One line per depth step
~Well Information Block
STRT.FT                -6.7500: 
STOP.FT              1466.2500: 
STEP.FT                 0.2500: 
NULL.                -999.2500: 
COMP.          Pioneer Natural Resources: COMPANY
WELL.          Pallet Ranch 34-15 Tr: WELL
FLD.           Purgatorie River: FIELD
LOC.           465' FSL & 2138' FEL--: LOCATION
PROV.                       CO: PROVINCE
CNTY.               Las Animas: COUNTRY
SRVC.          Patterson Wireline: SERVICE COMPANY
DATE.          Wed Jan 25 09:38:09 2006: LOG DATE
UWI.           05 071 08657 00: UNIQUE WELL ID
~Curve Information Block
DEPT.FT            0 000 00 00: Depth
CCL.                          : Casing Collar Locator
TT3.usec                      : CBL 3' Travel Time
AMP3.mV                       : CBL 3' Amplitude
GR.GAPI                       : Gamma Ray
~Parameter Information Block
~A  Depth       CCL         TT3         AMP3         GR     
# ...
    93.7500      0.0000    719.6777      6.9550     69.4748
    94.0000      0.0000    711.5712      6.7032     69.0773
    94.2500      0.0000    703.5361      6.4381     65.5791
    94.5000      0.0000    702.9531      6.2409     60.0356
    94.7500      0.0000    717.4815      6.1177     54.2143
    95.0000      0.0000    749.5695      6.0217     49.5247
    95.2500      0.0000    791.9645      5.9300     46.4989
    95.5000      0.0000    830.5104      5.8605     45.1158
    95.7500      0.0000    854.1163      5.8259     45.3499
    96.0000     -2.0000    861.7121      5.8109     47.0819
    96.2500      2.0000    859.0278      5.8030     49.4950
    96.5000      0.0000    850.5248      5.8330     51.0459
    96.7500      0.0000    834.8480      5.9725     50.4558
    97.0000      0.0000    807.8640      6.2675     47.7792
    97.2500      0.0000    771.3563      6.6550     44.4152
    97.5000      0.0000    736.5056      6.9750     42.0130
    97.7500      0.0000    715.0464      7.1037     41.2960
    98.0000      0.0000    709.0294      7.0584     41.8559
    98.2500      0.0000    711.7816      6.9484     42.8637
    98.5000      0.0000    715.7236      6.8581     43.7530
    98.7500      0.0000    716.8675      6.8054     44.3421
    99.0000      0.0000    714.8579      6.7740     44.7133
    99.2500      0.0000    711.7241      6.7516     45.1899
    99.5000      0.0000    710.1044      6.7422     46.2136
    99.7500      0.0000    711.3981      6.7589     47.9534
   100.0000      0.0000    715.1953      6.8110     50.0055
   100.2500      0.0000    719.8860      6.8961     51.6131
   100.5000      0.0000    723.4337      7.0063     52.1998
   100.7500      0.0000    723.9966      7.1401     51.6430
   101.0000      0.0000    720.5964      7.3043     50.2630
   101.2500      0.0000    713.7169      7.5007     48.7360
   101.5000      0.0000    705.3558      7.7101     47.7178
   101.7500      0.0000    698.1602      7.8964     47.3002
   102.0000      0.0000    694.1975      8.0269     47.0228
   102.2500      0.0000    694.4065      8.0917     46.5084
   102.5000      0.0000    698.7691      8.1044     45.8929
   102.7500      0.0000    706.3652      8.0895     45.6460
   103.0000      0.0000    715.2710      8.0683     46.1619
   103.2500      0.0000    723.1606      8.0503     47.4781
   103.5000      0.0000    728.5121      8.0337     49.1048
   103.7500      0.0000    731.2265      8.0138     50.0778
   104.0000      0.0000    732.1093      7.9911     49.5711
   104.2500      0.0000    731.9194      7.9704     47.7498
   104.5000      0.0000    730.7532      7.9537     45.8089
   104.7500      0.0000    727.9874      7.9333     44.9651
   105.0000      0.0000    722.8470      7.8953     45.5128
   105.2500      0.0000    715.4384      7.8322     46.8687
   105.5000      0.0000    707.4120      7.7563     48.2905
   105.7500      0.0000    701.2751      7.6945     49.4724
   106.0000      0.0000    698.6876      7.6686     50.6611
   106.2500      0.0000    699.4544      7.6784     52.3579
   106.5000      0.0000    702.3224      7.7068     54.8415
   106.7500      0.0000    706.5291      7.7360     57.8388
   107.0000      0.0000    712.0848      7.7573     60.5500
   107.2500      0.0000    718.6366      7.7695     62.0213
   107.5000      0.0000    724.8785      7.7740     61.6355
   107.7500      0.0000    729.4612      7.7729     59.3851
   108.0000      0.0000    732.0309      7.7681     55.8317
   108.2500      0.0000    733.1501      7.7616     51.9304
   108.5000      0.0000    733.5497      7.7569     48.7882
   108.7500      0.0000    733.6509      7.7582     47.2345
   109.0000      0.0000    733.5427      7.7688     47.4553
   109.2500      0.0000    733.1143      7.7883     49.1214
   109.5000      0.0000    732.1354      7.8131     51.6627
   109.7500      0.0000    730.4034      7.8386     54.2014
   110.0000      0.0000    728.1722      7.8620     55.7423
   110.2500      0.0000    726.6029      7.8814     56.1052
   110.5000      0.0000    727.3402      7.8941     56.3837
   110.7500      0.0000    730.9933      7.8968     57.8408
   111.0000      0.0000    736.0811      7.8880     60.4302
   111.2500      0.0000    740.0814      7.8678     62.7540
   111.5000      0.0000    741.7725      7.8363     63.3578
   111.7500      0.0000    742.2219      7.7928     61.9043
   112.0000      0.0000    743.3647      7.7392     59.2051
   112.2500      0.0000    745.9399      7.6820     56.3214
   112.5000      0.0000    748.9999      7.6299     53.8346
   112.7500      0.0000    751.1791      7.5914     51.8785
   113.0000      0.0000    752.1282      7.5732     50.4651
   113.2500      0.0000    752.5715      7.5776     49.6514
   113.5000      0.0000    752.9195      7.6007     49.6242
   113.7500      0.0000    752.0823      7.6305     50.5073
   114.0000      0.0000    748.2960      7.6500     51.7676
   114.2500      0.0000    741.4069      7.6466     52.1462
   114.5000      0.0000    733.8157      7.6228     50.7661
   114.7500      0.0000    728.6989      7.5969     48.2002
   115.0000      0.0000    727.4254      7.5855     46.0133
   115.2500      0.0000    728.8718      7.5856     45.2660
   115.5000      0.0000    730.9493      7.5758     45.6347
   115.7500      0.0000    732.3254      7.5380     45.9981
   116.0000      0.0000    732.8146      7.4749     45.8339
   116.2500      0.0000    732.7772      7.4045     46.0083
   116.5000      0.0000    732.5583      7.3416     48.2047
   116.7500      0.0000    732.3379      7.2886     53.5933
   117.0000      0.0000    732.1807      7.2430     61.8362
   117.2500      0.0000    732.0804      7.2089     70.8959
   117.5000      0.0000    731.9543      7.1936     77.7275
   117.7500      0.0000    731.5781      7.1958     79.9269
   118.0000      0.0000    730.4668      7.2040     77.5422
   118.2500      0.0000    727.8578      7.2095     73.0891
   118.5000      0.0000    723.1518      7.2167     69.1903
   118.7500      0.0000    716.8485      7.2370     66.3764
   119.0000      0.0000    711.0891      7.2753     63.6712
   119.2500      0.0000    708.6689      7.3229     60.8198
   119.5000      0.0000    710.9363      7.3646     58.9347
   119.7500      0.0000    716.6445      7.3910     59.0338
   120.0000      0.0000    723.0243      7.4085     60.7719
   120.2500      0.0000    727.8369      7.4343     62.7159
   120.5000      0.0000    730.3466      7.4800     63.5060
   120.7500      0.0000    730.7840      7.5391     62.9372
   121.0000      0.0000    729.5474      7.5928     62.2338
   121.2500      0.0000    727.1767      7.6263     63.0382
   121.5000      0.0000    724.7704      7.6387     65.8220
   121.7500      0.0000    723.7601      7.6399     69.3218
   122.0000      0.0000    724.8466      7.6414     71.5785
   122.2500      0.0000    727.3643      7.6488     71.4181
   122.5000      0.0000    729.9669      7.6606     68.9450
   122.7500      0.0000    731.7712      7.6714     64.9066
   123.0000      0.0000    732.7073      7.6759     60.0429
   123.2500      0.0000    733.1031      7.6712     55.1208
   123.5000      0.0000    733.2529      7.6581     51.0829
   123.7500      0.0000    733.3013      7.6412     48.6345
   124.0000      0.0000    733.3054      7.6299     47.7326
   124.2500      0.0000    733.2949      7.6344     47.8792
   124.5000      0.0000    733.2907      7.6569     48.9205
   124.7500      0.0000    733.3040      7.6875     51.0835
   125.0000      0.0000    733.3522      7.7123     54.1697
   125.2500      0.0000    733.4651      7.7248     57.3350
   125.5000      0.0000    733.6593      7.7309     59.9447
   125.7500      0.0000    733.9125      7.7422     62.1039
   126.0000      0.0000    734.1680      7.7681     64.0192
   126.2500      0.0000    734.3632      7.8138     65.3624
   126.5000      0.0000    734.4557      7.8828     65.6646
   126.7500      0.0000    734.4365      7.9763     65.0091
   127.0000      0.0000    734.3331      8.0865     63.9507
