~Version Information
 VERS.                                  2.0 : CWLS LAS VERSION
 WRAP.                                   NO : WRAPING MODE
 SWARE .                 MController 2.5.0N : SOFTWARE VERSION
~Well Information
 WELL.                    Hanginstone 21-27 : WELL
 COMP.   Pioneer Natural Resources USA, Inc : COMPANY
 FLD.                      Purgatoire River : FIELD
 LOC.                NE/NW Sec 27 T32S R67W : LOCATION
 DATE.                         1/05-07/2006 : DATE(S) LOGGED
 SRVC.       BLANCO Geological Services LLC : SERVICE COMPANY
 STAT.                                   CO : STATE
 CNTY.                           Las Animas : COUNTY
 CTRY.                                  USA : COUNTRY
 API.                       05-071-08632-00 : API NUMBER
 STRT.FT                             907.00 : START DEPTH
 STOP.FT                            2970.00 : STOP DEPTH
 STEP.FT                               1.00 : DEPTH INCREMENT
 NULL.                                -9999 : NULL VALUE
~Curve information
 DEPTH.FT                                   :
 ROP.MIN/FT                                 :
 GAS.UNITS                                  :
~ASCII Log data
# ...
      2307.0         0.13        115.9 
      2308.0         0.18        120.1 
      2309.0         0.17        124.0 
      2310.0         0.30        138.0 
      2311.0         7.43        145.7 
      2312.0         0.47         76.0 
      2313.0         0.30         79.3 
      2314.0         0.27         79.3 
      2315.0         0.27         75.2 
      2316.0         0.33         65.1 
      2317.0         0.37         43.3 
      2318.0         0.35         29.5 
      2319.0         0.40         21.1 
      2320.0         0.37         15.4 
      2321.0         0.47         14.9 
      2322.0         0.37         16.0 
      2323.0         0.40         18.7 
      2324.0         0.60         34.9 
      2325.0         0.62         28.6 
      2326.0         0.43         17.7 
      2327.0         0.40         14.6 
      2328.0         0.40         14.7 
      2329.0         0.40         12.9 
      2330.0         0.37          8.4 
      2331.0         0.40          7.5 
      2332.0         0.40          4.1 
      2333.0         0.37          3.6 
      2334.0         0.32          3.9 
      2335.0         0.23          3.8 
      2336.0         0.27          3.6 
      2337.0         0.23          4.0 
      2338.0         0.23          3.7 
      2339.0         0.27          3.9 
      2340.0         0.23          3.9 
      2341.0         9.35         26.6 
      2342.0         0.47         10.0 
      2343.0         0.47          6.6 
      2344.0         0.37          4.5 
      2345.0         0.43          3.8 
      2346.0         0.68          4.7 
      2347.0         0.60          2.9 
      2348.0         0.47          2.2 
      2349.0         0.37          1.6 
      2350.0         0.30          1.5 
      2351.0         0.37          1.8 
      2352.0         0.30          1.7 
      2353.0         0.40          1.9 
      2354.0         0.37          2.0 
      2355.0         0.35          2.3 
      2356.0         0.37          2.1 
      2357.0         0.33          2.2 
      2358.0         0.30          2.5 
      2359.0         0.30          2.3 
      2360.0         0.37          2.7 
      2361.0         0.30          2.9 
      2362.0         0.17          3.4 
      2363.0         0.20          3.2 
      2364.0         0.23          3.9 
      2365.0         0.23          4.0 
      2366.0         0.23          4.5 
      2367.0         0.18          5.1 
      2368.0         0.20          5.1 
      2369.0         0.13          5.5 
      2370.0         0.23          6.0 
      2371.0         8.47         14.5 
      2372.0         0.43          6.3 
      2373.0         0.68          5.8 
      2374.0         0.80          4.4 
      2375.0         0.40          4.0 
      2376.0         0.30          4.5 
      2377.0         0.30          6.7 
      2378.0         0.30          5.6 
      2379.0         0.43          5.9 
      2380.0         0.33          3.3 
      2381.0         0.32          1.6 
      2382.0         0.30          1.8 
      2383.0         0.27          2.1 
      2384.0         0.20          2.5 
      2385.0         0.23          1.9 
      2386.0         0.20          2.9 
      2387.0         0.20          4.2 
      2388.0         0.20          4.5 
      2389.0         0.30          2.7 
      2390.0         0.33          2.0 
      2391.0         0.33          1.9 
      2392.0         0.37          2.0 
      2393.0         0.42          2.4 
      2394.0         0.37          2.5 
      2395.0         0.30          2.7 
      2396.0         0.33          4.6 
      2397.0         0.30          6.5 
      2398.0         0.33          6.3 
      2399.0         0.30          6.5 
      2400.0         0.23          7.6 
      2401.0         5.53        345.3 
      2402.0         0.30        265.2 
      2403.0         0.57        284.3 
      2404.0         0.53        155.9 
      2405.0         0.43        137.6 
      2406.0         0.37        130.0 
      2407.0         0.52        121.2 
      2408.0         0.80        108.4 
      2409.0         0.73         86.7 
      2410.0         0.60         76.2 
      2411.0         0.63         63.2 
      2412.0         0.58         41.7 
      2413.0         0.60         46.0 
      2414.0         0.57         16.4 
      2415.0         0.57          9.8 
      2416.0         0.57          6.8 
      2417.0         0.65          5.3 
      2418.0         0.63          5.9 
      2419.0         0.60         14.7 
      2420.0         0.53         13.1 
      2421.0         0.60         30.0 
      2422.0         0.47         27.9 
      2423.0         0.65         24.0 
      2424.0         0.30         21.4 
      2425.0         0.23         21.2 
      2426.0         0.23         23.3 
      2427.0         0.23         25.2 
      2428.0         0.20         26.9 
      2429.0         0.33         28.5 
      2430.0         0.30         30.3 
      2431.0        10.35        164.6 
      2432.0         0.27         20.8 
      2433.0         0.20         21.8 
      2434.0         0.33         26.4 
      2435.0         0.52         36.9 
      2436.0         0.63         53.5 
      2437.0         0.50         67.9 
      2438.0         0.40         77.3 
      2439.0         0.27         87.7 
      2440.0         0.23         96.9 
      2441.0         0.23        100.0 
      2442.0         0.30        111.2 
      2443.0         0.17        114.9 
      2444.0         0.13        118.8 
      2445.0         0.15        120.2 
      2446.0         0.13        127.8 
      2447.0         0.20        130.7 
      2448.0         0.27        142.6 
      2449.0         0.27        149.8 
      2450.0         0.30        156.3 
      2451.0         0.33        163.3 
      2452.0         0.33        170.8 
      2453.0         0.33        174.3 
      2454.0         0.37        184.7 
      2455.0         0.40        188.4 
      2456.0         0.42        199.2 
      2457.0         0.40        202.3 
      2458.0         0.40        201.7 
      2459.0         0.37        207.5 
      2460.0         0.37        216.4 
      2461.0         7.43       1417.9 
      2462.0         0.73         12.1 
      2463.0         0.65          4.8 
      2464.0         0.43          3.1 
      2465.0         0.43          3.3 
      2466.0         0.43          2.9 
      2467.0         0.37          2.7 
      2468.0         0.33          2.8 
      2469.0         0.37          2.4 
      2470.0         0.30          2.4 
      2471.0         0.30          2.5 
      2472.0         0.28          2.5 
      2473.0         0.23          3.2 
      2474.0         0.27          2.9 
      2475.0         0.20          3.5 
      2476.0         0.40          4.0 
      2477.0         0.33          4.8 
      2478.0         0.30          6.2 
      2479.0         0.27          4.2 
      2480.0         0.30          3.6 
      2481.0         0.30          3.5 
      2482.0         0.30          3.5 
      2483.0         0.35          3.6 
      2484.0         0.33          3.1 
      2485.0         0.33          3.4 
      2486.0         0.33          3.4 
      2487.0         0.37          3.6 
      2488.0         0.37          3.8 
      2489.0         0.37          4.1 
      2490.0         0.43          4.5 
      2491.0         8.25          9.5 
      2492.0         0.40          2.3 
      2493.0         0.40          2.1 
      2494.0         0.40          2.5 
      2495.0         0.30          2.9 
      2496.0         0.27          3.5 
      2497.0         0.20          3.8 
      2498.0         0.23          4.3 
      2499.0         0.32          5.1 
      2500.0         0.27          5.7 
      2501.0         0.33          6.7 
      2502.0         0.30          7.7 
      2503.0         0.23          8.6 
      2504.0         0.23          8.8 
      2505.0         0.27          9.4 
      2506.0         0.33         11.2 
