~Version Information
VERS.                      2.0: CWLS Log ASCII Standard - VERSION 2.0
WRAP.                       NO: One line per depth step
~Well Information Block
STRT.FT                -8.5000: 
STOP.FT              1263.2500: 
STEP.FT                 0.2500: 
NULL.                -999.2500: 
COMP.          Pioneer Natural Resources: COMPANY
WELL.          Rockfish 11-30 Tr: WELL
FLD.           Purgatoire River: FIELD
LOC.           1063' FNL & 1068' FWL--: LOCATION
STAT.                       CO: State
CNTY.               Las Animas: COUNTY
CTRY. USA : country
SECT. 30 : Section
TOWN. 32S : Township
RANG. 65W : Range
SRVC.          Patterson Wireline: SERVICE COMPANY
DATE.          Tue Nov 22 16:08:49 2005: LOG DATE
API.           05 071 08585 00: UNIQUE WELL ID
~Curve Information Block
DEPT.FT            0 000 00 00: Depth
HVOLTA.V                      : Head Voltage Apparent
CCL.                          : Casing Collar Locator
TT3.usec                      : CBL 3' Travel Time
AMP3.mV                       : CBL 3' Amplitude
GR.GAPI                       : Gamma Ray
~Parameter Information Block
PPT.usec                0.0000: Predicted Pipe Time
~A  Depth      HVOLTA       CCL         TT3         AMP3         GR     
# ...
   803.5000     96.1931      0.0000    322.3570     27.4005    132.8322
   803.7500     96.3390      0.0000    322.4576     27.0947    129.3069
   804.0000     96.3768      0.0000    322.5485     26.7119    128.2861
   804.2500     96.2042      0.0000    322.6138     26.3581    128.7780
   804.5000     96.2604      0.0000    322.6486     26.1036    129.1497
   804.7500     96.2015      0.0000    322.6599     25.9471    128.3561
   805.0000     96.3249      0.0000    322.6637     25.8448    126.4242
   805.2500     96.1720      0.0000    322.6763     25.7626    123.7690
   805.5000     96.2029      0.0000    322.7063     25.7013    120.5424
   805.7500     96.3585      0.0000    322.7512     25.6847    116.8987
   806.0000     96.3179      0.0000    322.8014     25.7338    113.4063
   806.2500     96.2940      0.0000    322.8459     25.8404    110.8427
   806.5000     96.1664      0.0000    322.8808     25.9495    109.8813
   806.7500     96.2926      0.0000    322.9129     25.9722    111.0494
   807.0000     96.2982      0.0000    322.9531     25.8406    114.3937
   807.2500     96.2548      0.0000    323.0027     25.5643    118.9553
   807.5000     96.3487      0.0000    323.0512     25.2257    123.3512
   807.7500     96.2884      0.0000    323.0922     24.9134    127.1365
   808.0000     96.3095      0.0000    323.1338     24.6612    130.8153
   808.2500     96.3446      0.0000    323.1886     24.4501    134.3441
   808.5000     96.2211      0.0000    323.2565     24.2564    136.5350
   808.7500     96.2842      0.0000    323.3235     24.0875    136.3470
   809.0000     96.3740      0.0000    323.3735     23.9761    134.3323
   809.2500     96.2829      0.0000    323.3995     23.9449    132.4487
   809.5000     96.3404      0.0000    323.4074     23.9758    132.3955
   809.7500     96.3684      0.0000    323.4098     24.0160    134.1769
   810.0000     96.1328      0.0000    323.4138     24.0229    136.4243
   810.2500     96.3081      0.0000    323.4161     24.0082    138.0937
   810.5000     96.3095      0.0000    323.4116     24.0315    139.4165
   810.7500     96.3712      0.0000    323.4040     24.1446    140.7893
   811.0000     96.2464      0.0000    323.4026     24.3446    141.3070
   811.2500     96.2912      0.0000    323.4094     24.5764    139.3213
   811.5000     96.3109      0.0000    323.4166     24.7723    134.4218
   811.7500     96.2842      0.0000    323.4163     24.8888    128.0421
   812.0000     96.4877      0.0000    323.4088     24.9234    122.0571
   812.2500     96.2197      0.0000    323.3979     24.9102    117.4775
   812.5000     96.3698      0.0000    323.3824     24.9031    114.6115
   812.7500     96.4232      0.0000    323.3541     24.9568    113.6425
   813.0000     96.4204      0.0000    323.3017     25.1154    114.5820
   813.2500     96.4329      0.0000    323.2216     25.3895    117.1976
   813.5000     96.3993      0.0000    323.1312     25.7281    121.3256
   813.7500     96.3418      0.0000    323.0655     26.0279    126.6746
   814.0000     96.3993      0.0000    323.0509     26.2020    132.0223
   814.2500     96.3123      0.0000    323.0797     26.2453    135.3452
   814.5000     96.4371      0.0000    323.1163     26.2257    135.3739
   814.7500     96.3432      0.0000    323.1273     26.2157    132.7691
   815.0000     96.3376      0.0000    323.1030     26.2459    129.5068
   815.2500     96.3277      0.0000    323.0551     26.3139    127.3051
   815.5000     96.3839      0.0000    323.0014     26.4147    126.7047
   815.7500     96.3698      0.0000    322.9526     26.5565    127.3317
   816.0000     96.4582      0.0000    322.9066     26.7576    128.7094
   816.2500     96.4007      0.0000    322.8539     27.0262    130.6001
   816.5000     96.4063      0.0000    322.7903     27.3445    132.6981
   816.7500     96.3698      0.0000    322.7198     27.6800    134.6364
   817.0000     96.2253      0.0000    322.6449     28.0161    136.6813
   817.2500     96.4708      0.0000    322.5612     28.3602    139.7196
   817.5000     96.3376      0.0000    322.4678     28.7153    143.6960
   817.7500     96.3095      0.0000    322.3779     29.0479    146.6321
   818.0000     96.2548      0.0000    322.3148     29.2926    146.2620
   818.2500     96.3740      0.0000    322.2969     29.3844    142.3258
   818.5000     96.4329      0.0000    322.3301     29.2887    136.4670
   818.7500     96.3740      0.0000    322.4088     29.0193    130.2323
   819.0000     96.3039      0.0000    322.5164     28.6509    123.8850
   819.2500     96.2562      0.0000    322.6241     28.3150    116.8470
   819.5000     96.2632      0.0000    322.7003     28.1586    108.5887
   819.7500     96.4077      0.0000    322.7252     28.2786     99.3646
   820.0000     96.2548      0.0000    322.6980     28.6842     90.6874
   820.2500     96.3193      0.0000    322.6312     29.3051     84.8104
   820.5000     96.2449      0.0000    322.5456     30.0189     83.1294
   820.7500     96.3446      0.0000    322.4645     30.6834     85.2259
   821.0000     96.3404      0.0000    322.4069     31.1819     89.8521
   821.2500     96.4021      0.0000    322.3771     31.4695     96.5115
   821.5000     96.3095      0.0000    322.3615     31.5915    105.4757
   821.7500     96.4441      0.0000    322.3350     31.6590    116.3386
   822.0000     96.3656      0.0000    322.2773     31.7873    127.1036
   822.2500     96.3137      0.0000    322.1896     32.0265    135.0234
   822.5000     96.3824      0.0000    322.0960     32.3333    138.2368
   822.7500     96.3740      0.0000    322.0247     32.6057    136.5143
   823.0000     96.2870      0.0000    321.9884     32.7453    130.8795
   823.2500     96.3446      0.0000    321.9831     32.6909    123.0080
   823.5000     96.2618      0.0000    322.0020     32.4128    115.0427
   823.7500     96.4905      0.0000    322.0464     31.9034    109.6061
   824.0000     96.3404      0.0000    322.1204     31.1844    109.1073
   824.2500     96.3642      0.0000    322.2211     30.3264    114.0015
   824.5000     96.2337      0.0000    322.3333     29.4506    121.5592
   824.7500     96.3010      0.0000    322.4377     28.6889    127.0724
   825.0000     96.2281      0.0000    322.5267     28.1171    126.9034
   825.2500     96.3193      0.0000    322.6118     27.7135    120.6433
   825.5000     96.3740      0.0000    322.7115     27.3889    110.8458
   825.7500     96.3151      0.0000    322.8325     27.0606    101.2299
   826.0000     96.2912      0.0000    322.9638     26.7015     94.9249
   826.2500     96.3432      0.0000    323.0872     26.3325     93.3966
   826.5000     96.2267      0.0000    323.1898     25.9889     96.0732
   826.7500     96.2379      0.0000    323.2664     25.6987    100.8992
   827.0000     96.2548      0.0000    323.3177     25.4798    105.7220
   827.2500     96.2295      0.0000    323.3477     25.3433    109.4269
   827.5000     96.2604      0.0000    323.3619     25.2906    111.9383
   827.7500     96.3151      0.0000    323.3653     25.3066    113.6969
   828.0000     96.3165      0.0000    323.3616     25.3560    115.4465
   828.2500     96.2632      0.0000    323.3581     25.3863    117.8732
   828.5000     96.2576      0.0000    323.3695     25.3381    120.8939
   828.7500     96.3474      0.0000    323.4126     25.1706    123.5820
   829.0000     96.3221      0.0000    323.4889     24.8991    124.9942
   829.2500     96.3501      0.0000    323.5745     24.6064    124.8223
   829.5000     96.2309      0.0000    323.6311     24.4026    123.3479
   829.7500     96.3179      0.0000    323.6323     24.3554    121.1980
   830.0000     96.3810      0.0000    323.5807     24.4490    119.2879
   830.2500     96.3165      0.0000    323.5020     24.6048    118.7627
   830.5000     96.2646      0.0000    323.4267     24.7397    120.7079
   830.7500     96.2674      0.0000    323.3738     24.8154    125.6450
   831.0000     96.2674      0.0000    323.3486     24.8402    132.9498
   831.2500     96.2407      0.0000    323.3509     24.8302    140.5646
