~Version Information
VERS.                      2.0: CWLS Log ASCII Standard - VERSION 2.0
WRAP.                       NO: One line per depth step
~Well Information Block
STRT.FT               260.0000: 
STOP.FT               713.2500: 
STEP.FT                 0.2500: 
NULL.                -999.2500: 
COMP.          Pioneer Natural Resources: COMPANY
WELL.           Quintessa 23-7: WELL
FLD.           Purgatoire River: FIELD
LOC.           1964' FSL & 2589' FWL--: LOCATION
PROV.                 Colorado: PROVINCE
CNTY.               Las Animas: COUNTRY
SRVC.                Patterson: SERVICE COMPANY
DATE.          Fri Nov 18 16:07:34 2005: LOG DATE
UWI.           05 071 08558 00: UNIQUE WELL ID
~Curve Information Block
DEPT.FT            0 000 00 00: Depth
SN.Ohm-m                      : IEL Short Normal
SP.mV                         : IEL Spontaneous Potential
DIR.Ohm-m                     : IEL Induction Resistivity
GR.GAPI                       : Gamma Ray
~Parameter Information Block
~A  Depth        SN          SP         DIR          GR     
# ...
   628.5000     18.3381    116.2909     18.0614     92.4104
   628.7500     18.3446    116.2672     18.1378     90.5863
   629.0000     18.3623    116.2445     18.2196     89.4647
   629.2500     18.3963    116.2236     18.3032     89.9925
   629.5000     18.4449    116.2055     18.3920     91.5390
   629.7500     18.4990    116.1913     18.4914     92.2850
   630.0000     18.5451    116.1822     18.6014     92.6553
   630.2500     18.5722    116.1796     18.7133     92.7360
   630.5000     18.5768    116.1848     18.8125     93.1984
   630.7500     18.5629    116.1996     18.8863     93.8665
   631.0000     18.5386    116.2251     18.9312     95.3895
   631.2500     18.5132    116.2627     18.9531     96.6038
   631.5000     18.4965    116.3129     18.9606     98.2505
   631.7500     18.4948    116.3757     18.9558     99.0386
   632.0000     18.5058    116.4500     18.9292     99.9872
   632.2500     18.5159    116.5339     18.8647    100.8073
   632.5000     18.5078    116.6244     18.7515    102.5686
   632.7500     18.4712    116.7183     18.5945    103.7782
   633.0000     18.4081    116.8115     18.4124    104.4458
   633.2500     18.3280    116.9006     18.2271    103.4376
   633.5000     18.2424    116.9822     18.0534     99.5699
   633.7500     18.1598    117.0540     17.8989     96.1682
   634.0000     18.0844    117.1144     17.7691     91.7395
   634.2500     18.0162    117.1629     17.6713     89.8017
   634.5000     17.9547    117.1995     17.6113     87.6144
   634.7500     17.9042    117.2249     17.5879     85.7245
   635.0000     17.8743    117.2397     17.5898     81.7752
   635.2500     17.8743    117.2444     17.5996     79.0256
   635.5000     17.9051    117.2391     17.6009     75.9575
   635.7500     17.9552    117.2229     17.5844     74.7094
   636.0000     18.0048    117.1939     17.5498     73.3990
   636.2500     18.0367    117.1493     17.5028     72.6870
   636.5000     18.0455    117.0849     17.4491     72.1529
   636.7500     18.0408    116.9955     17.3920     72.3395
   637.0000     18.0404    116.8750     17.3323     73.1976
   637.2500     18.0583    116.7165     17.2726     73.9244
   637.5000     18.0962    116.5127     17.2197     75.4164
   637.7500     18.1467    116.2566     17.1840     76.9810
   638.0000     18.2033    115.9419     17.1745     80.2536
   638.2500     18.2694    115.5638     17.1946     82.8001
   638.5000     18.3579    115.1194     17.2432     86.8414
   638.7500     18.4860    114.6091     17.3192     89.6363
   639.0000     18.6694    114.0362     17.4251     93.6774
   639.2500     18.9200    113.4077     17.5687     95.8516
   639.5000     19.2447    112.7346     17.7610     97.5038
   639.7500     19.6425    112.0314     18.0134     97.1720
   640.0000     20.1015    111.3160     18.3355     94.3950
   640.2500     20.5997    110.6092     18.7326     91.4145
   640.5000     21.1091    109.9341     19.2037     86.6431
   640.7500     21.6033    109.3151     19.7395     84.0393
   641.0000     22.0652    108.7764     20.3208     81.3339
   641.2500     22.4947    108.3412     20.9193     79.9323
   641.5000     22.9061    108.0297     21.5014     77.5811
   641.7500     23.3132    107.8575     22.0335     75.6602
   642.0000     23.7079    107.8344     22.4833     72.4851
   642.2500     24.0527    107.9632     22.8172     70.4514
   642.5000     24.2934    108.2391     22.9997     68.0665
   642.7500     24.3833    108.6501     23.0007     67.2408
   643.0000     24.2993    109.1775     22.8091     67.5832
   643.2500     24.0441    109.7976     22.4442     68.9261
   643.5000     23.6408    110.4834     21.9542     72.0944
   643.7500     23.1244    111.2070     21.3997     74.2957
   644.0000     22.5339    111.9414     20.8341     76.4599
   644.2500     21.9050    112.6626     20.2905     76.7397
   644.5000     21.2698    113.3508     19.7808     75.5565
   644.7500     20.6593    113.9910     19.3049     74.1545
   645.0000     20.1042    114.5736     18.8635     72.1631
   645.2500     19.6261    115.0939     18.4681     71.3953
   645.5000     19.2313    115.5515     18.1389     71.3190
   645.7500     18.9130    115.9492     17.8938     71.8312
   646.0000     18.6595    116.2920     17.7344     73.0983
   646.2500     18.4589    116.5863     17.6395     74.1307
   646.5000     18.2982    116.8386     17.5709     75.6690
   646.7500     18.1640    117.0556     17.4903     76.4538
   647.0000     18.0453    117.2427     17.3768     76.9427
   647.2500     17.9376    117.4050     17.2317     76.8106
   647.5000     17.8431    117.5464     17.0708     76.2672
   647.7500     17.7669    117.6697     16.9112     75.9455
   648.0000     17.7117    117.7775     16.7652     75.8633
   648.2500     17.6732    117.8713     16.6409     76.1499
   648.5000     17.6430    117.9523     16.5464     76.9359
   648.7500     17.6140    118.0211     16.4880     77.3974
   649.0000     17.5846    118.0783     16.4655     77.2877
   649.2500     17.5565    118.1239     16.4700     76.4584
   649.5000     17.5314    118.1577     16.4885     74.5136
   649.7500     17.5122    118.1793     16.5126     73.3260
   650.0000     17.5034    118.1880     16.5435     72.4253
   650.2500     17.5076    118.1830     16.5873     72.3869
   650.5000     17.5208    118.1631     16.6454     72.6509
   650.7500     17.5352    118.1270     16.7107     72.8166
   651.0000     17.5481    118.0733     16.7727     73.1501
   651.2500     17.5639    118.0008     16.8268     73.7004
   651.5000     17.5885    117.9085     16.8755     75.4983
   651.7500     17.6214    117.7958     16.9219     77.4087
   652.0000     17.6577    117.6628     16.9619     80.6889
   652.2500     17.6959    117.5100     16.9860     82.3854
   652.5000     17.7440    117.3391     16.9875     83.2009
   652.7500     17.8164    117.1519     16.9713     82.7484
   653.0000     17.9237    116.9508     16.9551     81.9002
   653.2500     18.0658    116.7383     16.9632     81.9140
   653.5000     18.2325    116.5168     17.0162     82.9906
   653.7500     18.4093    116.2886     17.1246     84.1493
   654.0000     18.5798    116.0555     17.2883     86.1610
   654.2500     18.7273    115.8193     17.5010     87.4489
   654.5000     18.8403    115.5814     17.7546     88.5088
   654.7500     18.9183    115.3436     18.0400     88.2389
   655.0000     18.9744    115.1078     18.3440     86.8555
   655.2500     19.0330    114.8758     18.6481     86.2771
   655.5000     19.1200    114.6497     18.9293     87.5651
   655.7500     19.2487    114.4311     19.1624     90.0156
   656.0000     19.4111    114.2208     19.3244     94.7786
   656.2500     19.5814    114.0188     19.3998     97.7112
   656.5000     19.7304    113.8237     19.3884    101.4665
   656.7500     19.8419    113.6331     19.3071    104.4457
   657.0000     19.9174    113.4432     19.1850    111.5527
   657.2500     19.9709    113.2495     19.0537    118.2092
   657.5000     20.0206    113.0473     18.9414    128.9311
   657.7500     20.0821    112.8315     18.8732    134.6969
   658.0000     20.1644    112.5974     18.8727    139.0041
   658.2500     20.2683    112.3411     18.9607    138.4957
   658.5000     20.3879    112.0592     19.1500    132.5888
   658.7500     20.5118    111.7494     19.4388    125.5549
   659.0000     20.6275    111.4102     19.8085    112.2230
   659.2500     20.7291    111.0411     20.2267    103.2483
   659.5000     20.8249    110.6426     20.6532     92.4579
   659.7500     20.9375    110.2160     21.0468     87.8144
   660.0000     21.0914    109.7630     21.3716     84.3236
   660.2500     21.3007    109.2862     21.6035     83.5157
   660.5000     21.5644    108.7886     21.7340     83.1271
   660.7500     21.8697    108.2736     21.7705     82.9230
   661.0000     22.1983    107.7457     21.7323     82.6997
   661.2500     22.5339    107.2105     21.6462     82.8374
   661.5000     22.8678    106.6750     21.5415     83.4783
   661.7500     23.1982    106.1486     21.4454     83.7907
