~Version Information
VERS.                      2.0: CWLS Log ASCII Standard - VERSION 2.0
WRAP.                       NO: One line per depth step
~Well Information Block
STRT.FT                -8.0000: 
STOP.FT               918.7500: 
STEP.FT                 0.2500: 
NULL.                -999.2500: 
COMP.          Pioneer Natural Resources: COMPANY
WELL.          Sculpin 32-30 Tr: WELL
FLD.           Purgatorie River: FIELD
LOC.           1600' FNL & 1857' FEL--: LOCATION
CNTY.               Las Animas: COUNTY
SRVC.          Patterson Wireline: SERVICE COMPANY
DATE.          Thu Aug 03 08:40:45 2006: LOG DATE
UWI.           05 071 08706 00: UNIQUE WELL ID
STAT.                       CO: STATE
~Curve Information Block
DEPT.FT            0 000 00 00: Depth
CCL.                          : Casing Collar Locator
TT3.usec                      : CBL 3' Travel Time
AMP3.mV                       : CBL 3' Amplitude
GR.GAPI                       : Gamma Ray
~Parameter Information Block
~A  Depth       CCL         TT3         AMP3         GR     
# ...
   662.0000      0.0000    699.4330      3.4073     93.6438
   662.2500      0.0000    696.8931      3.4274     98.6114
   662.5000      0.0000    694.8922      3.4424    108.1042
   662.7500      0.0000    693.9832      3.4454    120.2801
   663.0000      0.0000    694.5014      3.4313    132.0959
   663.2500      0.0000    694.8996      3.4024    140.5003
   663.5000      0.0000    691.2519      3.3683    144.3044
   663.7500      0.0000    679.3484      3.3407    144.9851
   664.0000      0.0000    658.6060      3.3244    145.4678
   664.2500      0.0000    635.2551      3.3142    147.9399
   664.5000      0.0000    620.6172      3.3021    152.5903
   664.7500      0.0000    622.5189      3.2861    157.9670
   665.0000      0.0000    637.1082      3.2716    162.0056
   665.2500      0.0000    651.6867      3.2651    162.9996
   665.5000      0.0000    656.5845      3.2684    160.6084
   665.7500      0.0000    652.4897      3.2806    156.2652
   666.0000      0.0000    646.7197      3.3005    152.3510
   666.2500      0.0000    645.3883      3.3278    150.8400
   666.5000      0.0000    649.7606      3.3583    152.1548
   666.7500      0.0000    657.7262      3.3844    154.5018
   667.0000      0.0000    666.3308      3.4017    154.7659
   667.2500      0.0000    671.9970      3.4138    151.0707
   667.5000      0.0000    669.5016      3.4273    144.3562
   667.7500      0.0000    654.6993      3.4451    137.0910
   668.0000      0.0000    631.0953      3.4658    131.0428
   668.2500      0.0000    611.1790      3.4886    126.7432
   668.5000      0.0000    606.4061      3.5127    124.4844
   668.7500      0.0000    615.8732      3.5342    124.9250
   669.0000      0.0000    627.5636      3.5451    128.1933
   669.2500      0.0000    629.5250      3.5373    132.5826
   669.5000      0.0000    617.5588      3.5092    134.9489
   669.7500      0.0000    594.9950      3.4705    132.9389
   670.0000      0.0000    569.8652      3.4379    126.8026
   670.2500      0.0000    551.8556      3.4244    119.1857
   670.5000      0.0000    547.4271      3.4318    113.5640
   670.7500      0.0000    555.1005      3.4524    112.7028
   671.0000      0.0000    565.7548      3.4770    117.7932
   671.2500      0.0000    569.0892      3.4996    128.0445
   671.5000      0.0000    561.9827      3.5188    140.5269
   671.7500      0.0000    551.8708      3.5344    151.0834
   672.0000      0.0000    550.9647      3.5440    156.7807
   672.2500      0.0000    566.0309      3.5427    157.9313
   672.5000      0.0000    594.0273      3.5284    157.0940
   672.7500      0.0000    627.5588      3.5076    156.0733
   673.0000      0.0000    661.9142      3.4942    154.5630
   673.2500      0.0000    694.8994      3.4994    151.7018
   673.5000      0.0000    722.4088      3.5241    148.0522
   673.7500      0.0000    738.6163      3.5575    145.4794
   674.0000      0.0000    741.1340      3.5847    145.4951
   674.2500      0.0000    733.5725      3.5955    148.4044
   674.5000      0.0000    722.3219      3.5883    153.7366
   674.7500      0.0000    712.1257      3.5678    160.3274
   675.0000      0.0000    704.8565      3.5386    165.8715
   675.2500      0.0000    700.5619      3.5043    167.7390
   675.5000      0.0000    698.2302      3.4710    165.1409
   675.7500      0.0000    696.3519      3.4479    159.9716
   676.0000      0.0000    694.2885      3.4409    154.8700
   676.2500      0.0000    693.2678      3.4467    151.0062
   676.5000      0.0000    695.3243      3.4516    148.2745
   676.7500      0.0000    701.2713      3.4366    146.7689
   677.0000      0.0000    710.0394      3.3884    146.9148
   677.2500      0.0000    719.1629      3.3116    148.6408
   677.5000      0.0000    724.9611      3.2340    151.2514
   677.7500      0.0000    723.4013      3.1945    153.7527
   678.0000      0.0000    713.1316      3.2161    154.8547
   678.2500      0.0000    697.9138      3.2895    153.3808
   678.5000      0.0000    684.4415      3.3881    149.2654
   678.7500      0.0000    677.3203      3.4963    143.8414
   679.0000      0.0000    677.0548      3.6129    138.7885
   679.2500      0.0000    682.4285      3.7264    134.9077
   679.5000      0.0000    692.6204      3.8023    131.9583
   679.7500     -2.0000    705.7640      3.8030    129.3059
   680.0000      0.0000    717.1304      3.7208    126.4487
   680.2500      0.0000    721.7952      3.5928    123.2249
   680.5000      0.0000    719.9068      3.4786    119.9991
   680.7500      0.0000    717.1301      3.4130    117.7512
   681.0000      0.0000    718.3747      3.3772    117.5077
   681.2500      0.0000    722.3736      3.3255    119.1226
   681.5000      0.0000    723.9295      3.2432    120.8074
   681.7500      0.0000    720.3923      3.1631    120.6278
   682.0000      0.0000    714.0574      3.1260    118.5526
   682.2500      0.0000    708.6031      3.1381    116.6238
   682.5000      0.0000    705.0495      3.1725    117.2370
   682.7500      0.0000    701.6849      3.1968    121.4940
   683.0000      0.0000    696.9183      3.1956    128.6703
   683.2500      0.0000    691.4557      3.1724    136.8721
   683.5000      0.0000    687.8460      3.1398    144.4668
   683.7500      0.0000    688.3171      3.1091    150.9011
   684.0000      0.0000    693.0402      3.0864    156.0627
   684.2500      0.0000    700.0909      3.0763    159.4906
   684.5000      0.0000    706.8625      3.0846    160.7263
   684.7500      0.0000    711.6288      3.1147    160.0477
   685.0000      0.0000    714.1110      3.1610    158.5197
   685.2500      0.0000    714.9588      3.2086    157.3370
   685.5000      0.0000    714.9772      3.2427    157.0674
   685.7500      0.0000    714.7167      3.2580    157.4517
   686.0000      0.0000    714.4448      3.2590    157.9556
   686.2500      0.0000    714.2557      3.2510    158.3324
   686.5000      0.0000    714.1719      3.2354    158.4942
   686.7500      0.0000    714.1958      3.2127    158.1500
   687.0000      0.0000    714.3160      3.1907    156.9633
   687.2500      0.0000    714.4931      3.1830    154.9719
   687.5000      0.0000    714.6508      3.1997    152.5657
   687.7500      0.0000    714.7083      3.2394    150.0101
   688.0000      0.0000    714.6305      3.2914    147.0459
   688.2500      0.0000    714.4434      3.3458    143.0192
   688.5000      0.0000    714.2090      3.3961    137.7272
   688.7500      0.0000    713.9995      3.4372    132.3599
   689.0000      0.0000    713.8786      3.4614    129.3855
   689.2500      0.0000    713.8676      3.4607    130.9611
   689.5000      0.0000    713.9054      3.4323    137.1598
   689.7500      0.0000    713.8622      3.3821    145.6829
   690.0000      0.0000    713.6284      3.3252    153.3245
   690.2500      0.0000    713.1932      3.2777    157.9335
   690.5000      0.0000    712.5668      3.2488    159.3694
   690.7500      0.0000    711.5117      3.2397    158.8302
   691.0000      0.0000    709.3718      3.2483    157.2731
   691.2500      0.0000    705.5146      3.2704    154.3939
   691.5000      0.0000    700.1182      3.2997    149.0397
   691.7500      0.0000    693.8764      3.3280    140.5151
   692.0000      0.0000    685.5883      3.3489    129.5907
   692.2500      0.0000    669.9521      3.3605    118.4643
   692.5000      0.0000    639.9204      3.3636    109.5824
   692.7500      0.0000    593.6228      3.3585    103.9897
   693.0000      0.0000    538.7541      3.3438    100.7476
   693.2500      0.0000    488.3261      3.3203     98.2444
   693.5000      0.0000    451.7486      3.2935     96.0085
   693.7500      0.0000    430.4099      3.2712     94.8631
   694.0000      0.0000    420.2953      3.2598     95.5590
   694.2500      0.0000    416.9021      3.2614     97.8227
   694.5000      0.0000    418.4326      3.2734    100.5447
   694.7500      0.0000    426.8805      3.2888    102.3418
   695.0000      0.0000    447.0289      3.2972    102.0704
   695.2500      0.0000    482.4185      3.2879     99.3158
