~Version Information
VERS.                      2.0: CWLS Log ASCII Standard - VERSION 2.0
WRAP.                       NO: One line per depth step
~Well Information Block
STRT.FT                 0.0000: 
STOP.FT              1923.5000: 
STEP.FT                 0.2500: 
NULL.                -999.2500: 
COMP.          Petrogulf Corporation: COMPANY
WELL.            Montoya 7-14R: WELL
FLD.           Purgatorie River: FIELD
LOC.           628' FSL & 454' FWL: LOCATION
STAT.                 Colorado: State
CNTY.               Las Animas: COUNTY
CTRY. USA : Country
SECT. 7 : Section
TOWN. 33S : Township
RANG. 67W : Range
SRVC.                Patterson: SERVICE COMPANY
DATE.          Wed Nov 09 12:02:27 2005: LOG DATE
API. 05-071-08554                         : UNIQUE WELL ID
~Curve Information Block
DEPT.FT            0 000 00 00: Depth
CCL.                          : Casing Collar Locator
TT3.usec                      : CBL 3' Travel Time
AMP3.mV                       : CBL 3' Amplitude
GR.GAPI                       : Gamma Ray
~Parameter Information Block
~A  Depth       CCL         TT3         AMP3         GR     
# ...
  1139.0000      2.0000    708.5499      4.6221     56.1977
  1139.2500     -2.0000    703.5159      5.0978     57.6446
  1139.5000      0.0000    711.3837      5.6683     58.9775
  1139.7500      0.0000    726.9238      6.5008     60.4951
  1140.0000      0.0000    729.2047      7.7505     62.5343
  1140.2500      0.0000    708.4611      9.4118     65.2861
  1140.5000      0.0000    666.1929     11.3377     69.1175
  1140.7500      0.0000    599.6868     13.7077     74.6157
  1141.0000      0.0000    508.9865     16.9984     81.8818
  1141.2500      0.0000    414.1555     21.1156     89.8730
  1141.5000      0.0000    344.3548     25.3802     96.7665
  1141.7500      0.0000    308.5763     29.5541    101.0306
  1142.0000      0.0000    293.0503     34.0409    102.1674
  1142.2500      0.0000    282.4846     39.1444    100.8955
  1142.5000      0.0000    272.0606     44.6284     98.9536
  1142.7500      0.0000    263.8760     49.7722     98.2648
  1143.0000      0.0000    259.5609     53.6791     99.6933
  1143.2500      0.0000    258.0521     55.8402    102.5139
  1143.5000      0.0000    257.6887     56.4752    105.1513
  1143.7500      0.0000    257.6136     56.1604    106.4752
  1144.0000      0.0000    257.6005     55.2820    106.6377
  1144.2500      0.0000    257.6342     54.0371    106.8142
  1144.5000      0.0000    257.7263     52.7022    107.9280
  1144.7500      0.0000    257.8890     51.4809    109.5449
  1145.0000      0.0000    258.1545     50.2181    110.2325
  1145.2500      0.0000    258.5442     48.6943    108.9916
  1145.5000      0.0000    258.9930     47.0969    106.1889
  1145.7500      0.0000    259.3609     45.8899    103.2209
  1146.0000      0.0000    259.5447     45.3473    101.3864
  1146.2500      0.0000    259.5322     45.4332    100.9484
  1146.5000      0.0000    259.3531     46.0513    101.2611
  1146.7500      0.0000    259.0328     47.2675    101.8069
  1147.0000      0.0000    258.6038     49.2736    102.7307
  1147.2500      0.0000    258.1434     52.0331    104.1904
  1147.5000      0.0000    257.7612     54.9124    105.5603
  1147.7500      0.0000    257.5248     56.9775    105.5385
  1148.0000      0.0000    257.4229     57.8601    103.1015
  1148.2500      0.0000    257.4106     57.9687     98.4606
  1148.5000      0.0000    257.4591     57.7343     93.0901
  1148.7500      0.0000    257.5573     57.1194     88.7441
  1149.0000      0.0000    257.7279     55.8869     86.3872
  1149.2500      0.0000    258.1917     53.9213     85.8745
  1149.5000      0.0000    259.7789     51.2230     86.3326
  1149.7500      0.0000    264.1374     47.7734     86.8706
  1150.0000      0.0000    272.3378     43.5734     87.2063
  1150.2500      0.0000    282.5645     38.9089     87.6007
  1150.5000      0.0000    291.4137     34.4146     88.1045
  1150.7500      0.0000    298.7721     30.6226     88.1703
  1151.0000      0.0000    309.3430     27.4489     87.1178
  1151.2500      0.0000    327.8924     24.3681     84.6340
  1151.5000      0.0000    354.2244     21.1136     80.7322
  1151.7500      0.0000    387.7703     17.8879     75.5430
  1152.0000      0.0000    438.0938     15.0019     69.3001
  1152.2500      0.0000    517.3471     12.6662     62.4171
  1152.5000      0.0000    611.1689     10.9250     55.4496
  1152.7500      0.0000    677.6545      9.6293     48.8516
  1153.0000      0.0000    694.3745      8.5984     42.8001
  1153.2500      0.0000    682.2552      7.7809     37.4994
  1153.5000      0.0000    673.2241      7.2136     33.7071
  1153.7500      0.0000    678.6056      6.8657     32.6078
  1154.0000      0.0000    689.6733      6.6216     34.8997
  1154.2500      0.0000    692.7976      6.4307     40.1501
  1154.5000      0.0000    684.4857      6.3109     47.1387
  1154.7500      0.0000    675.3605      6.2218     54.7035
  1155.0000      0.0000    678.4517      6.1041     62.3217
  1155.2500      0.0000    696.4643      5.9724     70.2236
  1155.5000      0.0000    719.1229      5.8481     79.0030
  1155.7500      0.0000    731.9370      5.6954     88.7963
  1156.0000      0.0000    729.9493      5.4935     98.6998
  1156.2500      0.0000    720.9719      5.2762    107.1854
  1156.5000      0.0000    713.5459      5.0574    113.2288
  1156.7500      0.0000    706.3151      4.8049    117.0400
  1157.0000      0.0000    694.7977      4.4932    119.7680
  1157.2500      0.0000    680.5538      4.1353    122.4625
  1157.5000      0.0000    668.4838      3.7928    125.1780
  1157.7500      0.0000    661.5695      3.5551    127.0268
  1158.0000      0.0000    659.3907      3.4540    127.1629
  1158.2500      0.0000    659.9750      3.4141    125.7701
  1158.5000      0.0000    662.5637      3.3320    124.0698
  1158.7500      0.0000    667.2574      3.1779    123.2669
  1159.0000      0.0000    673.7151      3.0070    123.5230
  1159.2500      0.0000    684.1859      2.8981    124.0477
  1159.5000      0.0000    704.3999      2.8876    124.1710
  1159.7500      0.0000    732.3901      2.9564    124.2552
  1160.0000      0.0000    750.6991      3.0790    125.4015
  1160.2500      0.0000    746.1232      3.2619    128.1461
  1160.5000      0.0000    730.9482      3.5304    131.6120
  1160.7500      0.0000    723.9210      3.9043    134.1310
  1161.0000      0.0000    722.7524      4.3784    134.6785
  1161.2500      0.0000    715.6398      4.9101    133.7337
  1161.5000      0.0000    706.4185      5.4650    132.7887
  1161.7500      0.0000    706.8020      6.0912    132.8299
  1162.0000      0.0000    712.1202      6.8947    133.1079
  1162.2500      0.0000    705.7239      7.8895    131.5316
  1162.5000      0.0000    678.9766      8.9366    126.6408
  1162.7500      0.0000    628.6677      9.8774    119.4163
  1163.0000      0.0000    552.8757     10.6406    113.0654
  1163.2500      0.0000    467.6422     11.1858    110.8057
  1163.5000      0.0000    404.2105     11.4228    113.6731
  1163.7500      0.0000    378.1416     11.2892    120.2209
  1164.0000      0.0000    383.8973     10.8455    127.9171
  1164.2500      0.0000    418.5565     10.2053    134.6268
  1164.5000      0.0000    483.5320      9.4678    139.1882
  1164.7500      0.0000    562.0308      8.7274    141.2783
  1165.0000      0.0000    623.9579      8.0613    141.0896
  1165.2500      0.0000    657.0242      7.5044    139.1193
  1165.5000      0.0000    669.7994      7.0274    136.1970
  1165.7500      0.0000    672.3628      6.5531    133.5671
  1166.0000      0.0000    671.3212      6.0613    132.4914
  1166.2500      0.0000    672.2662      5.6573    133.4059
  1166.5000      0.0000    677.0383      5.4437    135.5423
  1166.7500      0.0000    684.5670      5.3601    137.5646
  1167.0000      0.0000    695.9406      5.2573    138.5380
  1167.2500      0.0000    711.8330      5.1066    138.2723
  1167.5000      0.0000    725.1814      5.0543    137.0432
  1167.7500      0.0000    725.3658      5.2823    135.2633
  1168.0000      0.0000    710.6213      5.8538    133.3209
  1168.2500      0.0000    690.1100      6.6678    131.6107
  1168.5000      0.0000    674.3870      7.5551    130.6428
  1168.7500      0.0000    666.9076      8.4281    130.9146
  1169.0000      0.0000    664.7821      9.2574    132.5810
  1169.2500      0.0000    664.3729      9.9487    135.3378
  1169.5000      0.0000    662.8131     10.4327    138.4738
  1169.7500      0.0000    654.7651     10.8539    140.8735
  1170.0000      0.0000    631.7174     11.4822    141.3925
  1170.2500      0.0000    591.5491     12.4042    139.8131
  1170.5000      0.0000    544.6263     13.3992    137.1391
  1170.7500      0.0000    498.2614     14.1283    134.5337
  1171.0000      0.0000    452.6025     14.3593    132.4827
  1171.2500      0.0000    420.0753     14.1038    131.3703
  1171.5000      0.0000    417.9324     13.6588    131.9459
  1171.7500      0.0000    439.2253     13.4148    134.3379
  1172.0000      0.0000    450.8239     13.5931    137.1388
  1172.2500      0.0000    429.8822     14.1846    138.2968
