~Version Information
VERS.                      2.0: CWLS Log ASCII Standard - VERSION 2.0
WRAP.                       NO: One line per depth step
~Well Information Block
STRT.FT               588.7000: 
STOP.FT              1820.2000: 
STEP.FT                 0.1000: 
NULL.                -999.2500: 
COMP.          Pioneer Natural Resources: COMPANY
WELL.           Loews 41-32 Tr: WELL
FLD.           Purgatoire River: FIELD
LOC.           706' FNL & 224' FEL--: LOCATION
CNTY.               Las Animas: COUNTY
SRVC.                Patterson: SERVICE COMPANY
DATE.          Tue Feb 21 10:23:46 2006: LOG DATE
UWI.           05 071 08690 00: UNIQUE WELL ID
STAT.                 Colorado: STATE
~Curve Information Block
DEPT.FT            0 000 00 00: Depth
DCAL.in                       : CDL Caliper
RHOB.g/cc                     : CDL Bulk Density
RHOC.g/cc                     : CDL Density Correction
DPOR.pu                       : CDL Density Porosity
GR.GAPI                       : Gamma Ray
~Parameter Information Block
~A  Depth       DCAL        RHOB        RHOC        DPOR         GR     
# ...
  1551.9000      7.9172      1.7404     -0.1322     55.1266     98.0774
  1552.0000      7.9432      1.6238     -0.1257     62.1933     94.3261
  1552.1000      7.9432      1.4998     -0.1520     69.7082     87.9514
  1552.2000      7.9432      1.3889     -0.1754     76.4325     81.5706
  1552.3000      8.0443      1.3103     -0.1389     81.1913     76.0797
  1552.4000      8.0443      1.2629     -0.0534     84.0681     69.4084
  1552.5000      8.2443      1.2427     -0.0172     85.2894     61.5057
  1552.6000      8.2443      1.2499      0.0219     84.8554     54.1952
  1552.7000      8.2443      1.2812      0.0566     82.9598     49.7221
  1552.8000      8.3741      1.3330      0.0810     79.8177     46.9817
  1552.9000      8.3741      1.4010      0.1019     75.6973     41.2435
  1553.0000      8.2468      1.4823      0.1148     70.7710     34.8846
  1553.1000      8.2468      1.5840      0.1241     64.6074     34.8100
  1553.2000      8.2468      1.7090      0.1751     57.0322     39.4373
  1553.3000      8.0338      1.8432      0.2091     48.8993     43.9743
  1553.4000      8.0338      1.9777      0.2422     40.7476     50.1380
  1553.5000      7.9375      2.1176      0.2755     32.2689     59.8437
  1553.6000      7.9375      2.2548      0.3136     23.9526     69.2309
  1553.7000      7.9375      2.3657      0.3251     17.2307     73.8026
  1553.8000      7.9263      2.4456      0.2490     12.3896     74.0341
  1553.9000      7.9263      2.5108      0.2175      8.4383     73.6931
  1554.0000      7.9301      2.5622      0.2454      5.3233     76.6249
  1554.1000      7.9301      2.5805      0.2007      4.2124     86.8623
  1554.2000      7.9301      2.5548      0.1295      5.7691    103.9614
  1554.3000      7.9316      2.4930      0.0697      9.5181    120.4847
  1554.4000      7.9316      2.4172      0.0199     14.1061    130.8218
  1554.5000      7.9305      2.3496     -0.0064     18.2076    132.6087
  1554.6000      7.9305      2.2943     -0.0228     21.5597    125.7279
  1554.7000      7.9305      2.2430     -0.0120     24.6646    116.6394
  1554.8000      7.9229      2.1852     -0.0269     28.1724    112.4711
  1554.9000      7.9229      2.1168     -0.0358     32.3130    114.0459
  1555.0000      7.9188      2.0504     -0.0733     36.3398    117.9024
  1555.1000      7.9188      2.0028     -0.0626     39.2219    120.0602
  1555.2000      7.9188      1.9723     -0.0095     41.0703    118.7479
  1555.3000      7.9354      1.9482     -0.0165     42.5339    114.1924
  1555.4000      7.9354      1.9281      0.0171     43.7489    106.7251
  1555.5000      7.9605      1.9122      0.0371     44.7179     99.6191
  1555.6000      7.9605      1.8975      0.0549     45.6074     95.1757
  1555.7000      7.9605      1.8818      0.0328     46.5566     92.6185
  1555.8000      7.9753      1.8685      0.0248     47.3650     93.0722
  1555.9000      7.9753      1.8622      0.0465     47.7427     95.6923
  1556.0000      7.9710      1.8605      0.0798     47.8493     96.6976
  1556.1000      7.9710      1.8678      0.0623     47.4054     92.7308
  1556.2000      7.9710      1.9014      0.0910     45.3700     85.7279
  1556.3000      7.9485      1.9645      0.0948     41.5456     83.6893
  1556.4000      7.9485      2.0414      0.1463     36.8833     89.8354
  1556.5000      7.9316      2.1215      0.1649     32.0307     98.5705
  1556.6000      7.9316      2.2094      0.1912     26.7060    103.0993
  1556.7000      7.9316      2.3036      0.1953     20.9964    102.7087
  1556.8000      7.9312      2.3845      0.2304     16.0917    102.6512
  1556.9000      7.9312      2.4371      0.2349     12.9024    105.3944
  1557.0000      7.9291      2.4719      0.2077     10.7930    105.6407
  1557.1000      7.9291      2.5092      0.1760      8.5306    100.7706
  1557.2000      7.9291      2.5469      0.2189      6.2496     97.4684
  1557.3000      7.9222      2.5643      0.1699      5.1942    101.7308
  1557.4000      7.9222      2.5630      0.0897      5.2754    110.4740
  1557.5000      7.9171      2.5628      0.0850      5.2846    116.6314
  1557.6000      7.9171      2.5661      0.0937      5.0862    119.2869
  1557.7000      7.9171      2.5630      0.0860      5.2732    120.5090
  1557.8000      7.9152      2.5513      0.0889      5.9808    118.3921
  1557.9000      7.9152      2.5416      0.0417      6.5696    111.6148
  1558.0000      7.9151      2.5485      0.0471      6.1496    105.8574
  1558.1000      7.9151      2.5627      0.0715      5.2933    108.0547
  1558.2000      7.9151      2.5646      0.0726      5.1745    115.7988
  1558.3000      7.9131      2.5614      0.0182      5.3698    120.2557
  1558.4000      7.9131      2.5667      0.0766      5.0502    118.4739
  1558.5000      7.9118      2.5725      0.0760      4.6999    113.1503
  1558.6000      7.9118      2.5748      0.0496      4.5577    111.1019
  1558.7000      7.9118      2.5807      0.0815      4.1979    115.8044
  1558.8000      7.9117      2.5820      0.0734      4.1221    119.8003
  1558.9000      7.9117      2.5711      0.0396      4.7808    118.5655
  1559.0000      7.9113      2.5563      0.0610      5.6795    119.1063
  1559.1000      7.9113      2.5467      0.0184      6.2597    123.7189
  1559.2000      7.9113      2.5481      0.0377      6.1758    122.6933
  1559.3000      7.9106      2.5590      0.0513      5.5133    114.6493
  1559.4000      7.9106      2.5733      0.0776      4.6494    109.3090
  1559.5000      7.9095      2.5875      0.0553      3.7880    109.3243
  1559.6000      7.9095      2.6010      0.0423      2.9676    109.0851
  1559.7000      7.9095      2.6111      0.0974      2.3551    105.1949
  1559.8000      7.9081      2.6130      0.0731      2.2425     98.7267
  1559.9000      7.9081      2.6091      0.0841      2.4815     91.7854
  1560.0000      7.9064      2.6041      0.0887      2.7812     86.3372
  1560.1000      7.9064      2.6032      0.0265      2.8343     84.3241
  1560.2000      7.9064      2.6088      0.0922      2.4961     86.9598
  1560.3000      7.9042      2.6109      0.0483      2.3694     94.8192
  1560.4000      7.9042      2.6027      0.0510      2.8657    105.4467
  1560.5000      7.9018      2.5869      0.0580      3.8272    109.4103
  1560.6000      7.9018      2.5698      0.0326      4.8600    101.4575
  1560.7000      7.9018      2.5559      0.0581      5.7016     92.2775
  1560.8000      7.8929      2.5394      0.0404      6.7021     92.9338
  1560.9000      7.8929      2.5181      0.0137      7.9917     97.5968
  1561.0000      7.8736      2.5005     -0.0062      9.0581     99.7005
  1561.1000      7.8736      2.4962     -0.0027      9.3239    101.9991
  1561.2000      7.8736      2.5106      0.0029      8.4515    103.4925
  1561.3000      7.8553      2.5357      0.0767      6.9263    102.9516
  1561.4000      7.8553      2.5570      0.0619      5.6369    102.7370
  1561.5000      7.8469      2.5747      0.1054      4.5640    100.0968
  1561.6000      7.8469      2.5917      0.1045      3.5344     92.0355
  1561.7000      7.8469      2.6038      0.1002      2.8022     82.8291
  1561.8000      7.8467      2.6066      0.1398      2.6303     78.4308
  1561.9000      7.8467      2.6002      0.0898      3.0183     78.2560
  1562.0000      7.8529      2.5907      0.0902      3.5928     78.5774
  1562.1000      7.8529      2.5827      0.0906      4.0816     79.4600
  1562.2000      7.8529      2.5767      0.0577      4.4449     80.1653
  1562.3000      7.8615      2.5729      0.0616      4.6739     79.9784
  1562.4000      7.8615      2.5724      0.0490      4.7047     82.0340
  1562.5000      7.8667      2.5771      0.0566      4.4180     88.2856
  1562.6000      7.8667      2.5790      0.0982      4.3005     94.0244
  1562.7000      7.8667      2.5708      0.0371      4.7990     93.3407
  1562.8000      7.8691      2.5645      0.0494      5.1807     89.0194
  1562.9000      7.8691      2.5668      0.0455      5.0424     88.8966
  1563.0000      7.8710      2.5708      0.0426      4.8006     95.4984
