~Version Information
VERS.                      2.0: CWLS Log ASCII Standard - VERSION 2.0
WRAP.                       NO: One line per depth step
~Well Information Block
STRT.FT               770.0000: 
STOP.FT              2171.0000: 
STEP.FT                 0.1000: 
NULL.                -999.2500: 
COMP.          Pioneer Natural Resources: COMPANY
WELL.              Kermit 32-7: WELL
FLD.           Purgatoire River: FIELD
LOC.           2002' FNL & 2103' FEL: LOCATION
PROV.                 Colorado: PROVINCE
CNTY.               Las Animas: COUNTRY
SRVC.                Patterson: SERVICE COMPANY
DATE.          Thu Jan 12 03:02:28 2006: LOG DATE
UWI.           05 071 08647 00: UNIQUE WELL ID
~Curve Information Block
DEPT.FT            0 000 00 00: Depth
DCAL.in                       : CDL Caliper
RHOB.g/cc                     : CDL Bulk Density
RHOC.g/cc                     : CDL Density Correction
DPOR.pu                       : CDL Density Porosity
GR.GAPI                       : Gamma Ray
NPOR.pu                       : Neutron Porosity
~Parameter Information Block
~A  Depth       DCAL        RHOB        RHOC        DPOR         GR         NPOR    
# ...
  1326.8000      8.1032      2.6557      0.0685     -0.3445    141.5411     27.8603
  1326.9000      8.1032      2.6558      0.0541     -0.3542    145.0701     28.4776
  1327.0000      8.1141      2.6401      0.0520      0.5994    145.3691     28.7800
  1327.1000      8.1141      2.6320     -0.0007      1.0905    140.0888     28.9607
  1327.2000      8.1141      2.6451      0.1048      0.2982    131.1410     29.4960
  1327.3000      8.1230      2.6568      0.0606     -0.4148    127.1216     30.0645
  1327.4000      8.1230      2.6449     -0.0009      0.3071    131.2693     30.3201
  1327.5000      8.1077      2.6088     -0.0131      2.4968    138.4826     30.4890
  1327.6000      8.1077      2.5607     -0.0218      5.4140    141.3396     30.5157
  1327.7000      8.1077      2.5239     -0.1307      7.6433    137.5979     30.3215
  1327.8000      8.1322      2.5154     -0.0901      8.1561    128.9170     29.9718
  1327.9000      8.1322      2.5221     -0.0605      7.7489    118.8297     29.4346
  1328.0000      8.1121      2.5234     -0.0621      7.6753    113.6283     28.9302
  1328.1000      8.1121      2.5245     -0.0249      7.6083    115.0765     28.6397
  1328.2000      8.1121      2.5445      0.0064      6.3914    115.5291     28.3999
  1328.3000      8.0623      2.5874      0.0594      3.7969    109.4953     27.9089
  1328.4000      8.0623      2.6320      0.1384      1.0920    103.2434     27.2516
  1328.5000      8.0605      2.6472      0.1732      0.1717    102.9423     26.7978
  1328.6000      8.0605      2.6229      0.1143      1.6449    106.6451     26.4533
  1328.7000      8.0605      2.5852      0.0509      3.9298    110.0135     25.8524
  1328.8000      7.9337      2.5668      0.0388      5.0444    110.4088     25.0917
  1328.9000      7.9337      2.5752      0.0628      4.5322    108.9913     24.5339
  1329.0000      7.8923      2.5980      0.0875      3.1529    109.1481     24.3177
  1329.1000      7.8923      2.6156      0.1526      2.0852    112.5197     24.3637
  1329.2000      7.8923      2.6128      0.1038      2.2531    118.4665     24.5169
  1329.3000      7.9138      2.5932      0.0895      3.4421    125.1957     24.7730
  1329.4000      7.9138      2.5657      0.1513      5.1086    130.7927     25.3987
  1329.5000      7.9582      2.5358      0.1231      6.9182    133.3848     26.1308
  1329.6000      7.9582      2.5219      0.0426      7.7634    131.0023     26.2786
  1329.7000      7.9582      2.5292      0.1017      7.3218    125.1781     25.9392
  1329.8000      7.9851      2.5374      0.1098      6.8261    122.9916     25.6682
  1329.9000      7.9851      2.5401      0.0846      6.6594    127.2994     25.8060
  1330.0000      7.9998      2.5425      0.1223      6.5173    133.1532     26.3822
  1330.1000      7.9998      2.5441      0.0701      6.4196    137.1530     27.0376
  1330.2000      7.9998      2.5552      0.1099      5.7439    140.3289     27.3395
  1330.3000      8.0153      2.5832      0.1506      4.0483    143.0656     27.2593
  1330.4000      8.0153      2.6237      0.1070      1.5915    143.8975     27.2751
  1330.5000      7.9771      2.6670      0.1555     -1.0327    142.4839     27.4150
  1330.6000      7.9771      2.6849      0.1878     -2.1182    140.3317     27.1021
  1330.7000      7.9771      2.6636      0.1653     -0.8271    140.1720     26.4474
  1330.8000      7.9763      2.6311      0.1516      1.1437    144.0991     26.1565
  1330.9000      7.9763      2.6125      0.1452      2.2757    149.1983     26.2400
  1331.0000      7.9539      2.6078      0.0731      2.5579    147.5912     26.1907
  1331.1000      7.9539      2.6062      0.1141      2.6557    138.3456     26.1194
  1331.2000      7.9539      2.5956      0.0803      3.2957    130.3803     26.5725
  1331.3000      7.9728      2.5824      0.0503      4.0984    127.4509     27.4803
  1331.4000      7.9728      2.5726      0.0640      4.6919    123.4213     27.9872
  1331.5000      7.9725      2.5582      0.0658      5.5619    118.4851     27.6593
  1331.6000      7.9725      2.5468      0.0462      6.2521    119.9622     27.1993
  1331.7000      7.9725      2.5533      0.0966      5.8585    124.9949     27.1684
  1331.8000      7.9814      2.5683      0.0844      4.9530    125.8387     27.4102
  1331.9000      7.9814      2.5747      0.0634      4.5646    124.4577     27.6151
  1332.0000      7.9934      2.5722      0.0340      4.7179    125.6074     27.5783
  1332.1000      7.9934      2.5673      0.0098      5.0113    127.3204     27.0415
  1332.2000      7.9934      2.5603      0.0528      5.4347    126.8055     26.1266
  1332.3000      7.9946      2.5494      0.0207      6.0947    125.8596     25.6875
  1332.4000      7.9946      2.5361      0.0496      6.9022    126.8894     26.1400
  1332.5000      7.9956      2.5248     -0.0084      7.5885    129.4022     26.7190
  1332.6000      7.9956      2.5243      0.0216      7.6206    131.7066     26.7155
  1332.7000      7.9956      2.5270      0.0512      7.4570    134.9559     26.4974
  1332.8000      7.9728      2.5134      0.0212      8.2761    138.4914     26.4312
  1332.9000      7.9728      2.4864     -0.0014      9.9139    139.3477     26.3517
  1333.0000      7.9804      2.4700      0.0021     10.9081    138.4895     26.1930
  1333.1000      7.9804      2.4790     -0.0373     10.3663    137.7834     26.0118
  1333.2000      7.9804      2.4997      0.0787      9.1090    140.3235     25.7313
  1333.3000      7.9840      2.5070      0.0170      8.6662    147.1964     25.5339
  1333.4000      7.9840      2.5051     -0.0367      8.7834    151.6798     25.8829
  1333.5000      7.9862      2.5129      0.0418      8.3071    151.0468     26.6238
  1333.6000      7.9862      2.5274      0.0759      7.4329    148.2731     26.8816
  1333.7000      7.9862      2.5338      0.0771      7.0421    145.6652     26.2226
  1333.8000      8.0006      2.5340      0.0062      7.0312    144.7639     25.2676
  1333.9000      8.0006      2.5413      0.0189      6.5870    144.4831     24.5262
  1334.0000      7.9814      2.5543      0.0098      5.7970    146.4008     24.0347
  1334.1000      7.9814      2.5564      0.0392      5.6721    151.3437     24.2546
  1334.2000      7.9814      2.5342      0.0816      7.0196    153.9392     25.0260
  1334.3000      7.9717      2.4933      0.0215      9.4948    151.6618     25.5731
  1334.4000      7.9717      2.4570      0.0327     11.6942    145.1064     25.8026
  1334.5000      7.9574      2.4415      0.0311     12.6342    139.1914     25.7670
  1334.6000      7.9574      2.4411      0.0330     12.6613    139.2327     25.3009
  1334.7000      7.9574      2.4418      0.0465     12.6175    144.0350     24.7094
  1334.8000      7.9443      2.4438      0.0148     12.4958    149.4108     24.3097
  1334.9000      7.9443      2.4591      0.0304     11.5710    149.8586     23.9871
  1335.0000      7.9738      2.4899      0.0374      9.7021    143.5168     23.7271
  1335.1000      7.9738      2.5281      0.0944      7.3863    136.1910     23.8040
  1335.2000      7.9738      2.5607      0.1405      5.4137    133.4983     24.5062
  1335.3000      8.0209      2.5761      0.1716      4.4760    135.9722     25.6132
  1335.4000      8.0209      2.5792      0.1627      4.2910    140.1997     26.3211
  1335.5000      8.0230      2.5797      0.1857      4.2620    142.8014     26.2733
  1335.6000      8.0230      2.5699      0.1782      4.8545    143.2299     25.9228
  1335.7000      8.0230      2.5459      0.1473      6.3087    142.3671     25.8807
  1335.8000      7.9583      2.5279      0.0592      7.3982    141.5851     26.2623
  1335.9000      7.9583      2.5270      0.1140      7.4553    141.3916     26.6892
  1336.0000      7.9757      2.5266      0.0926      7.4765    139.8375     26.9488
  1336.1000      7.9757      2.5114      0.1049      8.4028    137.3202     27.0975
  1336.2000      7.9757      2.4813      0.0833     10.2245    136.6212     27.1397
  1336.3000      7.9488      2.4519      0.0373     12.0088    136.1612     27.1418
