~Version Information
VERS.                      2.0: CWLS Log ASCII Standard - VERSION 2.0
WRAP.                       NO: One line per depth step
~Well Information Block
STRT.FT                -9.0000: 
STOP.FT              1754.0000: 
STEP.FT                 0.2500: 
NULL.                -999.2500: 
COMP.          Pioneer Natural Resources: COMPANY
WELL.          Touchstone 11-32 Tr: WELL
FLD.           Purgatorie River: FIELD
LOC.           782' FNL & 840' FWL--: LOCATION
CNTY.               Las Animas: COUNTY
SRVC.          Patterson Wireline: SERVICE COMPANY
DATE.          Mon Mar 06 09:18:09 2006: LOG DATE
UWI.           05 071 08626 00: UNIQUE WELL ID
STAT.                       CO: STATE
~Curve Information Block
DEPT.FT            0 000 00 00: Depth
CCL.                          : Casing Collar Locator
TT3.usec                      : CBL 3' Travel Time
AMP3.mV                       : CBL 3' Amplitude
GR.GAPI                       : Gamma Ray
~Parameter Information Block
~A  Depth       CCL         TT3         AMP3         GR     
# ...
    91.5000      0.0000    724.8964      7.7764     83.3195
    91.7500      0.0000    734.3122      7.8592     83.8620
    92.0000      0.0000    743.9210      7.8783     83.3645
    92.2500      0.0000    751.8858      7.8622     81.7931
    92.5000      0.0000    758.4221      7.8356     79.1484
    92.7500      0.0000    765.3792      7.8211     76.1220
    93.0000      0.0000    773.3212      7.8435     74.0643
    93.2500      0.0000    780.0610      7.9116     73.8092
    93.5000      0.0000    783.1002      7.9814     74.7347
    93.7500      0.0000    783.3878      7.9438     75.3654
    94.0000      0.0000    785.3954      7.6914     74.8650
    94.2500      0.0000    792.5493      7.2313     73.7354
    94.5000      0.0000    803.6896      6.7153     73.0961
    94.7500      0.0000    815.5967      6.3318     73.5131
    95.0000      0.0000    828.3965      6.1698     74.7545
    95.2500      0.0000    846.2196      6.1913     76.4383
    95.5000     -2.0000    871.0032      6.3006     78.4705
    95.7500      2.0000    896.0640      6.4259     80.9509
    96.0000      0.0000    907.5696      6.5511     83.9382
    96.2500      0.0000    895.2301      6.6865     87.1648
    96.5000      0.0000    862.8048      6.8100     89.9570
    96.7500      0.0000    826.0563      6.8544     91.9668
    97.0000      0.0000    799.5450      6.7802     94.0652
    97.2500      0.0000    787.0615      6.6357     97.8337
    97.5000      0.0000    783.5712      6.5122    103.8199
    97.7500      0.0000    782.1909      6.4623    110.6019
    98.0000      0.0000    778.2364      6.4817    115.7624
    98.2500      0.0000    769.8958      6.5422    117.7006
    98.5000      0.0000    758.2270      6.6144    116.7136
    98.7500      0.0000    746.4578      6.6745    114.6955
    99.0000      0.0000    737.7615      6.7093    113.7534
    99.2500      0.0000    733.3224      6.7207    114.7953
    99.5000      0.0000    732.8406      6.7219    117.1326
    99.7500      0.0000    736.1156      6.7248    119.1070
   100.0000      0.0000    743.1357      6.7330    119.0466
   100.2500      0.0000    753.1407      6.7449    116.0913
   100.5000      0.0000    764.2868      6.7632    110.4959
   100.7500      0.0000    774.2500      6.7946    103.2692
   101.0000      0.0000    781.3457      6.8412     95.5854
   101.2500      0.0000    785.3222      6.8947     88.4597
   101.5000      0.0000    787.0964      6.9424     82.5817
   101.7500      0.0000    787.8281      6.9795     78.1477
   102.0000      0.0000    788.3256      7.0136     74.8545
   102.2500      0.0000    789.0600      7.0584     72.0811
   102.5000      0.0000    790.3707      7.1223     69.1605
   102.7500      0.0000    792.4756      7.2028     65.8157
   103.0000      0.0000    795.2038      7.2889     62.5032
   103.2500      0.0000    797.7546      7.3701     60.0099
   103.5000      0.0000    799.1291      7.4422     58.5478
   103.7500      0.0000    799.2151      7.5076     57.5728
   104.0000      0.0000    799.2416      7.5747     56.6137
   104.2500      0.0000    800.5219      7.6553     55.9241
   104.5000      0.0000    802.2935      7.7588     56.1172
   104.7500      0.0000    800.9028      7.8853     57.4063
   105.0000      0.0000    791.9002      8.0248     59.4588
   105.2500      0.0000    774.0978      8.1632     61.8069
   105.5000      0.0000    751.9420      8.2880     63.9428
   105.7500      0.0000    733.5118      8.3919     65.0036
   106.0000      0.0000    725.7188      8.4735     64.0497
   106.2500      0.0000    730.8000      8.5331     61.1703
   106.5000      0.0000    746.1347      8.5701     57.9398
   106.7500      0.0000    766.5996      8.5830     56.2024
   107.0000      0.0000    787.4271      8.5705     56.4581
   107.2500      0.0000    805.5911      8.5307     57.7345
   107.5000      0.0000    819.5959      8.4621     58.8912
   107.7500      0.0000    829.0443      8.3672     59.7034
   108.0000      0.0000    834.2935      8.2567     60.6160
   108.2500      0.0000    835.9885      8.1460     61.7470
   108.5000      0.0000    834.9801      8.0461     62.5551
   108.7500      0.0000    832.5256      7.9577     62.5514
   109.0000      0.0000    829.8718      7.8754     61.9943
   109.2500      0.0000    827.4106      7.7950     61.5482
   109.5000      0.0000    824.4713      7.7187     61.4603
   109.7500      0.0000    820.1674      7.6510     61.4241
   110.0000      0.0000    814.6057      7.5925     61.1823
   110.2500      0.0000    809.4373      7.5368     60.8914
   110.5000      0.0000    806.9581      7.4746     60.7743
   110.7500      0.0000    808.3190      7.4010     60.6723
   111.0000      0.0000    812.5961      7.3191     60.1498
   111.2500      0.0000    817.7187      7.2396     58.8763
   111.5000      0.0000    822.2334      7.1753     56.7783
   111.7500      0.0000    826.1116      7.1364     54.1095
   112.0000      0.0000    830.0957      7.1284     51.5760
   112.2500      0.0000    834.5779      7.1523     50.0466
   112.5000      0.0000    839.2353      7.2034     49.7985
   112.7500      0.0000    843.6195      7.2694     50.2733
   113.0000      0.0000    847.7528      7.3327     50.8201
   113.2500      0.0000    851.8731      7.3757     51.3120
   113.5000      0.0000    855.6561      7.3888     51.7162
   113.7500      0.0000    858.0032      7.3740     51.5203
   114.0000      0.0000    857.8163      7.3433     50.2346
   114.2500      0.0000    854.9234      7.3096     48.2666
   114.5000      0.0000    850.1306      7.2776     46.7222
   114.7500      0.0000    844.5428      7.2413     46.4318
   115.0000      0.0000    839.0931      7.1918     47.4802
   115.2500      0.0000    834.5126      7.1255     49.4500
   115.5000      0.0000    831.2632      7.0476     51.7796
   115.7500      0.0000    829.3276      6.9693     53.9514
   116.0000      0.0000    828.2363      6.9029     55.5571
   116.2500      0.0000    827.3080      6.8567     56.2715
   116.5000      0.0000    825.9345      6.8318     55.9054
   116.7500      0.0000    823.9458      6.8238     54.6406
   117.0000      0.0000    821.9196      6.8284     53.0978
   117.2500      0.0000    820.8987      6.8459     51.9358
   117.5000      0.0000    821.4514      6.8802     51.4168
   117.7500      0.0000    823.0861      6.9347     51.4159
   118.0000      0.0000    824.7504      7.0076     51.5949
   118.2500      0.0000    825.7689      7.0899     51.5386
   118.5000      0.0000    826.2406      7.1665     51.1183
   118.7500      0.0000    826.9130      7.2210     50.8786
   119.0000      0.0000    828.9303      7.2388     51.6810
   119.2500      0.0000    833.3521      7.2132     53.8166
   119.5000      0.0000    840.1820      7.1493     56.7295
   119.7500      0.0000    847.4992      7.0651     59.6947
   120.0000      0.0000    851.5962      6.9832     62.5447
   120.2500      0.0000    848.4908      6.9211     65.7366
   120.5000      0.0000    836.5469      6.8892     69.9204
   120.7500      0.0000    819.5223      6.8971     75.3791
   121.0000      0.0000    807.4190      6.9524     81.6563
   121.2500      0.0000    812.0497      7.0467     87.7738
   121.5000      0.0000    838.4305      7.1482     92.9885
   121.7500      0.0000    878.9173      7.2167     97.2403
   122.0000      0.0000    916.8622      7.2343    100.7131
   122.2500      0.0000    938.8066      7.2208    103.1750
   122.5000      0.0000    944.9118      7.2199    104.0704
   122.7500      0.0000    946.7164      7.2696    103.2407
   123.0000      0.0000    953.8240      7.3807    101.3494
   123.2500      0.0000    964.1256      7.5351     99.5743
   123.5000      0.0000    968.0333      7.7023     98.8635
   123.7500      0.0000    960.2381      7.8575     99.1983
   124.0000      0.0000    944.9129      7.9867     99.5011
   124.2500      0.0000    930.2990      8.0778     98.5598
   124.5000      0.0000    920.2020      8.1191     96.0722
   124.7500      0.0000    910.8616      8.1119     92.6377
