~Version Information
VERS.                      2.0: CWLS Log ASCII Standard - VERSION 2.0
WRAP.                       NO: One line per depth step
~Well Information Block
STRT.FT                10.0000: 
STOP.FT              1380.7500: 
STEP.FT                 0.2500: 
NULL.                -999.2500: 
COMP.          Pioneer Natural Resources: COMPANY
WELL.          Baa Baa 34-1 Tr: WELL
FLD.           Purgatoire River: FIELD
LOC.           785' FSL & 2304' FEL: LOCATION
CNTY.               Las Animas: COUNTY
SRVC.                Patterson: SERVICE COMPANY
DATE.          Tue Mar 07 13:08:19 2006: LOG DATE
UWI.           05 071 08710 00: UNIQUE WELL ID
STAT.                 Colorado: STATE
~Curve Information Block
DEPT.FT            0 000 00 00: Depth
GR.GAPI                       : Gamma Ray
CCL.                          : Casing Collar Locator
TT3.usec                      : CBL 3' Travel Time
AMP3.mV                       : CBL 3' Amplitude
~Parameter Information Block
~A  Depth        GR         CCL         TT3         AMP3    
# ...
  1249.5000     64.2048      0.0000    797.3446     10.9072
  1249.7500     65.7231      0.0000    797.2794     10.9090
  1250.0000     65.6646      0.0000    797.1848     10.8871
  1250.2500     64.4545      0.0000    797.0769     10.8392
  1250.5000     63.4342      0.0000    796.9611     10.7779
  1250.7500     63.8256      0.0000    796.8412     10.7298
  1251.0000     66.1731      0.0000    796.7309     10.7162
  1251.2500     70.2685      0.0000    796.6535     10.7357
  1251.5000     75.5013      0.0000    796.6283     10.7675
  1251.7500     81.3602      0.0000    796.6573     10.7935
  1252.0000     87.4354      0.0000    796.7271     10.8122
  1252.2500     92.9761      0.0000    796.8187     10.8314
  1252.5000     96.9108      0.0000    796.9174     10.8510
  1252.7500     98.5681      0.0000    797.0125     10.8592
  1253.0000     98.2099      0.0000    797.0838     10.8420
  1253.2500     96.7273      0.0000    797.0597     10.7936
  1253.5000     94.8175      0.0000    796.7363     10.7167
  1253.7500     92.4956      0.0000    795.6606     10.6215
  1254.0000     89.6471      0.0000    793.1047     10.5274
  1254.2500     87.1464      0.0000    788.3937     10.4621
  1254.5000     87.0080      0.0000    781.5936     10.4515
  1254.7500     91.0464      0.0000    773.9470     10.5050
  1255.0000     99.4229      0.0000    767.3991     10.6113
  1255.2500    110.5157      0.0000    763.5964     10.7491
  1255.5000    122.0146      0.0000    763.3594     10.9008
  1255.7500    132.0639      0.0000    766.7201     11.0557
  1256.0000    139.5527      0.0000    772.8307     11.2059
  1256.2500    143.8230      0.0000    779.7979     11.3444
  1256.5000    144.5598      0.0000    785.3130     11.4647
  1256.7500    141.9658      0.0000    788.0735     11.5573
  1257.0000    136.8034      0.0000    788.6227     11.6067
  1257.2500    130.2346      0.0000    788.5374     11.5982
  1257.5000    123.6864      0.0000    788.6486     11.5309
  1257.7500    118.6972      0.0000    788.1400     11.4209
  1258.0000    116.5018      0.0000    785.4632     11.2886
  1258.2500    117.4934      0.0000    780.0618     11.1440
  1258.5000    121.0569      0.0000    773.0889     10.9866
  1258.7500    125.9479      0.0000    766.5504     10.8161
  1259.0000    131.0182      0.0000    761.7299     10.6392
  1259.2500    135.8331      0.0000    758.3356     10.4654
  1259.5000    140.5857      0.0000    755.1036     10.2979
  1259.7500    145.4043      0.0000    751.4817     10.1312
  1260.0000    149.9190      0.0000    748.8799      9.9556
  1260.2500    153.4998      0.0000    749.9866      9.7632
  1260.5000    155.6962      0.0000    756.4398      9.5442
  1260.7500    156.3607      0.0000    766.9207      9.2743
  1261.0000    155.4714      0.0000    777.5204      8.9010
  1261.2500    152.8620      0.0000    784.2079      8.3500
  1261.5000    148.1060      0.0000    785.2443      7.5752
  1261.7500    140.8503      0.0000    781.8292      6.6200
  1262.0000    131.3167      0.0000    777.0740      5.6130
  1262.2500    120.3206      0.0000    774.1900      4.6927
  1262.5000    108.8143      0.0000    774.7924      3.9503
  1262.7500     97.5806      0.0000    778.4163      3.4267
  1263.0000     87.4451      0.0000    783.3904      3.1176
  1263.2500     79.6867      0.0000    788.0832      2.9811
  1263.5000     75.9897     -3.0000    791.7366      2.9737
  1263.7500     77.6134      0.0000    794.8616      3.1000
  1264.0000     84.1548      0.0000    798.6613      3.4420
  1264.2500     93.0869      0.0000    803.4947      4.1346
  1264.5000    101.1467      0.0000    808.1620      5.2570
  1264.7500    106.7059      0.0000    811.0792      6.6978
  1265.0000    110.6181      0.0000    811.6011      8.1457
  1265.2500    114.7619      0.0000    809.9636      9.2701
  1265.5000    120.3296      0.0000    806.7922      9.9277
  1265.7500    127.4474      0.0000    803.0612     10.1980
  1266.0000    135.3741      0.0000    799.8550     10.2623
  1266.2500    142.7302      0.0000    797.7784     10.2710
  1266.5000    148.3949      0.0000    796.7533     10.2890
  1266.7500    152.4847      0.0000    796.3759     10.3117
  1267.0000    155.8194      0.0000    796.2968     10.3058
  1267.2500    158.4647      0.0000    796.3333     10.2413
  1267.5000    159.5115      0.0000    796.4150     10.1065
  1267.7500    158.2486      0.0000    796.5059      9.9132
  1268.0000    154.9339      0.0000    796.5309      9.6976
  1268.2500    150.2884      0.0000    796.2874      9.5095
  1268.5000    144.5463      0.0000    795.3436      9.3903
  1268.7500    137.2903      0.0000    793.0945      9.3525
  1269.0000    128.4836      0.0000    789.2167      9.3807
  1269.2500    119.5839      0.0000    784.3702      9.4561
  1269.5000    112.9718      0.0000    780.2079      9.5791
  1269.7500    109.8561      0.0000    778.0920      9.7697
  1270.0000    109.0450      0.0000    777.7068     10.0468
  1270.2500    108.0677      0.0000    777.3494     10.4121
  1270.5000    105.3841      0.0000    775.5715     10.8507
  1270.7500    101.4348      0.0000    772.2966     11.3357
  1271.0000     97.7181      0.0000    768.7411     11.8301
  1271.2500     95.1643      0.0000    766.7334     12.2887
  1271.5000     93.5748      0.0000    767.6420     12.6712
  1271.7500     92.4149      0.0000    771.2687     12.9600
  1272.0000     91.7835      0.0000    775.8125     13.1721
  1272.2500     92.5179      0.0000    779.3610     13.3502
  1272.5000     95.5192      0.0000    781.4977     13.5356
  1272.7500    100.9461      0.0000    783.3074     13.7408
  1273.0000    107.7521      0.0000    785.9756     13.9422
  1273.2500    113.8932      0.0000    789.6214     14.0944
  1273.5000    117.3373      0.0000    793.3303     14.1541
  1273.7500    117.1370      0.0000    795.9991     14.0963
  1274.0000    113.5737      0.0000    796.9867     13.9183
  1274.2500    107.6084      0.0000    796.1982     13.6312
  1274.5000    100.6307      0.0000    794.0609     13.2508
  1274.7500     94.5531      0.0000    791.5862     12.7979
  1275.0000     91.5535      0.0000    789.9282     12.3031
  1275.2500     93.3384      0.0000    789.2772     11.8057
  1275.5000    100.3987      0.0000    788.2744     11.3415
  1275.7500    111.5747      0.0000    785.0258     10.9332
  1276.0000    124.1442      0.0000    778.8846     10.5896
  1276.2500    134.7953      0.0000    771.1937     10.3115
  1276.5000    141.3795      0.0000    764.3163     10.0919
  1276.7500    144.1182      0.0000    760.0725      9.9136
  1277.0000    144.9200      0.0000    758.9872      9.7552
  1277.2500    145.3103      0.0000    760.4585      9.6042
  1277.5000    144.9457      0.0000    763.1919      9.4672
  1277.7500    142.0385      0.0000    765.7601      9.3620
  1278.0000    135.2242      0.0000    767.2327      9.3020
  1278.2500    125.0249      0.0000    767.3126      9.2842
  1278.5000    113.5367      0.0000    765.9752      9.2906
  1278.7500    103.0724      0.0000    763.4386      9.2972
  1279.0000     95.3645      0.0000    760.4698      9.2856
  1279.2500     91.5191      0.0000    758.2040      9.2520
  1279.5000     91.8302      0.0000    757.6158      9.2074
  1279.7500     95.5389      0.0000    759.3340      9.1656
  1280.0000    101.2662      0.0000    763.5578      9.1281
  1280.2500    107.9144      0.0000    769.5358      9.0805
  1280.5000    114.9685      0.0000    775.2144      9.0071
  1280.7500    121.8153      0.0000    778.1998      8.9075
  1281.0000    127.1459      0.0000    777.5674      8.7986
  1281.2500    129.4725      0.0000    774.4725      8.6995
  1281.5000    128.1597      0.0000    770.7147      8.6177
  1281.7500    123.6756      0.0000    767.0839      8.5487
  1282.0000    116.9869      0.0000    763.4482      8.4886
  1282.2500    109.0130      0.0000    759.8710      8.4447
  1282.5000    100.5367      0.0000    756.9142      8.4309
  1282.7500     92.1937      0.0000    755.0331      8.4502
