~Version Information
VERS.                      2.0: CWLS Log ASCII Standard - VERSION 2.0
WRAP.                       NO: One line per depth step
~Well Information Block
STRT.FT               795.0000: 
STOP.FT              2279.7500: 
STEP.FT                 0.2500: 
NULL.                -999.2500: 
COMP.          Pioneer Natural Resources: COMPANY
WELL.            Wildcard 31-5: WELL
FLD.           Purgatoire River: FIELD
LOC.           624' FNL & 1852' FEL--: LOCATION
CNTY.               Las Animas: COUNTY
SRVC.                Patterson: SERVICE COMPANY
DATE.          Tue Mar 07 07:02:36 2006: LOG DATE
UWI.           05 071 08707 00: UNIQUE WELL ID
STAT.                 Colorado: STATE
~Curve Information Block
DEPT.FT            0 000 00 00: Depth
DIR.Ohm-m                     : IEL Induction Resistivity
SN.Ohm-m                      : IEL Short Normal
SP.mV                         : IEL Spontaneous Potential
GR.GAPI                       : Gamma Ray
~Parameter Information Block
~A  Depth       DIR          SN          SP          GR     
# ...
  2135.0000     21.2537     21.7639    -57.7049    124.9501
  2135.2500     21.1245     21.6835    -57.4004    124.2503
  2135.5000     20.9727     21.5870    -57.0743    128.6249
  2135.7500     20.8194     21.4722    -56.7234    132.3560
  2136.0000     20.6826     21.3352    -56.3440    134.8206
  2136.2500     20.5662     21.1735    -55.9332    133.2654
  2136.5000     20.4611     20.9879    -55.4896    126.4893
  2136.7500     20.3542     20.7828    -55.0136    120.0377
  2137.0000     20.2387     20.5667    -54.5081    110.0400
  2137.2500     20.1176     20.3499    -53.9773    104.5033
  2137.5000     19.9994     20.1418    -53.4264     98.6249
  2137.7500     19.8937     19.9481    -52.8604     96.0212
  2138.0000     19.8088     19.7675    -52.2823     93.8204
  2138.2500     19.7510     19.5905    -51.6927     93.6971
  2138.5000     19.7221     19.4027    -51.0890     95.5942
  2138.7500     19.7160     19.1934    -50.4663     97.6502
  2139.0000     19.7198     18.9608    -49.8182    100.0667
  2139.2500     19.7180     18.7099    -49.1391    100.4680
  2139.5000     19.6983     18.4467    -48.4259    100.0184
  2139.7500     19.6532     18.1789    -47.6799    100.4150
  2140.0000     19.5799     17.9229    -46.9069    103.6795
  2140.2500     19.4818     17.7052    -46.1162    107.2342
  2140.5000     19.3683     17.5512    -45.3190    112.3020
  2140.7500     19.2531     17.4706    -44.5257    114.0699
  2141.0000     19.1482     17.4504    -43.7441    112.7677
  2141.2500     19.0593     17.4606    -42.9774    109.2286
  2141.5000     18.9850     17.4652    -42.2247    101.8005
  2141.7500     18.9186     17.4336    -41.4815     97.3299
  2142.0000     18.8512     17.3487    -40.7413     93.8918
  2142.2500     18.7769     17.2132    -39.9967     93.9839
  2142.5000     18.6985     17.0504    -39.2413     96.3949
  2142.7500     18.6305     16.8971    -38.4703     98.6627
  2143.0000     18.5932     16.7884    -37.6812    101.9652
  2143.2500     18.6014     16.7421    -36.8739    103.4671
  2143.5000     18.6563     16.7497    -36.0506    103.7415
  2143.7500     18.7454     16.7789    -35.2147    102.6267
  2144.0000     18.8474     16.7889    -34.3700    100.4122
  2144.2500     18.9400     16.7526    -33.5188     99.6453
  2144.5000     19.0047     16.6703    -32.6603    100.0923
  2144.7500     19.0318     16.5707    -31.7895    100.6115
  2145.0000     19.0236     16.4987    -30.8969     99.5187
  2145.2500     18.9938     16.4960    -29.9690     96.9051
  2145.5000     18.9620     16.5824    -28.9902     90.9831
  2145.7500     18.9436     16.7464    -27.9456     86.8257
  2146.0000     18.9434     16.9489    -26.8227     81.9419
  2146.2500     18.9554     17.1365    -25.6143     80.0452
  2146.5000     18.9682     17.2594    -24.3184     79.1439
  2146.7500     18.9713     17.2891    -22.9384     79.4683
  2147.0000     18.9604     17.2297    -21.4813     80.7572
  2147.2500     18.9392     17.1138    -19.9556     82.0578
  2147.5000     18.9186     16.9872    -18.3687     84.5468
  2147.7500     18.9141     16.8912    -16.7254     86.1089
  2148.0000     18.9409     16.8531    -15.0266     87.0334
  2148.2500     19.0105     16.8843    -13.2700     86.4891
  2148.5000     19.1271     16.9830    -11.4525     85.6593
  2148.7500     19.2876     17.1346     -9.5725     86.6991
  2149.0000     19.4820     17.3104     -7.6346     91.5137
  2149.2500     19.6937     17.4702     -5.6523     95.5655
  2149.5000     19.9001     17.5756     -3.6508     99.4205
  2149.7500     20.0763     17.6101     -1.6661     99.4183
  2150.0000     20.2045     17.5878      0.2571     96.3829
  2150.2500     20.2828     17.5436      2.0711     93.6719
  2150.5000     20.3232     17.5149      3.7317     90.6133
  2150.7500     20.3407     17.5263      5.2048     89.9502
  2151.0000     20.3416     17.5843      6.4716     91.5174
  2151.2500     20.3210     17.6780      7.5302     94.0145
  2151.5000     20.2684     17.7839      8.3948     98.5103
  2151.7500     20.1763     17.8760      9.0910    101.2962
  2152.0000     20.0451     17.9386      9.6510    105.4118
  2152.2500     19.8844     17.9730     10.1071    108.5222
  2152.5000     19.7083     17.9924     10.4880    112.7843
  2152.7500     19.5307     18.0106     10.8156    114.0799
  2153.0000     19.3649     18.0350     11.1041    113.1983
  2153.2500     19.2266     18.0665     11.3608    112.1890
  2153.5000     19.1335     18.1053     11.5863    113.5641
  2153.7500     19.0999     18.1537     11.7767    117.3373
  2154.0000     19.1313     18.2154     11.9250    125.7475
  2154.2500     19.2237     18.2929     12.0224    131.3627
  2154.5000     19.3679     18.3862     12.0608    137.5729
  2154.7500     19.5530     18.4954     12.0340    139.9712
  2155.0000     19.7695     18.6233     11.9398    141.1645
  2155.2500     20.0137     18.7756     11.7819    140.2072
  2155.5000     20.2927     18.9602     11.5704    135.4646
  2155.7500     20.6233     19.1852     11.3226    129.8243
  2156.0000     21.0180     19.4534     11.0618    117.9823
  2156.2500     21.4660     19.7568     10.8152    108.8028
  2156.5000     21.9211     20.0730     10.6107     96.1854
  2156.7500     22.3069     20.3664     10.4729     90.5081
  2157.0000     22.5418     20.5941     10.4188     87.6724
  2157.2500     22.5708     20.7167     10.4553     88.9091
  2157.5000     22.3870     20.7156     10.5773     92.9781
  2157.7500     22.0330     20.6074     10.7693     96.2553
  2158.0000     21.5829     20.4447     11.0083    102.2834
  2158.2500     21.1192     20.2951     11.2679    107.4461
  2158.5000     20.7116     20.2060     11.5232    116.2338
  2158.7500     20.4037     20.1766     11.7542    121.6449
  2159.0000     20.2081     20.1597     11.9481    127.6271
  2159.2500     20.1085     20.0937     12.1007    130.4163
  2159.5000     20.0698     19.9430     12.2151    134.6351
  2159.7500     20.0559     19.7230     12.3008    138.3058
  2160.0000     20.0475     19.4991     12.3712    144.4798
  2160.2500     20.0501     19.3627     12.4417    147.7861
  2160.5000     20.0873     19.3909     12.5269    149.8017
  2160.7500     20.1832     19.6054     12.6387    148.9924
  2161.0000     20.3469     19.9561     12.7852    144.9859
  2161.2500     20.5647     20.3416     12.9696    140.8236
  2161.5000     20.8014     20.6578     13.1911    133.5038
  2161.7500     21.0093     20.8415     13.4457    128.9190
  2162.0000     21.1431     20.8841     13.7273    123.8990
  2162.2500     21.1755     20.8171     14.0292    121.9943
  2162.5000     21.1068     20.6853     14.3445    120.7173
  2162.7500     20.9610     20.5272     14.6672    120.3780
  2163.0000     20.7739     20.3672     14.9919    120.1379
  2163.2500     20.5780     20.2181     15.3146    120.3246
  2163.5000     20.3937     20.0852     15.6327    121.7876
  2163.7500     20.2265     19.9692     15.9454    123.6625
  2164.0000     20.0739     19.8682     16.2535    127.1284
  2164.2500     19.9344     19.7818     16.5594    129.1095
  2164.5000     19.8135     19.7115     16.8665    130.4834
  2164.7500     19.7201     19.6586     17.1785    130.3292
  2165.0000     19.6611     19.6211     17.4984    129.7052
  2165.2500     19.6367     19.5937     17.8269    129.6944
  2165.5000     19.6400     19.5712     18.1620    129.7809
  2165.7500     19.6583     19.5508     18.4980    128.8063
  2166.0000     19.6769     19.5318     18.8260    124.7466
  2166.2500     19.6866     19.5149     19.1344    121.1343
  2166.5000     19.6893     19.5005     19.4110    117.1215
  2166.7500     19.6958     19.4891     19.6453    116.1958
  2167.0000     19.7148     19.4805     19.8308    116.2883
  2167.2500     19.7443     19.4738     19.9662    116.1944
  2167.5000     19.7716     19.4678     20.0563    115.1608
  2167.7500     19.7844     19.4630     20.1106    114.3216
  2168.0000     19.7810     19.4620     20.1421    113.8977
  2168.2500     19.7722     19.4676     20.1645    114.4481
