~Version Information
VERS.                      2.0: CWLS Log ASCII Standard - VERSION 2.0
WRAP.                       NO: One line per depth step
~Well Information Block
STRT.FT               655.0000: 
STOP.FT              2623.7500: 
STEP.FT                 0.2500: 
NULL.                -999.2500: 
COMP.          Pioneer Natural Resources: COMPANY
WELL.             Aviator 12-4: WELL
FLD.           Purgatoire River: FIELD
LOC.           1969' FNL & 732' FWL--: LOCATION
CNTY.               Las Animas: COUNTY
SRVC.                Patterson: SERVICE COMPANY
DATE.          Sun Apr 09 14:25:03 2006: LOG DATE
UWI.           05 071 08714 00: UNIQUE WELL ID
STAT.                 Colorado: STATE
~Curve Information Block
DEPT.FT            0 000 00 00: Depth
SN.Ohm-m                      : IEL Short Normal
SP.mV                         : IEL Spontaneous Potential
DIR.Ohm-m                     : IEL Induction Resistivity
GR.GAPI                       : Gamma Ray
~Parameter Information Block
~A  Depth        SN          SP         DIR          GR     
# ...
  1425.5000     18.6423    -43.1201     13.4453     74.5810
  1425.7500     18.4507    -42.8438     13.2001     73.7206
  1426.0000     17.9198    -42.5319     12.8375     76.9384
  1426.2500     17.0447    -42.1826     12.3628     81.5045
  1426.5000     16.0201    -41.7991     11.7965     90.1147
  1426.7500     15.0623    -41.3882     11.1739     96.0927
  1427.0000     14.2705    -40.9600     10.5408    104.4961
  1427.2500     13.6303    -40.5271      9.9449    109.3515
  1427.5000     13.0901    -40.1037      9.4262    114.9456
  1427.7500     12.6051    -39.7053      9.0124    117.4960
  1428.0000     12.1563    -39.3462      8.7175    120.0145
  1428.2500     11.7649    -39.0390      8.5448    121.0432
  1428.5000     11.4800    -38.7931      8.4885    121.5802
  1428.7500     11.3401    -38.6145      8.5358    121.2841
  1429.0000     11.3481    -38.5067      8.6681    120.2646
  1429.2500     11.4766    -38.4713      8.8642    119.4095
  1429.5000     11.6893    -38.5079      9.1045    117.6495
  1429.7500     11.9611    -38.6135      9.3746    115.8306
  1430.0000     12.2774    -38.7793      9.6650    111.9271
  1430.2500     12.6129    -38.9870      9.9680    108.8459
  1430.5000     12.9206    -39.2052     10.2729    104.4941
  1430.7500     13.1583    -39.3894     10.5642    102.3953
  1431.0000     13.3252    -39.4875     10.8228    101.4129
  1431.2500     13.4671    -39.4505     11.0303    102.4962
  1431.5000     13.6306    -39.2483     11.1722    106.1610
  1431.7500     13.8016    -38.8827     11.2405    108.9694
  1432.0000     13.9019    -38.3952     11.2343    111.8233
  1432.2500     13.8591    -37.8634     11.1608    112.3231
  1432.5000     13.6655    -37.3844     11.0344    111.7443
  1432.7500     13.3783    -37.0509     10.8754    111.4441
  1433.0000     13.0744    -36.9230     10.7061    112.1134
  1433.2500     12.7993    -37.0093     10.5465    113.0855
  1433.5000     12.5573    -37.2589     10.4101    114.4526
  1433.7500     12.3503    -37.5721     10.3013    115.2191
  1434.0000     12.2006    -37.8248     10.2160    116.8277
  1434.2500     12.1254    -37.9019     10.1457    118.4506
  1434.5000     12.1140    -37.7303     10.0847    121.1198
  1434.7500     12.1437    -37.3016     10.0363    122.4554
  1435.0000     12.1992    -36.6782     10.0158    123.3184
  1435.2500     12.2869    -35.9812     10.0467    123.2906
  1435.5000     12.4371    -35.3618     10.1537    122.8561
  1435.7500     12.6812    -34.9666     10.3556    122.4079
  1436.0000     13.0431    -34.9037     10.6632    120.8561
  1436.2500     13.5584    -35.2204     11.0817    118.4333
  1436.5000     14.2796    -35.8949     11.6147    111.6607
  1436.7500     15.2499    -36.8435     12.2677    105.2316
  1437.0000     16.4664    -37.9385     13.0456     94.2754
  1437.2500     17.8612    -39.0324     13.9483     87.0854
  1437.5000     19.3345    -39.9841     14.9670     77.4266
  1437.7500     20.8321    -40.6809     16.0852     71.9849
  1438.0000     22.3845    -41.0564     17.2826     65.8777
  1438.2500     24.0551    -41.0990     18.5364     63.6541
  1438.5000     25.8617    -40.8512     19.8163     63.6762
  1438.7500     27.7656    -40.3980     21.0797     65.8471
  1439.0000     29.6722    -39.8479     22.2730     71.3926
  1439.2500     31.3753    -39.3088     23.3382     75.7458
  1439.5000     32.5795    -38.8676     24.2170     81.5909
  1439.7500     33.0663    -38.5755     24.8532     84.1966
  1440.0000     32.8199    -38.4455     25.2013     85.6449
  1440.2500     31.9980    -38.4583     25.2475     85.4092
  1440.5000     30.8597    -38.5753     25.0302     84.7033
  1440.7500     29.7307    -38.7529     24.6405     84.5287
  1441.0000     28.9149    -38.9532     24.1931     84.2932
  1441.2500     28.5331    -39.1499     23.7856     83.4209
  1441.5000     28.4536    -39.3283     23.4693     80.2166
  1441.7500     28.3952    -39.4817     23.2406     77.0944
  1442.0000     28.1317    -39.6068     23.0500     72.6988
  1442.2500     27.6320    -39.6996     22.8238     71.2422
  1442.5000     27.0154    -39.7532     22.4879     72.6266
  1442.7500     26.4057    -39.7588     21.9843     75.8197
  1443.0000     25.8024    -39.7067     21.2723     82.5735
  1443.2500     25.0351    -39.5886     20.3223     87.3639
  1443.5000     23.8914    -39.3997     19.1228     93.6443
  1443.7500     22.3348    -39.1398     17.7032     96.6780
  1444.0000     20.5532    -38.8137     16.1471     98.9780
  1444.2500     18.8078    -38.4314     14.5734     99.3372
  1444.5000     17.2718    -38.0064     13.0938    100.1328
  1444.7500     15.9674    -37.5553     11.7788    102.2138
  1445.0000     14.8140    -37.0956     10.6509    108.3712
  1445.2500     13.7193    -36.6446      9.6967    113.5090
  1445.5000     12.6140    -36.2175      8.8867    119.8998
  1445.7500     11.4605    -35.8256      8.1909    122.1194
  1446.0000     10.2792    -35.4759      7.5889    122.5221
  1446.2500      9.1478    -35.1703      7.0703    121.8561
  1446.5000      8.1679    -34.9068      6.6312    121.2673
  1446.7500      7.4172    -34.6801      6.2676    121.5929
  1447.0000      6.9135    -34.4837      5.9725    122.7346
  1447.2500      6.6111    -34.3106      5.7347    123.4311
  1447.5000      6.4330    -34.1550      5.5415    124.1185
  1447.7500      6.3179    -34.0119      5.3806    124.7041
  1448.0000      6.2529    -33.8781      5.2424    126.5710
  1448.2500      6.2652    -33.7518      5.1209    128.5280
  1448.5000      6.3680    -33.6332      5.0146    131.6578
  1448.7500      6.5170    -33.5248      4.9260    133.1395
  1449.0000      6.6354    -33.4307      4.8602    133.8150
  1449.2500      6.6761    -33.3568      4.8226    133.4291
  1449.5000      6.6486    -33.3089      4.8169    132.3123
  1449.7500      6.5932    -33.2919      4.8449    131.5654
  1450.0000      6.5516    -33.3078      4.9052    131.1930
  1450.2500      6.5559    -33.3554      4.9946    131.9283
  1450.5000      6.6285    -33.4300      5.1077    134.3027
  1450.7500      6.7759    -33.5238      5.2386    135.6872
  1451.0000      6.9734    -33.6275      5.3809    135.4500
  1451.2500      7.1608    -33.7309      5.5292    133.6006
  1451.5000      7.2646    -33.8246      5.6788    130.2664
  1451.7500      7.2517    -33.9008      5.8268    129.2090
  1452.0000      7.1638    -33.9540      5.9715    130.5994
  1452.2500      7.0824    -33.9817      6.1116    133.0279
  1452.5000      7.0672    -33.9847      6.2456    136.8127
  1452.7500      7.1345    -33.9665      6.3714    138.1175
  1453.0000      7.2672    -33.9324      6.4859    136.7340
  1453.2500      7.4238    -33.8887      6.5856    133.4759
  1453.5000      7.5529    -33.8412      6.6674    126.6171
  1453.7500      7.6258    -33.7950      6.7293    122.2821
  1454.0000      7.6606    -33.7538      6.7709    117.9303
  1454.2500      7.6982    -33.7208      6.7931    116.1572
  1454.5000      7.7473    -33.6990      6.7983    113.2777
  1454.7500      7.7739    -33.6907      6.7897    110.6623
  1455.0000      7.7519    -33.6977      6.7711    106.8786
  1455.2500      7.7040    -33.7198      6.7460    105.5982
  1455.5000      7.6816    -33.7547      6.7166    106.2537
  1455.7500      7.7121    -33.7985      6.6837    107.9241
  1456.0000      7.7728    -33.8462      6.6457    111.2603
  1456.2500      7.8152    -33.8943      6.6009    113.8891
  1456.5000      7.8035    -33.9414      6.5503    118.4418
  1456.7500      7.7295    -33.9894      6.4997    121.3609
  1457.0000      7.6116    -34.0423      6.4595    123.6761
  1457.2500      7.4816    -34.1052      6.4417    123.0891
  1457.5000      7.3642    -34.1824      6.4574    119.9595
  1457.7500      7.2791    -34.2764      6.5144    117.7443
  1458.0000      7.2440    -34.3871      6.6161    115.3750
  1458.2500      7.2614    -34.5124      6.7610    113.8902
  1458.5000      7.3279    -34.6484      6.9431    110.4317
  1458.7500      7.4565    -34.7910      7.1537    107.1502
