~Version Information
VERS.                      2.0: CWLS Log ASCII Standard - VERSION 2.0
WRAP.                       NO: One line per depth step
~Well Information Block
STRT.FT               660.0000: 
STOP.FT              2488.5000: 
STEP.FT                 0.1000: 
NULL.                -999.2500: 
COMP.          Petrogulf Corporation: COMPANY
WELL.          Montoya 18-11V-B: WELL
FLD.           Purgatorie River: FIELD
LOC.           848' FNL & 619' FWL: LOCATION
PROV.                 Colorado: PROVINCE
CNTY.               Las Animas: COUNTRY
SRVC.                Patterson: SERVICE COMPANY
DATE.          Wed Oct 05 07:28:13 2005: LOG DATE
UWI.                          : UNIQUE WELL ID
~Curve Information Block
DEPT.FT            0 000 00 00: Depth
DCAL.in                       : CDL Caliper
RHOB.g/cc                     : CDL Bulk Density
RHOC.g/cc                     : CDL Density Correction
DPOR.pu                       : CDL Density Porosity
GR.GAPI                       : Gamma Ray
NPOR.pu                       : Neutron Porosity
~Parameter Information Block
~A  Depth       DCAL        RHOB        RHOC        DPOR         GR         NPOR    
# ...
   900.0000      8.2176      2.5293      0.0109      7.3164    121.0299     25.0873
   900.1000      8.2176      2.5389      0.0503      6.7363    121.2940     25.3009
   900.2000      8.2176      2.5564      0.0812      5.6736    120.5308     25.4278
   900.3000      8.2153      2.5832      0.0571      4.0515    118.4745     25.5705
   900.4000      8.2153      2.6341      0.1167      0.9612    117.2789     25.7794
   900.5000      8.2147      2.6956      0.1930     -2.7649    118.4840     26.0386
   900.6000      8.2147      2.7256      0.2063     -4.5833    120.6939     26.2462
   900.7000      8.2147      2.7051      0.1776     -3.3412    122.4041     26.3046
   900.8000      8.2187      2.6575      0.0978     -0.4541    123.2378     26.2639
   900.9000      8.2187      2.6214      0.0218      1.7316    121.5077     26.0914
   901.0000      8.2193      2.6168      0.0498      2.0138    115.9171     25.7688
   901.1000      8.2193      2.6310      0.0811      1.1531    109.1120     25.4741
   901.2000      8.2193      2.6398      0.0327      0.6157    105.3932     25.3280
   901.3000      8.2193      2.6386      0.0266      0.6911    106.9297     25.3380
   901.4000      8.2193      2.6328      0.0335      1.0397    110.9895     25.3719
   901.5000      8.2187      2.6247      0.0389      1.5339    112.6621     25.2148
   901.6000      8.2187      2.6201     -0.0001      1.8139    111.6832     24.8686
   901.7000      8.2187      2.6186      0.0302      1.9049    110.3701     24.5346
   901.8000      8.2151      2.6078      0.0239      2.5587    110.0562     24.3215
   901.9000      8.2151      2.5865      0.0116      3.8513    110.5488     24.3244
   902.0000      8.2187      2.5628      0.0108      5.2830    111.4741     24.4861
   902.1000      8.2187      2.5422     -0.0114      6.5325    113.3017     24.4305
   902.2000      8.2187      2.5252      0.0093      7.5621    116.9043     24.0110
   902.3000      8.2198      2.5051      0.0113      8.7836    119.7424     23.4626
   902.4000      8.2198      2.4820     -0.0216     10.1820    118.6394     23.0596
   902.5000      8.2235      2.4746     -0.0488     10.6294    115.2453     22.8674
   902.6000      8.2235      2.4956      0.0171      9.3548    112.2502     22.7280
   902.7000      8.2235      2.5296      0.0168      7.2941    111.0323     22.4910
   902.8000      8.2224      2.5549      0.0835      5.7621    110.7114     22.1937
   902.9000      8.2224      2.5606      0.0593      5.4173    110.3688     22.0598
   903.0000      8.2322      2.5510      0.0425      5.9999    110.4747     22.1670
   903.1000      8.2322      2.5382      0.0076      6.7778    109.7770     22.2892
   903.2000      8.2322      2.5262      0.0250      7.5002    106.4391     22.2193
   903.3000      8.2327      2.5152      0.0273      8.1721    101.4615     21.9425
   903.4000      8.2327      2.5080      0.0162      8.6056     98.3912     21.6289
   903.5000      8.2344      2.5021      0.0608      8.9610     97.7031     21.4864
   903.6000      8.2344      2.4919      0.0108      9.5830     97.8448     21.4345
   903.7000      8.2344      2.4839     -0.0194     10.0684    100.2089     21.2527
   903.8000      8.2397      2.4872      0.0346      9.8693    103.8203     20.9022
   903.9000      8.2397      2.4979      0.0591      9.2199    102.9400     20.5828
   904.0000      8.2324      2.5079      0.0694      8.6092     95.5492     20.4702
   904.1000      8.2324      2.5119      0.0430      8.3686     87.0536     20.4161
   904.2000      8.2324      2.5042      0.0723      8.8392     83.8258     20.3673
   904.3000      8.2317      2.4848      0.0392     10.0120     87.5139     20.4263
   904.4000      8.2317      2.4680      0.0177     11.0304     93.9692     20.5036
   904.5000      8.2279      2.4682      0.0388     11.0205     98.7635     20.4398
   904.6000      8.2279      2.4818      0.0275     10.1957    100.9290     20.2529
   904.7000      8.2279      2.4938      0.0657      9.4646    100.0654     20.2505
   904.8000      8.2283      2.4959      0.0651      9.3375     97.6140     20.5693
   904.9000      8.2283      2.4906      0.0776      9.6585     96.4696     20.8868
   905.0000      8.2261      2.4792      0.1051     10.3487     96.0828     20.9965
   905.1000      8.2261      2.4600      0.0523     11.5128     95.0125     21.0490
   905.2000      8.2261      2.4403      0.0018     12.7082     94.0522     21.0614
   905.3000      8.2099      2.4340     -0.0240     13.0921     94.2017     20.9917
   905.4000      8.2099      2.4454      0.0101     12.4010     95.2670     21.0341
   905.5000      8.2172      2.4672      0.0117     11.0775     96.4134     21.2357
   905.6000      8.2172      2.4919      0.0322      9.5803     96.7752     21.3950
   905.7000      8.2172      2.5135      0.0396      8.2749     96.2856     21.4006
   905.8000      8.2138      2.5260      0.0895      7.5163     97.4291     21.2530
   905.9000      8.2138      2.5255      0.0772      7.5451    100.8746     21.1622
   906.0000      8.2148      2.5179      0.0670      8.0041    103.7180     21.3763
   906.1000      8.2148      2.5095      0.1038      8.5126    105.3725     21.6481
   906.2000      8.2148      2.4955      0.0807      9.3636    107.3547     21.4590
   906.3000      8.2046      2.4773      0.0548     10.4665    107.0989     20.7679
   906.4000      8.2046      2.4646      0.0543     11.2347    102.3126     19.9680
   906.5000      8.2014      2.4597      0.0174     11.5362     96.7200     19.2840
   906.6000      8.2014      2.4537      0.0533     11.8959     93.7304     18.8362
   906.7000      8.2014      2.4386      0.0243     12.8091     90.9973     18.6940
   906.8000      8.2024      2.4204      0.0104     13.9125     86.9032     18.4872
   906.9000      8.2024      2.4046      0.0452     14.8723     83.7134     17.9769
   907.0000      8.1959      2.3898     -0.0034     15.7697     82.7088     17.4747
   907.1000      8.1959      2.3826     -0.0190     16.2047     82.0289     17.2013
   907.2000      8.1959      2.3886      0.0215     15.8400     79.3465     17.0840
   907.3000      8.1899      2.3993      0.0545     15.1911     76.0696     17.1073
   907.4000      8.1899      2.4050      0.0405     14.8501     75.2201     17.2897
   907.5000      8.1824      2.4093      0.0863     14.5858     75.5799     17.4531
   907.6000      8.1824      2.4203      0.0341     13.9185     74.8274     17.4583
   907.7000      8.1824      2.4322      0.0807     13.2026     74.1908     17.3986
   907.8000      8.1835      2.4336      0.0499     13.1150     75.6772     17.2719
   907.9000      8.1835      2.4321      0.0287     13.2069     78.7295     17.0206
   908.0000      8.1831      2.4371      0.0567     12.9035     80.1085     16.8808
   908.1000      8.1831      2.4395      0.1062     12.7590     78.4157     16.9479
   908.2000      8.1831      2.4314      0.0613     13.2481     76.4956     16.9366
   908.3000      8.1780      2.4175      0.0528     14.0890     75.8636     16.7379
   908.4000      8.1780      2.4027      0.0309     14.9860     75.1611     16.5692
   908.5000      8.1768      2.3940      0.0180     15.5143     74.6781     16.6335
   908.6000      8.1768      2.4010     -0.0095     15.0903     74.3183     16.9247
   908.7000      8.1768      2.4248      0.0321     13.6497     73.3950     17.3829
   908.8000      8.1666      2.4519      0.0646     12.0041     73.7437     17.7643
   908.9000      8.1666      2.4659      0.0910     11.1554     75.0381     17.8007
   909.0000      8.1718      2.4662      0.0386     11.1375     74.9160     17.6541
   909.1000      8.1718      2.4623      0.0279     11.3740     73.9200     17.5806
   909.2000      8.1718      2.4588      0.0443     11.5885     73.9744     17.5862
   909.3000      8.1710      2.4567      0.0045     11.7126     76.0030     17.6375
   909.4000      8.1710      2.4564      0.0508     11.7305     79.0982     17.7188
   909.5000      8.1786      2.4574      0.0227     11.6727     80.4944     17.7222
