~Version Information
VERS.                      2.0: CWLS Log ASCII Standard - VERSION 2.0
WRAP.                       NO: One line per depth step
~Well Information Block
STRT.FT                10.0000: 
STOP.FT              1063.0000: 
STEP.FT                 0.1000: 
NULL.                -999.2500: 
COMP.          Pioneer Natural Resources: COMPANY
WELL.                Mac 22-36: WELL
FLD.           Purgatorie River: FIELD
LOC.           2545' FNL & 1398' FWL: LOCATION
PROV.                 Colorado: PROVINCE
CNTY.               Las Animas: COUNTRY
SRVC.                Patterson: SERVICE COMPANY
DATE.          Mon Dec 05 10:55:42 2005: LOG DATE
UWI.                          : UNIQUE WELL ID
~Curve Information Block
DEPT.FT            0 000 00 00: Depth
DCAL.in                       : CDL Caliper
RHOB.g/cc                     : CDL Bulk Density
RHOC.g/cc                     : CDL Density Correction
DPOR.pu                       : CDL Density Porosity
GR.GAPI                       : Gamma Ray
NPOR.pu                       : Neutron Porosity
~Parameter Information Block
~A  Depth       DCAL        RHOB        RHOC        DPOR         GR         NPOR    
# ...
   490.0000      8.0034      2.3935      0.0084     15.5478    167.4692     25.1297
   490.1000      8.0034      2.3850     -0.0368     16.0601    165.0098     24.6539
   490.2000      8.0034      2.3956     -0.0288     15.4155    166.4758     24.1603
   490.3000      8.0822      2.4124      0.0094     14.4000    169.1418     23.9162
   490.4000      8.0822      2.4281      0.0416     13.4504    170.3497     24.1774
   490.5000      8.1077      2.4523      0.0877     11.9801    171.6439     24.8290
   490.6000      8.1077      2.4954      0.1612      9.3685    175.2938     25.4314
   490.7000      8.1077      2.5552      0.2092      5.7457    179.3204     25.8132
   490.8000      8.0515      2.6150      0.3124      2.1233    178.4979     26.1726
   490.9000      8.0515      2.6418      0.3218      0.4983    174.0771     26.5830
   491.0000      8.0625      2.6161      0.2032      2.0539    171.8773     27.1092
   491.1000      8.0625      2.5631      0.1171      5.2668    171.9901     27.7387
   491.2000      8.0625      2.5241      0.0670      7.6302    170.6924     28.1078
   491.3000      8.0549      2.5096      0.1147      8.5088    166.8201     28.1834
   491.4000      8.0549      2.5056      0.0313      8.7531    164.4843     28.2750
   491.5000      7.9966      2.5085      0.0121      8.5761    169.6315     28.5285
   491.6000      7.9966      2.5212      0.0345      7.8081    179.8011     28.9780
   491.7000      7.9966      2.5367      0.0827      6.8672    185.3017     29.5758
   491.8000      8.0024      2.5467      0.0272      6.2602    182.8504     30.0894
   491.9000      8.0024      2.5522      0.0651      5.9268    176.1991     30.2540
   492.0000      8.0064      2.5527      0.0858      5.8988    171.3076     29.9932
   492.1000      8.0064      2.5470      0.0462      6.2440    172.4698     29.4323
   492.2000      8.0064      2.5420      0.0049      6.5441    176.4189     28.8876
   492.3000      8.0470      2.5393      0.0295      6.7120    178.7373     28.5369
   492.4000      8.0470      2.5331      0.0008      7.0856    179.5203     28.2878
   492.5000      8.0291      2.5247      0.0083      7.5923    178.6438     28.0401
   492.6000      8.0291      2.5130      0.0158      8.3060    177.0509     27.7464
   492.7000      8.0291      2.4933      0.0374      9.4969    177.1711     27.2342
   492.8000      8.0900      2.4705      0.0440     10.8764    179.0809     26.4764
   492.9000      8.0900      2.4511      0.0549     12.0524    181.9329     25.9118
   493.0000      8.1424      2.4369      0.0297     12.9172    184.8601     25.8885
   493.1000      8.1424      2.4410     -0.0296     12.6672    185.8534     26.3517
   493.2000      8.1424      2.4711      0.0314     10.8446    184.3808     26.9191
   493.3000      8.1272      2.5003      0.0898      9.0716    183.9284     27.3256
   493.4000      8.1272      2.5105      0.0440      8.4550    184.1483     27.6619
   493.5000      8.0780      2.5198      0.0773      7.8886    181.3342     27.8768
   493.6000      8.0780      2.5396      0.0871      6.6931    177.6614     27.7586
   493.7000      8.0780      2.5549      0.1967      5.7649    177.0233     27.3567
   493.8000      8.0498      2.5528      0.1000      5.8879    178.8625     26.9351
   493.9000      8.0498      2.5372      0.1055      6.8368    181.0048     26.6338
   494.0000      8.0252      2.5150      0.0794      8.1831    181.9007     26.5038
   494.1000      8.0252      2.4923      0.0410      9.5597    181.1975     26.5413
   494.2000      8.0252      2.4742      0.0437     10.6565    180.4862     26.4450
   494.3000      7.9992      2.4605      0.0428     11.4839    180.9056     25.9608
   494.4000      7.9992      2.4518      0.0276     12.0117    180.0556     25.4551
   494.5000      8.0027      2.4534     -0.0007     11.9135    175.6193     25.4435
   494.6000      8.0027      2.4625      0.0671     11.3610    169.9123     25.6994
   494.7000      8.0027      2.4703      0.0541     10.8926    166.7217     25.8384
   494.8000      8.0423      2.4819     -0.0046     10.1900    166.1117     25.9912
   494.9000      8.0423      2.5019      0.0921      8.9781    167.5641     26.3061
   495.0000      8.0759      2.5212      0.1184      7.8084    171.9411     26.8029
   495.1000      8.0759      2.5404      0.1149      6.6438    176.7037     27.5088
   495.2000      8.0759      2.5671      0.1354      5.0254    178.1326     28.1963
   495.3000      8.0137      2.5904      0.1939      3.6113    176.8323     28.5280
   495.4000      8.0137      2.5923      0.1700      3.4960    176.2650     28.5928
   495.5000      8.0056      2.5741      0.0679      4.5998    175.9459     28.7966
   495.6000      8.0056      2.5485      0.0770      6.1531    172.8266     29.3344
   495.7000      8.0056      2.5239      0.0313      7.6443    168.7478     29.9254
   495.8000      7.9707      2.5105      0.0118      8.4542    167.3564     30.2228
   495.9000      7.9707      2.5151     -0.0091      8.1769    167.7514     30.0603
   496.0000      7.9754      2.5303      0.0169      7.2571    167.2798     29.4306
   496.1000      7.9754      2.5418     -0.0051      6.5598    166.5919     28.5718
   496.2000      7.9754      2.5445      0.0123      6.3925    167.7544     27.8412
   496.3000      7.9651      2.5398      0.0128      6.6790    170.1393     27.5629
   496.4000      7.9651      2.5239     -0.0209      7.6418    173.7195     27.5940
   496.5000      7.9677      2.4970     -0.0101      9.2730    177.5880     27.4207
   496.6000      7.9677      2.4683      0.0185     11.0116    177.7461     26.9755
   496.7000      7.9677      2.4511     -0.0657     12.0552    175.1435     26.5729
   496.8000      7.9707      2.4569     -0.0291     11.7054    173.4682     26.4487
   496.9000      7.9707      2.4807     -0.0313     10.2601    170.9721     26.6048
   497.0000      7.9817      2.5028     -0.0025      8.9205    166.8682     26.9040
   497.1000      7.9817      2.5079     -0.0089      8.6119    166.6183     27.3115
   497.2000      7.9817      2.4987      0.0247      9.1670    172.0230     27.9324
   497.3000      7.9885      2.4910      0.0001      9.6349    177.1626     28.6381
   497.4000      7.9885      2.4966      0.0169      9.2965    178.6936     28.9109
   497.5000      7.9961      2.5139      0.0232      8.2465    179.2787     28.6876
   497.6000      7.9961      2.5329      0.0413      7.0978    179.4575     28.3533
   497.7000      7.9961      2.5451     -0.0112      6.3597    177.0433     28.0510
   497.8000      7.9792      2.5515      0.0181      5.9691    171.7788     27.9393
   497.9000      7.9792      2.5587      0.0154      5.5361    167.1952     27.9938
   498.0000      7.9642      2.5625      0.0604      5.3008    165.8639     27.9981
   498.1000      7.9642      2.5471      0.0442      6.2344    165.7642     28.0903
   498.2000      7.9642      2.5144     -0.0139      8.2155    165.4840     28.3515
   498.3000      7.9610      2.4898     -0.0546      9.7072    167.7151     28.4643
   498.4000      7.9610      2.4884     -0.0348      9.7912    171.0608     28.2865
   498.5000      7.9649      2.5024      0.0282      8.9449    170.9392     28.0986
   498.6000      7.9649      2.5215      0.0521      7.7869    169.0957     28.0265
   498.7000      7.9649      2.5440      0.0578      6.4253    169.2207     27.7775
   498.8000      7.9653      2.5631      0.0945      5.2643    170.7611     27.3407
   498.9000      7.9653      2.5691      0.1140      4.9003    171.1016     27.0885
   499.0000      7.9671      2.5596      0.1247      5.4785    170.5529     26.9636
   499.1000      7.9671      2.5345      0.0671      6.9980    172.3588     26.7747
   499.2000      7.9671      2.5023      0.0351      8.9516    178.4345     26.7659
   499.3000      7.9913      2.4790      0.0411     10.3622    184.9972     27.1056
   499.4000      7.9913      2.4731      0.0122     10.7235    185.8002     27.5697
   499.5000      8.0186      2.4827      0.0549     10.1410    182.4970     27.8463
