~Version Information
VERS.                      2.0: CWLS Log ASCII Standard - VERSION 2.0
WRAP.                       NO: One line per depth step
~Well Information Block
STRT.FT               310.0000: 
STOP.FT              2295.5000: 
STEP.FT                 0.1000: 
NULL.                -999.2500: 
COMP.          Pioneer Natural Resources: COMPANY
WELL.               Relay 12-7: WELL
FLD.           Purgatoire River: FIELD
LOC.           1999' FNL & 848' FWL: LOCATION
PROV.                 Colorado: PROVINCE
CNTY.               Las Animas: COUNTRY
SRVC.                Patterson: SERVICE COMPANY
DATE.          Mon Dec 19 07:37:11 2005: LOG DATE
UWI.           05 071 08453 00: UNIQUE WELL ID
~Curve Information Block
DEPT.FT            0 000 00 00: Depth
DCAL.in                       : CDL Caliper
RHOB.g/cc                     : CDL Bulk Density
RHOC.g/cc                     : CDL Density Correction
DPOR.pu                       : CDL Density Porosity
GR.GAPI                       : Gamma Ray
NPOR.pu                       : Neutron Porosity
~Parameter Information Block
~A  Depth       DCAL        RHOB        RHOC        DPOR         GR         NPOR    
# ...
  2018.8000      7.8382      2.5383      0.0021      6.7715     91.2194     25.6427
  2018.9000      7.8382      2.5398      0.0291      6.6801     89.3367     24.1129
  2019.0000      7.8450      2.5535      0.0304      5.8507     85.3647     22.7218
  2019.1000      7.8450      2.5667      0.0824      5.0479     87.9997     21.7533
  2019.2000      7.8450      2.5696      0.0165      4.8703     95.8947     21.2341
  2019.3000      7.8499      2.5643      0.0594      5.1918    102.3057     21.3928
  2019.4000      7.8499      2.5488      0.0255      6.1325    104.3024     22.3406
  2019.5000      7.8762      2.5185      0.0185      7.9701    100.1834     23.7141
  2019.6000      7.8762      2.4856     -0.0150      9.9643     89.7893     24.7866
  2019.7000      7.8762      2.4699      0.0059     10.9168     79.6428     25.4348
  2019.8000      7.9191      2.4683      0.0336     11.0119     73.7827     25.8740
  2019.9000      7.9191      2.4637      0.0535     11.2909     72.1338     25.5247
  2020.0000      7.9394      2.4606     -0.0087     11.4804     72.9731     24.0716
  2020.1000      7.9394      2.4751      0.0148     10.5990     71.6939     22.7435
  2020.2000      7.9394      2.5033      0.0362      8.8926     66.9295     22.5050
  2020.3000      7.8236      2.5321      0.0989      7.1445     64.3181     22.8347
  2020.4000      7.8236      2.5593      0.0863      5.4992     69.3577     22.8939
  2020.5000      7.7880      2.5800      0.1651      4.2399     79.1175     22.6697
  2020.6000      7.7880      2.5837      0.1567      4.0185     86.3019     22.4847
  2020.7000      7.7880      2.5793      0.0941      4.2854     91.0018     22.3697
  2020.8000      7.7686      2.5869      0.1330      3.8245     95.8926     22.0507
  2020.9000      7.7686      2.6045      0.1210      2.7565     95.5768     21.4154
  2021.0000      7.7579      2.6213      0.1303      1.7382     90.1587     20.9309
  2021.1000      7.7579      2.6331      0.1022      1.0234     87.8505     21.1646
  2021.2000      7.7579      2.6355      0.1032      0.8810     89.4035     21.8102
  2021.3000      7.7916      2.6178      0.1198      1.9497     89.1505     22.5286
  2021.4000      7.7916      2.5823      0.0801      4.1047     86.5480     23.5028
  2021.5000      7.8266      2.5584      0.0407      5.5495     85.2598     24.2622
  2021.6000      7.8266      2.5633      0.1035      5.2572     85.1732     23.6063
  2021.7000      7.8266      2.5807      0.0652      4.2013     86.0819     21.6712
  2021.8000      7.8354      2.5952      0.0556      3.3227     91.2503     19.9644
  2021.9000      7.8354      2.6004      0.0811      3.0054    100.4106     19.2545
  2022.0000      7.8153      2.5918      0.0262      3.5276    104.6581     19.4617
  2022.1000      7.8153      2.5696      0.0401      4.8753     98.7335     20.1484
  2022.2000      7.8153      2.5433     -0.0050      6.4688     91.5240     20.6915
  2022.3000      7.8646      2.5349     -0.0377      6.9738     91.8230     20.7193
  2022.4000      7.8646      2.5550     -0.0118      5.7569     97.7792     20.1942
  2022.5000      7.8868      2.5807      0.0284      4.2015    101.3749     19.7355
  2022.6000      7.8868      2.5809      0.0169      4.1908     99.1851     20.2433
  2022.7000      7.8868      2.5512     -0.0222      5.9869     95.7016     21.4872
  2022.8000      7.8892      2.5152     -0.0550      8.1715     93.9776     22.4532
  2022.9000      7.8892      2.4990     -0.0613      9.1490     93.4164     22.9181
  2023.0000      7.8909      2.5095     -0.0147      8.5141     93.6151     23.3272
  2023.1000      7.8909      2.5303      0.0333      7.2531     94.6115     23.6904
  2023.2000      7.8909      2.5425      0.0323      6.5167     95.2341     23.6084
  2023.3000      7.9101      2.5447      0.0114      6.3792     91.9804     22.6136
  2023.4000      7.9101      2.5458      0.0201      6.3166     84.3629     20.8428
  2023.5000      7.8846      2.5450      0.0487      6.3626     77.3368     19.3479
  2023.6000      7.8846      2.5389      0.0283      6.7341     75.5878     18.8945
  2023.7000      7.8846      2.5363      0.0353      6.8910     77.5890     19.4547
  2023.8000      7.8560      2.5434      0.0783      6.4621     78.1935     20.2085
  2023.9000      7.8560      2.5570      0.0197      5.6376     74.5780     20.3331
  2024.0000      7.8495      2.5680      0.1249      4.9693     68.3568     20.3527
  2024.1000      7.8495      2.5649      0.0616      5.1550     64.5678     20.6251
  2024.2000      7.8495      2.5563      0.0259      5.6781     65.4080     20.5496
  2024.3000      7.8520      2.5482      0.0561      6.1676     66.7243     20.3798
  2024.4000      7.8520      2.5347      0.0441      6.9898     64.1857     20.7175
  2024.5000      7.8918      2.5231     -0.0048      7.6926     60.0080     20.9007
  2024.6000      7.8918      2.5182      0.0500      7.9855     59.0365     20.2260
  2024.7000      7.8918      2.5170      0.0287      8.0598     61.8865     19.6353
  2024.8000      7.8780      2.5196      0.0831      7.9056     65.4005     20.2455
  2024.9000      7.8780      2.5168      0.0755      8.0751     64.7172     21.3716
  2025.0000      7.8736      2.5047      0.0491      8.8070     58.3616     21.6418
  2025.1000      7.8736      2.4979      0.0301      9.2203     52.8999     21.0931
  2025.2000      7.8736      2.5119      0.0427      8.3670     52.3169     20.5897
  2025.3000      7.8669      2.5448      0.0544      6.3765     54.5533     20.3238
  2025.4000      7.8669      2.5707      0.0961      4.8051     57.5621     19.9719
  2025.5000      7.8590      2.5687      0.1094      4.9278     60.1590     19.5548
  2025.6000      7.8590      2.5562      0.0380      5.6857     62.1540     19.3599
  2025.7000      7.8590      2.5569      0.1003      5.6410     62.9632     19.5231
  2025.8000      7.8557      2.5648      0.0654      5.1607     59.0590     19.9724
  2025.9000      7.8557      2.5706      0.0712      4.8111     53.5504     20.6073
  2026.0000      7.8596      2.5720      0.0766      4.7284     56.1216     21.2037
  2026.1000      7.8596      2.5712      0.0521      4.7730     65.8545     21.1936
  2026.2000      7.8596      2.5771      0.0460      4.4165     72.4632     20.3996
  2026.3000      7.8681      2.5881      0.0772      3.7521     71.1992     19.6689
  2026.4000      7.8681      2.5908      0.0675      3.5862     64.1557     19.5430
  2026.5000      7.8778      2.5800      0.0936      4.2424     57.0315     19.6924
  2026.6000      7.8778      2.5622      0.0270      5.3216     54.2703     20.1938
  2026.7000      7.8778      2.5488      0.0267      6.1336     54.8156     21.2496
  2026.8000      7.8721      2.5489     -0.0068      6.1275     58.4326     21.9000
  2026.9000      7.8721      2.5592      0.0575      5.5043     66.2246     21.5315
  2027.0000      7.8818      2.5622      0.0840      5.3198     71.7873     21.0569
  2027.1000      7.8818      2.5534      0.0140      5.8537     68.9811     21.0011
  2027.2000      7.8818      2.5390      0.0262      6.7252     62.6094     20.9057
  2027.3000      7.8806      2.5178      0.0119      8.0100     60.6170     20.7253
  2027.4000      7.8806      2.4993      0.0027      9.1330     63.2317     20.5147
  2027.5000      7.8997      2.5061     -0.0182      8.7234     64.6463     20.0454
  2027.6000      7.8997      2.5338      0.0910      7.0418     62.6774     19.5879
  2027.7000      7.8997      2.5484      0.0474      6.1584     59.1721     19.8367
  2027.8000      7.9346      2.5415      0.0155      6.5765     54.3985     20.5665
  2027.9000      7.9346      2.5366      0.0104      6.8734     49.0458     20.4799
  2028.0000      7.9413      2.5464     -0.0087      6.2782     45.0778     19.3724
  2028.1000      7.9413      2.5556      0.0390      5.7236     43.3672     18.4964
  2028.2000      7.9413      2.5409      0.0954      6.6110     45.0574     18.5235
  2028.3000      7.9541      2.5147     -0.0149      8.1983     50.8456     19.2353
