~Version Information
VERS.                      2.0: CWLS Log ASCII Standard - VERSION 2.0
WRAP.                       NO: One line per depth step
~Well Information Block
STRT.FT               -10.0000: 
STOP.FT              1703.5000: 
STEP.FT                 0.2500: 
NULL.                -999.2500: 
COMP.          Pioneer Natural Resources: COMPANY
WELL.          Parrothead 31-31 Tr: WELL
FLD.           Purgatoire River: FIELD
LOC.           496' FNL & 1546' FEL--: LOCATION
PROV.                       CO: PROVINCE
CNTY.               Las Animas: COUNTRY
SRVC.          Patterson Wireline: SERVICE COMPANY
DATE.          Mon Nov 14 09:44:02 2005: LOG DATE
UWI.           05 071 08610 00: UNIQUE WELL ID
~Curve Information Block
DEPT.FT            0 000 00 00: Depth
CCL.                          : Casing Collar Locator
TT3.usec                      : CBL 3' Travel Time
AMP3.mV                       : CBL 3' Amplitude
GR.GAPI                       : Gamma Ray
~Parameter Information Block
~A  Depth       CCL         TT3         AMP3         GR     
# ...
   224.5000      0.0000    791.9044      8.0173     76.1661
   224.7500      0.0000    793.2839      8.0986     78.1446
   225.0000      0.0000    793.9271      8.2378     79.1080
   225.2500      0.0000    794.1574      8.3926     79.2799
   225.5000      0.0000    794.2184      8.5155     79.5896
   225.7500      0.0000    794.1324      8.5902     80.3234
   226.0000      0.0000    793.6914      8.6369     80.3938
   226.2500      0.0000    792.4335      8.6911     78.6768
   226.5000      0.0000    789.8356      8.7786     75.5712
   226.7500      0.0000    785.9915      8.9022     72.4798
   227.0000      0.0000    782.2970      9.0428     70.2801
   227.2500      0.0000    781.0195      9.1746     68.9842
   227.5000      0.0000    783.7368      9.2864     68.3564
   227.7500      0.0000    790.5731      9.3874     68.1713
   228.0000      0.0000    801.0868      9.4927     68.0823
   228.2500      0.0000    814.9725      9.6038     67.6841
   228.5000      0.0000    831.3243      9.7061     66.8000
   228.7500      0.0000    848.6013      9.7830     65.6307
   229.0000      0.0000    866.0838      9.8271     64.6178
   229.2500      0.0000    883.1686      9.8416     64.0786
   229.5000      0.0000    895.5966      9.8316     63.8683
   229.7500      0.0000    895.5199      9.7977     63.4277
   230.0000      0.0000    879.0416      9.7347     62.2685
   230.2500      0.0000    852.0974      9.6407     60.4631
   230.5000      0.0000    825.9464      9.5228     58.6864
   230.7500      0.0000    808.0224      9.3960     57.7787
   231.0000      0.0000    798.6370      9.2745     58.0733
   231.2500      0.0000    794.1959      9.1704     58.8570
   231.5000      0.0000    791.0708      9.0976     58.6663
   231.7500      0.0000    787.3393      9.0726     56.5931
   232.0000      0.0000    783.1375      9.1058     53.2688
   232.2500      0.0000    780.1634      9.1954     50.2149
   232.5000      0.0000    780.0790      9.3287     48.3922
   232.7500      0.0000    782.8904      9.4861     47.7084
   233.0000      0.0000    786.9276      9.6427     47.7740
   233.2500      0.0000    790.3755      9.7740     48.6057
   233.5000      0.0000    792.5009      9.8641     50.4865
   233.7500      0.0000    793.5613      9.9094     53.4534
   234.0000      0.0000    794.0970      9.9153     57.1159
   234.2500      0.0000    794.4943      9.8943     60.8096
   234.5000      0.0000    794.9143      9.8615     63.8207
   234.7500      0.0000    795.3381      9.8277     65.6398
   235.0000      0.0000    795.6424      9.7961     66.1529
   235.2500      0.0000    795.7113      9.7626     65.5954
   235.5000      0.0000    795.5272      9.7191     64.3988
   235.7500      0.0000    795.1732      9.6550     63.1086
   236.0000      0.0000    794.7618      9.5643     62.2711
   236.2500      0.0000    794.3387      9.4530     62.1505
   236.5000      0.0000    793.7811      9.3391     62.5299
   236.7500      0.0000    792.7048      9.2404     62.8985
   237.0000      0.0000    790.5080      9.1597     62.9598
   237.2500      0.0000    786.7820      9.0826     62.8889
   237.5000      0.0000    781.9540      8.9956     63.0497
   237.7500      0.0000    777.3685      8.9092     63.4902
   238.0000      0.0000    774.4126      8.8584     63.7624
   238.2500      0.0000    773.6550      8.8727     63.3158
   238.5000      0.0000    774.9622      8.9473     62.1585
   238.7500      0.0000    777.8459      9.0499     60.9974
   239.0000      0.0000    781.2688      9.1531     60.4277
   239.2500      0.0000    783.7405      9.2534     60.1252
   239.5000      0.0000    784.4669      9.3585     59.3509
   239.7500      0.0000    784.5412      9.4495     58.1381
   240.0000      0.0000    787.8846      9.4480     57.2776
   240.2500      0.0000    801.9673      9.2399     57.1796
   240.5000      0.0000    835.5146      8.7749     57.4699
   240.7500      0.0000    890.4245      8.1592     57.6905
   241.0000      0.0000    954.7606      7.6154     57.7473
   241.2500      0.0000   1008.5616      7.3247     57.5201
   241.5000      0.0000   1039.2408      7.3110     56.5657
   241.7500      0.0000   1048.2690      7.4626     54.5128
   242.0000     -2.0000   1043.4060      7.6329     51.6875
   242.2500      2.0000   1031.3188      7.7207     49.2487
   242.5000      0.0000   1018.4368      7.6941     48.5703
   242.7500      0.0000   1009.1647      7.5985     50.2781
   243.0000      0.0000    998.3124      7.5702     53.7656
   243.2500      0.0000    972.7447      7.7900     57.5328
   243.5000      0.0000    926.5549      8.3322     59.9959
   243.7500      0.0000    870.6006      9.0463     60.2855
   244.0000      0.0000    823.2773      9.6541     58.5717
   244.2500      0.0000    794.6531      9.9742     55.6805
   244.5000      0.0000    781.8171     10.0187     52.4672
   244.7500      0.0000    776.1963      9.9048     49.6692
   245.0000      0.0000    771.7856      9.7395     48.0807
   245.2500      0.0000    767.2125      9.5824     48.3045
   245.5000      0.0000    763.3270      9.4613     50.1539
   245.7500      0.0000    760.7562      9.3838     52.5187
   246.0000      0.0000    759.3516      9.3391     54.0101
   246.2500      0.0000    758.6637      9.3038     53.9517
   246.5000      0.0000    758.3438      9.2579     53.0008
   246.7500      0.0000    758.1962      9.2011     52.5805
   247.0000      0.0000    758.1187      9.1499     53.3388
   247.2500      0.0000    758.0610      9.1196     54.5495
   247.5000      0.0000    758.0139      9.1093     55.5125
   247.7500      0.0000    757.9894      9.1017     56.7611
   248.0000      0.0000    757.9803      9.0761     59.0181
   248.2500      0.0000    757.9359      9.0241     61.6134
   248.5000      0.0000    757.7899      8.9545     62.8360
   248.7500      0.0000    757.5236      8.8861     61.5975
   249.0000      0.0000    757.2015      8.8356     58.4488
   249.2500      0.0000    756.9508      8.8129     55.2592
   249.5000      0.0000    756.9012      8.8246     53.7903
   249.7500      0.0000    757.1153      8.8783     54.2275
   250.0000      0.0000    757.5309      8.9774     55.3395
   250.2500      0.0000    757.9618      9.1106     56.1635
   250.5000      0.0000    758.1887      9.2473     56.9965
   250.7500      0.0000    758.0944      9.3482     58.5196
   251.0000      0.0000    757.7276      9.3851     60.4870
   251.2500      0.0000    757.2407      9.3572     61.7589
   251.5000      0.0000    756.7733      9.2918     61.5589
   251.7500      0.0000    756.3949      9.2283     60.3587
   252.0000      0.0000    756.1380      9.2002     59.3463
   252.2500      0.0000    756.0490      9.2258     59.2439
   252.5000      0.0000    756.1684      9.3096     59.9310
   252.7500      0.0000    756.4406      9.4429     61.0196
   253.0000      0.0000    756.6765      9.5956     62.3117
   253.2500      0.0000    756.6652      9.7169     63.6180
   253.5000      0.0000    756.3548      9.7597     64.4155
   253.7500      0.0000    755.9068      9.7095     63.8388
   254.0000      0.0000    755.5928      9.5908     61.1596
   254.2500      0.0000    755.6779      9.4539     56.5256
   254.5000      0.0000    756.4240      9.3546     51.2184
   254.7500      0.0000    758.1069      9.3324     46.8992
   255.0000      0.0000    760.8252      9.3933     44.5306
   255.2500      0.0000    764.2736      9.5113     44.0900
   255.5000      0.0000    768.0172      9.6432     45.1949
   255.7500      0.0000    772.1228      9.7419     47.6132
   256.0000      0.0000    777.0881      9.7662     50.8121
   256.2500      0.0000    782.8890      9.6965     53.3465
   256.5000      0.0000    788.5453      9.5496     53.5447
   256.7500      0.0000    792.9188      9.3722     51.1836
   257.0000      0.0000    795.6234      9.2149     47.9368
   257.2500      0.0000    797.0436      9.1063     45.8493
   257.5000      0.0000    797.8799      9.0464     45.7750
   257.7500      0.0000    798.9581      9.0151     47.3339
