~Version Information
VERS.                      2.0: CWLS Log ASCII Standard - VERSION 2.0
WRAP.                       NO: One line per depth step
~Well Information Block
STRT.FT               240.0000: 
STOP.FT              1456.0000: 
STEP.FT                 0.1000: 
NULL.                -999.2500: 
COMP.          Pioneer Natural Resources: COMPANY
WELL.              Darren 11-7: WELL
FLD.           Purgatoire River: FIELD
LOC.           230' FNL & 596' FWL: LOCATION
CNTY.               Las Animas: COUNTY
SRVC.                Patterson: SERVICE COMPANY
DATE.          Mon Mar 20 07:16:06 2006: LOG DATE
UWI.           05 071 08720 00: UNIQUE WELL ID
STAT.                 Colorado: STATE
~Curve Information Block
DEPT.FT            0 000 00 00: Depth
DCAL.in                       : CDL Caliper
RHOB.g/cc                     : CDL Bulk Density
RHOC.g/cc                     : CDL Density Correction
DPOR.pu                       : CDL Density Porosity
GR.GAPI                       : Gamma Ray
NPOR.pu                       : Neutron Porosity
~Parameter Information Block
~A  Depth       DCAL        RHOB        RHOC        DPOR         GR         NPOR    
# ...
   556.8000      7.8629      2.7617      0.0884     -6.7683     29.3409     27.1752
   556.9000      7.8629      2.7604      0.0539     -6.6900     30.7199     27.6731
   557.0000      7.8654      2.7738      0.0479     -7.5015     29.9719     28.3156
   557.1000      7.8654      2.7792      0.1092     -7.8311     27.8075     28.6375
   557.2000      7.8654      2.7558      0.0667     -6.4135     28.4875     28.3946
   557.3000      7.8662      2.7162      0.0296     -4.0110     31.4609     27.9159
   557.4000      7.8662      2.6904     -0.0315     -2.4469     33.7840     27.6095
   557.5000      7.8753      2.6960      0.0484     -2.7873     34.2089     27.4920
   557.6000      7.8753      2.7326      0.0107     -5.0062     33.2458     27.4352
   557.7000      7.8753      2.7861      0.0408     -8.2511     31.3207     27.4282
   557.8000      7.8597      2.8287      0.0451    -10.8280     27.6152     27.5547
   557.9000      7.8597      2.8488      0.0640    -12.0465     24.6345     27.9050
   558.0000      7.8540      2.8585      0.0595    -12.6335     26.7837     28.2044
   558.1000      7.8540      2.8584      0.1300    -12.6273     31.9718     28.1531
   558.2000      7.8540      2.8433      0.0598    -11.7125     33.9073     28.0891
   558.3000      7.8506      2.8286      0.0249    -10.8266     31.6487     28.3538
   558.4000      7.8506      2.8243      0.0246    -10.5653     29.2629     28.6069
   558.5000      7.8659      2.8207      0.0772    -10.3458     28.9512     28.3594
   558.6000      7.8659      2.8180      0.0345    -10.1797     28.5098     27.6614
   558.7000      7.8659      2.8293     -0.0226    -10.8682     25.5987     27.0899
   558.8000      7.8666      2.8487      0.0555    -12.0426     22.6231     27.1420
   558.9000      7.8666      2.8519      0.0784    -12.2349     22.5884     27.6966
   559.0000      7.8707      2.8397      0.0315    -11.4946     25.2981     28.3870
   559.1000      7.8707      2.8390      0.0489    -11.4537     29.7641     29.0218
   559.2000      7.8707      2.8582      0.0390    -12.6159     33.2670     29.6002
   559.3000      7.8694      2.8746      0.0344    -13.6147     32.5218     30.1595
   559.4000      7.8694      2.8604      0.0490    -12.7531     29.0374     30.4380
   559.5000      7.8792      2.8252     -0.0524    -10.6190     27.5454     30.2460
   559.6000      7.8792      2.8134      0.0132     -9.9029     29.3416     29.6641
   559.7000      7.8792      2.8405      0.0426    -11.5442     33.0291     28.6795
   559.8000      7.8729      2.8821      0.0245    -14.0695     37.3276     27.5631
   559.9000      7.8729      2.9106      0.1112    -15.7949     37.9456     26.8784
   560.0000      7.8788      2.9119      0.0524    -15.8726     33.8902     26.5732
   560.1000      7.8788      2.8919      0.0716    -14.6591     30.7066     26.0993
   560.2000      7.8788      2.8575      0.0636    -12.5761     32.0685     25.2635
   560.3000      7.8837      2.8127      0.0675     -9.8605     36.0026     24.1970
   560.4000      7.8837      2.7609      0.0138     -6.7218     38.5203     22.9415
   560.5000      7.9090      2.7078     -0.0301     -3.5004     39.2817     21.7520
   560.6000      7.9090      2.6563     -0.0237     -0.3842     41.7680     21.1701
   560.7000      7.9090      2.5975      0.0011      3.1831     48.4229     21.1413
   560.8000      7.9064      2.5293     -0.0636      7.3175     58.5794     21.2538
   560.9000      7.9064      2.4693     -0.0849     10.9536     68.5867     21.3966
   561.0000      7.9102      2.4286      0.0098     13.4174     77.1501     21.6399
   561.1000      7.9102      2.4050      0.0130     14.8503     86.3494     22.1909
   561.2000      7.9102      2.4014      0.0475     15.0641     95.9349     23.1778
   561.3000      7.8861      2.4206      0.0926     13.9024    105.1273     24.3190
   561.4000      7.8861      2.4523      0.2092     11.9797    116.0011     25.2177
   561.5000      7.8521      2.4855      0.2008      9.9681    130.5677     25.7122
   561.6000      7.8521      2.5163      0.2232      8.1032    145.2901     25.8385
   561.7000      7.8521      2.5368      0.2123      6.8578    153.8937     25.7646
   561.8000      7.8506      2.5456      0.2046      6.3292    155.1957     25.8060
   561.9000      7.8506      2.5584      0.1414      5.5506    154.0116     26.1369
   562.0000      7.8707      2.5770      0.1718      4.4231    152.7071     26.7036
   562.1000      7.8707      2.5767      0.1345      4.4433    151.2039     27.1414
   562.2000      7.8707      2.5536      0.1165      5.8451    152.7026     27.1810
   562.3000      7.9422      2.5330      0.0829      7.0927    157.1577     27.1777
   562.4000      7.9422      2.5325      0.0686      7.1207    159.2907     27.3675
   562.5000      7.9555      2.5417      0.1302      6.5624    155.6279     27.5848
   562.6000      7.9555      2.5352      0.1217      6.9585    148.3356     27.7096
   562.7000      7.9555      2.5095      0.1261      8.5174    143.7756     27.8075
   562.8000      7.9310      2.4823      0.0496     10.1658    145.0012     27.8368
   562.9000      7.9310      2.4683      0.0468     11.0150    146.6865     27.6777
   563.0000      7.9353      2.4764     -0.0104     10.5241    143.1692     27.5395
   563.1000      7.9353      2.5056      0.0591      8.7521    135.6010     27.7312
   563.2000      7.9353      2.5359      0.1207      6.9140    129.5764     27.9658
   563.3000      7.9141      2.5507      0.0979      6.0174    126.4451     27.8493
   563.4000      7.9141      2.5506      0.1669      6.0270    124.3739     27.5502
   563.5000      7.9149      2.5422      0.1346      6.5343    124.3170     27.2507
   563.6000      7.9149      2.5271      0.1631      7.4469    125.5303     27.0633
   563.7000      7.9149      2.5017      0.1204      8.9891    127.5219     27.2686
   563.8000      7.9163      2.4773      0.0401     10.4668    130.7842     27.7969
   563.9000      7.9163      2.4727      0.0745     10.7480    131.1795     28.0858
   564.0000      7.8760      2.4886      0.0829      9.7805    129.2759     27.7464
   564.1000      7.8760      2.5120      0.1093      8.3633    134.5661     26.8778
   564.2000      7.8760      2.5322      0.0859      7.1410    150.4309     25.9508
   564.3000      7.9866      2.5440      0.0795      6.4231    164.0336     25.4667
   564.4000      7.9866      2.5330      0.1456      7.0928    161.7237     25.4702
   564.5000      8.0110      2.4841      0.1135     10.0516    148.9155     25.5892
   564.6000      8.0110      2.4090      0.0876     14.6039    136.0002     25.4803
   564.7000      8.0110      2.3362      0.0554     19.0192    126.8145     25.2184
   564.8000      8.0670      2.2853      0.0631     22.1053    122.6068     25.0599
   564.9000      8.0670      2.2534      0.0601     24.0383    119.7438     25.0736
   565.0000      8.0922      2.2299      0.0016     25.4584    113.6853     25.1444
   565.1000      8.0922      2.2138      0.0131     26.4374    105.0920     25.3142
   565.2000      8.0922      2.2128      0.0491     26.4969     96.7875     25.5859
   565.3000      8.0553      2.2384      0.1063     24.9482     89.9735     25.7588
   565.4000      8.0553      2.2815      0.2146     22.3319     83.3908     25.8120
   565.5000      8.0317      2.3098      0.2312     20.6190     73.8400     25.8189
   565.6000      8.0317      2.3048      0.1774     20.9183     63.5735     25.8857
   565.7000      8.0317      2.2807      0.1123     22.3802     60.0106     26.1599
   565.8000      7.9065      2.2685      0.0056     23.1239     63.7567     26.7003
   565.9000      7.9065      2.2856      0.0688     22.0864     70.8407     27.4555
   566.0000      7.8653      2.3157      0.0998     20.2613     78.1160     28.3312
   566.1000      7.8653      2.3421      0.1096     18.6604     81.5963     29.2903
   566.2000      7.8653      2.3713      0.0856     16.8890     79.8407     30.3091
   566.3000      7.8606      2.4101      0.1229     14.5387     74.5865     31.0019
