~Version Information
VERS.                      2.0: CWLS Log ASCII Standard - VERSION 2.0
WRAP.                       NO: One line per depth step
~Well Information Block
STRT.FT               845.0000: 
STOP.FT              2102.0000: 
STEP.FT                 0.1000: 
NULL.                -999.2500: 
COMP.          Petrogulf Corporation: COMPANY
WELL.               YWAM 7-32R: WELL
FLD.           Purgatorie River: FIELD
LOC.           2355' FNL & 2376' FEL: LOCATION
PROV.                 Colorado: PROVINCE
CNTY.               Las Animas: COUNTRY
SRVC.                Patterson: SERVICE COMPANY
DATE.          Fri Sep 30 11:07:31 2005: LOG DATE
UWI.                          : UNIQUE WELL ID
~Curve Information Block
DEPT.FT            0 000 00 00: Depth
DCAL.in                       : CDL Caliper
RHOB.g/cc                     : CDL Bulk Density
RHOC.g/cc                     : CDL Density Correction
DPOR.pu                       : CDL Density Porosity
GR.GAPI                       : Gamma Ray
NPOR.pu                       : Neutron Porosity
~Parameter Information Block
~A  Depth       DCAL        RHOB        RHOC        DPOR         GR         NPOR    
# ...
  1094.6000      8.4511      2.5673     -0.0197      5.0117    145.2271     29.0223
  1094.7000      8.4511      2.5692      0.0094      4.8963    144.6079     29.0589
  1094.8000      8.4606      2.5878      0.0044      3.7677    141.3405     28.7954
  1094.9000      8.4606      2.6010      0.0221      2.9703    139.9162     28.5141
  1095.0000      8.5058      2.5971     -0.0083      3.2089    141.9244     28.5112
  1095.1000      8.5058      2.5853     -0.0248      3.9221    146.0270     28.9601
  1095.2000      8.5058      2.5790     -0.0132      4.3001    149.5941     29.3151
  1095.3000      8.4959      2.5793      0.0098      4.2874    151.4467     29.0464
  1095.4000      8.4959      2.5863     -0.0530      3.8633    151.4351     28.5865
  1095.5000      8.4573      2.6014      0.0220      2.9473    149.0636     28.4216
  1095.6000      8.4573      2.6088      0.0723      2.4960    145.8977     28.6101
  1095.7000      8.4573      2.5932      0.0092      3.4436    145.1893     29.1316
  1095.8000      8.4772      2.5617     -0.0112      5.3487    147.7322     29.7027
  1095.9000      8.4772      2.5332     -0.0514      7.0780    150.6391     29.9742
  1096.0000      8.4643      2.5181     -0.0197      7.9962    151.3088     29.9450
  1096.1000      8.4643      2.5086      0.0339      8.5675    148.1413     29.9290
  1096.2000      8.4643      2.4968     -0.0045      9.2838    142.4779     30.0662
  1096.3000      8.4672      2.4866      0.0118      9.9007    140.4539     30.1169
  1096.4000      8.4672      2.4791      0.0040     10.3561    143.5931     29.9442
  1096.5000      8.4791      2.4684      0.0024     11.0075    145.0164     29.7978
  1096.6000      8.4791      2.4512     -0.0191     12.0456    141.7571     29.8631
  1096.7000      8.4791      2.4315     -0.0339     13.2405    137.6224     30.0177
  1096.8000      8.4948      2.4146      0.0160     14.2649    135.3587     30.1613
  1096.9000      8.4948      2.4056     -0.0138     14.8100    134.8866     30.0836
  1097.0000      8.4930      2.4094     -0.0323     14.5797    134.0091     29.7658
  1097.1000      8.4930      2.4217     -0.0008     13.8393    132.1577     29.7415
  1097.2000      8.4930      2.4333     -0.0122     13.1308    131.5537     30.1806
  1097.3000      8.5348      2.4437     -0.0101     12.5052    135.0245     30.4925
  1097.4000      8.5348      2.4475      0.0294     12.2715    140.3300     30.2835
  1097.5000      8.5036      2.4434      0.0203     12.5185    141.6726     29.8203
  1097.6000      8.5036      2.4436      0.0338     12.5094    138.1949     29.6123
  1097.7000      8.5036      2.4393      0.0676     12.7673    133.0305     29.7790
  1097.8000      8.5318      2.4065      0.0378     14.7606    129.0995     30.0592
  1097.9000      8.5318      2.3516     -0.0162     18.0865    129.4805     30.2617
  1098.0000      8.5393      2.3067     -0.0116     20.8050    134.7090     30.3191
  1098.1000      8.5393      2.2856      0.0256     22.0862    141.0380     30.2435
  1098.2000      8.5393      2.2758      0.0068     22.6776    144.9276     30.0629
  1098.3000      8.5266      2.2739     -0.0089     22.7916    144.8252     29.8649
  1098.4000      8.5266      2.2973     -0.0421     21.3731    141.9165     29.6963
  1098.5000      8.6052      2.3518      0.0763     18.0754    141.1952     29.5946
  1098.6000      8.6052      2.4133      0.1588     14.3468    142.9279     29.7124
  1098.7000      8.6052      2.4631      0.1430     11.3266    145.2349     29.9850
  1098.8000      8.5240      2.5064      0.1225      8.7002    148.5685     30.2084
  1098.9000      8.5240      2.5436      0.1852      6.4467    148.6259     30.1935
  1099.0000      8.5243      2.5618      0.1298      5.3434    143.4243     29.8890
  1099.1000      8.5243      2.5585      0.0699      5.5444    137.2998     29.4635
  1099.2000      8.5243      2.5457      0.0136      6.3242    133.6516     29.1242
  1099.3000      8.4911      2.5404     -0.0032      6.6418    132.6685     28.9184
  1099.4000      8.4911      2.5500      0.0199      6.0576    132.6436     28.7228
  1099.5000      8.5067      2.5622      0.0163      5.3230    131.9396     28.4423
  1099.6000      8.5067      2.5655      0.0083      5.1205    130.3524     28.1729
  1099.7000      8.5067      2.5673     -0.0013      5.0142    132.4768     28.0837
  1099.8000      8.5163      2.5769      0.0108      4.4327    140.3467     28.1066
  1099.9000      8.5163      2.5845      0.0480      3.9677    145.7434     28.1638
  1100.0000      8.5170      2.5744      0.0257      4.5841    143.1122     28.2727
  1100.1000      8.5170      2.5507      0.0358      6.0189    137.4990     28.5137
  1100.2000      8.5170      2.5346     -0.0036      6.9930    134.7773     28.8463
  1100.3000      8.4969      2.5365      0.0087      6.8758    136.2781     28.9625
  1100.4000      8.4969      2.5480     -0.0041      6.1805    139.4223     28.9400
  1100.5000      8.5013      2.5614     -0.0169      5.3723    139.9290     29.1495
  1100.6000      8.5013      2.5746     -0.0348      4.5688    135.7991     29.6326
  1100.7000      8.5013      2.5834      0.0548      4.0358    129.9798     30.0344
  1100.8000      8.5143      2.5845      0.0405      3.9709    128.9942     29.9242
  1100.9000      8.5143      2.5849      0.0504      3.9484    135.0695     29.3508
  1101.0000      8.5021      2.5920      0.0707      3.5161    143.1761     28.8732
  1101.1000      8.5021      2.6047      0.0515      2.7464    147.2765     28.7284
  1101.2000      8.5021      2.6135      0.0561      2.2105    146.5105     28.6785
  1101.3000      8.5194      2.6046      0.0471      2.7533    143.4336     28.6504
  1101.4000      8.5194      2.5847     -0.0277      3.9571    140.2043     28.6507
  1101.5000      8.5002      2.5809     -0.0144      4.1905    137.8446     28.6007
  1101.6000      8.5002      2.5936      0.0683      3.4208    135.6327     28.4764
  1101.7000      8.5002      2.6032      0.0260      2.8377    132.6270     28.3151
  1101.8000      8.4914      2.6084      0.0518      2.5226    130.3181     28.1597
  1101.9000      8.4914      2.6185      0.0060      1.9091    128.9324     28.0680
  1102.0000      8.5050      2.6340      0.0477      0.9715    127.5328     28.1515
  1102.1000      8.5050      2.6435      0.0664      0.3959    127.7803     28.3441
  1102.2000      8.5050      2.6419      0.0351      0.4936    130.9076     28.5117
  1102.3000      8.5094      2.6342      0.0442      0.9564    133.6550     28.6705
  1102.4000      8.5094      2.6198      0.0876      1.8289    133.9200     28.9135
  1102.5000      8.5159      2.6009     -0.0059      2.9748    133.3094     29.0384
  1102.6000      8.5159      2.5910      0.0091      3.5784    132.9703     28.7573
  1102.7000      8.5159      2.5961     -0.0051      3.2670    134.6218     28.4343
  1102.8000      8.5052      2.6064      0.0349      2.6448    139.2134     28.5441
  1102.9000      8.5052      2.6005      0.0746      3.0008    143.5313     28.8898
  1103.0000      8.5065      2.5793     -0.0328      4.2834    144.4835     29.1274
  1103.1000      8.5065      2.5752     -0.0457      4.5327    142.7896     29.2426
  1103.2000      8.5065      2.5920      0.0432      3.5144    141.0465     29.1550
  1103.3000      8.5175      2.5963      0.0151      3.2564    139.3797     28.7345
  1103.4000      8.5175      2.5795     -0.0152      4.2720    137.3268     28.2896
  1103.5000      8.5112      2.5698     -0.0536      4.8585    137.2544     28.1518
  1103.6000      8.5112      2.5807      0.0367      4.1992    141.5064     28.2600
  1103.7000      8.5112      2.5893      0.0391      3.6794    147.9790     28.4570
  1103.8000      8.5098      2.5797     -0.0005      4.2591    151.2158     28.5905
  1103.9000      8.5098      2.5625     -0.0102      5.3018    150.1417     28.5107
  1104.0000      8.5088      2.5503     -0.0071      6.0439    151.2981     28.3936
  1104.1000      8.5088      2.5469      0.0032      6.2468    155.9342     28.5403
