~Version Information
VERS.                      2.0: CWLS Log ASCII Standard - VERSION 2.0
WRAP.                       NO: One line per depth step
~Well Information Block
STRT.FT               840.0000: 
STOP.FT              1913.5000: 
STEP.FT                 0.2500: 
NULL.                -999.2500: 
COMP.          Petrogulf Corporation: COMPANY
WELL.             Kraft 17-23R: WELL
FLD.           Purgatorie River: FIELD
LOC.           1509' FSL & 1673' FWL: LOCATION
PROV.                 Colorado: PROVINCE
CNTY.               Las Animas: COUNTRY
SRVC.                Patterson: SERVICE COMPANY
DATE.          Tue Oct 11 13:03:25 2005: LOG DATE
UWI.                          : UNIQUE WELL ID
~Curve Information Block
DEPT.FT            0 000 00 00: Depth
SP.mV                         : DIL Spontaneous Potential
RILD.Ohm-m                    : DIL Deep Resistivity
RILM.Ohm-m                    : DIL Medium Resistivity
RLL3.Ohm-m                    : DIL Shallow Resistivity
GR.GAPI                       : Gamma Ray
~Parameter Information Block
~A  Depth        SP         RILD        RILM        RLL3         GR     
# ...
   980.0000    174.1400     20.2448     19.5457     24.1838     89.6570
   980.2500    174.1839     19.8057     18.6817     22.9785     93.3055
   980.5000    174.0563     19.4068     17.9120     23.1735     98.8939
   980.7500    173.7835     19.0782     17.2478     23.4894    102.2057
   981.0000    173.4072     18.8507     16.6995     23.0612    105.9816
   981.2500    172.9794     18.7483     16.2827     21.7283    107.5480
   981.5000    172.5522     18.7858     16.0188     20.0466    109.2402
   981.7500    172.1631     18.9691     15.9337     19.0647    110.9016
   982.0000    171.8247     19.2966     16.0546     19.9722    114.9530
   982.2500    171.5295     19.7603     16.4075     23.7445    117.8790
   982.5000    171.2649     20.3463     17.0154     30.8156    120.0261
   982.7500    171.0281     21.0380     17.8964     40.8144    118.9587
   983.0000    170.8290     21.8261     19.0623     52.5161    113.7626
   983.2500    170.6796     22.7238     20.5174     64.1974    108.6726
   983.5000    170.5772     23.7775     22.2592     74.3291     99.6443
   983.7500    170.4923     25.0636     24.2805     82.1770     92.7699
   984.0000    170.3691     26.6692     26.5736     87.8544     81.0655
   984.2500    170.1420     28.6654     29.1324     91.8466     72.7227
   984.5000    169.7573     31.0855     31.9503     94.5206     60.9191
   984.7500    169.1881     33.9141     35.0121     96.0268     54.4045
   985.0000    168.4371     37.0863     38.2806     96.4877     47.3153
   985.2500    167.5326     40.4922     41.6845     96.1502     44.2135
   985.5000    166.5229     43.9773     45.1143     95.3809     41.2759
   985.7500    165.4701     47.3464     48.4307     94.5460     40.0909
   986.0000    164.4370     50.3823     51.4894     93.8439     39.1673
   986.2500    163.4722     52.8892     54.1720     93.2367     39.0338
   986.5000    162.5989     54.7489     56.4120     92.5877     39.2739
   986.7500    161.8131     55.9610     58.2026     91.8588     39.4606
   987.0000    161.0915     56.6396     59.5844     91.1373     39.3919
   987.2500    160.4063     56.9637     60.6229     90.5298     39.0803
   987.5000    159.7411     57.1069     61.3883     90.1076     38.5211
   987.7500    159.1014     57.1842     61.9502     89.9214     38.3324
   988.0000    158.5101     57.2366     62.3839     89.9780     38.5462
   988.2500    157.9958     57.2621     62.7803     90.1895     38.9740
   988.5000    157.5804     57.2663     63.2509     90.4364     39.8805
   988.7500    157.2739     57.2949     63.9186     90.8386     40.7021
   989.0000    157.0737     57.4235     64.9018     92.2180     42.5967
   989.2500    156.9686     57.7158     66.2966     96.6254     44.4382
   989.5000    156.9473     58.1945     68.1639    107.6034     47.6964
   989.7500    157.0042     58.8487     70.5224    129.7144     49.5211
   990.0000    157.1406     59.6683     73.3455    167.2371     50.1537
   990.2500    157.3627     60.6712     76.5588    222.9106     48.5817
   990.5000    157.6792     61.8938     80.0343    297.4164     43.6308
   990.7500    158.1014     63.3423     83.5846    388.1448     39.4413
   991.0000    158.6447     64.9317     86.9574    485.6021     33.1957
   991.2500    159.3276     66.4517     89.8347    570.8336     29.5367
   991.5000    160.1694     67.5879     91.8386    620.9976     25.1950
   991.7500    161.1862     68.0028     92.5554    623.4600     23.1094
   992.0000    162.3890     67.4548     91.5946    586.7678     21.0168
   992.2500    163.7836     65.9073     88.7044    535.5509     20.1510
   992.5000    165.3727     63.5665     83.9216    490.9322     19.5004
   992.7500    167.1518     60.8094     77.6583    454.1576     19.6015
   993.0000    169.0997     58.0428     70.6249    409.6656     21.1131
   993.2500    171.1688     55.5804     63.6079    343.8636     23.4739
   993.5000    173.2828     53.5890     57.2434    259.8963     29.6846
   993.7500    175.3408     52.0906     51.9121    175.1998     35.7990
   994.0000    177.2270     50.9938     47.7597    107.7740     48.2433
   994.2500    178.8314     50.1403     44.7756     65.7568     59.0117
   994.5000    180.0809     49.3637     42.8674     47.0208     78.7222
   994.7500    180.9651     48.5434     41.9096     44.6811     92.8341
   995.0000    181.5366     47.6323     41.7648     52.0116    110.4419
   995.2500    181.8876     46.6490     42.2890     64.3659    116.6755
   995.5000    182.1152     45.6546     43.3320     79.1538    115.5604
   995.7500    182.2964     44.7292     44.7394     95.1074    109.0962
   996.0000    182.4794     43.9495     46.3588    111.2575     95.3319
   996.2500    182.6871     43.3567     48.0428    126.0794     85.7904
   996.5000    182.9276     42.9145     49.6366    137.5344     73.0289
   996.7500    183.2015     42.4804     50.9455    144.1210     65.9138
   997.0000    183.5055     41.8171     51.6976    145.9323     57.4004
   997.2500    183.8325     40.6680     51.5430    144.4464     53.1406
   997.5000    184.1703     38.8762     50.1406    140.9917     48.8489
   997.7500    184.5002     36.4720     47.3298    135.4104     47.3766
   998.0000    184.7959     33.6616     43.2853    126.3885     47.1271
   998.2500    185.0274     30.7311     38.4986    113.0115     48.1484
   998.5000    185.1686     27.9415     33.5755     95.8226     51.4824
   998.7500    185.2028     25.4699     29.0096     76.6274     55.1158
   999.0000    185.1228     23.3991     25.0788     57.7400     62.9598
   999.2500    184.9278     21.7378     21.8692     41.3359     69.6358
   999.5000    184.6226     20.4496     19.3484     28.8997     81.1256
   999.7500    184.2234     19.4775     17.4325     20.8233     89.2889
  1000.0000    183.7636     18.7608     16.0272     16.4810    101.2179
  1000.2500    183.2908     18.2444     15.0474     14.7921    108.1074
  1000.5000    182.8531     17.8829     14.4240     14.8632    115.6769
  1000.7500    182.4827     17.6440     14.1047     16.3392    118.8900
  1001.0000    182.1877     17.5107     14.0510     19.3518    121.9799
  1001.2500    181.9585     17.4815     14.2365     24.1386    123.3272
  1001.5000    181.7806     17.5706     14.6436     30.5807    123.8342
  1001.7500    181.6450     17.8055     15.2622     37.9851    122.5372
  1002.0000    181.5463     18.2242     16.0882     45.2391    117.8761
  1002.2500    181.4736     18.8708     17.1233     51.1641    113.5891
  1002.5000    181.4019     19.7907     18.3745     54.9308    106.9011
  1002.7500    181.2916     21.0277     19.8536     56.4845    102.7931
  1003.0000    181.0956     22.6219     21.5756     56.6962     97.4867
  1003.2500    180.7698     24.6059     23.5565     56.8918     94.7713
  1003.5000    180.2837     26.9923     25.8088     58.0276     92.3331
  1003.7500    179.6238     29.7531     28.3368     60.2176     91.5323
  1004.0000    178.7881     32.7944     31.1299     62.8642     90.0303
  1004.2500    177.7760     35.9476     34.1564     65.0964     87.8365
  1004.5000    176.5803     38.9944     37.3581     66.2783     82.1634
  1004.7500    175.1893     41.7294     40.6478     66.4805     77.3452
  1005.0000    173.5997     44.0274     43.9129     66.5970     70.4892
  1005.2500    171.8347     45.8697     47.0255     67.8229     67.2232
  1005.5000    169.9518     47.3113     49.8596     70.7804     64.8399
  1005.7500    168.0359     48.4225     52.3092     75.0120     64.3084
  1006.0000    166.1805     49.2528     54.3043     79.2751     62.9612
  1006.2500    164.4714     49.8378     55.8189     82.3472     60.4405
  1006.5000    162.9784     50.2227     56.8709     83.6511     53.3232
  1006.7500    161.7506     50.4654     57.5145     83.3146     46.9956
  1007.0000    160.8100     50.6143     57.8277     81.8619     37.6992
  1007.2500    160.1458     50.6863     57.8992     79.9266     33.0253
  1007.5000    159.7135     50.6730     57.8147     78.1293     29.0449
  1007.7500    159.4431     50.5703     57.6477     77.0197     27.9637
