~Version Information
VERS.                      2.0: CWLS Log ASCII Standard - VERSION 2.0
WRAP.                       NO: One line per depth step
~Well Information Block
STRT.FT                -8.7500: 
STOP.FT              1860.5000: 
STEP.FT                 0.2500: 
NULL.                -999.2500: 
COMP.          Pioneer Natural Resources: COMPANY
WELL.          Cortina 23-25 Tr: WELL
FLD.           Purgatorie River: FIELD
LOC.           --2521' FSL & 2345' FWL------: LOCATION
STAT.                       CO: PROVINCE
CNTY.               Las Animas: COUNTY
CTRY. USA : country
SECT. 25 : Section
TOWN. 32S : Township
RANG. 67W : Range
SRVC.          Patterson Wireline: SERVICE COMPANY
DATE.          Thu Sep 29 11:30:45 2005: LOG DATE
API.           05 071 08534 00: UNIQUE WELL ID
~Curve Information Block
DEPT.FT            0 000 00 00: Depth
CCL.                          : Casing Collar Locator
TT3.usec                      : CBL 3' Travel Time
AMP3.mV                       : CBL 3' Amplitude
GR.GAPI                       : Gamma Ray
~Parameter Information Block
~A  Depth       CCL         TT3         AMP3         GR     
# ...
   962.7500      0.0000    613.4622     16.0818    107.6654
   963.0000      0.0000    582.3475     16.2658    106.1636
   963.2500      0.0000    580.2676     16.5606    101.9298
   963.5000      0.0000    606.6851     16.8232     97.0497
   963.7500      0.0000    644.1870     16.9529     94.0840
   964.0000      0.0000    671.4409     16.9300     94.0773
   964.2500      0.0000    674.9086     16.7905     96.3983
   964.5000      0.0000    652.9540     16.5800     99.9415
   964.7500      0.0000    616.4990     16.3313    103.9192
   965.0000      0.0000    585.4357     16.0773    107.7135
   965.2500      0.0000    576.0688     15.8653    110.6797
   965.5000      0.0000    588.2095     15.7447    112.5545
   965.7500      0.0000    608.5676     15.7328    113.7895
   966.0000      0.0000    627.7674     15.7976    114.9128
   966.2500      0.0000    648.4590     15.8807    115.5743
   966.5000      0.0000    675.4700     15.9414    114.6761
   966.7500      0.0000    705.0741     15.9773    111.5938
   967.0000      0.0000    728.2313     16.0088    107.0635
   967.2500      0.0000    739.9683     16.0535    102.7886
   967.5000      0.0000    741.5040     16.1084    100.4331
   967.7500      0.0000    735.6600     16.1491    100.9986
   968.0000      0.0000    723.1402     16.1438    104.5371
   968.2500      0.0000    702.6059     16.0682    109.9367
   968.5000      0.0000    673.4464     15.9055    115.4091
   968.7500      0.0000    639.8526     15.6383    119.8543
   969.0000      0.0000    612.8655     15.2502    123.5421
   969.2500      0.0000    605.6137     14.7358    127.0074
   969.5000      0.0000    623.4492     14.1039    129.5905
   969.7500      0.0000    658.7167     13.3766    129.7015
   970.0000      0.0000    696.7054     12.5941    126.5899
   970.2500      0.0000    726.6950     11.8241    121.3165
   970.5000      0.0000    746.9183     11.1489    115.7039
   970.7500      0.0000    760.8317     10.6265    110.7317
   971.0000      0.0000    771.3253     10.2663    106.3779
   971.2500      0.0000    778.6841     10.0470    102.7560
   971.5000      0.0000    781.8326      9.9544    100.7727
   971.7500      0.0000    779.8469      9.9981    101.3928
   972.0000      0.0000    772.7457     10.2014    104.4014
   972.2500      0.0000    761.8995     10.5791    108.1264
   972.5000      0.0000    749.3381     11.1216    110.4427
   972.7500      0.0000    735.4373     11.7932    109.9373
   973.0000      0.0000    717.6382     12.5395    106.4166
   973.2500      0.0000    693.6345     13.2939    101.0923
   973.5000      0.0000    665.8667     13.9787     96.3086
   973.7500      0.0000    639.8600     14.5227     94.1882
   974.0000      0.0000    616.6500     14.9024     95.1313
   974.2500      0.0000    589.7618     15.1648     97.8884
   974.5000      0.0000    551.5418     15.3915    101.0430
   974.7500      0.0000    500.8945     15.6317    104.0357
   975.0000      0.0000    444.9468     15.8759    106.8870
   975.2500      0.0000    394.8648     16.0841    109.5898
   975.5000      0.0000    359.1619     16.2267    112.1956
   975.7500      0.0000    339.3904     16.2999    115.0357
   976.0000      0.0000    331.6628     16.3157    118.1193
   976.2500      0.0000    331.2549     16.2879    120.4773
   976.5000      0.0000    335.1545     16.2304    121.0154
   976.7500      0.0000    341.2554     16.1682    120.1907
   977.0000      0.0000    346.9083     16.1449    120.0132
   977.2500      0.0000    349.2951     16.2091    121.9818
   977.5000      0.0000    347.3629     16.3838    125.6636
   977.7500      0.0000    343.4856     16.6424    129.5840
   978.0000      0.0000    343.2524     16.9119    132.6498
   978.2500      0.0000    353.8578     17.1090    134.2090
   978.5000      0.0000    381.2219     17.1857    133.7018
   978.7500      0.0000    426.2457     17.1535    131.2506
   979.0000      0.0000    483.5086     17.0664    128.0980
   979.2500      0.0000    545.5082     16.9721    125.5288
   979.5000      0.0000    607.6383     16.8751    123.5900
   979.7500      0.0000    666.6628     16.7496    121.5375
   980.0000      0.0000    716.4844     16.5853    119.1702
   980.2500      0.0000    750.2159     16.4126    116.9752
   980.5000      0.0000    766.4868     16.2814    115.2428
   980.7500      0.0000    770.9857     16.2163    113.7834
   981.0000      0.0000    771.5805     16.1857    112.4880
   981.2500      0.0000    772.5640     16.1108    111.5799
   981.5000      0.0000    773.0434     15.9196    111.1778
   981.7500      0.0000    770.0645     15.6069    111.0137
   982.0000      0.0000    762.8354     15.2506    110.7819
   982.2500      0.0000    753.6191     14.9698    110.5779
   982.5000      0.0000    744.5610     14.8601    110.7603
   982.7500      0.0000    734.2442     14.9475    111.3987
   983.0000      0.0000    718.3018     15.1837    111.9429
   983.2500      0.0000    694.8368     15.4819    111.5551
   983.5000      0.0000    669.7948     15.7657    110.0534
   983.7500      0.0000    654.9882     15.9950    108.5770
   984.0000      0.0000    658.3531     16.1594    108.7630
   984.2500      0.0000    676.8940     16.2555    110.9268
   984.5000      0.0000    700.3698     16.2721    113.5020
   984.7500      0.0000    719.9355     16.1963    114.7374
   985.0000      0.0000    732.0405     16.0328    114.6800
   985.2500      0.0000    736.8141     15.8132    114.9382
   985.5000      0.0000    735.7833     15.5802    116.6656
   985.7500      0.0000    731.2198     15.3662    119.5687
   986.0000      0.0000    726.0684     15.1913    122.8780
   986.2500      0.0000    722.9218     15.0711    126.1362
   986.5000      0.0000    722.3644     15.0172    128.5793
   986.7500      0.0000    722.5190     15.0251    128.9632
   987.0000      0.0000    720.9180     15.0698    126.8716
   987.2500      0.0000    716.8832     15.1146    123.4430
   987.5000      0.0000    711.8618     15.1309    120.0640
   987.7500      0.0000    707.7291     15.1119    116.8340
   988.0000      0.0000    705.2825     15.0720    112.8202
   988.2500      0.0000    704.2243     15.0355    107.4119
   988.5000      0.0000    703.9279     15.0271    100.9057
   988.7500      0.0000    703.9468     15.0635     94.0671
   989.0000      0.0000    704.0598     15.1424     87.8049
   989.2500      0.0000    704.1716     15.2436     83.1798
   989.5000      0.0000    704.3113     15.3463     80.9739
   989.7500      0.0000    704.7440     15.4455     81.0463
   990.0000      0.0000    706.0854     15.5489     82.5572
   990.2500      0.0000    709.2253     15.6617     84.8684
   990.5000      0.0000    714.8701     15.7817     88.0758
   990.7500      0.0000    722.8079     15.9079     92.8255
   991.0000      0.0000    731.5792     16.0474     99.4250
   991.2500      0.0000    739.1690     16.2085    106.7053
   991.5000      0.0000    744.2088     16.3885    112.1380
   991.7500      0.0000    746.4641     16.5706    113.7750
   992.0000      0.0000    746.2896     16.7290    111.9752
   992.2500      0.0000    743.9605     16.8367    108.9782
   992.5000      0.0000    739.7913     16.8746    107.2980
   992.7500      0.0000    734.8536     16.8401    108.7324
   993.0000      0.0000    731.0765     16.7483    113.7261
   993.2500      0.0000    729.9011     16.6232    120.6287
   993.5000      0.0000    730.6977     16.4911    126.1791
   993.7500      0.0000    731.1967     16.3810    127.8643
   994.0000      0.0000    729.9106     16.3210    125.9455
   994.2500      0.0000    727.7444     16.3231    122.7997
   994.5000      0.0000    726.9714     16.3680    120.5601
   994.7500      0.0000    728.9149     16.4175    119.6934
   995.0000      0.0000    732.6862     16.4476    119.3969
   995.2500      0.0000    735.7791     16.4712    118.8434
   995.5000      0.0000    736.2119     16.5259    118.0992
   995.7500      0.0000    734.4655     16.6305    118.1554
   996.0000      0.0000    732.3858     16.7453    120.1726
