~Version Information
VERS.                      2.0: CWLS Log ASCII Standard - VERSION 2.0
WRAP.                       NO: One line per depth step
~Well Information Block
STRT.FT               665.0000: 
STOP.FT              2193.5000: 
STEP.FT                 0.1000: 
NULL.                -999.2500: 
COMP.          Pioneer Natural Resources: COMPANY
WELL.          Bear Cub Federal 11-23: WELL
FLD.           Purgatoire River: FIELD
LOC.           1225' FNL & 1268' FWL--: LOCATION
CNTY.               Las Animas: COUNTY
SRVC.                Patterson: SERVICE COMPANY
DATE.          Tue Jun 20 09:14:02 2006: LOG DATE
UWI.           05 071 08509 00: UNIQUE WELL ID
STAT.                 Colorado: STATE
~Curve Information Block
DEPT.FT            0 000 00 00: Depth
DCAL.in                       : CDL Caliper
RHOB.g/cc                     : CDL Bulk Density
RHOC.g/cc                     : CDL Density Correction
DPOR.pu                       : CDL Density Porosity
NPOR.pu                       : Neutron Porosity
GR.GAPI                       : Gamma Ray
~Parameter Information Block
~A  Depth       DCAL        RHOB        RHOC        DPOR        NPOR         GR     
# ...
  1164.2000      8.0277      2.4871      0.0138      9.8728     26.0939    147.0134
  1164.3000      8.0273      2.5256      0.0783      7.5374     25.8366    153.2279
  1164.4000      8.0273      2.5582      0.1306      5.5636     25.8184    154.6276
  1164.5000      8.0259      2.5640      0.0903      5.2118     25.9339    152.9645
  1164.6000      8.0259      2.5477      0.1061      6.1990     25.7655    149.0182
  1164.7000      8.0259      2.5213      0.1147      7.8023     25.2662    144.8669
  1164.8000      8.0244      2.4846      0.0819     10.0273     24.8220    142.3725
  1164.9000      8.0244      2.4262      0.0911     13.5661     24.5221    138.7862
  1165.0000      8.0232      2.3423      0.0486     18.6487     24.2520    132.1176
  1165.1000      8.0232      2.2531     -0.0297     24.0539     24.0388    124.1340
  1165.2000      8.0232      2.1738     -0.0418     28.8613     23.9112    117.6857
  1165.3000      8.0229      2.0939     -0.0372     33.7014     23.5785    112.6530
  1165.4000      8.0229      2.0091     -0.0743     38.8446     22.8410    107.7938
  1165.5000      8.0205      1.9259     -0.0029     43.8876     21.8574    101.1954
  1165.6000      8.0205      1.8437     -0.0461     48.8664     20.5893     92.4668
  1165.7000      8.0205      1.7690     -0.0596     53.3948     18.9306     86.1029
  1165.8000      8.0170      1.7208     -0.0252     56.3134     17.1725     85.1614
  1165.9000      8.0170      1.7154      0.0188     56.6446     15.6387     87.5356
  1166.0000      8.0158      1.7495      0.1002     54.5769     14.4539     89.0311
  1166.1000      8.0158      1.8114      0.0625     50.8272     13.6603     89.5400
  1166.2000      8.0158      1.9039      0.0400     45.2170     13.0664     91.7700
  1166.3000      8.0167      2.0214      0.1409     38.0942     12.5524     95.1183
  1166.4000      8.0167      2.1327      0.1918     31.3497     12.2485     98.0668
  1166.5000      8.0189      2.2184      0.1932     26.1555     12.3475    102.8994
  1166.6000      8.0189      2.2859      0.1743     22.0684     12.9946    111.8066
  1166.7000      8.0189      2.3485      0.1534     18.2712     14.1007    123.6206
  1166.8000      8.0208      2.4143      0.0947     14.2849     15.3185    134.2992
  1166.9000      8.0208      2.4776      0.1331     10.4506     16.4005    136.3585
  1167.0000      8.0219      2.5201      0.1288      7.8752     17.4156    129.8757
  1167.1000      8.0219      2.5346      0.0931      6.9946     18.0443    123.7002
  1167.2000      8.0219      2.5285      0.1388      7.3614     18.1280    117.6761
  1167.3000      8.0231      2.5103      0.0930      8.4639     18.4007    109.0761
  1167.4000      8.0231      2.4918      0.0744      9.5876     19.2905    103.9582
  1167.5000      8.0234      2.4833      0.0351     10.1043     20.4313    104.2623
  1167.6000      8.0234      2.4900      0.0447      9.6945     21.1974    104.6230
  1167.7000      8.0234      2.5124      0.0529      8.3375     21.4804    102.0679
  1167.8000      8.0202      2.5401      0.1166      6.6623     21.7201     97.2988
  1167.9000      8.0202      2.5572      0.0774      5.6231     21.8276     91.5376
  1168.0000      8.0173      2.5604      0.0552      5.4303     21.5569     86.8460
  1168.1000      8.0173      2.5553      0.0660      5.7415     21.2178     82.5467
  1168.2000      8.0173      2.5467      0.0885      6.2597     21.1963     78.4953
  1168.3000      8.0182      2.5419      0.0294      6.5531     21.5022     79.5624
  1168.4000      8.0182      2.5442      0.0876      6.4116     21.9191     87.5830
  1168.5000      8.0203      2.5478      0.0821      6.1956     22.3271     96.4697
  1168.6000      8.0203      2.5564      0.0507      5.6724     22.6584     98.1751
  1168.7000      8.0203      2.5772      0.1027      4.4129     23.0522     92.2940
  1168.8000      8.0194      2.5992      0.1043      3.0785     23.6339     85.1544
  1168.9000      8.0194      2.6072      0.1173      2.5949     24.1933     80.5726
  1169.0000      8.0170      2.5936      0.1231      3.4195     24.4798     79.6450
  1169.1000      8.0170      2.5593      0.0931      5.4979     24.5681     82.8427
  1169.2000      8.0170      2.5250      0.0278      7.5731     24.5577     86.8169
  1169.3000      8.0189      2.5144      0.0689      8.2168     24.2571     90.2543
  1169.4000      8.0189      2.5169      0.0833      8.0685     23.8768     97.0845
  1169.5000      8.0217      2.5087      0.0716      8.5634     23.7574    106.4871
  1169.6000      8.0217      2.4949      0.0818      9.3998     23.7807    115.3040
  1169.7000      8.0217      2.4942      0.0424      9.4394     24.0112    123.0995
  1169.8000      8.0220      2.5087      0.0641      8.5614     24.5654    126.7964
  1169.9000      8.0220      2.5278      0.0828      7.4090     25.0990    126.3783
  1170.0000      8.0231      2.5408      0.1162      6.6184     25.0683    125.1226
  1170.1000      8.0231      2.5454      0.0700      6.3412     24.5351    122.8325
  1170.2000      8.0231      2.5589      0.0739      5.5186     24.2348    120.9705
  1170.3000      8.0219      2.5939      0.1331      3.3976     24.4483    122.3052
  1170.4000      8.0219      2.6257      0.1592      1.4723     24.8739    123.1951
  1170.5000      8.0185      2.6241      0.1565      1.5705     25.1980    120.2229
  1170.6000      8.0185      2.6009      0.0886      2.9764     25.3756    117.3495
  1170.7000      8.0185      2.5920      0.1033      3.5133     25.5884    118.3160
  1170.8000      8.0179      2.5969      0.1563      3.2187     25.7576    119.4459
  1170.9000      8.0179      2.5853      0.1364      3.9193     25.7412    117.8368
  1171.0000      8.0181      2.5570      0.0550      5.6374     25.7418    112.7973
  1171.1000      8.0181      2.5394      0.0347      6.7035     25.8955    106.4430
  1171.2000      8.0181      2.5399      0.0785      6.6742     26.1096    105.5918
  1171.3000      8.0157      2.5474      0.0474      6.2168     26.3927    111.0665
  1171.4000      8.0157      2.5602      0.0819      5.4395     26.6892    116.3907
  1171.5000      8.0102      2.5784      0.0822      4.3380     26.6586    119.2808
  1171.6000      8.0102      2.5943      0.0909      3.3758     26.3932    121.5456
  1171.7000      8.0102      2.5964      0.1023      3.2492     26.3800    122.0188
  1171.8000      8.0062      2.5828      0.0914      4.0741     26.5760    117.7240
  1171.9000      8.0062      2.5661      0.0715      5.0855     26.5762    111.8711
  1172.0000      8.0063      2.5605      0.0627      5.4262     26.4557    109.3942
  1172.1000      8.0063      2.5706      0.0594      4.8143     26.4398    108.2554
  1172.2000      8.0063      2.5871      0.0809      3.8121     26.2752    106.8347
  1172.3000      8.0084      2.5931      0.1070      3.4464     25.9415    106.0636
  1172.4000      8.0084      2.5808      0.0879      4.1930     25.7062    107.5072
  1172.5000      8.0101      2.5602      0.0734      5.4409     25.4182    111.0473
  1172.6000      8.0101      2.5486      0.0353      6.1457     24.8634    111.2209
  1172.7000      8.0101      2.5502      0.0771      6.0477     24.3104    107.4755
  1172.8000      8.0098      2.5537      0.0809      5.8366     24.0849    105.3609
  1172.9000      8.0098      2.5552      0.0822      5.7429     24.0793    106.6883
  1173.0000      8.0061      2.5595      0.0899      5.4850     24.2529    108.2551
  1173.1000      8.0061      2.5622      0.1176      5.3207     24.6623    106.6766
  1173.2000      8.0061      2.5572      0.0846      5.6268     24.9982    102.2301
  1173.3000      8.0019      2.5461      0.0956      6.2953     25.1699     98.2899
  1173.4000      8.0019      2.5392      0.0843      6.7147     25.4600     96.9916
  1173.5000      8.0005      2.5506      0.0476      6.0221     25.9343     97.4685
  1173.6000      8.0005      2.5653      0.1490      5.1308     26.2886    100.2870
  1173.7000      8.0005      2.5493      0.0672      6.1049     26.3519    105.8850
