~Version Information
 VERS.                                  2.0 : CWLS LAS VERSION
 WRAP.                                   NO : WRAPING MODE
 SWARE .                  MController 2.5.1 : SOFTWARE VERSION
~Well Information
 WELL.                        Loews41-32 Tr : WELL
 COMP.  Pioneer Natural Resources USA, Inc. : COMPANY
 FLD.                      Purgatoire River : FIELD
 LOC.             NW/NE Sec. 32, T32S, R67W : LOCATION
 DATE.                           02/20/2006 : DATE(S) LOGGED
 SRVC.                  Entrada GeoSciences : SERVICE COMPANY
 STAT.                             Colorado : STATE
 CNTY.                           Las Animas : COUNTY
 CTRY.                        United States : COUNTRY
 API.                          05-071-08690 : API NUMBER
 STRT.FT                             638.00 : START DEPTH
 STOP.FT                            1825.00 : STOP DEPTH
 STEP.FT                               1.00 : DEPTH INCREMENT
 NULL.                                -9999 : NULL VALUE
~Curve information
 DEPTH.FT                                   :
 ROP.MIN/FT                                 :
 GAS.UNITS                                  :
~ASCII Log data
# ...
      838.00         0.23         11.7 
      839.00         0.20         12.3 
      840.00         0.23         12.3 
      841.00         0.23         12.4 
      842.00         0.23         13.5 
      843.00         0.23         12.8 
      844.00         0.20         13.7 
      845.00         0.17         13.0 
      846.00         0.23         13.5 
      847.00         0.28         13.4 
      848.00         0.27         12.8 
      849.00         0.30         13.7 
      850.00         0.23         13.3 
      851.00         0.30         13.0 
      852.00         0.13         12.1 
      853.00         0.13         12.1 
      854.00         0.20         12.4 
      855.00         0.17         11.4 
      856.00         0.13         12.1 
      857.00         0.20         11.0 
      858.00         0.23         11.0 
      859.00         0.20         10.0 
      860.00         0.20         11.0 
      861.00         0.17         10.9 
      862.00         0.20         10.9 
      863.00         0.25         10.8 
      864.00         0.23         10.3 
      865.00         0.20         11.1 
      866.00         0.40         11.4 
      867.00         0.35         11.2 
      868.00         0.33         10.3 
      869.00         0.30         10.9 
      870.00         0.33         11.0 
      871.00         0.27         11.3 
      872.00         0.20         11.1 
      873.00         0.27         10.8 
      874.00         0.33         11.0 
      875.00         0.50         11.9 
      876.00         0.37         12.2 
      877.00         0.20         12.2 
      878.00         0.20         11.7 
      879.00         0.22         10.9 
      880.00         0.20          9.9 
      881.00         0.20          9.9 
      882.00         0.20         10.5 
      883.00         0.20         11.2 
      884.00         0.23          9.7 
      885.00         0.20         10.2 
      886.00         0.23         10.9 
      887.00         0.27         11.3 
      888.00         0.23         11.6 
      889.00         0.27         11.6 
      890.00         0.30         11.2 
      891.00         0.23         11.2 
      892.00         0.23         11.5 
      893.00         0.38         11.2 
      894.00         0.27         11.5 
      895.00         0.40         11.1 
      896.00         0.13         11.0 
      897.00         0.35         11.3 
      898.00         0.37         11.5 
      899.00         0.40         11.2 
      900.00         0.37         11.7 
      901.00         0.40         11.8 
      902.00         0.40         11.8 
      903.00         0.43         11.9 
      904.00         0.40         11.5 
      905.00         0.42         11.4 
      906.00         0.43         11.5 
      907.00         0.37         11.3 
      908.00         0.33         11.2 
      909.00         0.37         11.9 
      910.00         0.37         11.0 
      911.00         0.33         11.5 
      912.00         0.33         11.6 
      913.00         0.37         11.7 
      914.00         0.32         11.4 
      915.00         0.33         11.8 
      916.00         0.40         11.5 
      917.00         0.33         11.5 
      918.00         0.23         12.0 
      919.00         0.20         11.2 
      920.00         0.23         12.2 
      921.00         0.20         11.0 
      922.00         0.30         11.6 
      923.00         0.30         12.1 
      924.00         0.23         11.9 
      925.00         0.37         12.3 
      926.00         0.10         12.3 
      927.00         0.20         11.9 
      928.00         0.30         11.2 
      929.00         0.27         11.3 
      930.00         0.13         11.3 
      931.00         0.23         11.9 
      932.00         0.28         12.2 
      933.00         0.23         12.3 
      934.00         0.33         11.6 
      935.00         0.27         12.0 
      936.00         0.27         11.8 
      937.00         0.23         11.5 
      938.00         0.27         11.9 
      939.00         0.20         11.7 
      940.00         0.30         11.6 
      941.00         0.30         12.2 
      942.00         0.30         11.5 
      943.00         0.33         11.7 
      944.00         0.35         11.1 
      945.00         0.23         12.1 
      946.00         0.23         12.4 
      947.00         0.23         11.5 
      948.00         0.23         11.6 
      949.00         0.23         11.7 
      950.00         0.17         11.7 
      951.00         0.20         12.2 
      952.00         0.17         11.4 
      953.00         0.20         11.9 
      954.00         0.20         11.9 
      955.00         0.17         12.4 
      956.00         0.50         13.0 
      957.00         0.40         12.0 
      958.00         0.40         11.5 
      959.00         0.20         11.5 
      960.00         0.20         12.1 
      961.00         0.23         12.4 
      962.00         0.25         12.1 
      963.00         0.23         11.6 
      964.00         0.13         11.6 
      965.00         0.20         12.2 
      966.00         0.27         12.5 
      967.00         0.33         12.2 
      968.00         0.37         12.1 
      969.00         0.30         11.4 
      970.00         0.23         11.8 
      971.00         0.23         11.8 
      972.00         0.20         12.8 
      973.00         0.23         12.8 
      974.00         0.20         12.7 
      975.00         0.22         12.2 
      976.00         0.13         12.2 
      977.00         0.13         11.9 
      978.00         0.17         11.9 
      979.00         0.27         12.5 
      980.00         0.20         12.3 
      981.00         0.27         12.9 
      982.00         0.27         12.3 
      983.00         0.27         12.6 
      984.00         0.07         12.6 
      985.00         0.27         11.9 
      986.00         0.27         12.4 
      987.00         0.23         11.6 
      988.00         0.27         12.4 
      989.00         0.23         12.4 
      990.00         0.17         12.6 
      991.00         0.17         12.0 
      992.00         0.13         13.3 
      993.00         0.23         13.2 
      994.00         0.23         12.6 
      995.00         0.23         11.5 
      996.00         0.23         11.6 
      997.00         0.25         11.7 
      998.00         0.27         12.1 
      999.00         0.33         11.7 
     1000.00         0.27         12.0 
     1001.00         0.30         11.4 
     1002.00         0.27         12.0 
     1003.00         0.30         11.8 
     1004.00         0.23         12.0 
     1005.00         0.27         12.1 
     1006.00         0.23         11.9 
     1007.00         0.23         10.9 
     1008.00         0.23         10.3 
     1009.00         0.23         10.5 
     1010.00         0.25          9.6 
     1011.00         0.20         10.6 
     1012.00         0.37         11.1 
     1013.00         0.23         10.8 
     1014.00         0.27         11.2 
     1015.00         0.33         11.1 
     1016.00         0.27         12.1 
     1017.00         0.53         15.7 
     1018.00         0.53         17.8 
     1019.00         0.27         17.9 
     1020.00         0.57         17.7 
     1021.00         0.32         16.1 
     1022.00         0.30         16.1 
     1023.00         0.33         13.7 
     1024.00         0.27         12.0 
     1025.00         0.30         11.6 
     1026.00         0.33         10.0 
     1027.00         0.23          9.9 
     1028.00         0.20          9.9 
     1029.00         0.20          9.2 
     1030.00         0.17          8.2 
     1031.00         0.27          9.5 
     1032.00         0.23          9.0 
     1033.00         0.28          9.0 
     1034.00         0.30          7.9 
     1035.00         0.23          8.0 
     1036.00         0.27          8.3 
     1037.00         0.27          5.7 
