~Version Information
VERS.                      2.0: CWLS Log ASCII Standard - VERSION 2.0
WRAP.                       NO: One line per depth step
~Well Information Block
STRT.FT               350.0000: 
STOP.FT               906.0000: 
STEP.FT                 0.2500: 
NULL.                -999.2500: 
COMP.          Pioneer Natural Resources: COMPANY
WELL.           Hartford 31-18: WELL
FLD.           Purgatorie River: FIELD
LOC.           375' FNL & 1660' FEL: LOCATION
PROV.                 Colorado: PROVINCE
CNTY.               Las Animas: COUNTRY
SRVC.                Patterson: SERVICE COMPANY
DATE.          Sat Nov 19 19:02:38 2005: LOG DATE
UWI.           05-071-08555               : UNIQUE WELL ID
~Curve Information Block
DEPT.FT            0 000 00 00: Depth
SN.Ohm-m                      : IEL Short Normal
SP.mV                         : IEL Spontaneous Potential
DIR.Ohm-m                     : IEL Induction Resistivity
GR.GAPI                       : Gamma Ray
~Parameter Information Block
~A  Depth        SN          SP         DIR          GR     
# ...
   752.0000     22.1070    190.8945     20.5277     86.4753
   752.2500     22.0453    190.8274     20.5099     88.5371
   752.5000     22.1712    190.6767     20.4249     90.0059
   752.7500     22.4386    190.4576     20.2982     89.4987
   753.0000     22.8379    190.2041     20.1581     86.2280
   753.2500     23.4002    189.9566     20.0277     82.6868
   753.5000     24.1262    189.7532     19.9249     76.5553
   753.7500     24.8891    189.6238     19.8655     72.7881
   754.0000     25.4582    189.5856     19.8606     68.8472
   754.2500     25.6544    189.6427     19.9080     67.6421
   754.5000     25.4758    189.7884     19.9859     67.7358
   754.7500     25.0700    190.0107     20.0543     68.9437
   755.0000     24.5857    190.2985     20.0688     72.6028
   755.2500     24.0488    190.6444     19.9953     76.0319
   755.5000     23.3950    191.0457     19.8214     80.9080
   755.7500     22.6027    191.4998     19.5575     82.7960
   756.0000     21.7658    191.9969     19.2309     83.3095
   756.2500     21.0501    192.5106     18.8770     83.1002
   756.5000     20.6004    192.9981     18.5299     83.6073
   756.7500     20.4747    193.4108     18.2170     84.4492
   757.0000     20.6202    193.7117     17.9561     85.1022
   757.2500     20.8737    193.8853     17.7560     84.6325
   757.5000     21.0411    193.9328     17.6182     83.4216
   757.7500     21.0401    193.8591     17.5389     83.3982
   758.0000     20.9417    193.6651     17.5104     85.7302
   758.2500     20.8617    193.3488     17.5214     88.5332
   758.5000     20.8598    192.9146     17.5588     92.7905
   758.7500     20.9390    192.3817     17.6129     94.5665
   759.0000     21.0879    191.7899     17.6830     94.6416
   759.2500     21.2941    191.1969     17.7819     93.0212
   759.5000     21.5286    190.6693     17.9326     88.9156
   759.7500     21.7442    190.2678     18.1605     85.6460
   760.0000     21.9208    190.0358     18.4842     80.6791
   760.2500     22.1221    189.9941     18.9099     77.5906
   760.5000     22.4759    190.1411     19.4306     73.7372
   760.7500     23.0466    190.4544     20.0287     72.0356
   761.0000     23.7402    190.8943     20.6803     71.1462
   761.2500     24.3811    191.4112     21.3607     71.3960
   761.5000     24.8965    191.9586     22.0483     71.9121
   761.7500     25.4301    192.5046     22.7290     71.7866
   762.0000     26.2989    193.0368     23.4003     70.5395
   762.2500     27.8086    193.5598     24.0743     69.0058
   762.5000     30.0368    194.0878     24.7774     65.8223
   762.7500     32.7277    194.6374     25.5407     63.3715
   763.0000     35.3867    195.2206     26.3832     59.8624
   763.2500     37.5629    195.8406     27.2959     57.9655
   763.5000     39.0881    196.4909     28.2365     55.9854
   763.7500     40.0435    197.1583     29.1401     55.1851
   764.0000     40.5659    197.8258     29.9395     54.7708
   764.2500     40.7367    198.4761     30.5842     55.1733
   764.5000     40.5983    199.0974     31.0476     56.6817
   764.7500     40.2073    199.6902     31.3260     57.6135
   765.0000     39.6738    200.2701     31.4351     57.2652
   765.2500     39.1516    200.8579     31.4064     55.5295
   765.5000     38.7626    201.4624     31.2816     51.8401
   765.7500     38.5214    202.0682     31.1033     49.7573
   766.0000     38.3422    202.6401     30.9054     48.3180
   766.2500     38.1311    203.1402     30.7093     48.4965
   766.5000     37.8841    203.5469     30.5262     49.9436
   766.7500     37.6780    203.8640     30.3629     51.3066
   767.0000     37.5564    204.1167     30.2243     53.1555
   767.2500     37.4582    204.3389     30.1149     53.7871
   767.5000     37.2820    204.5580     30.0380     53.4762
   767.7500     37.0039    204.7869     29.9956     52.5937
   768.0000     36.6895    205.0240     29.9864     50.6846
   768.2500     36.3927    205.2585     30.0033     49.1050
   768.5000     36.1177    205.4780     30.0339     46.3779
   768.7500     35.8742    205.6760     30.0643     44.5827
   769.0000     35.6848    205.8570     30.0846     42.5788
   769.2500     35.5422    206.0379     30.0935     41.9492
   769.5000     35.4225    206.2450     30.1010     41.9574
   769.7500     35.3285    206.5031     30.1266     42.2565
   770.0000     35.2778    206.8190     30.1929     42.6213
   770.2500     35.2585    207.1673     30.3148     42.9391
   770.5000     35.2191    207.4884     30.4868     44.4605
   770.7500     35.1219    207.7075     30.6788     46.4785
   771.0000     35.0220    207.7648     30.8432     50.1354
   771.2500     35.0457    207.6398     30.9337     51.9963
   771.5000     35.2466    207.3583     30.9234     52.9526
   771.7500     35.5283    206.9802     30.8113     52.5473
   772.0000     35.7324    206.5744     30.6150     51.1479
   772.2500     35.7725    206.1987     30.3602     49.9767
   772.5000     35.6694    205.8914     30.0756     48.1554
   772.7500     35.4809    205.6742     29.7944     47.1160
   773.0000     35.2247    205.5586     29.5524     46.2242
   773.2500     34.8405    205.5511     29.3790     46.1927
   773.5000     34.2095    205.6583     29.2833     46.8462
   773.7500     33.2958    205.8888     29.2490     47.5225
   774.0000     32.2913    206.2494     29.2412     48.6616
   774.2500     31.5110    206.7381     29.2235     49.6257
   774.5000     31.1136    207.3387     29.1739     51.7318
   774.7500     31.0062    208.0192     29.0903     53.4281
   775.0000     31.0216    208.7331     28.9858     55.2844
   775.2500     31.1091    209.4243     28.8793     55.3669
   775.5000     31.3269    210.0367     28.7926     53.5664
   775.7500     31.6919    210.5257     28.7496     51.6586
   776.0000     32.1189    210.8686     28.7730     49.2608
   776.2500     32.5178    211.0696     28.8748     48.7393
   776.5000     32.8848    211.1558     29.0448     50.0719
   776.7500     33.2617    211.1599     29.2490     52.0824
   777.0000     33.6440    211.1002     29.4416     55.5981
   777.2500     33.9714    210.9763     29.5861     57.4235
   777.5000     34.1944    210.7835     29.6751     58.1237
   777.7500     34.3071    210.5301     29.7357     56.9257
   778.0000     34.3281    210.2424     29.8162     53.1707
   778.2500     34.2752    209.9582     29.9636     50.0911
   778.5000     34.1547    209.7202     30.2032     45.9311
   778.7500     33.9769    209.5691     30.5298     44.1643
   779.0000     33.7866    209.5342     30.9136     43.8721
   779.2500     33.6708    209.6243     31.3111     45.1481
   779.5000     33.7257    209.8256     31.6785     47.8016
   779.7500     34.0194    210.1069     31.9821     48.9975
   780.0000     34.5784    210.4280     32.2048     49.1519
   780.2500     35.3894    210.7489     32.3498     48.5590
   780.5000     36.3806    211.0414     32.4386     48.1203
   780.7500     37.4039    211.3002     32.5055     48.8026
   781.0000     38.2839    211.5442     32.5893     50.9484
   781.2500     38.9100    211.8054     32.7227     52.0416
   781.5000     39.2655    212.1143     32.9224     51.2625
   781.7500     39.3843    212.4887     33.1830     48.9195
   782.0000     39.3017    212.9294     33.4765     44.2572
   782.2500     39.0398    213.4220     33.7582     41.8490
   782.5000     38.6373    213.9422     33.9775     41.1329
   782.7500     38.1839    214.4696     34.0909     42.6677
   783.0000     37.7793    214.9999     34.0724     46.3597
   783.2500     37.4535    215.5486     33.9180     48.3947
   783.5000     37.1652    216.1401     33.6432     49.5588
   783.7500     36.8742    216.7910     33.2789     49.4138
   784.0000     36.5937    217.4977     32.8662     49.1585
   784.2500     36.3703    218.2343     32.4502     49.2575
   784.5000     36.2383    218.9570     32.0694     49.1415
   784.7500     36.1927    219.6125     31.7488     48.4832
   785.0000     36.1783    220.1518     31.5005     46.8903
   785.2500     36.1123    220.5482     31.3308     46.0035
