~Version Information
VERS.                      2.0: CWLS Log ASCII Standard - VERSION 2.0
WRAP.                       NO: One line per depth step
~Well Information Block
STRT.FT               694.2000: 
STOP.FT              1498.5000: 
STEP.FT                 0.1000: 
NULL.                -999.2500: 
COMP.          Pioneer Natural Resources: COMPANY
WELL.          Pallet Ranch 34-25 Tr: WELL
FLD.           Purgatoire River: FIELD
LOC.           465' FSL & 2138' FEL: LOCATION
PROV.                 Colorado: PROVINCE
CNTY.               Las Animas: COUNTRY
SRVC.                Patterson: SERVICE COMPANY
DATE.          Thu Jan 19 06:39:54 2006: LOG DATE
UWI.           05 071 08657 00: UNIQUE WELL ID
~Curve Information Block
DEPT.FT            0 000 00 00: Depth
DCAL.in                       : CDL Caliper
RHOB.g/cc                     : CDL Bulk Density
RHOC.g/cc                     : CDL Density Correction
DPOR.pu                       : CDL Density Porosity
GR.GAPI                       : Gamma Ray
~Parameter Information Block
~A  Depth       DCAL        RHOB        RHOC        DPOR         GR     
# ...
  1433.4000      7.9705      2.4703      0.0327     10.8934    165.0281
  1433.5000      7.9776      2.4782      0.0185     10.4136    168.5329
  1433.6000      7.9776      2.4972      0.0583      9.2581    169.8221
  1433.7000      7.9776      2.5229      0.1253      7.7060    169.9264
  1433.8000      7.9451      2.5492      0.0993      6.1061    168.5984
  1433.9000      7.9451      2.5817      0.1639      4.1395    164.5859
  1434.0000      7.9621      2.6138      0.2202      2.1917    162.8675
  1434.1000      7.9621      2.6306      0.2496      1.1779    162.7749
  1434.2000      7.9621      2.6235      0.1982      1.6081    158.2278
  1434.3000      7.9228      2.5918      0.1879      3.5244    152.3598
  1434.4000      7.9228      2.5535      0.0934      5.8467    147.6766
  1434.5000      7.8830      2.5412      0.0265      6.5942    139.2240
  1434.6000      7.8830      2.5581      0.0685      5.5669    131.7888
  1434.7000      7.8830      2.5717      0.0665      4.7434    130.9418
  1434.8000      7.9121      2.5627      0.0737      5.2910    128.4199
  1434.9000      7.9121      2.5414      0.0413      6.5826    122.5043
  1435.0000      7.9374      2.5240      0.0605      7.6389    122.6941
  1435.1000      7.9374      2.5219      0.0220      7.7655    128.9599
  1435.2000      7.9374      2.5428      0.0607      6.4991    132.5447
  1435.3000      7.9053      2.5801      0.0970      4.2389    127.6409
  1435.4000      7.9053      2.6282      0.0844      1.3233    117.1365
  1435.5000      7.8599      2.6916      0.1149     -2.5195    106.5142
  1435.6000      7.8599      2.7465      0.1880     -5.8464     96.2582
  1435.7000      7.8599      2.7538      0.2275     -6.2932     85.9063
  1435.8000      7.8490      2.7177      0.1677     -4.1043     79.0707
  1435.9000      7.8490      2.6742      0.1126     -1.4663     78.8913
  1436.0000      7.8411      2.6506      0.0392     -0.0377     82.1889
  1436.1000      7.8411      2.6573      0.0086     -0.4454     81.8494
  1436.2000      7.8411      2.6860      0.0513     -2.1820     74.0569
  1436.3000      7.8399      2.7133      0.0637     -3.8372     63.3536
  1436.4000      7.8399      2.7187      0.0649     -4.1653     55.6076
  1436.5000      7.8504      2.7017      0.0830     -3.1354     50.5754
  1436.6000      7.8504      2.6778      0.0117     -1.6843     50.5305
  1436.7000      7.8504      2.6638      0.0528     -0.8367     57.8662
  1436.8000      7.8668      2.6643      0.0454     -0.8691     63.5892
  1436.9000      7.8668      2.6638      0.0607     -0.8333     60.7910
  1437.0000      7.8367      2.6498     -0.0306      0.0149     55.2335
  1437.1000      7.8367      2.6421     -0.0501      0.4817     52.8313
  1437.2000      7.8367      2.6542      0.0467     -0.2531     53.8021
  1437.3000      7.8413      2.6768      0.0035     -1.6217     58.2459
  1437.4000      7.8413      2.7013      0.0520     -3.1115     64.1007
  1437.5000      7.8656      2.7093      0.0316     -3.5946     69.0733
  1437.6000      7.8656      2.6833      0.0352     -2.0154     74.1230
  1437.7000      7.8656      2.6377      0.0110      0.7450     77.1413
  1437.8000      7.8807      2.6063     -0.0214      2.6515     77.7555
  1437.9000      7.8807      2.5956      0.0431      3.2977     83.8123
  1438.0000      7.8763      2.5802      0.0182      4.2320     96.9023
  1438.1000      7.8763      2.5521     -0.0327      5.9321    108.5413
  1438.2000      7.8763      2.5318     -0.0090      7.1614    113.9486
  1438.3000      7.8650      2.5320      0.0257      7.1537    115.6687
  1438.4000      7.8650      2.5450      0.0046      6.3637    118.6755
  1438.5000      7.8812      2.5519      0.1201      5.9432    124.6410
  1438.6000      7.8812      2.5428      0.0582      6.4992    130.3496
  1438.7000      7.8812      2.5438      0.0524      6.4381    128.6547
  1438.8000      7.8885      2.5808      0.1056      4.1932    116.5016
  1438.9000      7.8885      2.6469      0.0741      0.1883    103.8768
  1439.0000      7.8136      2.7345      0.1566     -5.1233    100.5627
  1439.1000      7.8136      2.8275      0.2323    -10.7593    104.8774
  1439.2000      7.8136      2.8864      0.2664    -14.3254    109.5083
  1439.3000      7.7480      2.8933      0.2055    -14.7464    108.2633
  1439.4000      7.7480      2.8662      0.2161    -13.1052    100.6145
  1439.5000      7.7321      2.8280      0.1253    -10.7857     94.1339
  1439.6000      7.7321      2.7905      0.0973     -8.5157     95.8737
  1439.7000      7.7321      2.7530      0.0715     -6.2431    103.0139
  1439.8000      7.7466      2.7145      0.0287     -3.9096    110.4690
  1439.9000      7.7466      2.6825     -0.0023     -1.9721    116.8901
  1440.0000      7.8035      2.6585     -0.0013     -0.5154    121.1398
  1440.1000      7.8035      2.6370      0.0246      0.7870    122.2662
  1440.2000      7.8035      2.6226      0.0382      1.6579    120.9246
  1440.3000      7.8699      2.6205      0.0487      1.7906    120.9863
  1440.4000      7.8699      2.6233      0.0406      1.6171    126.7346
  1440.5000      7.9072      2.6229      0.0853      1.6403    134.6317
  1440.6000      7.9072      2.6228      0.0262      1.6494    139.4311
  1440.7000      7.9072      2.6245      0.0426      1.5478    142.7345
  1440.8000      7.8678      2.6070      0.0852      2.6052    142.3306
  1440.9000      7.8678      2.5652      0.0272      5.1411    135.4395
  1441.0000      7.9047      2.5350     -0.0746      6.9689    130.6353
  1441.1000      7.9047      2.5446      0.0083      6.3901    133.9891
  1441.2000      7.9047      2.5789      0.0654      4.3070    138.6147
  1441.3000      7.8751      2.6069      0.0612      2.6131    136.1202
  1441.4000      7.8751      2.6117      0.0124      2.3224    128.3873
  1441.5000      7.8550      2.5953      0.0529      3.3162    123.1566
  1441.6000      7.8550      2.5797     -0.0187      4.2599    120.2421
  1441.7000      7.8550      2.5860      0.0611      3.8786    117.8658
  1441.8000      7.8902      2.5987      0.0890      3.1078    118.3943
  1441.9000      7.8902      2.6010     -0.0173      2.9670    119.6520
  1442.0000      7.8683      2.6086     -0.0250      2.5072    117.4846
  1442.1000      7.8683      2.6336      0.0401      0.9942    111.9220
  1442.2000      7.8683      2.6527      0.1265     -0.1626    106.1380
  1442.3000      7.8595      2.6409      0.0414      0.5532    105.3871
  1442.4000      7.8595      2.6135      0.0586      2.2100    111.8753
  1442.5000      7.8707      2.5972     -0.0102      3.2000    119.5352
  1442.6000      7.8707      2.5903      0.0301      3.6153    120.7957
  1442.7000      7.8707      2.5696      0.0396      4.8721    115.5283
  1442.8000      7.8811      2.5337     -0.0107      7.0474    111.1332
  1442.9000      7.8811      2.5139     -0.0076      8.2493    114.4658
  1443.0000      7.8487      2.5242     -0.0086      7.6261    123.2112
  1443.1000      7.8487      2.5423      0.0036      6.5268    131.1936
  1443.2000      7.8487      2.5424      0.0377      6.5195    137.5787
  1443.3000      7.8672      2.5313      0.0125      7.1949    142.6544
  1443.4000      7.8672      2.5341      0.0045      7.0230    143.0710
  1443.5000      7.8405      2.5511      0.0714      5.9966    137.9326
  1443.6000      7.8405      2.5565      0.1286      5.6670    131.3943
  1443.7000      7.8405      2.5467      0.0399      6.2620    128.4956
  1443.8000      7.8436      2.5514      0.0080      5.9752    130.9043
  1443.9000      7.8436      2.5865      0.0201      3.8515    138.4421
  1444.0000      7.8689      2.6326      0.0837      1.0537    147.0509
  1444.1000      7.8689      2.6574      0.1208     -0.4482    154.4339
  1444.2000      7.8689      2.6430      0.1260      0.4233    160.5072
  1444.3000      7.8571      2.6006      0.0703      2.9928    162.9697
  1444.4000      7.8571      2.5634      0.0382      5.2510    161.9743
  1444.5000      7.8794      2.5518      0.0610      5.9492    163.0122
