~Version Information
VERS.                      2.0: CWLS Log ASCII Standard - VERSION 2.0
WRAP.                       NO: One line per depth step
~Well Information Block
STRT.FT               625.0000: 
STOP.FT              2053.7000: 
STEP.FT                 0.1000: 
NULL.                -999.2500: 
COMP.          Pioneer Natural Resources: COMPANY
WELL.            Zink 44-10 Tr: WELL
FLD.           Purgatoire River: FIELD
LOC.           486' FSL & 554' FEL--: LOCATION
PROV.                 Colorado: PROVINCE
CNTY.               Las Animas: COUNTRY
SRVC.                Patterson: SERVICE COMPANY
DATE.          Sun Jul 24 08:46:57 2005: LOG DATE
UWI.           05 071 08446 00: UNIQUE WELL ID
~Curve Information Block
DEPT.FT            0 000 00 00: Depth
DCAL.in                       : CDL Caliper
RHOB.g/cc                     : CDL Bulk Density
RHOC.g/cc                     : CDL Density Correction
DPOR.pu                       : CDL Density Porosity
NPOR.pu                       : Neutron Porosity
GR.GAPI                       : Gamma Ray
~Parameter Information Block
~A  Depth       DCAL        RHOB        RHOC        DPOR        NPOR         GR     
# ...
   999.4000      7.8895      2.5242      0.0762      7.6254     18.1658     69.4651
   999.5000      7.8774      2.5209      0.0041      7.8234     17.8612     65.0607
   999.6000      7.8774      2.5107      0.0061      8.4454     18.1453     61.5875
   999.7000      7.8774      2.5102      0.0061      8.4735     18.7978     60.3665
   999.8000      7.8705      2.5155      0.0535      8.1526     19.1875     61.4922
   999.9000      7.8705      2.5160      0.0323      8.1217     18.7697     60.7373
  1000.0000      7.8695      2.5113      0.0528      8.4047     17.9100     56.1944
  1000.1000      7.8695      2.5080      0.0165      8.6056     17.2410     52.3546
  1000.2000      7.8695      2.5161      0.0141      8.1154     17.0404     53.3691
  1000.3000      7.8700      2.5308      0.0847      7.2232     17.1362     55.6878
  1000.4000      7.8700      2.5315      0.0879      7.1819     17.2478     54.8358
  1000.5000      7.8704      2.5161      0.0252      8.1173     17.3400     53.5085
  1000.6000      7.8704      2.4989      0.0412      9.1584     17.2790     53.7014
  1000.7000      7.8704      2.4892      0.0427      9.7461     16.9955     54.9346
  1000.8000      7.8697      2.4908      0.0289      9.6511     16.7136     58.2565
  1000.9000      7.8697      2.4958      0.1026      9.3431     16.4727     63.2938
  1001.0000      7.8694      2.4871      0.0737      9.8727     16.1741     67.4269
  1001.1000      7.8694      2.4609      0.0548     11.4609     15.9558     68.9508
  1001.2000      7.8694      2.4314      0.0212     13.2496     15.9830     68.8071
  1001.3000      7.8707      2.4206     -0.0028     13.9060     16.1851     67.5840
  1001.4000      7.8707      2.4376      0.0549     12.8706     16.1978     64.9260
  1001.5000      7.8725      2.4674      0.0478     11.0639     15.9195     64.4131
  1001.6000      7.8725      2.4893      0.0774      9.7368     15.6522     66.2200
  1001.7000      7.8725      2.4834      0.1032     10.0970     15.6262     64.9231
  1001.8000      7.8784      2.4341      0.0809     13.0826     15.9360     61.2949
  1001.9000      7.8784      2.3540     -0.0010     17.9378     16.3750     61.2015
  1002.0000      7.8883      2.2703     -0.0132     23.0118     16.6316     64.1188
  1002.1000      7.8883      2.1833     -0.0154     28.2864     16.7041     66.5935
  1002.2000      7.8883      2.0774     -0.0883     34.7013     16.8627     68.2386
  1002.3000      7.8993      1.9585     -0.1302     41.9080     17.2694     68.5056
  1002.4000      7.8993      1.8404     -0.1631     49.0662     17.6194     67.0480
  1002.5000      7.9154      1.7206     -0.1431     56.3270     17.2842     63.8325
  1002.6000      7.9154      1.5977     -0.1693     63.7743     15.9448     59.0796
  1002.7000      7.9154      1.4870     -0.2072     70.4872     13.9100     55.1570
  1002.8000      7.9318      1.4071     -0.1792     75.3269     11.7807     54.5799
  1002.9000      7.9318      1.3663     -0.0883     77.8029      9.9729     57.5246
  1003.0000      7.9393      1.3559     -0.0103     78.4320      8.5302     59.9718
  1003.1000      7.9393      1.3598      0.0257     78.1941      7.4330     57.6261
  1003.2000      7.9393      1.3699      0.0576     77.5837      6.7161     53.7172
  1003.3000      7.9411      1.3839      0.0887     76.7318      6.3085     50.4935
  1003.4000      7.9411      1.4036      0.0728     75.5419      6.1536     45.9962
  1003.5000      7.9418      1.4357      0.0972     73.5920      6.2127     41.7642
  1003.6000      7.9418      1.4818      0.1163     70.7979      6.3865     40.4452
  1003.7000      7.9418      1.5356      0.1384     67.5385      6.6000     42.4352
  1003.8000      7.9419      1.5945      0.1437     63.9727      6.8128     49.5502
  1003.9000      7.9419      1.6626      0.1854     59.8432      6.9696     61.1679
  1004.0000      7.9410      1.7405      0.2304     55.1230      7.1653     69.5859
  1004.1000      7.9410      1.8229      0.2385     50.1262      7.6953     72.6989
  1004.2000      7.9410      1.9171      0.2212     44.4195      8.7084     76.6390
  1004.3000      7.9354      2.0367      0.2195     37.1676     10.0357     82.9161
  1004.4000      7.9354      2.1647      0.2817     29.4127     11.2460     89.0137
  1004.5000      7.9242      2.2621      0.2738     23.5115     12.0827     93.9899
  1004.6000      7.9242      2.3183      0.2352     20.1032     12.8840     97.2859
  1004.7000      7.9242      2.3563      0.2205     17.7988     13.9567     98.2754
  1004.8000      7.9145      2.4043      0.1854     14.8937     15.1474     97.4642
  1004.9000      7.9145      2.4679      0.2323     11.0335     16.3547     98.0403
  1005.0000      7.9081      2.5254      0.2287      7.5523     17.8103    103.9926
  1005.1000      7.9081      2.5598      0.2187      5.4693     19.7758    114.8002
  1005.2000      7.9081      2.5676      0.1910      4.9927     22.3574    124.5731
  1005.3000      7.8961      2.5408      0.1916      6.6183     25.2248    128.7771
  1005.4000      7.8961      2.4829      0.1140     10.1262     28.0698    129.4050
  1005.5000      7.8835      2.4250      0.0196     13.6337     30.9931    132.6588
  1005.6000      7.8835      2.3869      0.0333     15.9443     33.8311    138.3182
  1005.7000      7.8835      2.3521      0.0156     18.0541     36.0193    141.5202
  1005.8000      7.8837      2.2977     -0.0004     21.3537     37.1990    142.8110
  1005.9000      7.8837      2.2213     -0.0855     25.9822     37.2721    143.1915
  1006.0000      7.8957      2.1230     -0.0384     31.9366     35.9429    139.8235
  1006.1000      7.8957      1.9925     -0.0659     39.8479     32.6145    132.7823
  1006.2000      7.8957      1.8451     -0.1203     48.7835     27.3447    126.7898
  1006.3000      7.9159      1.7101     -0.1420     56.9631     21.4988    126.0762
  1006.4000      7.9159      1.5926     -0.1389     64.0830     16.4788    129.0641
  1006.5000      7.9408      1.4979     -0.1226     69.8269     12.5575    130.5198
  1006.6000      7.9408      1.4759     -0.1749     71.1580      9.7084    128.6172
  1006.7000      7.9408      1.5942     -0.1564     63.9899      7.9380    125.2875
  1006.8000      7.9848      1.7883      0.0418     52.2255      7.1234    122.0105
  1006.9000      7.9848      1.8510      0.2323     48.4252      7.2276    119.8491
  1007.0000      8.1234      1.7474      0.2359     54.7037      8.4618    117.9494
  1007.1000      8.1234      1.6816      0.4529     58.6902     11.1159    115.0614
  1007.2000      8.1234      1.7384      0.5912     55.2502     15.1759    111.9855
  1007.3000      8.4571      1.8103      0.6067     50.8931     19.5636    108.9336
  1007.4000      8.4571      1.8172      0.5716     50.4742     23.0566    105.4479
  1007.5000      8.9386      1.7720      0.5037     53.2150     25.6138    103.3750
  1007.6000      8.9386      1.7154      0.4468     56.6420     27.0702    102.9871
  1007.7000      8.9386      1.6669      0.4200     59.5802     26.8460    100.7437
  1007.8000      9.2358      1.6189      0.3542     62.4881     24.9404     93.0061
  1007.9000      9.2358      1.5556      0.2963     66.3264     21.5794     82.7341
  1008.0000      8.9982      1.4758      0.1679     71.1666     17.1942     75.0873
  1008.1000      8.9982      1.4104      0.0407     75.1270     12.9560     69.9274
  1008.2000      8.9982      1.4042      0.0365     75.5039     10.1347     65.3704
  1008.3000      8.4791      1.4751      0.0862     71.2041      8.7900     61.8790
  1008.4000      8.4791      1.6103      0.1665     63.0125      8.2281     60.3355
  1008.5000      8.2104      1.7882      0.2722     52.2311      8.0347     61.2802
  1008.6000      8.2104      1.9849      0.3947     40.3087      8.2294     66.0058
  1008.7000      8.2104      2.1676      0.4760     29.2380      8.8732     74.3335
  1008.8000      8.1598      2.3145      0.4607     20.3348      9.8128     84.9263
  1008.9000      8.1598      2.4388      0.4056     12.7986     10.8601     94.9406
