~Version Information
VERS.                      2.0: CWLS Log ASCII Standard - VERSION 2.0
WRAP.                       NO: One line per depth step
~Well Information Block
STRT.FT               570.0000: 
STOP.FT              1954.5000: 
STEP.FT                 0.1000: 
NULL.                -999.2500: 
COMP.          Petrogulf Corporation: COMPANY
WELL.            Montoya 7-14R: WELL
FLD.           Purgatorie River: FIELD
LOC.           628' FSL & 454' FWL: LOCATION
PROV.                 Colorado: PROVINCE
CNTY.               Las Animas: COUNTRY
SRVC.                Patterson: SERVICE COMPANY
DATE.          Mon Oct 10 07:31:15 2005: LOG DATE
UWI.                          : UNIQUE WELL ID
~Curve Information Block
DEPT.FT            0 000 00 00: Depth
DCAL.in                       : CDL Caliper
RHOB.g/cc                     : CDL Bulk Density
RHOC.g/cc                     : CDL Density Correction
DPOR.pu                       : CDL Density Porosity
GR.GAPI                       : Gamma Ray
NPOR.pu                       : Neutron Porosity
~Parameter Information Block
~A  Depth       DCAL        RHOB        RHOC        DPOR         GR         NPOR    
# ...
  1942.8000      7.8059      2.5725      0.0572      4.6989   -999.2500   -999.2500
  1942.9000      7.8059      2.5770      0.0844      4.4241   -999.2500   -999.2500
  1943.0000      7.8043      2.5698      0.0882      4.8591   -999.2500   -999.2500
  1943.1000      7.8043      2.5442      0.0360      6.4126   -999.2500   -999.2500
  1943.2000      7.8043      2.5165      0.0248      8.0899   -999.2500   -999.2500
  1943.3000      7.8157      2.5083      0.0192      8.5898   -999.2500   -999.2500
  1943.4000      7.8157      2.5318     -0.0044      7.1646   -999.2500   -999.2500
  1943.5000      7.8268      2.5729      0.0759      4.6739   -999.2500   -999.2500
  1943.6000      7.8268      2.5955      0.1098      3.3022   -999.2500   -999.2500
  1943.7000      7.8268      2.5887      0.0809      3.7181   -999.2500   -999.2500
  1943.8000      7.8134      2.5704      0.0881      4.8255   -999.2500   -999.2500
  1943.9000      7.8134      2.5617      0.0452      5.3515   -999.2500   -999.2500
  1944.0000      7.7938      2.5735      0.0780      4.6377   -999.2500   -999.2500
  1944.1000      7.7938      2.5927      0.0771      3.4752   -999.2500   -999.2500
  1944.2000      7.7938      2.5959      0.0761      3.2778   -999.2500   -999.2500
  1944.3000      7.7974      2.5795      0.0472      4.2728   -999.2500   -999.2500
  1944.4000      7.7974      2.5610      0.0733      5.3925   -999.2500   -999.2500
  1944.5000      7.8060      2.5554      0.0790      5.7343   -999.2500   -999.2500
  1944.6000      7.8060      2.5634      0.0686      5.2489   -999.2500   -999.2500
  1944.7000      7.8060      2.5766      0.0604      4.4514   -999.2500   -999.2500
  1944.8000      7.8101      2.5870      0.0494      3.8207   -999.2500   -999.2500
  1944.9000      7.8101      2.5946      0.0796      3.3560   -999.2500   -999.2500
  1945.0000      7.7937      2.6047      0.0616      2.7481   -999.2500   -999.2500
  1945.1000      7.7937      2.6120      0.0970      2.3001   -999.2500   -999.2500
  1945.2000      7.7937      2.5965      0.0980      3.2450   -999.2500   -999.2500
  1945.3000      7.7822      2.5606      0.0216      5.4207   -999.2500   -999.2500
  1945.4000      7.7822      2.5379      0.0450      6.7948   -999.2500   -999.2500
  1945.5000      7.7953      2.5480      0.0167      6.1791   -999.2500   -999.2500
  1945.6000      7.7953      2.5796      0.0876      4.2691   -999.2500   -999.2500
  1945.7000      7.7953      2.6007      0.0823      2.9854   -999.2500   -999.2500
  1945.8000      7.7959      2.5926      0.0878      3.4769   -999.2500   -999.2500
  1945.9000      7.7959      2.5699      0.0766      4.8522   -999.2500   -999.2500
  1946.0000      7.7744      2.5552      0.0404      5.7427   -999.2500   -999.2500
  1946.1000      7.7744      2.5584      0.0441      5.5538   -999.2500   -999.2500
  1946.2000      7.7744      2.5740      0.0794      4.6060   -999.2500   -999.2500
  1946.3000      7.7384      2.5919      0.0656      3.5236   -999.2500   -999.2500
  1946.4000      7.7384      2.6086      0.1144      2.5098   -999.2500   -999.2500
  1946.5000      7.7104      2.6194      0.1253      1.8556   -999.2500   -999.2500
  1946.6000      7.7104      2.6186      0.1350      1.9029   -999.2500   -999.2500
  1946.7000      7.7104      2.6099      0.1184      2.4324   -999.2500   -999.2500
  1946.8000      7.7323      2.6036      0.0955      2.8100   -999.2500   -999.2500
  1946.9000      7.7323      2.5993      0.1190      3.0728   -999.2500   -999.2500
  1947.0000      7.7633      2.5862      0.0483      3.8670   -999.2500   -999.2500
  1947.1000      7.7633      2.5639      0.0630      5.2184   -999.2500   -999.2500
  1947.2000      7.7633      2.5404      0.0415      6.6418   -999.2500   -999.2500
  1947.3000      7.7612      2.5263      0.0096      7.4999   -999.2500   -999.2500
  1947.4000      7.7612      2.5291      0.0335      7.3288   -999.2500   -999.2500
  1947.5000      7.7710      2.5444      0.0679      6.4007   -999.2500   -999.2500
  1947.6000      7.7710      2.5626      0.0461      5.2949   -999.2500   -999.2500
  1947.7000      7.7710      2.5779      0.0795      4.3720   -999.2500   -999.2500
  1947.8000      7.7823      2.5848      0.0506      3.9522   -999.2500   -999.2500
  1947.9000      7.7823      2.5867      0.0842      3.8340   -999.2500   -999.2500
  1948.0000      7.7781      2.5933      0.0711      3.4353   -999.2500   -999.2500
  1948.1000      7.7781      2.6040      0.0789      2.7882   -999.2500   -999.2500
  1948.2000      7.7781      2.6096      0.0806      2.4461   -999.2500   -999.2500
  1948.3000      7.7451      2.6049      0.1370      2.7352   -999.2500   -999.2500
  1948.4000      7.7451      2.5883      0.1002      3.7391   -999.2500   -999.2500
  1948.5000      7.6919      2.5649      0.0840      5.1605   -999.2500   -999.2500
  1948.6000      7.6919      2.5473      0.0622      6.2232   -999.2500   -999.2500
  1948.7000      7.6919      2.5396      0.0751      6.6903   -999.2500   -999.2500
  1948.8000      7.6945      2.5357      0.0557      6.9285   -999.2500   -999.2500
  1948.9000      7.6945      2.5417      0.0369      6.5629   -999.2500   -999.2500
  1949.0000      7.7121      2.5676      0.0565      4.9930   -999.2500   -999.2500
  1949.1000      7.7121      2.6044      0.0867      2.7633   -999.2500   -999.2500
  1949.2000      7.7121      2.6337      0.1406      0.9865   -999.2500   -999.2500
  1949.3000      7.7093      2.6655      0.1488     -0.9391   -999.2500   -999.2500
  1949.4000      7.7093      2.7459      0.1157     -5.8140   -999.2500   -999.2500
  1949.5000      7.6648      2.7667      0.1292     -7.0727   -999.2500   -999.2500
  1949.6000      7.6648      2.3065      0.5602     20.8158   -999.2500   -999.2500
  1949.7000      7.6648      1.3064      0.0000     81.4297   -999.2500   -999.2500
  1949.8000      7.1500      0.4423      0.0000    133.8002   -999.2500   -999.2500
  1949.9000      7.1500      0.0839   -999.2500    155.5205   -999.2500   -999.2500
  1950.0000      3.2710      0.0086   -999.2500    160.0821   -999.2500   -999.2500
  1950.1000      3.2710      0.0005   -999.2500    160.5776   -999.2500   -999.2500
  1950.2000      3.2710      0.0000   -999.2500    160.6061   -999.2500   -999.2500
  1950.3000      2.7457      0.0000   -999.2500    160.6061   -999.2500   -999.2500
  1950.4000      2.7457   -999.2500   -999.2500   -999.2500   -999.2500   -999.2500
  1950.5000   -999.2500   -999.2500   -999.2500   -999.2500   -999.2500   -999.2500
  1950.6000   -999.2500   -999.2500   -999.2500   -999.2500   -999.2500   -999.2500
  1950.7000   -999.2500   -999.2500   -999.2500   -999.2500   -999.2500   -999.2500
  1950.8000   -999.2500   -999.2500   -999.2500   -999.2500   -999.2500   -999.2500
  1950.9000   -999.2500   -999.2500   -999.2500   -999.2500   -999.2500   -999.2500
  1951.0000   -999.2500   -999.2500   -999.2500   -999.2500   -999.2500   -999.2500
  1951.1000   -999.2500   -999.2500   -999.2500   -999.2500   -999.2500   -999.2500
  1951.2000   -999.2500   -999.2500   -999.2500   -999.2500   -999.2500   -999.2500
  1951.3000   -999.2500   -999.2500   -999.2500   -999.2500   -999.2500   -999.2500
  1951.4000   -999.2500   -999.2500   -999.2500   -999.2500   -999.2500   -999.2500
  1951.5000   -999.2500   -999.2500   -999.2500   -999.2500   -999.2500   -999.2500
  1951.6000   -999.2500   -999.2500   -999.2500   -999.2500   -999.2500   -999.2500
  1951.7000   -999.2500   -999.2500   -999.2500   -999.2500   -999.2500   -999.2500
  1951.8000   -999.2500   -999.2500   -999.2500   -999.2500   -999.2500   -999.2500
  1951.9000   -999.2500   -999.2500   -999.2500   -999.2500   -999.2500   -999.2500
  1952.0000   -999.2500   -999.2500   -999.2500   -999.2500   -999.2500   -999.2500
  1952.1000   -999.2500   -999.2500   -999.2500   -999.2500   -999.2500   -999.2500
  1952.2000   -999.2500   -999.2500   -999.2500   -999.2500   -999.2500   -999.2500
  1952.3000   -999.2500   -999.2500   -999.2500   -999.2500   -999.2500   -999.2500
