~Version Information
VERS.                      2.0: CWLS Log ASCII Standard - VERSION 2.0
WRAP.                       NO: One line per depth step
~Well Information Block
STRT.FT                -8.2500: 
STOP.FT              1439.2500: 
STEP.FT                 0.2500: 
NULL.                -999.2500: 
COMP.          Pioneer Natural Resources: COMPANY
WELL.          Old Faithful 21-2: WELL
FLD.           Purgatorie River: FIELD
LOC.           806' FNL & 2509' FWL--: LOCATION
PROV.                       CO: PROVINCE
CNTY.               Las Animas: COUNTRY
SRVC.          Patterson Wireline: SERVICE COMPANY
DATE.          Mon Dec 12 11:21:25 2005: LOG DATE
UWI.           08 071 08617 00: UNIQUE WELL ID
~Curve Information Block
DEPT.FT            0 000 00 00: Depth
CCL.                          : Casing Collar Locator
TT3.usec                      : CBL 3' Travel Time
AMP3.mV                       : CBL 3' Amplitude
GR.GAPI                       : Gamma Ray
~Parameter Information Block
~A  Depth       CCL         TT3         AMP3         GR     
# ...
   929.7500      0.0000    737.8533      7.7614    191.1208
   930.0000      0.0000    737.8369      7.7277    188.3066
   930.2500      0.0000    737.7599      7.6289    186.8399
   930.5000      0.0000    737.6598      7.5133    185.9457
   930.7500      0.0000    737.5060      7.4123    184.1543
   931.0000      0.0000    737.1752      7.3313    181.1429
   931.2500      0.0000    736.3811      7.2767    177.4669
   931.5000      0.0000    734.7697      7.2812    173.1944
   931.7500      0.0000    732.3033      7.3880    167.8456
   932.0000      0.0000    729.5892      7.6010    161.6508
   932.2500      0.0000    727.4320      7.8584    156.1325
   932.5000      0.0000    725.7618      8.0682    153.0825
   932.7500      0.0000    723.4406      8.1750    152.9478
   933.0000      0.0000    719.7649      8.1969    154.3508
   933.2500      0.0000    715.9782      8.2048    155.1938
   933.5000      0.0000    714.6168      8.2654    153.9731
   933.7500      0.0000    717.1729      8.3914    150.1819
   934.0000      0.0000    722.6843      8.5440    144.2711
   934.2500      0.0000    728.6688      8.6823    137.6217
   934.5000      0.0000    733.1254      8.8038    132.2096
   934.7500      0.0000    735.5499      8.9325    129.9230
   935.0000      0.0000    736.5009      9.0808    131.7984
   935.2500      0.0000    736.7208      9.2335    137.3013
   935.5000      0.0000    736.6861      9.3627    144.3065
   935.7500      0.0000    736.5933      9.4512    150.4062
   936.0000      0.0000    736.4757      9.5082    154.4830
   936.2500      0.0000    736.3028      9.5660    156.9009
   936.5000      0.0000    736.0627      9.6501    158.3652
   936.7500      0.0000    735.7986      9.7449    159.0486
   937.0000      0.0000    735.5815      9.7968    158.8250
   937.2500      0.0000    735.4596      9.7591    157.9198
   937.5000      0.0000    735.4451      9.6355    157.1775
   937.7500      0.0000    735.5311      9.4826    157.9516
   938.0000      0.0000    735.7015      9.3668    161.6056
   938.2500      0.0000    735.9630      9.3122    168.3951
   938.5000      0.0000    736.4493      9.2927    176.5936
   938.7500      0.0000    737.5958      9.2817    183.3248
   939.0000      0.0000    740.3303      9.2988    186.6863
   939.2500      0.0000    746.2380      9.3934    186.7450
   939.5000      0.0000    757.7592      9.5820    184.1674
   939.7500      0.0000    777.9276      9.8153    178.5395
   940.0000      0.0000    808.0969     10.0089    169.0195
   940.2500      0.0000    843.7726     10.1105    156.4946
   940.5000      0.0000    873.6115     10.1418    143.9874
   940.7500      0.0000    886.3235     10.1774    134.6256
   941.0000      0.0000    880.4000     10.2780    129.8066
   941.2500      0.0000    865.8149     10.4420    129.1707
   941.5000      0.0000    855.9483     10.6201    131.2578
   941.7500      0.0000    858.6783     10.7671    134.0114
   942.0000      0.0000    873.1182     10.8740    135.6201
   942.2500      0.0000    890.8013     10.9588    135.4455
   942.5000      0.0000    899.4412     11.0405    134.1580
   942.7500      0.0000    889.5248     11.1057    133.1706
   943.0000      0.0000    861.0259     11.0712    133.7743
   943.2500      0.0000    824.8846     10.7919    136.0970
   943.5000      0.0000    797.5931     10.1691    138.6465
   943.7500      0.0000    791.9960      9.2987    139.2376
   944.0000      0.0000    809.1907      8.4807    136.4517
   944.2500      0.0000    837.2399      8.0216    130.1437
   944.5000      0.0000    859.7013      8.0127    121.0477
   944.7500      0.0000    868.1334      8.3052    110.5549
   945.0000      2.0000    867.5475      8.6757    100.7325
   945.2500      0.0000    869.7324      8.9805     93.8461
   945.5000      0.0000    880.9860      9.1880     91.5188
   945.7500      0.0000    896.0289      9.3457     94.2808
   946.0000      0.0000    902.7230      9.5615    101.5411
   946.2500      0.0000    892.2018      9.9585    111.7024
   946.5000      0.0000    866.0760     10.5649    122.5164
   946.7500      0.0000    835.3207     11.2417    131.8378
   947.0000      0.0000    811.8204     11.7638    138.3940
   947.2500      0.0000    800.3380     11.9871    142.0010
   947.5000      0.0000    797.9698     11.9268    143.1664
   947.7500      0.0000    799.5644     11.6939    142.6107
   948.0000      0.0000    801.9240     11.3921    141.2001
   948.2500      0.0000    803.8303     11.0773    139.9842
   948.5000      0.0000    805.0684     10.7809    139.7600
   948.7500      0.0000    806.4305     10.5297    140.5030
   949.0000      0.0000    809.2113     10.3352    141.5134
   949.2500      0.0000    813.6848     10.1782    142.1885
   949.5000      0.0000    818.5848     10.0237    142.6301
   949.7500      0.0000    822.4239      9.8538    143.5981
   950.0000      0.0000    824.8148      9.6807    145.7390
   950.2500      0.0000    826.4559      9.5288    148.6908
   950.5000      0.0000    828.2554      9.4132    151.0538
   950.7500      0.0000    830.5016      9.3369    151.5293
   951.0000      0.0000    832.5264      9.2988    150.1543
   951.2500      0.0000    833.1892      9.2979    148.3540
   951.5000      0.0000    831.9807      9.3344    147.6383
   951.7500      0.0000    829.5977      9.4082    148.0835
   952.0000      0.0000    827.2745      9.5132    148.1614
   952.2500      0.0000    825.7542      9.6335    146.2832
   952.5000      0.0000    825.0447      9.7478    142.4601
   952.7500      0.0000    824.8555      9.8370    138.2414
   953.0000      0.0000    824.9628      9.8877    135.1600
   953.2500      0.0000    825.2500      9.8981    133.4357
   953.5000      0.0000    825.6359      9.8811    132.0529
   953.7500      0.0000    826.0492      9.8557    129.8211
   954.0000      0.0000    826.4236      9.8311    126.3175
   954.2500      0.0000    826.6892      9.8011    122.0098
   954.5000      0.0000    826.7639      9.7535    117.7658
   954.7500      0.0000    826.4609      9.6819    114.4843
   955.0000      0.0000    825.2928      9.5895    113.1678
   955.2500      0.0000    822.3092      9.4857    114.9069
   955.5000      0.0000    816.3930      9.3816    120.3481
   955.7500      0.0000    807.2644      9.2874    129.1117
   956.0000      0.0000    796.2817      9.2105    139.7076
   956.2500      0.0000    785.5198      9.1560    149.7617
   956.5000      0.0000    776.0396      9.1244    156.4720
   956.7500      0.0000    768.4626      9.1064    157.6759
   957.0000      0.0000    765.2198      9.0891    153.0633
   957.2500      0.0000    769.6088      9.0730    144.1963
   957.5000      0.0000    781.5513      9.0819    133.1889
   957.7500      0.0000    796.3361      9.1434    121.6102
   958.0000      0.0000    808.5717      9.2553    110.7201
   958.2500      0.0000    816.1060      9.3762    102.1726
   958.5000      0.0000    819.9437      9.4582     97.7057
   958.7500      0.0000    822.0051      9.4888     97.9629
   959.0000      0.0000    823.8453      9.4921    101.8669
   959.2500      0.0000    826.6968      9.4899    107.3137
   959.5000      0.0000    831.5609      9.4728    112.5293
   959.7500      0.0000    838.7727      9.4170    116.8646
   960.0000      0.0000    847.8071      9.3210    120.4590
   960.2500      0.0000    858.1949      9.2171    123.3528
   960.5000      0.0000    870.6100      9.1443    125.0265
   960.7500      0.0000    885.9161      9.1148    124.6115
   961.0000      0.0000    902.0886      9.1082    121.3693
   961.2500      0.0000    912.6639      9.0984    115.2433
   961.5000      0.0000    910.2973      9.0800    107.3203
   961.7500      0.0000    893.3547      9.0653     99.4675
   962.0000      0.0000    868.8271      9.0642     92.9306
   962.2500      0.0000    847.8488      9.0727     87.3754
   962.5000      0.0000    837.8474      9.0801     81.7942
   962.7500      0.0000    838.6664      9.0763     76.3843
   963.0000      0.0000    845.1068      9.0562     73.1969
