~Version Information
VERS.                      2.0: CWLS Log ASCII Standard - VERSION 2.0
WRAP.                       NO: One line per depth step
~Well Information Block
STRT.FT                -7.5000: 
STOP.FT              1310.7500: 
STEP.FT                 0.2500: 
NULL.                -999.2500: 
COMP.          Pioneer Natural Resources: COMPANY
WELL.          Challenger 31-29: WELL
FLD.           Purgatorie River: FIELD
LOC.           51' FNL & 1923' FEL------: LOCATION
STAT.                       CO: State
CNTY.               Las Animas: COUNTY
CTRY. USA : Country
SECT. 29 : Section
TOWN. 33S : Township
RANG. 65W : Range
SRVC.          Patterson Wireline: SERVICE COMPANY
DATE.          Wed Sep 21 12:11:38 2005: LOG DATE
API.           05 071 08514 00: UNIQUE WELL ID
~Curve Information Block
DEPT.FT            0 000 00 00: Depth
CCL.                          : Casing Collar Locator
TT3.usec                      : CBL 3' Travel Time
AMP3.mV                       : CBL 3' Amplitude
GR.GAPI                       : Gamma Ray
~Parameter Information Block
~A  Depth       CCL         TT3         AMP3         GR     
# ...
   763.0000      0.0000    302.8536     25.5176    121.8588
   763.2500      0.0000    302.7079     25.6558    129.6175
   763.5000      0.0000    302.5849     25.7714    134.8639
   763.7500      0.0000    302.4996     25.8322    135.1192
   764.0000      0.0000    302.4766     25.7910    130.6076
   764.2500      0.0000    302.5439     25.6093    123.7102
   764.5000      0.0000    302.7182     25.2907    117.0728
   764.7500      0.0000    302.9877     24.8893    112.0045
   765.0000      0.0000    303.3076     24.4848    108.0518
   765.2500      0.0000    303.6132     24.1472    103.8140
   765.5000      0.0000    303.8492     23.9101     98.2196
   765.7500      0.0000    303.9948     23.7614     91.2150
   766.0000      0.0000    304.0665     23.6559     83.7204
   766.2500      0.0000    304.1010     23.5416     77.4098
   766.5000      0.0000    304.1373     23.3857     74.3292
   766.7500      0.0000    304.2086     23.1853     75.9953
   767.0000      0.0000    304.3411     22.9592     82.2877
   767.2500      0.0000    304.6071     22.7290     91.1365
   767.5000      0.0000    305.2423     22.5042     99.5864
   767.7500      0.0000    306.7776     22.2780    105.4788
   768.0000      0.0000    309.9431     22.0325    108.1867
   768.2500      0.0000    315.1156     21.7556    108.0546
   768.5000      0.0000    322.0356     21.4522    105.8527
   768.7500      0.0000    331.1832     21.1275    102.7732
   769.0000      0.0000    346.9189     20.7303    100.0969
   769.2500      0.0000    379.0207     20.1125     98.3955
   769.5000      0.0000    437.9982     19.1000     97.4590
   769.7500      0.0000    524.7645     17.6772     97.2232
   770.0000      0.0000    624.2480     16.1030     98.2287
   770.2500      0.0000    712.8390     14.7736    100.8099
   770.5000      0.0000    774.6489     13.9397    104.2607
   770.7500      0.0000    809.7104     13.5732    107.3290
   771.0000      2.0000    826.8052     13.4793    109.3049
   771.2500      0.0000    831.5468     13.4709    110.1817
   771.5000      0.0000    821.7708     13.4568    110.0973
   771.7500      0.0000    791.8582     13.4587    109.4171
   772.0000      0.0000    740.1769     13.5840    109.3939
   772.2500      0.0000    672.7117     13.9481    112.0210
   772.5000      0.0000    599.7657     14.5996    118.6741
   772.7500      0.0000    530.4232     15.5208    128.6746
   773.0000      0.0000    472.2952     16.6497    139.1278
   773.2500      0.0000    433.3485     17.8571    146.5438
   773.5000      0.0000    417.0453     18.9615    149.2326
   773.7500      0.0000    414.9188     19.8321    148.2623
   774.0000      0.0000    410.2264     20.4555    145.9975
   774.2500      0.0000    392.6002     20.8824    144.0520
   774.5000      0.0000    366.5237     21.1485    142.6807
   774.7500      0.0000    343.6921     21.2648    141.4216
   775.0000      0.0000    330.2533     21.2552    139.7165
   775.2500      0.0000    323.7501     21.1775    137.1555
   775.5000      0.0000    319.1801     21.1067    133.7796
   775.7500      0.0000    314.4223     21.1005    130.4990
   776.0000      0.0000    310.1472     21.1735    128.9122
   776.2500      0.0000    307.2673     21.3016    130.2055
   776.5000      0.0000    305.7491     21.4516    134.1556
   776.7500      0.0000    305.0027     21.6134    139.2169
   777.0000      0.0000    304.5550     21.8086    143.4791
   777.2500      0.0000    304.2168     22.0620    145.8056
   777.5000      0.0000    304.0444     22.3615    146.4280
   777.7500      0.0000    304.3304     22.6460    146.3761
   778.0000      0.0000    305.6151     22.8430    146.3006
   778.2500      0.0000    308.4456     22.9272    146.1973
   778.5000      0.0000    312.6420     22.9445    146.2051
   778.7500      0.0000    316.6479     22.9766    147.1030
   779.0000      0.0000    318.1865     23.0798    149.5066
   779.2500      0.0000    316.1959     23.2488    152.7016
   779.5000      0.0000    311.9158     23.4287    154.7989
   779.7500      0.0000    307.6869     23.5584    154.2475
   780.0000      0.0000    304.9939     23.6089    150.8551
   780.2500      0.0000    303.8757     23.5959    145.3846
   780.5000      0.0000    303.6453     23.5729    138.7341
   780.7500      0.0000    303.6557     23.6049    131.3927
   781.0000      0.0000    303.5640     23.7285    123.0114
   781.2500      0.0000    303.3009     23.9322    112.7627
   781.5000      0.0000    302.9612     24.1775    100.9003
   781.7500      0.0000    302.6676     24.4311     89.5283
   782.0000      0.0000    302.4878     24.6597     81.1182
   782.2500      0.0000    302.4268     24.8114     76.6344
   782.5000      0.0000    302.4604     24.8386     75.4584
   782.7500      0.0000    302.5547     24.7405     76.3653
   783.0000      0.0000    302.6738     24.5642     77.9126
   783.2500      0.0000    302.7954     24.3627     78.5008
   783.5000      0.0000    302.9264     24.1594     77.0298
   783.7500      0.0000    303.0956     23.9457     73.6875
   784.0000      0.0000    303.3217     23.7048     69.7834
   784.2500      0.0000    303.5816     23.4349     66.7265
   784.5000      0.0000    303.8135     23.1519     65.2036
   784.7500      0.0000    303.9572     22.8762     65.1594
   785.0000      0.0000    303.9917     22.6242     66.0807
   785.2500      0.0000    303.9395     22.4145     67.0485
   785.5000      0.0000    303.8431     22.2658     66.9831
   785.7500      0.0000    303.7410     22.1809     65.4729
   786.0000      0.0000    303.6546     22.1374     63.3566
   786.2500      0.0000    303.5867     22.1090     62.0021
   786.5000      0.0000    303.5258     22.0914     61.9347
   786.7500      0.0000    303.4548     22.0965     62.5338
   787.0000      0.0000    303.3633     22.1212     63.0895
   787.2500      0.0000    303.2534     22.1418     63.5746
   787.5000      0.0000    303.1319     22.1504     64.1941
   787.7500      0.0000    302.9995     22.1861     64.7775
   788.0000      0.0000    302.8535     22.3114     65.0581
   788.2500      0.0000    302.6997     22.5482     65.1869
   788.5000      0.0000    302.5589     22.8449     65.6172
   788.7500      0.0000    302.4546     23.1131     66.6049
   789.0000      0.0000    302.3930     23.2919     67.9677
   789.2500      0.0000    302.3571     23.3757     69.2003
   789.5000      0.0000    302.3264     23.3911     69.7037
   789.7500      0.0000    302.2992     23.3634     69.0569
   790.0000      0.0000    302.2901     23.3063     67.4263
   790.2500      0.0000    302.3067     23.2352     65.8634
   790.5000      0.0000    302.3371     23.1818     65.8736
   790.7500      0.0000    302.3613     23.1826     68.2385
   791.0000      0.0000    302.3705     23.2450     72.2955
   791.2500      0.0000    302.3733     23.3236     76.7428
   791.5000      0.0000    302.3947     23.3408     81.2783
   791.7500      0.0000    302.4704     23.2382     87.2449
   792.0000      0.0000    302.6340     23.0079     96.3214
   792.2500      0.0000    302.8959     22.6819    108.4686
   792.5000      0.0000    303.2163     22.3096    121.3996
   792.7500      0.0000    303.5063     21.9516    132.1992
   793.0000      0.0000    303.6844     21.6666    139.2418
   793.2500      0.0000    303.7543     21.4767    142.4376
   793.5000      0.0000    303.8167     21.3505    142.2236
   793.7500      0.0000    304.0261     21.2341    139.1767
   794.0000      0.0000    304.6068     21.0974    134.4620
   794.2500      0.0000    306.3268     20.9427    129.6614
   794.5000      0.0000    311.3900     20.7780    125.8352
   794.7500      0.0000    324.2723     20.5957    123.0898
   795.0000      0.0000    350.3778     20.3846    120.8918
   795.2500      0.0000    391.1386     20.1544    118.2944
   795.5000      0.0000    438.7430     19.9408    114.1846
   795.7500      0.0000    477.6037     19.7787    108.0989
   796.0000      0.0000    493.9416     19.6725    100.8793
   796.2500      0.0000    485.7416     19.5987     94.2122
