~Version Information
VERS.                      2.0: CWLS Log ASCII Standard - VERSION 2.0
WRAP.                       NO: One line per depth step
~Well Information Block
STRT.FT                -8.7500: 
STOP.FT              2331.5000: 
STEP.FT                 0.2500: 
NULL.                -999.2500: 
COMP.          Pioneer Natural Resources: COMPANY
WELL.          Sparrowhawk 22-12: WELL
FLD.           Purgatorie River: FIELD
LOC.           2049' FNL & 2060' FWL--: LOCATION
CNTY.               Las Animas: COUNTY
SRVC.          Patterson Wireline: SERVICE COMPANY
DATE.          Wed Apr 12 08:53:41 2006: LOG DATE
UWI.           05 071 08484 00: UNIQUE WELL ID
STAT.                       CO: STATE
~Curve Information Block
DEPT.FT            0 000 00 00: Depth
CCL.                          : Casing Collar Locator
TT3.usec                      : CBL 3' Travel Time
AMP3.mV                       : CBL 3' Amplitude
GR.GAPI                       : Gamma Ray
~Parameter Information Block
MAXAMPL.mV              0.0000: Maximum Amplitude
~A  Depth       CCL         TT3         AMP3         GR     
# ...
   929.2500      0.0000    265.1194     74.2631    119.6888
   929.5000      0.0000    265.1155     74.3068    115.7162
   929.7500      0.0000    265.1101     74.3010    114.8312
   930.0000      0.0000    265.1015     74.2150    115.8227
   930.2500      0.0000    265.0905     74.0440    117.1103
   930.5000      0.0000    265.0777     73.8031    118.1115
   930.7500      0.0000    265.0628     73.5179    118.6795
   931.0000      0.0000    265.0446     73.2207    118.0945
   931.2500      0.0000    265.0237     72.9572    115.7420
   931.5000      0.0000    265.0036     72.7877    112.7729
   931.7500      0.0000    264.9885     72.7621    112.0563
   932.0000      0.0000    264.9811     72.8781    115.9604
   932.2500      0.0000    264.9816     73.0629    124.5433
   932.5000      0.0000    264.9876     73.2082    135.9057
   932.7500      0.0000    264.9950     73.2351    147.6237
   933.0000      0.0000    264.9994     73.1410    157.6315
   933.2500      0.0000    264.9984     72.9918    164.3508
   933.5000      0.0000    264.9930     72.8716    167.0197
   933.7500      0.0000    264.9864     72.8345    166.3521
   934.0000      0.0000    264.9828     72.8926    164.2797
   934.2500      0.0000    264.9847     73.0299    162.5467
   934.5000      0.0000    264.9916     73.2165    161.7107
   934.7500      0.0000    265.0009     73.4137    161.3719
   935.0000      0.0000    265.0089     73.5782    160.9613
   935.2500      0.0000    265.0131     73.6648    160.3656
   935.5000      0.0000    265.0119     73.6280    160.0701
   935.7500      0.0000    265.0045     73.4358    160.7700
   936.0000      0.0000    264.9925     73.1021    162.6320
   936.2500      0.0000    264.9803     72.7055    164.7686
   936.5000      0.0000    264.9742     72.3650    165.6145
   936.7500      0.0000    264.9787     72.1807    164.0167
   937.0000      0.0000    264.9930     72.1824    160.1629
   937.2500      0.0000    265.0116     72.3156    155.7785
   937.5000      0.0000    265.0267     72.4683    153.4155
   937.7500      0.0000    265.0324     72.5266    154.7127
   938.0000      0.0000    265.0279     72.4327    158.5304
   938.2500      0.0000    265.0175     72.2143    161.1294
   938.5000      0.0000    265.0077     71.9668    159.2192
   938.7500      0.0000    265.0028     71.7992    152.8605
   939.0000      0.0000    265.0030     71.7811    144.7040
   939.2500      0.0000    265.0060     71.9230    136.8583
   939.5000      0.0000    265.0092     72.1852    129.4828
   939.7500      0.0000    265.0116     72.5038    122.1474
   940.0000      0.0000    265.0138     72.8161    115.3767
   940.2500      0.0000    265.0179     73.0763    110.4561
   940.5000      0.0000    265.0249     73.2605    108.1027
   940.7500      0.0000    265.0341     73.3652    107.5919
   941.0000      0.0000    265.0428     73.4002    107.3060
   941.2500      0.0000    265.0475     73.3737    106.2436
   941.5000      0.0000    265.0456     73.2876    104.9294
   941.7500      0.0000    265.0372     73.1545    104.6521
   942.0000      0.0000    265.0256     73.0155    106.0044
   942.2500      0.0000    265.0155     72.9214    108.5316
   942.5000      0.0000    265.0099     72.8896    111.7757
   942.7500      0.0000    265.0082     72.8822    116.1831
   943.0000      0.0000    265.0074     72.8383    122.6010
   943.2500      0.0000    265.0040     72.7270    130.9249
   943.5000      0.0000    264.9960     72.5685    139.5562
   943.7500      0.0000    264.9832     72.4122    146.4417
   944.0000      0.0000    264.9670     72.3010    150.5419
   944.2500      0.0000    264.9502     72.2481    152.1750
   944.5000      0.0000    264.9352     72.2398    152.0674
   944.7500      0.0000    264.9229     72.2560    150.4105
   945.0000      0.0000    264.9129     72.2874    147.1353
   945.2500      0.0000    264.9050     72.3333    142.8801
   945.5000      0.0000    264.8992     72.3916    138.9368
   945.7500      0.0000    264.8953     72.4551    135.8978
   946.0000      0.0000    264.8922     72.5139    132.8969
   946.2500      0.0000    264.8885     72.5595    128.5800
   946.5000      0.0000    264.8832     72.5886    122.4569
   946.7500      0.0000    264.8752     72.6075    115.1210
   947.0000      0.0000    264.8637     72.6304    107.5620
   947.2500      0.0000    264.8496     72.6714    100.3768
   947.5000      0.0000    264.8357     72.7365     93.2466
   947.7500      0.0000    264.8255     72.8190     85.2473
   948.0000      0.0000    264.8202     72.9013     76.1754
   948.2500      0.0000    264.8187     72.9646     67.4695
   948.5000      0.0000    264.8189     73.0010     61.2006
   948.7500      0.0000    264.8184     73.0184     58.1716
   949.0000      0.0000    264.8159     73.0340     57.4939
   949.2500      0.0000    264.8116     73.0612     57.7754
   949.5000      0.0000    264.8067     73.0953     58.1888
   949.7500      0.0000    264.8022     73.1081     58.5746
   950.0000      0.0000    264.7994     73.0626     58.9736
   950.2500      0.0000    264.7994     72.9408     59.0466
   950.5000      0.0000    264.8021     72.7611     57.9752
   950.7500      0.0000    264.8054     72.5631     55.2729
   951.0000      0.0000    264.8071     72.3799     51.6646
   951.2500      0.0000    264.8062     72.2272     48.8098
   951.5000      0.0000    264.8034     72.1088     48.0677
   951.7500      0.0000    264.8018     72.0188     49.5246
   952.0000      0.0000    264.8116     71.9312     52.0334
   952.2500      0.0000    264.8635     71.7674     54.0549
   952.5000      0.0000    265.0258     71.3230     54.4507
   952.7500      0.0000    265.4093     70.2004     52.7129
   953.0000      0.0000    266.1283     67.8941     49.0396
   953.2500      0.0000    267.2189     64.1198     44.5278
   953.5000      0.0000    268.5688     59.1997     40.9496
   953.7500      0.0000    269.9365     54.1046     39.7516
   954.0000      0.0000    271.0666     49.9696     40.9469
   954.2500      0.0000    271.8203     47.4289     43.0405
   954.5000      0.0000    272.2183     46.3539     44.3711
   954.7500      2.0000    272.3777     46.1891     44.7362
   955.0000      0.0000    272.4106     46.5058     45.6808
   955.2500      0.0000    272.3616     47.3470     49.3821
   955.5000      0.0000    272.1953     49.2303     57.5508
   955.7500      0.0000    271.8132     52.7618     70.8519
   956.0000      0.0000    271.1038     57.9289     88.3033
   956.2500      0.0000    270.0295     63.6777    107.0690
   956.5000      0.0000    268.6991     68.4771    123.6440
   956.7500      0.0000    267.3464     71.4532    135.6663
   957.0000      0.0000    266.2144     72.8218    142.6324
   957.2500      0.0000    265.4352     73.2992    145.3569
   957.5000      0.0000    264.9958     73.4164    145.3421
   957.7500      0.0000    264.7939     73.3888    144.4489
   958.0000      0.0000    264.7186     73.3007    144.2736
   958.2500      0.0000    264.6964     73.2206    145.0334
   958.5000      0.0000    264.6940     73.1951    145.1208
   958.7500      0.0000    264.6995     73.2241    142.5992
   959.0000      0.0000    264.7070     73.2695    137.6940
   959.2500      0.0000    264.7122     73.2931    133.3574
   959.5000      0.0000    264.7128     73.2882    132.6716
   959.7500      0.0000    264.7099     73.2765    135.8033
   960.0000      0.0000    264.7061     73.2763    139.9764
   960.2500      0.0000    264.7027     73.2771    142.3539
   960.5000      0.0000    264.6996     73.2505    142.4365
   960.7500      0.0000    264.6970     73.1835    141.5930
   961.0000      0.0000    264.6953     73.0878    141.0237
   961.2500      0.0000    264.6954     72.9729    140.7785
   961.5000      0.0000    264.6972     72.8237    140.1997
   961.7500      0.0000    264.7006     72.6147    138.4315
   962.0000      0.0000    264.7047     72.3426    134.6903
   962.2500      0.0000    264.7087     72.0431    128.9984
   962.5000      0.0000    264.7116     71.7772    122.9030
