~Version Information
 VERS.                                  2.0 : CWLS LAS VERSION
 WRAP.                                   NO : WRAPING MODE
 SWARE .                 MController 2.5.0J : SOFTWARE VERSION
~Well Information
 WELL.                      Buffet 41-36 Tr : WELL
 COMP.    Pioneer Natural Resources USA Inc : COMPANY
 FLD.                      Purgatoire River : FIELD
 LOC.                NE/NE Sec 36 T32S R67W : LOCATION
 DATE.                             12/28/05 : DATE(S) LOGGED
 SRVC.       BLANCO Geological Services LLC : SERVICE COMPANY
 STAT.                                   CO : STATE
 CNTY.                           Las Animas : COUNTY
 CTRY.                                  USA : COUNTRY
 API.                       05-071-08627-00 : API NUMBER
 STRT.FT                             287.00 : START DEPTH
 STOP.FT                            1373.00 : STOP DEPTH
 STEP.FT                               1.00 : DEPTH INCREMENT
 NULL.                                -9999 : NULL VALUE
~Curve information
 DEPTH.FT                                   :
 ROP.MIN/FT                                 :
 GAS.UNITS                                  :
~ASCII Log data
# ...
       687.0         0.40          4.3 
       688.0         0.40          4.6 
       689.0         0.43          4.3 
       690.0         0.40          3.8 
       691.0         0.52          3.7 
       692.0         0.40          3.5 
       693.0         0.43          3.6 
       694.0         0.43          3.9 
       695.0         0.33          3.2 
       696.0         0.37          3.9 
       697.0         0.47          3.9 
       698.0         0.32          4.0 
       699.0         0.30          4.3 
       700.0         0.33          4.2 
       701.0         0.30          4.4 
       702.0         0.30          4.6 
       703.0         0.27          5.0 
       704.0         0.30          5.5 
       705.0         0.50          6.2 
       706.0         0.75          6.0 
       707.0         0.50          5.8 
       708.0         0.37          5.7 
       709.0         0.40          5.3 
       710.0         0.37          5.1 
       711.0         0.37          5.1 
       712.0         3.48          5.5 
       713.0         0.35          4.9 
       714.0         0.43          5.0 
       715.0         0.37          5.0 
       716.0         0.27          5.3 
       717.0         0.23          5.4 
       718.0         0.30          5.4 
       719.0         0.27          5.1 
       720.0         0.20          4.6 
       721.0         0.20          5.0 
       722.0         0.23          4.4 
       723.0         0.35          4.8 
       724.0         0.23          4.9 
       725.0         0.27          4.6 
       726.0         0.27          4.7 
       727.0         0.23          4.8 
       728.0         0.20          4.9 
       729.0         0.17          4.7 
       730.0         0.17          4.9 
       731.0         0.17          4.9 
       732.0         0.17          5.2 
       733.0         0.17          5.8 
       734.0         0.10          6.1 
       735.0         0.13          6.5 
       736.0         0.13          7.8 
       737.0         0.13          8.3 
       738.0         0.27          9.0 
       739.0         0.27          9.0 
       740.0         0.35          8.3 
       741.0         0.30          8.1 
       742.0         5.22          7.2 
       743.0         0.50          6.4 
       744.0         0.62          6.0 
       745.0         0.50          5.8 
       746.0         0.43          6.1 
       747.0         0.40          5.8 
       748.0         0.40          5.9 
       749.0         0.40          5.5 
       750.0         0.43          5.7 
       751.0         0.55          6.2 
       752.0         0.57          5.9 
       753.0         0.37          5.6 
       754.0         0.37          5.6 
       755.0         0.30          5.9 
       756.0         0.27          6.0 
       757.0         0.27          7.2 
       758.0         0.30          7.3 
       759.0         0.27          7.6 
       760.0         0.27          7.2 
       761.0         0.28          6.6 
       762.0         0.27          6.3 
       763.0         0.33          6.0 
       764.0         0.27          6.1 
       765.0         0.30          6.1 
       766.0         0.27          5.5 
       767.0         0.27          5.4 
       768.0         0.20          5.5 
       769.0         0.20          5.6 
       770.0         0.20          5.9 
       771.0         0.27          6.6 
       772.0         4.67          9.9 
       773.0         0.37          6.4 
       774.0         0.47          6.2 
       775.0         0.37          5.9 
       776.0         0.37          5.6 
       777.0         0.27          5.7 
       778.0         0.30          5.5 
       779.0         0.28          5.5 
       780.0         0.23          5.7 
       781.0         0.23          5.5 
       782.0         0.23          5.3 
       783.0         0.23          5.4 
       784.0         0.20          5.2 
       785.0         0.20          6.6 
       786.0         0.23          7.7 
       787.0         0.20          8.0 
       788.0         0.27          8.4 
       789.0         0.30          8.2 
       790.0         0.27          8.0 
       791.0         0.23          7.6 
       792.0         0.30          7.2 
       793.0         0.38          6.8 
       794.0         0.37          6.2 
       795.0         0.37          5.9 
       796.0         0.50          6.4 
       797.0         0.37          6.0 
       798.0         0.30          5.9 
       799.0         0.27          5.5 
       800.0         0.27          5.6 
       801.0         0.23          5.7 
       802.0         2.95         11.4 
       803.0         0.40         11.2 
       804.0         0.48          8.4 
       805.0         0.37          7.4 
       806.0         0.23          7.0 
       807.0         0.27          7.5 
       808.0         0.30          8.9 
       809.0         0.33          9.0 
       810.0         0.30          7.9 
       811.0         0.23          7.7 
       812.0         0.30          6.6 
       813.0         0.33         11.0 
       814.0         0.42         15.0 
       815.0         0.37         15.0 
       816.0         0.40         12.9 
       817.0         0.43         11.4 
       818.0         0.37         10.4 
       819.0         0.30          8.8 
       820.0         0.27          8.7 
       821.0         0.47          8.0 
       822.0         0.33         12.2 
       823.0         0.27         21.9 
       824.0         0.28         29.1 
       825.0         0.33         31.4 
       826.0         0.33         31.6 
       827.0         0.40         29.9 
       828.0         0.27         29.3 
       829.0         0.33         27.5 
       830.0         0.30         25.7 
       831.0         0.30         25.5 
       832.0         3.65         73.9 
       833.0         0.35         42.2 
       834.0         0.37         35.8 
       835.0         0.27         36.7 
       836.0         0.30         37.7 
       837.0         0.30         36.9 
       838.0         0.27         31.9 
       839.0         0.33         28.1 
       840.0         0.33         26.1 
       841.0         0.30         25.1 
       842.0         0.27         23.2 
       843.0         0.32         23.1 
       844.0         0.27         23.6 
       845.0         0.27         22.5 
       846.0         0.27         20.4 
       847.0         0.30         20.9 
       848.0         0.23         21.4 
       849.0         0.23         21.5 
       850.0         0.23         20.6 
       851.0         0.27         20.2 
       852.0         0.37         21.4 
       853.0         0.33         21.4 
       854.0         0.38         21.0 
       855.0         0.30         21.2 
       856.0         0.30         20.6 
       857.0         0.23         19.4 
       858.0         0.30         18.4 
       859.0         0.37         19.7 
       860.0         0.30         20.2 
       861.0         0.43         19.8 
       862.0         2.25         56.6 
       863.0         0.47         54.5 
       864.0         0.57         42.7 
       865.0         1.12         37.1 
       866.0         0.73         30.6 
       867.0         0.33         27.6 
       868.0         0.37         25.3 
       869.0         0.43         24.0 
       870.0         0.37         23.0 
       871.0         0.43         20.7 
       872.0         0.38         20.3 
       873.0         0.47         20.0 
       874.0         0.50         19.1 
       875.0         0.40         18.1 
       876.0         0.47         17.5 
       877.0         0.43         17.3 
       878.0         0.37         16.9 
       879.0         0.28         15.7 
       880.0         0.43         16.4 
       881.0         0.37         17.7 
       882.0         0.37         18.5 
       883.0         0.37         18.7 
       884.0         0.37         18.2 
       885.0         0.40         17.4 
       886.0         0.40         16.4 
