~Version Information
VERS.                      2.0: CWLS Log ASCII Standard - VERSION 2.0
WRAP.                       NO: One line per depth step
~Well Information Block
STRT.FT               680.0000: 
STOP.FT              1585.5000: 
STEP.FT                 0.1000: 
NULL.                -999.2500: 
COMP.          Pioneer Natural Resources: COMPANY
WELL.          Screamin' 12-29: WELL
FLD.           Purgatoire River: FIELD
LOC.           2038' FNL & 612' FWL: LOCATION
CNTY.               Las Animas: COUNTY
SRVC.                Patterson: SERVICE COMPANY
DATE.          Wed Mar 29 10:01:18 2006: LOG DATE
UWI.           05 071 08661 00: UNIQUE WELL ID
STAT.                 Colorado: STATE
~Curve Information Block
DEPT.FT            0 000 00 00: Depth
DCAL.in                       : CDL Caliper
RHOB.g/cc                     : CDL Bulk Density
RHOC.g/cc                     : CDL Density Correction
DPOR.pu                       : CDL Density Porosity
GR.GAPI                       : Gamma Ray
NPOR.pu                       : Neutron Porosity
~Parameter Information Block
~A  Depth       DCAL        RHOB        RHOC        DPOR         GR         NPOR    
# ...
  1160.0000      7.8484      2.5466      0.0844      6.2656    102.5180     29.8029
  1160.1000      7.8484      2.5523      0.0561      5.9206     99.5831     28.6144
  1160.2000      7.8484      2.5559      0.0581      5.7010    100.7780     28.2807
  1160.3000      7.8464      2.5536      0.0950      5.8442    104.8205     28.8873
  1160.4000      7.8464      2.5468      0.0166      6.2569    107.5950     29.4840
  1160.5000      7.8455      2.5503      0.0551      6.0446    108.1076     29.5241
  1160.6000      7.8455      2.5608      0.1047      5.4050    106.6614     29.3773
  1160.7000      7.8455      2.5620      0.0762      5.3342    103.0047     29.6470
  1160.8000      7.8446      2.5491      0.0672      6.1163     97.9706     30.3733
  1160.9000      7.8446      2.5330      0.0187      7.0924     97.0876     30.6864
  1161.0000      7.8443      2.5295      0.0092      7.3044    101.9623     29.9542
  1161.1000      7.8443      2.5389      0.0106      6.7310    105.8870     28.7470
  1161.2000      7.8443      2.5516      0.0292      5.9628    105.9995     27.9037
  1161.3000      7.8450      2.5635      0.0506      5.2426    106.9237     27.4658
  1161.4000      7.8450      2.5713      0.0657      4.7720    108.7092     26.9570
  1161.5000      7.8455      2.5700      0.0633      4.8475    107.1554     26.4530
  1161.6000      7.8455      2.5651      0.0454      5.1428    103.7452     26.4943
  1161.7000      7.8455      2.5673      0.0429      5.0103    101.4306     27.1388
  1161.8000      7.8453      2.5793      0.0508      4.2878     98.8101     28.0721
  1161.9000      7.8453      2.5919      0.0657      3.5221     95.9713     29.1925
  1162.0000      7.8451      2.5918      0.0740      3.5285     97.2867     30.1897
  1162.1000      7.8451      2.5820      0.0218      4.1202    102.1768     30.1786
  1162.2000      7.8451      2.5780      0.0596      4.3666    104.0840     29.2673
  1162.3000      7.8453      2.5809      0.0729      4.1884    101.2267     28.7939
  1162.4000      7.8453      2.5878      0.0568      3.7669     97.0496     29.1902
  1162.5000      7.8448      2.6008      0.0641      2.9793     93.0989     29.8785
  1162.6000      7.8448      2.6160      0.0933      2.0590     89.6349     30.1588
  1162.7000      7.8448      2.6245      0.0959      1.5484     87.7871     29.7242
  1162.8000      7.8435      2.6214      0.0965      1.7350     89.8233     29.2071
  1162.9000      7.8435      2.6167      0.0627      2.0187     96.3031     29.1111
  1163.0000      7.8406      2.6259      0.0469      1.4601    104.3550     28.8387
  1163.1000      7.8406      2.6442      0.0791      0.3512    110.3545     28.3440
  1163.2000      7.8406      2.6514      0.0819     -0.0862    112.5937     28.3375
  1163.3000      7.8378      2.6380      0.0477      0.7260    110.0739     28.6943
  1163.4000      7.8378      2.6085      0.0463      2.5178    104.8746     28.6377
  1163.5000      7.8390      2.5753     -0.0252      4.5269    102.4312     28.3527
  1163.6000      7.8390      2.5512      0.0286      5.9900    104.1073     28.3056
  1163.7000      7.8390      2.5336     -0.0149      7.0561    105.3770     27.8842
  1163.8000      7.8410      2.5161     -0.0164      8.1168    103.5306     26.8122
  1163.9000      7.8410      2.5045     -0.0305      8.8154    102.0749     25.9075
  1164.0000      7.8424      2.5085     -0.0175      8.5754    104.6726     25.6116
  1164.1000      7.8424      2.5232      0.0247      7.6868    108.2263     26.2068
  1164.2000      7.8424      2.5349      0.0186      6.9773    109.2556     27.3828
  1164.3000      7.8438      2.5392      0.0366      6.7174    109.9419     28.0539
  1164.4000      7.8438      2.5411      0.0156      6.5984    110.0978     28.1955
  1164.5000      7.8444      2.5478      0.0206      6.1928    105.2428     28.2565
  1164.6000      7.8444      2.5597      0.0201      5.4727     98.3179     27.9082
  1164.7000      7.8444      2.5700      0.0117      4.8490     95.7115     27.2262
  1164.8000      7.8445      2.5711      0.0309      4.7800     96.4777     26.7496
  1164.9000      7.8445      2.5648      0.0156      5.1610     97.0556     26.6987
  1165.0000      7.8443      2.5636      0.0261      5.2375     97.1104     26.8330
  1165.1000      7.8443      2.5683      0.0618      4.9504     95.8163     26.6632
  1165.2000      7.8443      2.5723      0.0347      4.7110     92.0310     26.5093
  1165.3000      7.8443      2.5846      0.0096      3.9625     88.6290     26.8062
  1165.4000      7.8443      2.6049      0.0751      2.7320     86.9625     27.1849
  1165.5000      7.8439      2.6043      0.0909      2.7673     85.1927     27.6643
  1165.6000      7.8439      2.5694      0.0439      4.8860     84.8142     28.2399
  1165.7000      7.8439      2.5253      0.0146      7.5591     86.0583     28.0527
  1165.8000      7.8427      2.5005      0.0252      9.0591     84.3545     27.0135
  1165.9000      7.8427      2.5030      0.0010      8.9114     80.2677     25.8638
  1166.0000      7.8421      2.5244      0.0391      7.6115     80.1630     25.1795
  1166.1000      7.8421      2.5448      0.0529      6.3757     83.0823     25.2617
  1166.2000      7.8421      2.5485      0.0344      6.1527     82.4106     25.8743
  1166.3000      7.8426      2.5382      0.0239      6.7766     81.6269     26.5168
  1166.4000      7.8426      2.5308      0.0135      7.2245     86.9337     26.9008
  1166.5000      7.8428      2.5413      0.0489      6.5889     95.3292     26.8798
  1166.6000      7.8428      2.5682      0.0376      4.9558    101.7752     26.6225
  1166.7000      7.8428      2.5971      0.0664      3.2035    102.6681     26.2671
  1166.8000      7.8413      2.6087      0.0823      2.5053     96.3891     25.8026
  1166.9000      7.8413      2.5910      0.0868      3.5773     87.1794     25.7238
  1167.0000      7.8398      2.5550      0.0328      5.7595     80.7450     26.4191
  1167.1000      7.8398      2.5292      0.0238      7.3242     79.5717     27.2864
  1167.2000      7.8398      2.5318      0.0371      7.1647     83.2096     27.2021
  1167.3000      7.8409      2.5522      0.0986      5.9264     87.6630     26.0047
  1167.4000      7.8409      2.5710      0.0865      4.7859     88.8359     24.4799
  1167.5000      7.8423      2.5851      0.0882      3.9325     88.0313     23.3079
  1167.6000      7.8423      2.5948      0.1076      3.3465     87.6184     23.3690
  1167.7000      7.8423      2.5965      0.0736      3.2441     86.8528     24.9998
  1167.8000      7.8427      2.5940      0.0904      3.3940     85.4032     26.6761
  1167.9000      7.8427      2.5940      0.0656      3.3948     82.6621     26.9328
  1168.0000      7.8432      2.5944      0.0698      3.3679     78.6801     26.0650
  1168.1000      7.8432      2.5913      0.0450      3.5566     75.9396     24.9751
  1168.2000      7.8432      2.5879      0.0330      3.7616     74.6057     24.3772
  1168.3000      7.8437      2.5862      0.0537      3.8677     73.7204     24.4557
  1168.4000      7.8437      2.5838      0.0264      4.0132     75.1739     24.6208
  1168.5000      7.8434      2.5808      0.0090      4.1951     80.0893     24.5047
  1168.6000      7.8434      2.5806      0.0275      4.2036     84.6065     24.3574
  1168.7000      7.8434      2.5890      0.0178      3.6988     85.2213     24.1540
  1168.8000      7.8426      2.6019      0.0374      2.9179     82.8981     24.0635
  1168.9000      7.8426      2.6018      0.0784      2.9193     79.5689     24.8467
  1169.0000      7.8414      2.5778      0.0456      4.3776     77.5570     26.1084
  1169.1000      7.8414      2.5441     -0.0031      6.4173     78.6288     27.0435
  1169.2000      7.8414      2.5278      0.0069      7.4077     82.6935     27.8312
  1169.3000      7.8395      2.5329      0.0268      7.0984     86.8903     27.9606
  1169.4000      7.8395      2.5408      0.0268      6.6152     87.4398     26.9396
  1169.5000      7.8385      2.5432     -0.0056      6.4717     85.7120     25.8957
