~Version Information
VERS.                      2.0: CWLS Log ASCII Standard - VERSION 2.0
WRAP.                       NO: One line per depth step
~Well Information Block
STRT.FT                -7.7500: 
STOP.FT              2446.5000: 
STEP.FT                 0.2500: 
NULL.                -999.2500: 
COMP.          XTO Energy Inc.: COMPANY
WELL.          Hill Ranch 15-09: WELL
FLD.           Purgatoire River: FIELD
LOC.           1816' FSL & 521' FEL: LOCATION
STAT.                 Colorado: State
CNTY.               Las Animas: COUNTY
CTRY. USA : Country
SECT. 15 : Section
TOWN. 35S : Township
RANG. 67W : Range
SRVC.          Patterson Wireline: SERVICE COMPANY
DATE.          Fri Dec 09 17:49:58 2005: LOG DATE
API. 05-071-08474                          : UNIQUE WELL ID
~Curve Information Block
DEPT.FT            0 000 00 00: Depth
CCL.                          : Casing Collar Locator
TT3.usec                      : CBL 3' Travel Time
AMP3.mV                       : CBL 3' Amplitude
AMP5.mV                       : CBL 5' Amplitude
GR.GAPI                       : Gamma Ray
~Parameter Information Block
~A  Depth       CCL         TT3         AMP3        AMP5         GR     
# ...
  1784.2500      0.0000    810.6855      4.4184      0.9530    127.0142
  1784.5000      0.0000    827.1860      4.2660      0.9383    130.0723
  1784.7500      0.0000    844.9271      4.0694      0.8921    134.0784
  1785.0000      0.0000    861.3943      3.8514      0.8332    137.0767
  1785.2500      0.0000    871.3191      3.6419      0.7954    137.0896
  1785.5000      0.0000    868.5003      3.4707      0.8016    134.3907
  1785.7500      0.0000    850.1580      3.3562      0.8488    131.4623
  1786.0000      0.0000    818.8764      3.3009      0.9180    130.6574
  1786.2500      0.0000    781.1126      3.2942      0.9917    132.5508
  1786.5000      0.0000    744.1422      3.3179      1.0574    136.3827
  1786.7500      0.0000    712.9778      3.3532      1.1025    140.9487
  1787.0000      0.0000    689.1109      3.3861      1.1105    144.7356
  1787.2500      0.0000    671.8490      3.4061      1.0666    146.3727
  1787.5000      0.0000    660.1760      3.4032      0.9715    145.8142
  1787.7500      0.0000    653.1707      3.3716      0.8542    144.5452
  1788.0000      0.0000    649.6224      3.3204      0.7657    143.9454
  1788.2500      0.0000    648.1525      3.2739      0.7476    143.6905
  1788.5000      0.0000    647.6838      3.2549      0.8018    142.2120
  1788.7500      0.0000    647.5844      3.2673      0.8940    138.6454
  1789.0000      0.0000    647.5043      3.2981      0.9798    133.8617
  1789.2500      0.0000    647.2634      3.3304      1.0234    129.4382
  1789.5000      0.0000    646.8713      3.3504      1.0021    126.1640
  1789.7500      0.0000    646.4661      3.3475      0.9172    124.0304
  1790.0000      0.0000    646.1299      3.3185      0.8051    123.1947
  1790.2500      0.0000    645.7962      3.2744      0.7262    124.0647
  1790.5000      0.0000    645.3596      3.2372      0.7279    126.2914
  1790.7500      0.0000    644.8237      3.2265      0.8163    128.3003
  1791.0000      0.0000    644.3069      3.2484      0.9556    128.5907
  1791.2500      0.0000    643.9376      3.2929      1.0931    127.5475
  1791.5000      0.0000    643.7692      3.3389      1.1849    127.2110
  1791.7500      0.0000    643.7809      3.3654      1.2128    128.9767
  1792.0000      0.0000    643.9119      3.3610      1.1886    132.2316
  1792.2500      0.0000    644.0733      3.3267      1.1430    135.4254
  1792.5000      0.0000    644.1589      3.2740      1.0992    137.5045
  1792.7500      0.0000    644.0923      3.2210      1.0531    137.7576
  1793.0000      0.0000    643.8705      3.1862      0.9837    135.3953
  1793.2500      0.0000    643.5432      3.1779      0.8879    130.5724
  1793.5000      0.0000    643.1727      3.1877      0.7943    125.3595
  1793.7500      0.0000    642.8419      3.1981      0.7392    122.2664
  1794.0000      0.0000    642.6752      3.1991      0.7350    121.5851
  1794.2500      0.0000    642.8079      3.1970      0.7702    121.2174
  1794.5000      0.0000    643.3226      3.2055      0.8271    119.3868
  1794.7500      0.0000    644.1989      3.2313      0.8907    116.6426
  1795.0000      0.0000    645.3069      3.2702      0.9483    115.0048
  1795.2500      0.0000    646.4590      3.3136      0.9899    115.8436
  1795.5000      0.0000    647.4785      3.3530      1.0120    118.8083
  1795.7500      0.0000    648.2195      3.3793      1.0134    122.2449
  1796.0000      0.0000    648.5668      3.3827      0.9917    124.2356
  1796.2500      0.0000    648.5058      3.3606      0.9506    123.4524
  1796.5000      0.0000    648.2220      3.3258      0.9077    119.6069
  1796.7500      0.0000    648.1623      3.3033      0.8849    113.5583
  1797.0000      0.0000    649.1925      3.3127      0.8899    107.1164
  1797.2500      0.0000    652.9973      3.3530      0.9121    102.3892
  1797.5000      0.0000    662.2625      3.4045      0.9348    100.7628
  1797.7500      0.0000    679.4448      3.4459      0.9468    102.0675
  1798.0000      0.0000    703.8470      3.4687      0.9484    104.6097
  1798.2500      0.0000    729.4854      3.4762      0.9488    106.1964
  1798.5000      0.0000    747.1932      3.4716      0.9541    105.4840
  1798.7500      0.0000    750.4058      3.4542      0.9572    102.6159
  1799.0000      0.0000    739.6607      3.4282      0.9428     98.8188
  1799.2500      0.0000    722.0762      3.4089      0.9015     95.5407
  1799.5000      0.0000    706.8708      3.4118      0.8371     93.7985
  1799.7500      0.0000    700.3211      3.4379      0.7652     93.8380
  1800.0000      0.0000    702.9420      3.4744      0.7132     95.1511
  1800.2500      0.0000    710.1265      3.5064      0.7099     96.8842
  1800.5000      0.0000    715.7781      3.5271      0.7593     98.3087
  1800.7500      2.0000    716.7350      3.5422      0.8313     99.1178
  1801.0000      0.0000    714.5300      3.5632      0.8883     99.6649
  1801.2500      0.0000    712.6887      3.5954      0.9153    100.9183
  1801.5000      0.0000    712.4352      3.6304      0.9178    103.6502
  1801.7500      0.0000    711.7458      3.6537      0.8982    107.1928
  1802.0000      0.0000    708.4863      3.6548      0.8528    109.2018
  1802.2500      0.0000    703.0786      3.6327      0.7935    107.2871
  1802.5000      0.0000    697.5892      3.5919      0.7513    101.1992
  1802.7500      0.0000    693.2776      3.5372      0.7514     93.2504
  1803.0000      0.0000    689.8193      3.4745      0.7901     86.5968
  1803.2500      0.0000    686.4128      3.4146      0.8425     83.1309
  1803.5000      0.0000    682.6426      3.3701      0.8809     82.4839
  1803.7500      0.0000    677.9249      3.3462      0.8843     82.4668
  1804.0000      0.0000    671.1024      3.3359      0.8481     80.6692
  1804.2500      0.0000    661.7632      3.3263      0.7947     76.1943
  1804.5000      0.0000    651.7554      3.3086      0.7616     70.1775
  1804.7500      0.0000    644.3735      3.2829      0.7692     64.8792
  1805.0000      0.0000    642.0430      3.2575      0.8022     62.3590
  1805.2500      0.0000    645.3159      3.2432      0.8269     63.4687
  1805.5000      0.0000    653.2595      3.2444      0.8199     67.3025
  1805.7500      0.0000    663.5259      3.2548      0.7841     71.6267
  1806.0000      0.0000    672.8254      3.2628      0.7502     74.5097
  1806.2500      0.0000    679.3002      3.2645      0.7577     75.7980
  1806.5000      0.0000    684.7759      3.2685      0.8222     76.8320
  1806.7500      0.0000    693.0460      3.2864      0.9190     78.7476
  1807.0000      0.0000    705.2485      3.3190      1.0020     81.2317
  1807.2500      0.0000    717.8969      3.3557      1.0341     82.8561
  1807.5000      0.0000    726.0848      3.3862      1.0043     82.3960
  1807.7500      0.0000    727.9087      3.4100      0.9328     79.9566
  1808.0000      0.0000    724.8751      3.4330      0.8633     77.0548
  1808.2500      0.0000    718.4489      3.4563      0.8376     75.4580
  1808.5000      0.0000    707.9835      3.4703      0.8644     75.5409
  1808.7500      0.0000    692.9709      3.4631      0.9187     75.6673
  1809.0000      0.0000    675.8898      3.4343      0.9650     73.4958
  1809.2500      0.0000    661.1593      3.3996      0.9756     68.2581
  1809.5000      0.0000    651.7786      3.3812      0.9378     61.7918
  1809.7500      0.0000    648.0364      3.3939      0.8646     57.2250
  1810.0000      0.0000    648.8633      3.4367      0.7997     56.5681
  1810.2500      0.0000    653.0384      3.4927      0.7920     59.4699
  1810.5000      0.0000    658.9433      3.5370      0.8517     63.9217
  1810.7500      0.0000    664.1893      3.5523      0.9336     67.7686
  1811.0000      0.0000    666.4499      3.5404      0.9681     69.6578
  1811.2500      0.0000    664.7643      3.5179      0.9124     69.2671
  1811.5000      0.0000    659.9345      3.5006      0.7818     67.2482
  1811.7500      0.0000    654.1600      3.4937      0.6410     64.7863
  1812.0000      0.0000    650.4105      3.4938      0.5645     62.7754
