~Version Information
VERS.                      2.0: CWLS Log ASCII Standard - VERSION 2.0
WRAP.                       NO: One line per depth step
~Well Information Block
STRT.FT                 0.0000: 
STOP.FT               683.5000: 
STEP.FT                 0.2500: 
NULL.                -999.2500: 
COMP.          Pioneer Natural Resources: COMPANY
WELL.           Belvedere 14-7: WELL
FLD.           Purgatorie River: FIELD
LOC.           786' FSL & 1283' FWL: LOCATION
PROV.                 Colorado: PROVINCE
CNTY.               Las Animas: COUNTRY
SRVC.                Patterson: SERVICE COMPANY
DATE.          Fri Dec 02 12:52:31 2005: LOG DATE
UWI.           05-071-08557               : UNIQUE WELL ID
~Curve Information Block
DEPT.FT            0 000 00 00: Depth
CCL.                          : Casing Collar Locator
TT3.usec                      : CBL 3' Travel Time
AMP3.mV                       : CBL 3' Amplitude
GR.GAPI                       : Gamma Ray
~Parameter Information Block
~A  Depth       CCL         TT3         AMP3         GR     
# ...
   636.5000      0.0000    682.3153      9.8849     49.9245
   636.7500      0.0000    679.0292      9.9709     51.9444
   637.0000      0.0000    677.7522     10.0162     53.2055
   637.2500      0.0000    677.4620     10.0000     53.8840
   637.5000      0.0000    677.4001      9.9371     54.0875
   637.7500      0.0000    677.3261      9.8616     54.1337
   638.0000      0.0000    677.2144      9.7792     54.5775
   638.2500      0.0000    677.0901      9.6824     55.5814
   638.5000      0.0000    676.9886      9.5930     56.4313
   638.7500      0.0000    676.9253      9.5423     56.0898
   639.0000      0.0000    676.8876      9.5193     54.2906
   639.2500      0.0000    676.8709      9.4817     51.8364
   639.5000      0.0000    676.8856      9.4146     49.7792
   639.7500      0.0000    676.9338      9.3419     48.6208
   640.0000      0.0000    677.0204      9.2892     48.4500
   640.2500      0.0000    677.2997      9.2694     49.4045
   640.5000      0.0000    678.6491      9.2938     51.4164
   640.7500      0.0000    683.1487      9.3619     53.6186
   641.0000      0.0000    692.3802      9.4534     54.7401
   641.2500      0.0000    704.2337      9.5545     54.4561
   641.5000      0.0000    713.8604      9.6717     53.9334
   641.7500      0.0000    718.5535      9.8217     54.6044
   642.0000      0.0000    718.6690     10.0169     56.5516
   642.2500      0.0000    714.5647     10.2460     58.4801
   642.5000      0.0000    706.8888     10.4699     59.2224
   642.7500      0.0000    700.0308     10.6591     58.9285
   643.0000      0.0000    699.9055     10.8156     58.6807
   643.2500      0.0000    706.0959     10.9073     59.2397
   643.5000      0.0000    710.6437     10.8033     60.4095
   643.7500      0.0000    703.9838     10.3116     61.4460
   644.0000      0.0000    679.0585      9.4012     61.7879
   644.2500      0.0000    637.8975      8.5071     61.3224
   644.5000      0.0000    603.3585      8.1939     60.1884
   644.7500      0.0000    610.5144      8.2934     58.6186
   645.0000      0.0000    663.7061      8.2232     56.9323
   645.2500      0.0000    721.2924      7.9943     55.4060
   645.5000      0.0000    745.8448      7.9006     54.1601
   645.7500     -2.0000    741.4703      7.9159     53.3930
   646.0000      2.0000    733.4263      7.9303     53.6928
   646.2500      0.0000    735.5555      7.9513     55.8403
   646.5000      0.0000    741.4047      7.9590     60.0916
   646.7500      0.0000    732.1168      7.8996     65.6095
   647.0000      0.0000    688.9905      7.9856     70.6906
   647.2500      0.0000    617.4614      8.6386     73.7808
   647.5000      0.0000    560.8995      9.6950     74.5884
   647.7500      0.0000    562.7293     10.4339     74.3421
   648.0000      0.0000    614.0462     10.6391     74.8054
   648.2500      0.0000    668.6840     10.6014     76.8194
   648.5000      0.0000    697.0615     10.4677     79.7799
   648.7500      0.0000    700.6161     10.2438     82.3897
   649.0000      0.0000    693.5809      9.9734     83.7264
   649.2500      0.0000    688.1302      9.7274     83.6168
   649.5000      0.0000    687.8793      9.5722     82.1756
   649.7500      0.0000    688.5591      9.5308     79.2051
   650.0000      0.0000    685.9850      9.5405     74.3756
   650.2500      0.0000    681.5537      9.4924     68.0827
   650.5000      0.0000    678.4739      9.3506     61.7878
   650.7500      0.0000    677.5585      9.1999     57.2589
   651.0000      0.0000    678.7075      9.1409     55.4599
   651.2500      0.0000    682.9438      9.1566     56.0124
   651.5000      0.0000    690.4598      9.1366     57.5637
   651.7500      0.0000    697.0624      9.0220     58.9111
   652.0000      0.0000    696.7844      8.8621     60.0480
   652.2500      0.0000    689.6180      8.7320     62.0115
   652.5000      0.0000    681.5945      8.6468     65.4743
   652.7500      0.0000    677.0571      8.5793     69.5010
   653.0000      0.0000    675.6844      8.5326     71.9437
   653.2500      0.0000    675.5430      8.5375     71.1928
   653.5000      0.0000    675.4254      8.5904     67.6012
   653.7500      0.0000    675.0077      8.6452     63.4026
   654.0000      0.0000    674.1792      8.6598     61.2544
   654.2500      0.0000    672.0903      8.6309     62.3599
   654.5000      0.0000    666.8599      8.5861     65.5326
   654.7500      0.0000    657.8818      8.5522     68.1261
   655.0000      0.0000    649.1753      8.5502     68.0837
   655.2500      0.0000    646.3212      8.5945     65.1706
   655.5000      0.0000    648.8569      8.6832     60.5393
   655.7500      0.0000    651.4933      8.8223     55.5856
   656.0000      0.0000    650.8047      9.0158     51.2353
   656.2500      0.0000    645.2392      9.2158     48.0000
   656.5000      0.0000    634.5023      9.3498     46.5353
   656.7500      0.0000    622.6410      9.3794     48.0235
   657.0000      0.0000    617.9589      9.3027     53.6083
   657.2500      0.0000    627.4585      9.1553     63.1991
   657.5000      0.0000    648.5086      8.9963     74.9429
   657.7500      0.0000    668.5457      8.8647     86.0080
   658.0000      0.0000    678.4501      8.7718     93.9836
   658.2500      0.0000    681.0157      8.7216     97.9102
   658.5000      0.0000    681.7656      8.7239     98.4236
   658.7500      0.0000    680.4673      8.7828     97.0720
   659.0000      0.0000    676.5146      8.8716     95.2568
   659.2500      0.0000    673.4244      8.9580     93.4405
   659.5000      0.0000    674.2582      9.0391     91.0641
   659.7500      0.0000    679.7718      9.1216     87.1566
   660.0000      0.0000    689.8912      9.1990     81.2699
   660.2500      0.0000    702.0048      9.2741     74.1104
   660.5000      0.0000    711.5004      9.3757     67.2733
   660.7500      0.0000    716.3490      9.5179     62.1877
   661.0000      0.0000    718.0776      9.6779     59.2038
   661.2500      0.0000    718.7076      9.8249     57.6656
   661.5000      0.0000    719.1184      9.9364     56.6670
   661.7500      0.0000    719.5045      9.9963     55.6223
   662.0000      0.0000    719.8322      9.9995     54.3617
   662.2500      0.0000    719.6993      9.9581     53.0548
   662.5000      0.0000    718.0491      9.8925     52.0572
   662.7500      0.0000    713.3087      9.8162     51.6412
   663.0000      0.0000    705.3004      9.7323     51.8003
   663.2500      0.0000    697.9739      9.6636     52.3681
   663.5000      0.0000    696.3063      9.6578     53.1965
   663.7500      0.0000    698.4314      9.7258     54.0836
   664.0000      0.0000    697.0508      9.8199     54.7027
   664.2500      0.0000    689.9309      9.8811     54.8631
   664.5000      0.0000    681.9143      9.8711     54.7746
   664.7500      0.0000    677.1484      9.7897     54.9078
   665.0000      0.0000    675.5432      9.6975     55.6307
   665.2500      0.0000    675.4719      9.6943     56.9648
   665.5000      0.0000    675.9393      9.8152     58.5519
   665.7500      0.0000    676.7405      9.9717     59.9799
   666.0000      0.0000    678.4075     10.0641     61.3600
   666.2500      0.0000    682.0760     10.1102     63.3970
   666.5000      0.0000    687.8853     10.1903     66.4794
   666.7500      0.0000    693.3848     10.3067     69.6549
   667.0000      0.0000    695.2945     10.3980     70.6167
   667.2500      0.0000    691.8755     10.4745     66.8235
   667.5000      0.0000    683.9495     10.6309     57.1120
   667.7500      0.0000    676.4346     10.9009     42.8467
   668.0000      0.0000    674.8474     11.1881     27.5379
   668.2500      0.0000    677.2726     11.3671     14.8565
   668.5000      0.0000    676.3970     11.3813      6.6157
   668.7500      0.0000    671.5608     11.2592      2.3986
   669.0000      0.0000    670.4167     11.1045      0.7002
   669.2500      0.0000    676.6501     11.0240      0.1630
   669.5000      0.0000    683.7811     11.0285      0.0295
   669.7500      0.0000    685.2706     11.0658      0.0038
