~Version Information
VERS.                      2.0: CWLS Log ASCII Standard - VERSION 2.0
WRAP.                       NO: One line per depth step
~Well Information Block
STRT.FT               710.0000: 
STOP.FT              1983.0000: 
STEP.FT                 0.1000: 
NULL.                -999.2500: 
COMP.          Petrogulf Corporation: COMPANY
WELL.           State 16-23R-X: WELL
FLD.           Purgatorie River: FIELD
LOC.           2381' FSL & 2072' FWL: LOCATION
PROV.                 Colorado: PROVINCE
CNTY.               Las Animas: COUNTRY
SRVC.                Patterson: SERVICE COMPANY
DATE.          Mon Aug 08 07:36:34 2005: LOG DATE
UWI.                          : UNIQUE WELL ID
~Curve Information Block
DEPT.FT            0 000 00 00: Depth
DCAL.in                       : CDL Caliper
RHOB.g/cc                     : CDL Bulk Density
RHOC.g/cc                     : CDL Density Correction
DPOR.pu                       : CDL Density Porosity
GR.GAPI                       : Gamma Ray
NPOR.pu                       : Neutron Porosity
~Parameter Information Block
~A  Depth       DCAL        RHOB        RHOC        DPOR         GR         NPOR    
# ...
   959.6000      7.9218      2.5116      0.0520      8.3909    133.2601     28.4286
   959.7000      7.9218      2.5117      0.0248      8.3823    128.5016     28.3302
   959.8000      7.9239      2.5079      0.0421      8.6136    124.7168     28.7445
   959.9000      7.9239      2.4919      0.0523      9.5814    121.9146     29.3157
   960.0000      7.9198      2.4714      0.0098     10.8252    119.8890     29.8083
   960.1000      7.9198      2.4632      0.0332     11.3185    118.6450     29.9473
   960.2000      7.9198      2.4635      0.0658     11.3012    117.6646     29.6713
   960.3000      7.8682      2.4602      0.0435     11.5018    117.8329     29.5409
   960.4000      7.8682      2.4652      0.0448     11.2016    118.0881     29.7727
   960.5000      7.8427      2.4954      0.0796      9.3722    115.3723     30.0624
   960.6000      7.8427      2.5487      0.1479      6.1397    111.0943     30.1299
   960.7000      7.8427      2.6093      0.1740      2.4695    108.6839     29.7998
   960.8000      7.8211      2.6573      0.2365     -0.4454    108.0332     29.1172
   960.9000      7.8211      2.6792      0.2588     -1.7723    109.6117     28.3633
   961.0000      7.8410      2.6813      0.2003     -1.8967    113.0315     27.8770
   961.1000      7.8410      2.6828      0.1859     -1.9867    113.9978     27.7022
   961.2000      7.8410      2.6873      0.1925     -2.2602    112.0046     27.6871
   961.3000      7.8570      2.6784      0.1498     -1.7236    110.4677     27.7724
   961.4000      7.8570      2.6495      0.1060      0.0295    108.7918     27.7522
   961.5000      7.8530      2.6166      0.0199      2.0221    105.8124     27.4195
   961.6000      7.8530      2.6001     -0.0413      3.0251    105.0237     26.9312
   961.7000      7.8530      2.6044     -0.0093      2.7618    107.0986     26.4982
   961.8000      7.8787      2.6182      0.0079      1.9290    108.9720     26.2030
   961.9000      7.8787      2.6241      0.0543      1.5693    109.0325     26.0231
   962.0000      7.8954      2.6137      0.0509      2.1975    106.9095     25.8718
   962.1000      7.8954      2.5978      0.0451      3.1613    104.1412     25.7085
   962.2000      7.8954      2.5878      0.0358      3.7692    103.5030     25.5984
   962.3000      7.8154      2.5846      0.0422      3.9631    104.7620     25.5710
   962.4000      7.8154      2.5875      0.0459      3.7875    105.4139     25.5323
   962.5000      7.8110      2.5945      0.0592      3.3666    105.1608     25.5065
   962.6000      7.8110      2.6043      0.0214      2.7722    104.2728     25.5790
   962.7000      7.8110      2.6169      0.0689      2.0043    102.0644     25.6433
   962.8000      7.8294      2.6228      0.0942      1.6507     98.7837     25.5299
   962.9000      7.8294      2.6114      0.0868      2.3379     95.2732     25.3259
   963.0000      7.8000      2.5883      0.0819      3.7381     92.0673     25.2329
   963.1000      7.8000      2.5654      0.0434      5.1274     89.8950     25.2086
   963.2000      7.8000      2.5472      0.0289      6.2279     89.1007     25.2062
   963.3000      7.8008      2.5360      0.0054      6.9074     90.2678     25.4195
   963.4000      7.8008      2.5421      0.0075      6.5410     92.8975     25.7884
   963.5000      7.8168      2.5689      0.0649      4.9139     93.7793     25.9750
   963.6000      7.8168      2.6056      0.1062      2.6929     92.0120     25.9777
   963.7000      7.8168      2.6394      0.1838      0.6443     89.7713     25.9094
   963.8000      7.7893      2.6680      0.1659     -1.0911     89.0130     25.8096
   963.9000      7.7893      2.6976      0.2107     -2.8867     90.7195     25.9307
   964.0000      7.7920      2.7189      0.2262     -4.1773     94.7869     26.2484
   964.1000      7.7920      2.7193      0.1512     -4.2008     99.2220     26.3866
   964.2000      7.7920      2.7037      0.1657     -3.2528    102.8234     26.3352
   964.3000      7.8430      2.6817      0.1262     -1.9225    107.8064     26.2610
   964.4000      7.8430      2.6613      0.0974     -0.6849    112.7981     26.1253
   964.5000      7.8563      2.6435      0.1145      0.3946    113.4644     25.7743
   964.6000      7.8563      2.6268      0.0637      1.4043    111.0477     25.2128
   964.7000      7.8563      2.6149      0.0693      2.1280    109.2840     24.6792
   964.8000      7.8453      2.6082      0.0715      2.5318    109.9842     24.3356
   964.9000      7.8453      2.6051      0.0683      2.7224    112.0296     24.2552
   965.0000      7.8967      2.6042      0.1142      2.7779    113.2521     24.5227
   965.1000      7.8967      2.6058      0.1080      2.6758    112.6414     25.0030
   965.2000      7.8967      2.6071      0.1423      2.6001    110.5142     25.3570
   965.3000      7.8954      2.5924      0.1463      3.4888    109.0978     25.5708
   965.4000      7.8954      2.5610      0.0529      5.3949    110.2932     25.8413
   965.5000      7.8885      2.5371      0.0396      6.8433    113.8705     26.0761
   965.6000      7.8885      2.5284      0.0467      7.3694    116.4803     26.2012
   965.7000      7.8885      2.5179      0.0774      8.0073    114.7681     26.2529
   965.8000      7.8905      2.5042      0.0114      8.8350    111.8516     26.0456
   965.9000      7.8905      2.5054      0.0486      8.7652    113.4520     25.5722
   966.0000      7.8758      2.5226      0.0679      7.7192    118.6667     25.0406
   966.1000      7.8758      2.5432      0.1078      6.4699    122.7764     24.6497
   966.2000      7.8758      2.5612      0.0926      5.3817    126.1764     24.7197
   966.3000      7.8862      2.5727      0.1789      4.6833    130.9921     25.3716
   966.4000      7.8862      2.5691      0.1826      4.9034    136.3907     26.1031
   966.5000      7.8920      2.5487      0.2017      6.1416    141.1712     26.4388
   966.6000      7.8920      2.5234      0.1587      7.6708    143.5189     26.6168
   966.7000      7.8920      2.5116      0.1473      8.3873    143.3275     26.8959
   966.8000      7.8769      2.5257      0.1140      7.5335    143.0990     27.3435
   966.9000      7.8769      2.5616      0.1811      5.3583    141.5287     28.0653
   967.0000      7.8844      2.6071      0.1574      2.5988    136.5921     28.8467
   967.1000      7.8844      2.6499      0.2343      0.0040    132.2341     29.2601
   967.2000      7.8844      2.6709      0.2188     -1.2643    131.0194     29.2090
   967.3000      7.8967      2.6664      0.1796     -0.9916    130.8629     29.0266
   967.4000      7.8967      2.6526      0.1746     -0.1600    129.5345     29.0182
   967.5000      7.8747      2.6334      0.1676      1.0058    126.6032     28.9750
   967.6000      7.8747      2.6113      0.0600      2.3449    124.7639     28.5481
   967.7000      7.8747      2.6005      0.0759      2.9982    126.2298     27.7103
   967.8000      7.8778      2.5943      0.0967      3.3753    129.0808     26.9298
   967.9000      7.8778      2.5782      0.0345      4.3545    130.6631     26.7222
   968.0000      7.9450      2.5641      0.0389      5.2070    130.6091     26.8117
   968.1000      7.9450      2.5638      0.0552      5.2214    129.5900     26.7361
   968.2000      7.9450      2.5635      0.0775      5.2399    128.7258     26.5147
   968.3000      7.9672      2.5517     -0.0158      5.9585    129.7478     26.3390
   968.4000      7.9672      2.5376      0.0318      6.8110    131.3051     26.4194
   968.5000      7.9622      2.5306      0.0174      7.2385    130.2377     26.7275
   968.6000      7.9622      2.5311      0.0206      7.2049    127.9193     26.9425
   968.7000      7.9622      2.5318      0.0500      7.1624    129.1053     27.0096
   968.8000      7.9686      2.5231      0.0416      7.6884    133.5970     27.1778
   968.9000      7.9686      2.5108     -0.0167      8.4391    135.1937     27.4526
   969.0000      7.9773      2.5028      0.0187      8.9213    131.0567     27.5198
   969.1000      7.9773      2.4890      0.0246      9.7552    125.1817     27.2431
