~Version Information
VERS.                      2.0: CWLS Log ASCII Standard - VERSION 2.0
WRAP.                       NO: One line per depth step
~Well Information Block
STRT.FT               695.5000: 
STOP.FT              1499.5000: 
STEP.FT                 0.2500: 
NULL.                -999.2500: 
COMP.          Pioneer Natural Resources: COMPANY
WELL.          Pallet Ranch 34-25 Tr: WELL
FLD.           Purgatoire River: FIELD
LOC.           465' FSL & 2138' FEL: LOCATION
PROV.                 Colorado: PROVINCE
CNTY.               Las Animas: COUNTRY
SRVC.                Patterson: SERVICE COMPANY
DATE.          Wed Jan 18 18:58:46 2006: LOG DATE
UWI.           05 071 08657 00: UNIQUE WELL ID
~Curve Information Block
DEPT.FT            0 000 00 00: Depth
SN.Ohm-m                      : IEL Short Normal
SP.mV                         : IEL Spontaneous Potential
DIR.Ohm-m                     : IEL Induction Resistivity
GR.GAPI                       : Gamma Ray
~Parameter Information Block
~A  Depth        SN          SP         DIR          GR     
# ...
  1198.0000     37.1702     32.2822     34.2803     36.9911
  1198.2500     38.6571     32.2911     33.8713     37.7688
  1198.5000     39.5520     32.3064     33.0849     37.6970
  1198.7500     39.2734     32.3078     32.2160     36.9376
  1199.0000     38.3607     32.2776     31.5105     35.4143
  1199.2500     37.3944     32.2143     31.0255     34.5801
  1199.5000     36.4306     32.1389     30.6244     34.3562
  1199.7500     35.3926     32.0856     30.0854     35.3517
  1200.0000     34.5630     32.0823     29.2493     39.1698
  1200.2500     34.1897     32.1358     28.0983     43.3797
  1200.5000     33.8449     32.2302     26.7170     51.9738
  1200.7500     32.8666     32.3361     25.2087     58.9383
  1201.0000     31.1533     32.4240     23.6515     70.6441
  1201.2500     29.0848     32.4753     22.1020     78.9089
  1201.5000     27.0722     32.4887     20.6086     91.1443
  1201.7500     25.3045     32.4788     19.2110     98.5554
  1202.0000     23.5787     32.4670     17.9333    107.5801
  1202.2500     21.4939     32.4688     16.7800    111.8815
  1202.5000     19.0350     32.4856     15.7397    115.5651
  1202.7500     16.7243     32.5064     14.7950    116.2672
  1203.0000     15.0459     32.5163     13.9329    115.4506
  1203.2500     14.0343     32.5060     13.1481    114.4228
  1203.5000     13.5038     32.4767     12.4400    113.4887
  1203.7500     13.2538     32.4389     11.8068    113.7710
  1204.0000     13.0198     32.4045     11.2426    115.6603
  1204.2500     12.6269     32.3786     10.7399    117.6957
  1204.5000     12.1607     32.3550     10.2931    121.7454
  1204.7500     11.7933     32.3213      9.9011    125.0706
  1205.0000     11.5477     32.2674      9.5655    130.1532
  1205.2500     11.3013     32.1916      9.2865    132.6438
  1205.5000     10.9672     32.1013      9.0605    134.0688
  1205.7500     10.5780     32.0090      8.8807    133.9869
  1206.0000     10.1906     31.9286      8.7404    134.2216
  1206.2500      9.8710     31.8732      8.6359    135.1335
  1206.5000      9.7233     31.8495      8.5669    136.3228
  1206.7500      9.7702     31.8533      8.5346    135.6800
  1207.0000      9.9192     31.8706      8.5391    131.8838
  1207.2500     10.0833     31.8853      8.5787    128.4742
  1207.5000     10.2051     31.8885      8.6497    124.4624
  1207.7500     10.1948     31.8827      8.7460    123.1488
  1208.0000      9.9927     31.8802      8.8593    122.5445
  1208.2500      9.7255     31.8979      8.9809    122.3167
  1208.5000      9.6377     31.9508      9.1050    121.4902
  1208.7500      9.8451     32.0473      9.2308    120.5289
  1209.0000     10.2946     32.1861      9.3624    118.6262
  1209.2500     10.8996     32.3550      9.5076    117.2382
  1209.5000     11.5462     32.5329      9.6756    115.3798
  1209.7500     11.9977     32.6954      9.8739    114.4993
  1210.0000     12.0541     32.8239     10.1044    113.7865
  1210.2500     11.8520     32.9112     10.3595    113.4682
  1210.5000     11.7523     32.9636     10.6241    112.5555
  1210.7500     11.9013     32.9963     10.8801    111.4829
  1211.0000     12.1186     33.0272     11.1104    109.5198
  1211.2500     12.2455     33.0694     11.2998    108.2384
  1211.5000     12.3849     33.1261     11.4343    106.3170
  1211.7500     12.6724     33.1897     11.5038    104.8606
  1212.0000     12.9579     33.2483     11.5072    102.6503
  1212.2500     12.9712     33.2908     11.4548    101.7103
  1212.5000     12.7003     33.3073     11.3628    101.8415
  1212.7500     12.3451     33.2885     11.2446    102.7711
  1213.0000     12.0567     33.2319     11.1059    104.3651
  1213.2500     11.8843     33.1478     10.9488    105.1194
  1213.5000     11.8056     33.0549     10.7783    105.7280
  1213.7500     11.7441     32.9635     10.6038    105.8351
  1214.0000     11.6739     32.8668     10.4349    105.5567
  1214.2500     11.6547     32.7501     10.2770    105.2991
  1214.5000     11.6859     32.6080     10.1343    105.5357
  1214.7500     11.6847     32.4520     10.0150    106.3163
  1215.0000     11.6189     32.3033      9.9295    107.9654
  1215.2500     11.5122     32.1792      9.8828    108.8798
  1215.5000     11.3851     32.0831      9.8673    109.3790
  1215.7500     11.2911     32.0054      9.8660    109.1078
  1216.0000     11.2997     31.9342      9.8635    108.3684
  1216.2500     11.4055     31.8653      9.8560    108.2171
  1216.5000     11.5521     31.8030      9.8504    109.0237
  1216.7500     11.7258     31.7573      9.8545    109.7793
  1217.0000     11.9420     31.7406      9.8697    109.6292
  1217.2500     12.1713     31.7643      9.8938    108.2951
  1217.5000     12.3585     31.8341      9.9292    105.5544
  1217.7500     12.4856     31.9465      9.9856    104.1661
  1218.0000     12.5780     32.0892     10.0756    103.3781
  1218.2500     12.6886     32.2431     10.2086    103.6373
  1218.5000     12.8349     32.3851     10.3907    105.2386
  1218.7500     12.9479     32.4930     10.6298    107.2789
  1219.0000     12.9549     32.5526     10.9374    111.5619
  1219.2500     12.8840     32.5635     11.3238    114.5766
  1219.5000     12.8210     32.5404     11.7879    118.0109
  1219.7500     12.8562     32.5052     12.3117    119.1903
  1220.0000     13.1543     32.4792     12.8645    119.3210
  1220.2500     13.9694     32.4789     13.4170    118.4363
  1220.5000     15.5002     32.5137     13.9558    115.8070
  1220.7500     17.8040     32.5824     14.4893    113.2972
  1221.0000     20.9285     32.6754     15.0418    108.5239
  1221.2500     24.8766     32.7829     15.6476    104.6809
  1221.5000     29.2224     32.9050     16.3467     98.1213
  1221.7500     33.0936     33.0499     17.1752     93.5670
  1222.0000     35.8478     33.2196     18.1423     87.2091
  1222.2500     37.5277     33.3951     19.1994     83.5849
  1222.5000     38.4186     33.5433     20.2214     79.4074
  1222.7500     38.6089     33.6411     21.0243     77.7424
  1223.0000     38.2012     33.6963     21.4291     77.2997
  1223.2500     37.3871     33.7431     21.3401     78.1992
  1223.5000     36.2443     33.8194     20.7811     80.3086
  1223.7500     34.8027     33.9451     19.8655     81.5294
  1224.0000     33.2138     34.1149     18.7397     82.3772
  1224.2500     31.6345     34.3049     17.5433     82.3104
  1224.5000     30.0167     34.4858     16.3916     82.1945
  1224.7500     28.1500     34.6361     15.3674     83.1013
  1225.0000     25.8841     34.7505     14.5161     87.6558
  1225.2500     23.3508     34.8391     13.8510     93.1403
  1225.5000     20.9328     34.9214     13.3651    103.7389
  1225.7500     18.9607     35.0175     13.0431    110.9837
  1226.0000     17.5912     35.1410     12.8668    120.2430
  1226.2500     16.8369     35.2951     12.8158    124.9767
  1226.5000     16.4897     35.4739     12.8653    129.8397
  1226.7500     16.2547     35.6667     12.9885    131.4158
  1227.0000     16.0761     35.8617     13.1614    131.1969
  1227.2500     16.1441     36.0476     13.3726    129.9109
  1227.5000     16.7476     36.2160     13.6297    128.0104
  1227.7500     18.2796     36.3652     13.9597    127.4947
  1228.0000     21.2088     36.5005     14.4027    128.2309
  1228.2500     25.8954     36.6304     15.0030    129.7691
  1228.5000     32.2890     36.7604     15.8046    133.1712
  1228.7500     39.5041     36.8901     16.8498    134.9499
  1229.0000     45.8190     37.0167     18.1751    133.4437
  1229.2500     49.7440     37.1379     19.7972    128.1654
  1229.5000     51.1530     37.2528     21.6868    114.3622
  1229.7500     51.0048     37.3626     23.7404    103.2397
  1230.0000     50.2461     37.4700     25.7707     87.9563
  1230.2500     49.2922     37.5761     27.5379     80.4851
  1230.5000     48.1761     37.6768     28.8283     74.1266
  1230.7500     46.7790     37.7602     29.5429     72.5771
  1231.0000     45.0471     37.8101     29.7269     73.2732
  1231.2500     43.1636     37.8137     29.5122     75.5693
