~Version Information
VERS.                      2.0: CWLS Log ASCII Standard - VERSION 2.0
WRAP.                       NO: One line per depth step
~Well Information Block
STRT.FT               555.0000: 
STOP.FT              2283.0000: 
STEP.FT                 0.2500: 
NULL.                -999.2500: 
COMP.          Pioneer Natural Resources: COMPANY
WELL.          Roadster 41-33 Kv: WELL
FLD.           Purgatoire River: FIELD
LOC.           903' FNL & 248' FEL: LOCATION
PROV.                 Colorado: PROVINCE
CNTY.               Las Animas: COUNTRY
SRVC.                Patterson: SERVICE COMPANY
DATE.          Wed Dec 14 23:52:42 2005: LOG DATE
UWI.           05 071 08615 00: UNIQUE WELL ID
~Curve Information Block
DEPT.FT            0 000 00 00: Depth
SN.Ohm-m                      : IEL Short Normal
SP.mV                         : IEL Spontaneous Potential
DIR.Ohm-m                     : IEL Induction Resistivity
GR.GAPI                       : Gamma Ray
~Parameter Information Block
~A  Depth        SN          SP         DIR          GR     
# ...
  1694.0000     24.5288     38.5507     20.3731    114.2725
  1694.2500     24.8125     38.6282     20.6796    114.4492
  1694.5000     25.2271     38.7474     20.9880    114.4062
  1694.7500     25.7455     38.8937     21.3188    113.9343
  1695.0000     26.2704     39.0398     21.6638    112.7542
  1695.2500     26.7048     39.1569     21.9956    111.8440
  1695.5000     27.0544     39.2298     22.2894    110.2988
  1695.7500     27.4201     39.2655     22.5427    108.9346
  1696.0000     27.8741     39.2881     22.7768    106.2787
  1696.2500     28.3763     39.3242     23.0237    104.5830
  1696.5000     28.8278     39.3906     23.3095    103.6043
  1696.7500     29.1841     39.4895     23.6442    104.4861
  1697.0000     29.5047     39.6124     24.0190    107.3791
  1697.2500     29.9069     39.7485     24.4117    109.2795
  1697.5000     30.4808     39.8907     24.8007    110.5253
  1697.7500     31.2320     40.0342     25.1775    110.0220
  1698.0000     32.1064     40.1713     25.5499    107.7816
  1698.2500     33.0546     40.2898     25.9310    105.7594
  1698.5000     34.0596     40.3784     26.3251    102.3094
  1698.7500     35.1195     40.4321     26.7224     99.6258
  1699.0000     36.2252     40.4546     27.1069     94.7966
  1699.2500     37.3580     40.4544     27.4718     91.1659
  1699.5000     38.4644     40.4423     27.8235     85.6228
  1699.7500     39.4232     40.4319     28.1648     82.1622
  1700.0000     40.1023     40.4403     28.4655     78.0293
  1700.2500     40.4560     40.4844     28.6477     76.6111
  1700.5000     40.5377     40.5711     28.6109     77.2175
  1700.7500     40.4256     40.6923     28.2896     79.1501
  1701.0000     40.1474     40.8320     27.6988     82.8817
  1701.2500     39.6750     40.9760     26.9234     85.2399
  1701.5000     38.9824     41.1148     26.0599     88.4655
  1701.7500     38.0750     41.2419     25.1638     90.6516
  1702.0000     36.9580     41.3582     24.2338     93.9132
  1702.2500     35.6186     41.4809     23.2247     95.6208
  1702.5000     34.0566     41.6416     22.0743     96.8509
  1702.7500     32.2983     41.8683     20.7420     96.9932
  1703.0000     30.3546     42.1674     19.2510     97.2887
  1703.2500     28.1574     42.5217     17.7001     98.0349
  1703.5000     25.5829     42.8991     16.2209    100.1741
  1703.7500     22.6247     43.2617     14.9155    102.3298
  1704.0000     19.5617     43.5733     13.8218    107.0936
  1704.2500     16.8541     43.8089     12.9181    111.5550
  1704.5000     14.8046     43.9627     12.1503    120.0362
  1704.7500     13.3831     44.0496     11.4619    126.3304
  1705.0000     12.3741     44.0965     10.8150    135.1272
  1705.2500     11.5712     44.1286     10.1971    139.5010
  1705.5000     10.8407     44.1585      9.6140    142.6305
  1705.7500     10.1247     44.1833      9.0779    142.5314
  1706.0000      9.4318     44.1929      8.5987    140.5760
  1706.2500      8.8178     44.1782      8.1818    139.1812
  1706.5000      8.3506     44.1361      7.8285    138.3250
  1706.7500      8.0689     44.0673      7.5367    138.7947
  1707.0000      7.9532     43.9746      7.3019    140.4824
  1707.2500      7.9312     43.8600      7.1160    141.7242
  1707.5000      7.9154     43.7249      6.9694    143.2569
  1707.7500      7.8621     43.5720      6.8518    144.0912
  1708.0000      7.8004     43.4095      6.7545    145.2976
  1708.2500      7.7879     43.2525      6.6718    146.1072
  1708.5000      7.8281     43.1198      6.6004    147.0131
  1708.7500      7.8500     43.0257      6.5397    147.0101
  1709.0000      7.7998     42.9747      6.4911    145.5074
  1709.2500      7.7121     42.9612      6.4570    143.5591
  1709.5000      7.6425     42.9709      6.4402    139.9962
  1709.7500      7.6081     42.9848      6.4430    137.7477
  1710.0000      7.6062     42.9851      6.4667    135.3070
  1710.2500      7.6151     42.9654      6.5117    134.5482
  1710.5000      7.6010     42.9355      6.5777    134.6810
  1710.7500      7.5539     42.9183      6.6630    135.3433
  1711.0000      7.5160     42.9366      6.7642    136.5860
  1711.2500      7.5674     43.0012      6.8774    137.2756
  1711.5000      7.7452     43.1041      7.0009    137.8875
  1711.7500      7.9913     43.2215      7.1386    138.1822
  1712.0000      8.2272     43.3236      7.2991    138.9161
  1712.2500      8.4316     43.3843      7.4929    139.5716
  1712.5000      8.6195     43.3894      7.7259    140.0403
  1712.7500      8.7943     43.3415      7.9944    139.5218
  1713.0000      8.9439     43.2609      8.2850    137.4242
  1713.2500      9.0910     43.1768      8.5816    135.6528
  1713.5000      9.3080     43.1135      8.8773    133.6496
  1713.7500      9.6466     43.0781      9.1814    133.2124
  1714.0000     10.1072     43.0601      9.5142    133.9422
  1714.2500     10.6633     43.0411      9.8950    135.0155
  1714.5000     11.2704     43.0072     10.3319    136.4205
  1714.7500     11.8846     42.9538     10.8221    136.4570
  1715.0000     12.4772     42.8817     11.3588    134.5932
  1715.2500     13.0367     42.7895     11.9388    132.5946
  1715.5000     13.5854     42.6691     12.5639    130.0743
  1715.7500     14.1627     42.5080     13.2346    129.1266
  1716.0000     14.7797     42.2963     13.9417    127.8761
  1716.2500     15.4337     42.0336     14.6644    126.2662
  1716.5000     16.1469     41.7296     15.3754    122.2405
  1716.7500     16.9553     41.4015     16.0545    119.0748
  1717.0000     17.8866     41.0690     16.6982    114.7393
  1717.2500     18.9419     40.7468     17.3243    112.0335
  1717.5000     20.0691     40.4370     17.9668    107.1245
  1717.7500     21.1894     40.1267     18.6641    103.0546
  1718.0000     22.2537     39.7964     19.4414     97.0719
  1718.2500     23.2415     39.4328     20.2910     94.3458
  1718.5000     24.1498     39.0374     21.1615     93.1706
  1718.7500     25.0227     38.6274     21.9728     94.0704
  1719.0000     25.9345     38.2300     22.6591     96.6811
  1719.2500     26.9169     37.8720     23.2140     98.3207
  1719.5000     27.9250     37.5691     23.6943     98.6367
  1719.7500     28.8787     37.3227     24.1818     96.2695
  1720.0000     29.7481     37.1226     24.7340     88.2050
  1720.2500     30.6167     36.9542     25.3628     80.6300
  1720.5000     31.6497     36.8020     26.0435     68.4754
  1720.7500     32.9848     36.6480     26.7437     61.0431
  1721.0000     34.6419     36.4717     27.4476     51.7390
  1721.2500     36.5121     36.2590     28.1617     46.7393
  1721.5000     38.4158     36.0143     28.8982     40.7286
  1721.7500     40.1874     35.7640     29.6483     37.5662
  1722.0000     41.7396     35.5420     30.3673     34.0881
  1722.2500     43.0885     35.3684     30.9936     32.7705
  1722.5000     44.3357     35.2401     31.4920     32.4865
  1722.7500     45.5696     35.1377     31.8845     33.1924
  1723.0000     46.7116     35.0389     32.2343     34.4852
  1723.2500     47.5192     34.9286     32.5959     34.7622
  1723.5000     47.8498     34.7992     32.9791     33.6699
  1723.7500     47.8230     34.6476     33.3488     32.1471
  1724.0000     47.6276     34.4733     33.6523     29.7645
  1724.2500     47.3276     34.2784     33.8466     28.7760
  1724.5000     46.9183     34.0673     33.9137     28.6290
  1724.7500     46.4420     33.8470     33.8655     29.1557
  1725.0000     45.9898     33.6285     33.7400     30.0626
  1725.2500     45.6174     33.4287     33.5833     30.4334
  1725.5000     45.2802     33.2687     33.4184     30.6218
  1725.7500     44.8645     33.1673     33.2268     30.6746
  1726.0000     44.2926     33.1345     32.9643     31.0133
  1726.2500     43.5959     33.1694     32.5970     31.5763
  1726.5000     42.9062     33.2611     32.1216     32.8624
  1726.7500     42.3686     33.3907     31.5566     33.7146
  1727.0000     42.0418     33.5383     30.9230     34.4286
  1727.2500     41.8871     33.6919     30.2373     34.4885
