~Version Information
VERS.                      2.0: CWLS Log ASCII Standard - VERSION 2.0
WRAP.                       NO: One line per depth step
~Well Information Block
STRT.FT               245.0000: 
STOP.FT              1006.0000: 
STEP.FT                 0.1000: 
NULL.                -999.2500: 
COMP.          Pioneer Natural Resources: COMPANY
WELL.              Atlas 32-18: WELL
FLD.           Purgatoire River: FIELD
LOC.           1892' FNL & 1456' FEL: LOCATION
PROV.                 Colorado: PROVINCE
CNTY.               Las Animas: COUNTRY
SRVC.                Patterson: SERVICE COMPANY
DATE.          Mon Nov 21 08:58:56 2005: LOG DATE
UWI.           05 071 08556 00: UNIQUE WELL ID
~Curve Information Block
DEPT.FT            0 000 00 00: Depth
DCAL.in                       : CDL Caliper
RHOB.g/cc                     : CDL Bulk Density
RHOC.g/cc                     : CDL Density Correction
DPOR.pu                       : CDL Density Porosity
GR.GAPI                       : Gamma Ray
NPOR.pu                       : Neutron Porosity
~Parameter Information Block
~A  Depth       DCAL        RHOB        RHOC        DPOR         GR         NPOR    
# ...
   744.2000      8.0047      2.1767      0.0333     28.6846     79.0622     31.1310
   744.3000      8.0068      2.2177      0.0858     26.2022     84.0429     30.4614
   744.4000      8.0068      2.2719      0.1428     22.9153     87.6136     29.8561
   744.5000      8.0476      2.3221      0.1660     19.8746     90.6229     29.5194
   744.6000      8.0476      2.3606      0.1165     17.5405     94.8011     29.8232
   744.7000      8.0476      2.3891      0.2027     15.8092     97.2406     30.7677
   744.8000      8.0457      2.3995      0.1367     15.1812     96.4756     31.9664
   744.9000      8.0457      2.3933      0.0816     15.5582     97.4465     32.8631
   745.0000      8.0093      2.3846      0.0669     16.0853    102.4149     32.8836
   745.1000      8.0093      2.3748      0.0376     16.6790    106.5780     31.9939
   745.2000      8.0093      2.3518      0.0709     18.0714    105.7166     30.7907
   745.3000      8.0258      2.3139      0.0477     20.3725    100.6913     29.7746
   745.4000      8.0258      2.2725      0.0674     22.8805     98.5949     29.3912
   745.5000      8.0894      2.2264      0.0772     25.6738    104.1206     29.7113
   745.6000      8.0894      2.1632      0.1100     29.5008    111.7567     30.1196
   745.7000      8.0894      2.0801      0.0325     34.5400    112.1007     30.1169
   745.8000      8.1756      1.9832      0.0323     40.4131    102.8568     30.3838
   745.9000      8.1756      1.8822      0.0089     46.5333     92.7182     31.5009
   746.0000      8.2004      1.7957     -0.0306     51.7746     86.0839     32.3513
   746.1000      8.2004      1.7353      0.0161     55.4365     80.7155     31.6929
   746.2000      8.2004      1.6885      0.0487     58.2709     77.9183     29.9388
   746.3000      8.2486      1.6423      0.0598     61.0755     78.0045     28.4306
   746.4000      8.2486      1.6024      0.0242     63.4909     79.4894     28.1704
   746.5000      8.2838      1.5788      0.0336     64.9189     83.0156     29.2463
   746.6000      8.2838      1.5676      0.0791     65.5980     87.8023     30.9654
   746.7000      8.2838      1.5609      0.0368     66.0050     87.8617     32.1606
   746.8000      8.2030      1.5662     -0.0172     65.6824     82.6513     32.6302
   746.9000      8.2030      1.5979      0.0019     63.7614     82.1577     33.3013
   747.0000      8.1817      1.6595      0.0201     60.0283     88.9098     34.3808
   747.1000      8.1817      1.7443      0.1057     54.8909     93.2962     34.8756
   747.2000      8.1817      1.8470      0.1258     48.6660     91.0063     34.3608
   747.3000      8.0449      1.9637      0.1916     41.5959     88.0341     33.5814
   747.4000      8.0449      2.0793      0.2436     34.5907     87.5002     32.7595
   747.5000      8.0238      2.1833      0.2267     28.2846     88.3313     31.8138
   747.6000      8.0238      2.2759      0.2106     22.6734     91.2258     30.9447
   747.7000      8.0238      2.3489      0.1833     18.2460     95.3970     30.2458
   747.8000      8.0632      2.3980      0.1274     15.2741     97.0929     29.7271
   747.9000      8.0632      2.4295      0.1162     13.3636     97.4063     29.3922
   748.0000      8.0416      2.4446      0.1565     12.4499     99.0888     29.4382
   748.1000      8.0416      2.4455      0.1459     12.3931     99.4248     29.9374
   748.2000      8.0416      2.4456      0.1178     12.3884     99.2191     30.4584
   748.3000      8.0072      2.4543      0.1108     11.8578    102.6199     30.6973
   748.4000      8.0072      2.4716      0.1395     10.8132    107.1194     30.9711
   748.5000      8.0111      2.4963      0.1052      9.3122    107.3343     31.5199
   748.6000      8.0111      2.5239      0.1277      7.6425    104.2293     31.5279
   748.7000      8.0111      2.5425      0.1252      6.5181    103.5775     30.5087
   748.8000      8.0675      2.5504      0.1286      6.0344    106.1038     29.2342
   748.9000      8.0675      2.5526      0.1187      5.9012    106.1805     28.3687
   749.0000      8.1116      2.5420      0.1177      6.5471     99.7433     28.0869
   749.1000      8.1116      2.5155      0.0643      8.1492     91.5373     28.4191
   749.2000      8.1116      2.4916      0.0265      9.6001     89.7247     28.8375
   749.3000      8.0238      2.4837      0.0380     10.0787     92.4980     29.0255
   749.4000      8.0238      2.4795      0.0124     10.3322     93.8074     29.4630
   749.5000      7.9833      2.4661      0.0224     11.1449     95.5044     29.9372
   749.6000      7.9833      2.4505      0.0094     12.0926    103.1513     29.9146
   749.7000      7.9833      2.4474      0.0054     12.2770    112.3782     29.5824
   749.8000      8.0066      2.4607      0.0224     11.4705    114.0656     29.3609
   749.9000      8.0066      2.4741      0.0567     10.6626    109.1261     29.3281
   750.0000      7.9965      2.4731      0.0666     10.7234    105.3203     29.8118
   750.1000      7.9965      2.4602      0.0828     11.5035    106.9228     30.8977
   750.2000      7.9965      2.4467      0.0336     12.3184    109.6324     31.3801
   750.3000      7.9873      2.4445      0.0475     12.4542    111.0305     30.3968
   750.4000      7.9873      2.4499      0.0375     12.1260    111.1578     29.0748
   750.5000      7.9986      2.4488      0.0567     12.1946    108.1822     29.0350
   750.6000      7.9986      2.4388      0.0547     12.8000    103.8754     30.0600
   750.7000      7.9986      2.4281      0.0126     13.4477    100.2413     30.6764
   750.8000      8.0045      2.4210     -0.0204     13.8777     97.7669     30.4129
   750.9000      8.0045      2.4220      0.0064     13.8172     97.5404     29.9554
   751.0000      7.9852      2.4331      0.0475     13.1480    100.0355     29.3398
   751.1000      7.9852      2.4468      0.0667     12.3165    102.8438     28.4340
   751.2000      7.9852      2.4582      0.0574     11.6253    104.0583     27.9503
   751.3000      8.0298      2.4678      0.0508     11.0416    107.1532     28.4388
   751.4000      8.0298      2.4747      0.0516     10.6268    110.5767     29.4319
   751.5000      7.9597      2.4844      0.0398     10.0335    107.4986     29.8630
   751.6000      7.9597      2.5099      0.0831      8.4912     99.8061     29.2986
   751.7000      7.9597      2.5444      0.1362      6.4012     95.5541     28.7917
   751.8000      7.8784      2.5609      0.1787      5.4010     98.3009     28.6723
   751.9000      7.8784      2.5508      0.0937      6.0091    103.9449     27.9366
   752.0000      7.8692      2.5392      0.0637      6.7130    106.7589     26.6883
   752.1000      7.8692      2.5432      0.0964      6.4699    106.8406     25.9675
   752.2000      7.8692      2.5492      0.0783      6.1103    105.5268     26.0405
   752.3000      7.8560      2.5386      0.1097      6.7502    100.8071     26.5434
   752.4000      7.8560      2.5099      0.0500      8.4932     94.8490     26.9086
   752.5000      7.8806      2.4833      0.0144     10.1032     94.5558     26.7083
   752.6000      7.8806      2.4847      0.0135     10.0171     99.9464     26.1949
   752.7000      7.8806      2.5115      0.0426      8.3936    103.0389     25.6864
   752.8000      7.9181      2.5361      0.1081      6.9007    100.5545     25.0317
   752.9000      7.9181      2.5469      0.0988      6.2496     96.2636     24.1893
   753.0000      7.9189      2.5603      0.1222      5.4362     89.8685     23.7420
   753.1000      7.9189      2.5846      0.1588      3.9621     80.3506     23.7293
   753.2000      7.9189      2.6073      0.1753      2.5873     75.0087     23.5837
   753.3000      7.8289      2.6179      0.1841      1.9451     80.0440     23.4716
   753.4000      7.8289      2.6133      0.1993      2.2244     89.2035     23.9120
   753.5000      7.8153      2.5947      0.1359      3.3532     94.8240     24.2984
   753.6000      7.8153      2.5685      0.1287      4.9397     98.6496     24.0805
   753.7000      7.8153      2.5466      0.0779      6.2642    103.3344     24.2187
