~Version Information
VERS.                      2.0: CWLS Log ASCII Standard - VERSION 2.0
WRAP.                       NO: One line per depth step
~Well Information Block
STRT.FT               830.0000: 
STOP.FT              1782.5000: 
STEP.FT                 0.1000: 
NULL.                -999.2500: 
COMP.          Pioneer Natural Resources: COMPANY
WELL.          Manville 42-14 Tr: WELL
FLD.           Purgatoire River: FIELD
LOC.           2018 FNL & 562' FEL: LOCATION
STAT.                 Colorado: State
CNTY.               Las Animas: COUNTY
CTRY. USA : Country
SECT. 14 : Section
TOWN. 32S : Township
RANG. 66W : Range
SRVC.                Patterson: SERVICE COMPANY
DATE.          Mon Sep 19 09:44:06 2005: LOG DATE
API.           05 071 08522 00: UNIQUE WELL ID
~Curve Information Block
DEPT.FT            0 000 00 00: Depth
DCAL.in                       : CDL Caliper
RHOB.g/cc                     : CDL Bulk Density
RHOC.g/cc                     : CDL Density Correction
DPOR.pu                       : CDL Density Porosity
GR.GAPI                       : Gamma Ray
NPOR.pu                       : Neutron Porosity
~Parameter Information Block
~A  Depth       DCAL        RHOB        RHOC        DPOR         GR         NPOR    
# ...
  1079.6000      8.5566      1.5265      0.2253     68.0887     89.0073     14.6632
  1079.7000      8.5566      1.5589      0.2417     66.1290     88.5108     15.6333
  1079.8000      8.5643      1.5819      0.1468     64.7330     85.2579     16.7530
  1079.9000      8.5643      1.5985      0.0660     63.7261     84.7965     17.8523
  1080.0000      8.5234      1.6436      0.1130     60.9925     86.6592     18.7667
  1080.1000      8.5234      1.7233      0.1579     56.1649     84.5543     19.2208
  1080.2000      8.5234      1.8008      0.2905     51.4696     80.7336     19.0880
  1080.3000      8.4285      1.8309      0.3215     49.6422     79.3893     18.5408
  1080.4000      8.4285      1.8020      0.2448     51.3944     77.8474     17.9649
  1080.5000      8.2951      1.7378      0.1741     55.2833     76.9074     17.7452
  1080.6000      8.2951      1.6623      0.1389     59.8613     80.6885     17.8723
  1080.7000      8.2951      1.5894      0.0236     64.2786     87.3160     18.0912
  1080.8000      8.2861      1.5471     -0.0933     66.8417     94.7140     18.3357
  1080.9000      8.2861      1.5677     -0.0355     65.5953    101.5248     18.5454
  1081.0000      8.3218      1.6539      0.0490     60.3715    104.2144     19.0933
  1081.1000      8.3218      1.7805      0.2452     52.6953    102.5226     20.5421
  1081.2000      8.3218      1.9163      0.3263     44.4684     99.8783     22.3766
  1081.3000      8.3748      2.0377      0.3252     37.1089     98.2960     23.5638
  1081.4000      8.3748      2.1378      0.3249     31.0431     96.2798     24.0865
  1081.5000      8.4615      2.2273      0.2546     25.6163     92.3920     24.4349
  1081.6000      8.4615      2.2993      0.2459     21.2570     90.9598     24.4702
  1081.7000      8.4615      2.3049      0.2196     20.9175     95.5870     23.9382
  1081.8000      8.4472      2.2119      0.0699     26.5529    103.3954     23.2397
  1081.9000      8.4472      2.0530     -0.0031     36.1815    113.3025     22.8723
  1082.0000      8.2031      1.8978     -0.0566     45.5852    124.8654     22.8457
  1082.1000      8.2031      1.8049     -0.0906     51.2152    134.3078     23.0428
  1082.2000      8.2031      1.7919     -0.0952     52.0071    138.2481     23.3059
  1082.3000      8.1171      1.8396      0.0195     49.1125    136.8875     23.4848
  1082.4000      8.1171      1.9332      0.0451     43.4427    135.4659     23.9348
  1082.5000      8.0843      2.0745      0.2177     34.8810    135.7442     25.1028
  1082.6000      8.0843      2.2410      0.4568     24.7893    132.2728     26.5726
  1082.7000      8.0843      2.3853      0.4731     16.0453    123.1572     27.4944
  1082.8000      8.1201      2.4665      0.5015     11.1238    114.1941     27.6367
  1082.9000      8.1201      2.4746      0.3145     10.6324    110.4398     27.4119
  1083.0000      8.2199      2.4530      0.0696     11.9392    108.9759     27.2257
  1083.1000      8.2199      2.4523      0.0347     11.9846    107.3788     27.3066
  1083.2000      8.2199      2.4796     -0.0042     10.3290    106.9593     27.5084
  1083.3000      8.1767      2.5190      0.0814      7.9370    107.7250     27.4558
  1083.4000      8.1767      2.5556      0.0616      5.7229    109.6161     27.2264
  1083.5000      8.1445      2.5841      0.0688      3.9911    110.8679     26.9580
  1083.6000      8.1445      2.6054      0.1076      2.7039    110.2677     26.5540
  1083.7000      8.1445      2.6211      0.1457      1.7524    111.0023     26.1851
  1083.8000      8.1018      2.6354      0.1167      0.8848    113.0421     26.0423
  1083.9000      8.1018      2.6451      0.1436      0.2994    110.9973     26.1149
  1084.0000      8.0286      2.6342      0.1177      0.9594    105.7151     26.1108
  1084.1000      8.0286      2.6003      0.0672      3.0139    103.1653     25.6974
  1084.2000      8.0286      2.5671      0.0073      5.0230    103.8115     24.9803
  1084.3000      8.0314      2.5518      0.0418      5.9534    104.2362     24.3329
  1084.4000      8.0314      2.5482     -0.0202      6.1713    103.4189     23.9871
  1084.5000      8.0785      2.5461     -0.0079      6.2955     99.5702     23.6725
  1084.6000      8.0785      2.5365     -0.0038      6.8800     92.6498     23.0703
  1084.7000      8.0785      2.5142      0.0137      8.2329     88.7702     22.4617
  1084.8000      8.1194      2.4907     -0.0189      9.6520     91.8010     22.2682
  1084.9000      8.1194      2.4867     -0.0270      9.8957     96.1799     22.2828
  1085.0000      8.1371      2.5015      0.0175      8.9981     93.7846     21.9842
  1085.1000      8.1371      2.5152      0.0416      8.1716     87.3093     21.4247
  1085.2000      8.1371      2.5164      0.0664      8.0951     86.6047     21.0654
  1085.3000      8.1055      2.5082      0.0314      8.5967     93.8527     20.9990
  1085.4000      8.1055      2.5015      0.0071      9.0016    100.3015     21.0464
  1085.5000      8.0922      2.5083     -0.0097      8.5882     97.8077     21.3178
  1085.6000      8.0922      2.5298      0.0325      7.2873     89.2007     21.7908
  1085.7000      8.0922      2.5549      0.0531      5.7612     83.8424     21.9436
  1085.8000      8.0701      2.5770      0.0388      4.4258     86.1961     21.6821
  1085.9000      8.0701      2.5987      0.0612      3.1089     89.8800     21.5609
  1086.0000      8.0813      2.6151      0.1199      2.1149     88.8695     21.8453
  1086.1000      8.0813      2.6099      0.1281      2.4304     86.5547     22.0328
  1086.2000      8.0813      2.5807      0.0551      4.2021     85.2013     21.7843
  1086.3000      8.1024      2.5523     -0.0224      5.9187     82.0245     21.4607
  1086.4000      8.1024      2.5411      0.0196      6.6007     77.5546     21.2340
  1086.5000      8.1080      2.5301      0.0521      7.2690     73.8875     21.1441
  1086.6000      8.1080      2.5102      0.0104      8.4697     70.7678     21.3089
  1086.7000      8.1080      2.4991     -0.0110      9.1441     68.6086     21.4794
  1086.8000      8.1144      2.5075      0.0348      8.6383     68.7245     21.5109
  1086.9000      8.1144      2.5259      0.0300      7.5242     69.6087     21.5175
  1087.0000      8.1229      2.5382      0.0795      6.7757     70.8318     21.3916
  1087.1000      8.1229      2.5336      0.0676      7.0540     75.3079     21.1218
  1087.2000      8.1229      2.5198      0.0245      7.8914     79.4086     20.7733
  1087.3000      8.1050      2.5154      0.0367      8.1552     78.1625     20.4880
  1087.4000      8.1050      2.5268      0.0292      7.4681     76.2979     20.4698
  1087.5000      8.0988      2.5426      0.0907      6.5094     79.2167     20.5230
  1087.6000      8.0988      2.5530      0.0416      5.8785     82.9347     20.3123
  1087.7000      8.0988      2.5625      0.0490      5.3032     82.3168     20.1755
  1087.8000      8.0995      2.5710      0.0953      4.7862     77.5895     20.5698
  1087.9000      8.0995      2.5706      0.0658      4.8144     71.4298     21.0640
  1088.0000      8.1023      2.5576      0.0589      5.6004     67.0694     20.9169
  1088.1000      8.1023      2.5339      0.0871      7.0373     66.9206     20.2660
  1088.2000      8.1023      2.5141     -0.0091      8.2334     69.8720     19.9095
  1088.3000      8.1095      2.5184      0.0223      7.9759     71.7161     20.0636
  1088.4000      8.1095      2.5431      0.0624      6.4792     70.8201     20.1673
  1088.5000      8.1195      2.5624      0.0610      5.3098     72.6941     19.9957
  1088.6000      8.1195      2.5581      0.0445      5.5703     78.5870     19.9532
  1088.7000      8.1195      2.5339      0.0454      7.0346     79.7304     20.1233
  1088.8000      8.1126      2.5056      0.0052      8.7538     76.2140     20.1789
  1088.9000      8.1126      2.4879     -0.0435      9.8269     74.2324     19.9669
  1089.0000      8.1076      2.4845      0.0191     10.0318     71.4933     19.6007
  1089.1000      8.1076      2.4944      0.0011      9.4328     67.2251     19.2678
