~Version Information
VERS.                      2.0: CWLS Log ASCII Standard - VERSION 2.0
WRAP.                       NO: One line per depth step
~Well Information Block
STRT.FT               520.0000: 
STOP.FT              2555.2500: 
STEP.FT                 0.2500: 
NULL.                -999.2500: 
COMP.          Pioneer Natural Resources: COMPANY
WELL.          Horsefeathers 24-34: WELL
FLD.           Purgatoire River: FIELD
LOC.           183' FSL & 1570' FWL--: LOCATION
CNTY.               Las Animas: COUNTY
SRVC.                Patterson: SERVICE COMPANY
DATE.          Sun Feb 05 17:35:59 2006: LOG DATE
UWI.           05 071 08675 00: UNIQUE WELL ID
STAT.                 Colorado: STATE
~Curve Information Block
DEPT.FT            0 000 00 00: Depth
SN.Ohm-m                      : IEL Short Normal
SP.mV                         : IEL Spontaneous Potential
DIR.Ohm-m                     : IEL Induction Resistivity
GR.GAPI                       : Gamma Ray
~Parameter Information Block
NPORSHIFT.              0.0000: NPORSHIFT
~A  Depth        SN          SP         DIR          GR     
# ...
  1726.0000     28.7005      6.3449     24.2815     52.5792
  1726.2500     28.8392      6.4155     24.2182     52.5161
  1726.5000     28.9694      6.4400     24.2740     53.2041
  1726.7500     29.0603      6.4053     24.4470     54.0490
  1727.0000     29.0582      6.3012     24.6982     55.7762
  1727.2500     28.8881      6.1238     24.9503     57.0718
  1727.5000     28.4661      5.8779     25.1028     58.8825
  1727.7500     27.7237      5.5771     25.0551     60.0011
  1728.0000     26.6393      5.2426     24.7287     62.3623
  1728.2500     25.2638      4.8989     24.0884     65.3491
  1728.5000     23.7232      4.5688     23.1652     73.6526
  1728.7500     22.1914      4.2691     22.0624     82.0877
  1729.0000     20.8422      4.0073     20.9264     97.9203
  1729.2500     19.8016      3.7811     19.8937    109.1631
  1729.5000     19.1214      3.5793     19.0511    124.4823
  1729.7500     18.7830      3.3846     18.4279    132.4625
  1730.0000     18.7306      3.1768     18.0135    139.5307
  1730.2500     18.9195      2.9364     17.7830    140.3653
  1730.5000     19.3521      2.6474     17.7167    135.6742
  1730.7500     20.0827      2.2999     17.8086    129.2792
  1731.0000     21.1922      1.8923     18.0650    116.9831
  1731.2500     22.7390      1.4318     18.4967    108.2439
  1731.5000     24.6919      0.9351     19.1071     95.5798
  1731.7500     26.8725      0.4264     19.8753     87.8518
  1732.0000     28.9691     -0.0648     20.7384     78.4823
  1732.2500     30.6425     -0.5080     21.5812     74.6540
  1732.5000     31.6468     -0.8757     22.2451     73.5366
  1732.7500     31.8757     -1.1470     22.5640     75.7536
  1733.0000     31.3342     -1.3103     22.4178     82.5551
  1733.2500     30.1050     -1.3640     21.7789     88.7680
  1733.5000     28.3378     -1.3164     20.7248     99.3933
  1733.7500     26.2324     -1.1833     19.4071    106.5551
  1734.0000     23.9938     -0.9855     17.9974    116.4847
  1734.2500     21.7827     -0.7457     16.6391    122.5087
  1734.5000     19.6972     -0.4861     15.4250    130.8596
  1734.7500     17.7955     -0.2265     14.3971    135.8297
  1735.0000     16.1321      0.0167     13.5598    141.6602
  1735.2500     14.7744      0.2306     12.8951    143.9905
  1735.5000     13.7866      0.4061     12.3756    144.6179
  1735.7500     13.1888      0.5372     11.9716    143.3307
  1736.0000     12.9236      0.6222     11.6556    140.6215
  1736.2500     12.8578      0.6637     11.4030    139.6561
  1736.5000     12.8299      0.6700     11.1916    140.2831
  1736.7500     12.7167      0.6542     11.0013    141.2906
  1737.0000     12.4771      0.6339     10.8140    141.7655
  1737.2500     12.1471      0.6276     10.6159    141.0533
  1737.5000     11.7944      0.6518     10.4006    139.7326
  1737.7500     11.4692      0.7174     10.1696    139.8955
  1738.0000     11.1854      0.8272      9.9290    142.8015
  1738.2500     10.9372      0.9751      9.6839    146.0980
  1738.5000     10.7233      1.1464      9.4366    151.3599
  1738.7500     10.5552      1.3202      9.1871    154.3055
  1739.0000     10.4472      1.4722      8.9376    157.4872
  1739.2500     10.4026      1.5775      8.6942    158.8106
  1739.5000     10.4081      1.6142      8.4672    159.7019
  1739.7500     10.4388      1.5659      8.2686    159.7536
  1740.0000     10.4674      1.4242      8.1089    159.4379
  1740.2500     10.4738      1.1907      7.9944    158.9445
  1740.5000     10.4471      0.8784      7.9276    157.2433
  1740.7500     10.3848      0.5116      7.9086    155.3807
  1741.0000     10.2871      0.1247      7.9362    152.3499
  1741.2500     10.1520     -0.2413      8.0091    150.8378
  1741.5000      9.9731     -0.5449      8.1231    149.5000
  1741.7500      9.7478     -0.7508      8.2708    148.6172
  1742.0000      9.4906     -0.8371      8.4418    145.9503
  1742.2500      9.2471     -0.7995      8.6280    142.8727
  1742.5000      9.0986     -0.6517      8.8275    136.7463
  1742.7500      9.1511     -0.4219      9.0463    132.3728
  1743.0000      9.4958     -0.1460      9.2943    126.4658
  1743.2500     10.1492      0.1400      9.5781    123.2018
  1743.5000     11.0102      0.4058      9.8953    119.4358
  1743.7500     11.8803      0.6292     10.2320    117.9518
  1744.0000     12.5505      0.7966     10.5637    117.9422
  1744.2500     12.8948      0.9008     10.8617    119.5003
  1744.5000     12.9080      0.9386     11.1003    123.4607
  1744.7500     12.6754      0.9102     11.2638    126.5163
  1745.0000     12.3133      0.8186     11.3492    130.9263
  1745.2500     11.9255      0.6699     11.3658    133.6911
  1745.5000     11.5913      0.4727     11.3312    137.8349
  1745.7500     11.3679      0.2377     11.2671    140.5432
  1746.0000     11.2890     -0.0247     11.1945    143.8259
  1746.2500     11.3553     -0.3058     11.1296    145.1138
  1746.5000     11.5321     -0.5995     11.0828    145.7985
  1746.7500     11.7642     -0.9028     11.0600    145.6979
  1747.0000     12.0002     -1.2146     11.0644    144.4923
  1747.2500     12.2111     -1.5350     11.0990    142.3228
  1747.5000     12.3928     -1.8638     11.1679    136.1788
  1747.7500     12.5590     -2.1998     11.2767    130.6821
  1748.0000     12.7323     -2.5407     11.4306    122.9307
  1748.2500     12.9338     -2.8835     11.6318    119.4430
  1748.5000     13.1706     -3.2250     11.8769    116.9139
  1748.7500     13.4292     -3.5629     12.1535    116.1871
  1749.0000     13.6808     -3.8962     12.4384    115.3102
  1749.2500     13.8963     -4.2249     12.6983    114.6878
  1749.5000     14.0573     -4.5501     12.8934    113.8505
  1749.7500     14.1532     -4.8734     12.9866    113.5964
  1750.0000     14.1689     -5.1958     12.9521    114.5390
  1750.2500     14.0801     -5.5173     12.7819    116.6247
  1750.5000     13.8628     -5.8364     12.4863    122.0099
  1750.7500     13.5086     -6.1507     12.0907    126.3557
  1751.0000     13.0321     -6.4575     11.6294    132.1953
  1751.2500     12.4624     -6.7547     11.1366    135.0888
  1751.5000     11.8287     -7.0424     10.6401    138.6405
  1751.7500     11.1536     -7.3229     10.1593    141.4185
  1752.0000     10.4621     -7.6006      9.7077    146.8672
  1752.2500      9.7908     -7.8820      9.2956    150.6664
  1752.5000      9.1868     -8.1745      8.9323    154.7436
  1752.7500      8.6966     -8.4862      8.6253    155.9433
  1753.0000      8.3576     -8.8251      8.3800    156.1049
  1753.2500      8.1909     -9.1992      8.1989    155.5147
  1753.5000      8.1918     -9.6150      8.0802    153.2758
  1753.7500      8.3195    -10.0760      8.0178    150.4375
  1754.0000      8.5029    -10.5813      8.0023    144.0659
  1754.2500      8.6725    -11.1251      8.0223    138.9858
  1754.5000      8.8057    -11.6971      8.0673    131.7075
  1754.7500      8.9422    -12.2853      8.1309    127.9221
  1755.0000      9.1509    -12.8777      8.2115    124.8531
  1755.2500      9.4700    -13.4652      8.3123    124.9193
  1755.5000      9.8704    -14.0415      8.4376    128.0962
  1755.7500     10.2697    -14.6038      8.5890    131.5114
  1756.0000     10.5796    -15.1520      8.7624    136.5062
  1756.2500     10.7505    -15.6898      8.9467    138.6852
  1756.5000     10.7795    -16.2258      9.1238    139.2595
  1756.7500     10.6936    -16.7747      9.2713    137.7607
  1757.0000     10.5316    -17.3564      9.3686    133.3394
  1757.2500     10.3367    -17.9930      9.4057    129.8002
  1757.5000     10.1518    -18.7039      9.3884    125.5277
  1757.7500     10.0140    -19.5007      9.3365    124.3958
  1758.0000      9.9485    -20.3841      9.2755    126.3283
  1758.2500      9.9637    -21.3435      9.2279    130.0935
  1758.5000     10.0475    -22.3601      9.2087    138.4761
  1758.7500     10.1723    -23.4115      9.2251    144.7858
  1759.0000     10.3121    -24.4760      9.2797    153.2191
  1759.2500     10.4580    -25.5369      9.3740    157.2522
