~Version Information
 VERS.                                  2.0 : CWLS LAS VERSION
 WRAP.                                   NO : WRAPING MODE
 SWARE .                MController 2.5.0QA : SOFTWARE VERSION
~Well Information
 WELL.                          Ernie 31-06 : WELL
 COMP.     Pioneer Natural Resources USA Inc: COMPANY
 FLD.                      Purgatoire River : FIELD
 LOC.                NW/NE Sec 06 T34S R65W : LOCATION
 DATE.                           5/27-28/06 : DATE(S) LOGGED
 SRVC.       Blanco Geological Services LLC : SERVICE COMPANY
 STAT.                                   CO : STATE
 CNTY.                           Las Animas : COUNTY
 CTRY.                                  USA : COUNTRY
 API.                       05-071-08716-00 : API NUMBER
 STRT.FT                             172.00 : START DEPTH
 STOP.FT                             940.00 : STOP DEPTH
 STEP.FT                               1.00 : DEPTH INCREMENT
 NULL.                                -9999 : NULL VALUE
~Curve information
 DEPTH.FT                                   :
 ROP.MIN/FT                                 :
 GAS.UNITS                                  :
~ASCII Log data
       172.0     -9999.00          0.9 
       173.0         0.13          1.0 
       174.0         0.13          1.3 
       175.0         0.13          1.2 
       176.0         0.18          0.9 
       177.0         0.13          1.0 
       178.0         0.13          1.4 
       179.0         0.13          1.4 
       180.0         0.13          1.1 
       181.0         0.13          0.6 
       182.0         0.13          0.9 
       183.0         0.13          0.7 
       184.0         0.13          1.2 
       185.0         0.13          0.9 
       186.0         0.17          0.5 
       187.0         0.20          1.1 
       188.0         0.17          1.3 
       189.0         0.17          1.3 
       190.0         0.17          0.9 
       191.0         0.17          0.9 
       192.0         0.20          1.5 
       193.0         0.17          0.9 
       194.0         0.20          1.4 
       195.0         0.17          1.3 
       196.0         0.20          0.8 
       197.0         0.18          1.6 
       198.0         0.20          1.1 
       199.0         0.20          1.2 
       200.0         0.17          1.6 
       201.0         0.23          1.6 
       202.0         3.18          2.6 
       203.0         0.13          2.3 
       204.0         0.17          2.1 
       205.0         0.17          2.2 
       206.0         0.17          2.2 
       207.0         0.17          2.3 
       208.0         0.17          2.2 
       209.0         0.17          2.2 
       210.0         0.17          2.7 
       211.0         0.17          2.4 
       212.0         0.17          2.8 
       213.0         0.17          2.7 
       214.0         0.20          2.7 
       215.0         0.17          2.7 
       216.0         0.17          2.6 
       217.0         0.20          3.0 
       218.0         0.18          2.8 
       219.0         0.17          2.8 
       220.0         0.20          2.9 
       221.0         0.20          3.1 
       222.0         0.17          3.1 
       223.0         0.17          3.5 
       224.0         0.17          2.7 
       225.0         0.17          2.9 
       226.0         0.17          3.0 
       227.0         0.17          2.8 
       228.0         0.17          3.8 
       229.0         0.17          3.0 
       230.0         0.20          3.6 
       231.0         0.20          3.3 
       232.0         2.72          3.7 
       233.0         0.13          3.6 
       234.0         0.17          3.3 
       235.0         0.13          3.3 
       236.0         0.17          3.5 
       237.0         0.13          4.0 
       238.0         0.17          3.6 
       239.0         0.13          3.5 
       240.0         0.17          3.5 
       241.0         0.17          4.5 
       242.0         0.13          4.1 
       243.0         0.18          5.0 
       244.0         0.13          4.6 
       245.0         0.17          4.2 
       246.0         0.17          4.2 
       247.0         0.17          4.1 
       248.0         0.13          4.6 
       249.0         0.17          4.6 
       250.0         0.17          4.0 
       251.0         0.13          4.0 
       252.0         0.17          4.1 
       253.0         0.13          3.9 
       254.0         0.20          3.9 
       255.0         0.17          3.9 
       256.0         0.17          3.6 
       257.0         0.17          3.6 
       258.0         0.20          4.2 
       259.0         0.20          4.4 
       260.0         0.20          4.7 
       261.0         0.30          4.5 
       262.0         2.65          5.0 
       263.0         0.27          3.7 
       264.0         0.17          4.1 
       265.0         0.13          4.5 
       266.0         0.17          4.2 
       267.0         0.18          4.2 
       268.0         0.17          4.3 
       269.0         0.13          4.1 
       270.0         0.17          4.1 
       271.0         0.13          4.1 
       272.0         0.20          4.0 
       273.0         0.23          4.1 
       274.0         0.23          4.1 
       275.0         0.27          5.2 
       276.0         0.30          5.3 
       277.0         0.27          5.3 
       278.0         0.20          5.6 
       279.0         0.17          4.5 
       280.0         0.20          4.5 
       281.0         0.17          5.2 
       282.0         0.23          4.2 
       283.0         0.25          3.9 
       284.0         0.23          4.3 
       285.0         0.23          4.7 
       286.0         0.23          4.2 
       287.0         0.27          3.6 
       288.0         0.30          3.5 
       289.0         0.37          3.6 
       290.0         0.63          5.3 
       291.0         0.37          5.3 
       292.0         2.35          5.7 
       293.0         0.33          5.7 
       294.0         0.20          5.3 
       295.0         0.23          5.0 
       296.0         0.23          5.1 
       297.0         0.23          5.0 
       298.0         0.27          4.6 
       299.0         0.45          5.2 
       300.0         0.50          6.2 
       301.0         0.37          5.5 
       302.0         0.33          4.9 
       303.0         0.30          5.2 
       304.0         0.30          4.7 
       305.0         0.27          5.0 
       306.0         0.23          5.5 
       307.0         0.23          4.5 
       308.0         0.20          4.6 
       309.0         0.32          4.9 
       310.0         0.23          4.7 
       311.0         0.23          5.5 
       312.0         0.27          4.6 
       313.0         0.27          4.7 
       314.0         0.23          4.4 
       315.0         0.23          4.8 
       316.0         0.23         10.3 
       317.0         0.23          4.3 
       318.0         0.20         13.4 
       319.0         0.23         13.4 
       320.0         0.27          4.3 
       321.0         0.27         13.5 
       322.0         3.18         10.3 
       323.0         0.30          5.4 
       324.0         0.32          5.9 
       325.0         0.33          5.7 
       326.0         0.27         10.3 
       327.0         0.30          6.0 
       328.0         0.30          5.5 
       329.0         0.23          4.6 
       330.0         0.23          6.0 
       331.0         0.23          5.0 
       332.0         0.27          5.1 
       333.0         0.33          5.2 
       334.0         0.23          5.1 
       335.0         0.23          5.1 
       336.0         0.27          4.8 
       337.0         0.22          5.1 
       338.0         0.23          5.2 
       339.0         0.20          5.6 
       340.0         0.23          5.4 
       341.0         0.30          6.8 
       342.0         0.20         11.1 
       343.0         0.23         13.3 
       344.0         0.27         14.3 
       345.0         0.27         12.1 
       346.0         0.20          8.7 
       347.0         0.20          8.7 
       348.0         0.23          7.9 
       349.0         0.20          6.6 
       350.0         0.20          5.9 
       351.0         0.20         27.0 
       352.0         3.40         55.4 
       353.0         0.27         12.3 
       354.0         0.27         12.8 
       355.0         0.30         13.9 
       356.0         0.33         15.1 
       357.0         0.40         14.1 
       358.0         0.47         13.3 
       359.0         0.33         11.9 
       360.0         0.27         11.8 
       361.0         0.17         11.0 
       362.0         0.17         10.6 
       363.0         0.23         10.6 
       364.0         0.28         10.5 
       365.0         0.27         10.4 
       366.0         0.20         10.4 
       367.0         0.20         10.4 
       368.0         0.23         10.3 
       369.0         0.23         11.2 
       370.0         0.20         11.2 
       371.0         0.23         10.2 
