~Version Information
VERS.                      2.0: CWLS Log ASCII Standard - VERSION 2.0
WRAP.                       NO: One line per depth step
~Well Information Block
STRT.FT               570.0000: 
STOP.FT              2090.5000: 
STEP.FT                 0.1000: 
NULL.                -999.2500: 
COMP.          XTO Energy Inc.: COMPANY
WELL.          Golden Eagle 19-10: WELL
FLD.           Purgatoire River: FIELD
LOC.           2684' FSL & 1825' FEL: LOCATION
CNTY.               Las Animas: COUNTY
SRVC.                Patterson: SERVICE COMPANY
DATE.          Mon Mar 06 07:05:15 2006: LOG DATE
UWI.           05 071 08697 00: UNIQUE WELL ID
STAT.                 Colorado: STATE
~Curve Information Block
DEPT.FT            0 000 00 00: Depth
DCAL.in                       : CDL Caliper
RHOB.g/cc                     : CDL Bulk Density
RHOC.g/cc                     : CDL Density Correction
DPOR.pu                       : CDL Density Porosity
GR.GAPI                       : Gamma Ray
NPOR.pu                       : Neutron Porosity
~Parameter Information Block
~A  Depth       DCAL        RHOB        RHOC        DPOR         GR         NPOR    
# ...
  1981.2000      7.8935      2.5272      0.0959      7.4436    122.1101     22.7189
  1981.3000      7.8869      2.5145      0.0501      8.2107    124.0282     22.5785
  1981.4000      7.8869      2.5213      0.0602      7.7982    122.5821     22.9390
  1981.5000      7.8724      2.5400      0.0809      6.6645    118.8555     23.8700
  1981.6000      7.8724      2.5501      0.0577      6.0558    116.3458     25.0433
  1981.7000      7.8724      2.5467      0.0541      6.2635    113.8251     25.2994
  1981.8000      7.8650      2.5369      0.0576      6.8548    111.9401     24.4434
  1981.9000      7.8650      2.5216      0.0835      7.7797    112.8299     23.2735
  1982.0000      7.8648      2.5011      0.0529      9.0268    112.4747     22.1369
  1982.1000      7.8648      2.4859      0.0217      9.9440    110.9442     21.4911
  1982.2000      7.8648      2.4807      0.0217     10.2577    111.4667     21.8469
  1982.3000      7.8659      2.4769      0.0149     10.4888    110.6503     22.6163
  1982.4000      7.8659      2.4731     -0.0010     10.7190    106.7974     23.1018
  1982.5000      7.8765      2.4760      0.0182     10.5456    103.1987     23.4989
  1982.6000      7.8765      2.4857      0.0108      9.9549    101.2601     24.1992
  1982.7000      7.8765      2.4980      0.0347      9.2118    102.3398     24.7030
  1982.8000      7.8862      2.5105      0.0527      8.4516    104.9483     24.2532
  1982.9000      7.8862      2.5164      0.0862      8.0940    104.9303     23.3166
  1983.0000      7.8748      2.5072      0.0455      8.6522    105.3890     22.6586
  1983.1000      7.8748      2.4936      0.0269      9.4796    110.4384     21.9675
  1983.2000      7.8748      2.4920      0.0056      9.5740    112.6189     21.0159
  1983.3000      7.8518      2.5042     -0.0155      8.8370    105.7684     20.6363
  1983.4000      7.8518      2.5192      0.0584      7.9288     97.1598     21.1456
  1983.5000      7.8404      2.5195      0.0368      7.9089     93.6467     21.7900
  1983.6000      7.8404      2.5053      0.0266      8.7725     93.3331     21.9164
  1983.7000      7.8404      2.5006      0.0196      9.0526     92.7985     21.5096
  1983.8000      7.8410      2.5207      0.0198      7.8376     91.6914     20.6916
  1983.9000      7.8410      2.5482      0.0510      6.1710     93.6362     20.2416
  1984.0000      7.8385      2.5561      0.0589      5.6926     99.4276     20.6266
  1984.1000      7.8385      2.5393      0.0298      6.7084    103.5047     21.0371
  1984.2000      7.8385      2.5121      0.0437      8.3601    105.0638     21.0137
  1984.3000      7.8305      2.4900      0.0349      9.6986    108.6534     21.1456
  1984.4000      7.8305      2.4858      0.0283      9.9515    113.4136     22.0707
  1984.5000      7.8249      2.4979      0.0688      9.2187    115.9244     22.9162
  1984.6000      7.8249      2.5103      0.0400      8.4696    119.0758     22.8322
  1984.7000      7.8249      2.5148      0.0428      8.1938    124.3973     22.9116
  1984.8000      7.8238      2.5146      0.0607      8.2040    129.0508     23.5507
  1984.9000      7.8238      2.5191      0.0361      7.9332    135.1464     23.8370
  1985.0000      7.8310      2.5307      0.0757      7.2289    140.4744     23.7739
  1985.1000      7.8310      2.5373      0.0683      6.8288    138.2833     23.6961
  1985.2000      7.8310      2.5295      0.0831      7.3044    130.2920     23.5600
  1985.3000      7.8434      2.5079      0.0362      8.6114    122.0944     23.5597
  1985.4000      7.8434      2.4778      0.0753     10.4338    118.8848     23.7638
  1985.5000      7.8502      2.4463      0.0347     12.3483    124.2441     24.0347
  1985.6000      7.8502      2.4263      0.0529     13.5605    133.9316     24.2512
  1985.7000      7.8502      2.4312      0.0305     13.2617    137.4512     24.3602
  1985.8000      7.8489      2.4639      0.0561     11.2790    131.3861     24.2076
  1985.9000      7.8489      2.5134      0.0802      8.2794    122.8851     23.7279
  1986.0000      7.8285      2.5610      0.1163      5.3954    117.8735     23.4755
  1986.1000      7.8285      2.5927      0.1594      3.4713    117.2561     23.8256
  1986.2000      7.8285      2.6082      0.1681      2.5356    119.4239     24.3164
  1986.3000      7.8091      2.6137      0.1633      2.1988    121.7506     24.4973
  1986.4000      7.8091      2.6103      0.1799      2.4041    122.3922     24.7336
  1986.5000      7.8229      2.5924      0.1669      3.4901    124.2582     25.1463
  1986.6000      7.8229      2.5601      0.1214      5.4462    128.1231     25.1060
  1986.7000      7.8229      2.5289      0.0697      7.3384    129.4513     24.8240
  1986.8000      7.8690      2.5123      0.0698      8.3451    125.9560     25.0676
  1986.9000      7.8690      2.5078      0.0389      8.6157    119.2712     25.5505
  1987.0000      7.9024      2.5081      0.0209      8.5979    115.3747     25.5323
  1987.1000      7.9024      2.5065      0.0703      8.6946    118.5627     24.9288
  1987.2000      7.9024      2.4980      0.0556      9.2142    122.6282     24.0575
  1987.3000      7.9027      2.4818      0.0897     10.1961    121.3636     23.6429
  1987.4000      7.9027      2.4612      0.0506     11.4425    117.8077     23.9761
  1987.5000      7.8754      2.4450      0.0483     12.4233    115.4257     23.8816
  1987.6000      7.8754      2.4361      0.0373     12.9633    113.9055     22.8670
  1987.7000      7.8754      2.4285      0.0281     13.4237    111.9624     22.3864
  1987.8000      7.8538      2.4237      0.0142     13.7182    110.5780     22.9113
  1987.9000      7.8538      2.4272      0.0242     13.5001    110.7398     23.4829
  1988.0000      7.8662      2.4391      0.0934     12.7836    109.3311     23.6342
  1988.1000      7.8662      2.4576      0.0736     11.6587    107.5030     23.4119
  1988.2000      7.8662      2.4794      0.1102     10.3423    111.3387     23.0032
  1988.3000      7.8815      2.4959      0.1251      9.3390    118.0338     22.5227
  1988.4000      7.8815      2.5064      0.1201      8.7039    118.8087     22.3526
  1988.5000      7.8711      2.5123      0.1321      8.3470    112.6846     23.1168
  1988.6000      7.8711      2.5105      0.1063      8.4561    108.1170     24.5346
  1988.7000      7.8711      2.5057      0.1012      8.7463    112.7651     25.4175
  1988.8000      7.8647      2.5027      0.1252      8.9292    122.5977     25.0557
  1988.9000      7.8647      2.5034      0.0908      8.8861    127.4193     23.7894
  1989.0000      7.8794      2.5119      0.0953      8.3705    126.8458     22.6131
  1989.1000      7.8794      2.5156      0.1227      8.1440    125.7202     22.2075
  1989.2000      7.8794      2.4983      0.0834      9.1949    122.1474     22.2716
  1989.3000      7.8881      2.4780      0.0167     10.4264    116.8443     22.6011
  1989.4000      7.8881      2.4879      0.0213      9.8236    113.8883     23.3968
  1989.5000      7.8881      2.5249      0.1075      7.5823    108.2695     24.1933
  1989.6000      7.8881      2.5589      0.1164      5.5208     96.9486     24.4983
  1989.7000      7.8881      2.5722      0.1333      4.7135     86.4526     24.6511
  1989.8000      7.8888      2.5621      0.1197      5.3295     83.1233     24.8184
  1989.9000      7.8888      2.5352      0.1033      6.9600     89.8404     24.8326
  1990.0000      7.8787      2.5042      0.0824      8.8385    101.6816     24.5742
  1990.1000      7.8787      2.4791      0.0582     10.3565    107.9137     24.1275
  1990.2000      7.8787      2.4650      0.0322     11.2140    106.1273     23.7871
  1990.3000      7.8488      2.4641      0.0202     11.2693    101.0135     23.5809
  1990.4000      7.8488      2.4768      0.0202     10.4997     98.4864     23.5236
  1990.5000      7.8196      2.4933      0.0933      9.4984    101.3258     23.6524
  1990.6000      7.8196      2.4960      0.0662      9.3326    106.4152     23.5449
  1990.7000      7.8196      2.4808      0.1046     10.2556    109.8156     22.9228
