~Version Information
 VERS.                                  2.0 : CWLS LAS VERSION
 WRAP.                                   NO : WRAPING MODE
 SWARE .                 MController 2.5.0J : SOFTWARE VERSION
~Well Information
 WELL.                          Rolls 14-14 : WELL
 COMP.    Pioneer Natural Resources USA Inc : COMPANY
 FLD.                      Purgatoire River : FIELD
 LOC.                SW/SW Sec 14 T32S R66W : LOCATION
 DATE.                       07/31-08/01/05 : DATE(S) LOGGED
 SRVC.       BLANCO Geological Services LLC : SERVICE COMPANY
 STAT.                                   CO : STATE
 CNTY.                           Las Animas : COUNTY
 CTRY.                                  USA : COUNTRY
 API.                       05-071-08455-00 : API NUMBER
 STRT.FT                             831.00 : START DEPTH
 STOP.FT                            2365.00 : STOP DEPTH
 STEP.FT                               1.00 : DEPTH INCREMENT
 NULL.                                -9999 : NULL VALUE
~Curve information
 DEPTH.FT                                   :
 ROP.MIN/FT                                 :
 GAS.UNITS                                  :
~ASCII Log data
# ...
      1631.0         0.20        978.6 
      1632.0         0.17        973.2 
      1633.0         0.20        967.2 
      1634.0         0.13        960.9 
      1635.0         0.20        953.9 
      1636.0         0.25        939.6 
      1637.0         0.23        930.7 
      1638.0         0.30        920.9 
      1639.0         0.33        915.5 
      1640.0         0.27        928.8 
      1641.0         0.30        958.0 
      1642.0         0.33        971.0 
      1643.0         0.33        972.6 
      1644.0         0.32        971.3 
      1645.0         0.30        969.8 
      1646.0         3.55        965.3 
      1647.0         0.37        964.0 
      1648.0         0.33       1024.7 
      1649.0         0.20       1068.8 
      1650.0         0.17       1092.3 
      1651.0         0.40       1156.1 
      1652.0         0.27       1190.7 
      1653.0         0.30       1198.9 
      1654.0         0.27       1178.6 
      1655.0         0.22       1158.3 
      1656.0         0.33       1117.3 
      1657.0         0.27       1077.3 
      1658.0         0.30       1067.5 
      1659.0         0.27       1057.4 
      1660.0         0.23       1046.6 
      1661.0         0.20       1035.5 
      1662.0         0.20       1024.0 
      1663.0         0.20       1014.8 
      1664.0         0.20       1003.4 
      1665.0         0.20        992.9 
      1666.0         0.30        983.4 
      1667.0         0.33        967.2 
      1668.0         0.35        951.3 
      1669.0         0.17        932.9 
      1670.0         0.20        928.2 
      1671.0         0.20        926.3 
      1672.0         0.20        926.6 
      1673.0         0.20        927.5 
      1674.0         0.20        931.0 
      1675.0         0.20        930.1 
      1676.0         3.02        926.3 
      1677.0         0.43        901.2 
      1678.0         0.33        919.6 
      1679.0         0.32        944.4 
      1680.0         0.27        983.7 
      1681.0         0.23       1028.5 
      1682.0         0.27       1113.8 
      1683.0         0.37       1189.1 
      1684.0         0.43       1197.6 
      1685.0         0.33       1169.4 
      1686.0         0.27       1112.3 
      1687.0         0.28       1076.4 
      1688.0         0.23       1041.2 
      1689.0         0.17       1019.0 
      1690.0         0.27       1014.2 
      1691.0         0.23       1006.6 
      1692.0         0.20       1001.5 
      1693.0         0.33        991.3 
      1694.0         0.23        963.4 
      1695.0         0.27        945.6 
      1696.0         0.23        940.9 
      1697.0         0.23        943.7 
      1698.0         0.20        945.3 
      1699.0         0.23        948.5 
      1700.0         0.22        946.9 
      1701.0         0.30        944.4 
      1702.0         0.33        938.3 
      1703.0         0.27        931.0 
      1704.0         0.23        924.1 
      1705.0         0.23        919.6 
      1706.0         3.25        934.2 
      1707.0         0.37        914.2 
      1708.0         0.47        949.8 
      1709.0         0.43       1005.9 
      1710.0         0.35       1093.2 
      1711.0         0.27       1160.8 
      1712.0         0.33       1194.8 
      1713.0         0.37       1189.7 
      1714.0         0.27       1134.2 
      1715.0         0.20       1097.0 
      1716.0         0.23       1071.6 
      1717.0         0.20       1041.5 
      1718.0         0.17       1023.4 
      1719.0         0.17       1014.5 
      1720.0         0.20       1008.2 
      1721.0         0.13       1004.4 
      1722.0         0.17       1000.9 
      1723.0         0.27        994.5 
      1724.0         0.38        983.7 
      1725.0         0.33        967.2 
      1726.0         0.23        952.0 
      1727.0         0.20        940.6 
      1728.0         0.30        932.9 
      1729.0         0.30        930.7 
      1730.0         0.17        928.5 
      1731.0         0.20        928.2 
      1732.0         0.20        927.2 
      1733.0         0.13        923.7 
      1734.0         0.17        924.7 
      1735.0         0.17        925.3 
      1736.0       147.83       1395.4 
      1737.0         0.50        178.1 
      1738.0         0.53        286.3 
      1739.0         0.40        291.2 
      1740.0         0.30        282.2 
      1741.0         0.47        255.0 
      1742.0         0.38        308.4 
      1743.0         0.47        326.8 
      1744.0         0.37        319.2 
      1745.0         0.23        288.5 
      1746.0         0.40        267.2 
      1747.0         0.33        244.4 
      1748.0         0.20        233.3 
      1749.0         0.23        229.5 
      1750.0         0.20        227.1 
      1751.0         0.17        228.0 
      1752.0         0.20        231.9 
      1753.0         0.22        237.1 
      1754.0         0.23        239.2 
      1755.0         0.30        239.3 
      1756.0         0.30        235.9 
      1757.0         0.30        228.0 
      1758.0         0.30        202.7 
      1759.0         0.33        158.3 
      1760.0         0.27        146.1 
      1761.0         0.37        151.2 
      1762.0         0.30        166.4 
      1763.0         0.33        198.1 
      1764.0         0.20        215.8 
      1765.0         0.28        246.0 
      1766.0         1.23        422.3 
      1767.0         0.20        418.8 
      1768.0         0.17        398.9 
      1769.0         0.17        373.7 
      1770.0         0.20        352.2 
      1771.0         0.17        327.3 
      1772.0         0.13        297.4 
      1773.0         0.13        293.7 
      1774.0         0.17        280.7 
      1775.0         0.20        262.8 
      1776.0         0.17        253.3 
      1777.0         0.22        248.3 
      1778.0         0.27        244.1 
      1779.0         0.20        242.9 
      1780.0         0.13        242.4 
      1781.0         0.23        241.7 
      1782.0         0.20        236.7 
      1783.0         0.17        234.5 
      1784.0         0.17        228.7 
      1785.0         0.17        226.7 
      1786.0         0.13        221.0 
      1787.0         0.27        218.1 
      1788.0         0.23        212.2 
      1789.0         0.20        206.9 
      1790.0         0.20        202.9 
      1791.0         0.20        204.4 
      1792.0         0.20        208.0 
      1793.0         0.20        252.6 
      1794.0         0.12        277.4 
      1795.0         0.30        303.8 
      1796.0         1.63        423.1 
      1797.0         0.33       1095.4 
      1798.0         0.43       1332.2 
      1799.0         0.43       1487.7 
      1800.0         0.35       1623.2 
      1801.0         0.33       1725.4 
      1802.0         0.33       1711.8 
      1803.0         0.30       1565.2 
      1804.0         0.27       1332.8 
      1805.0         0.23       1211.9 
      1806.0         0.30       1100.2 
      1807.0         0.23        982.1 
      1808.0         0.27        945.6 
      1809.0         0.27        928.8 
      1810.0         0.23        898.3 
      1811.0         0.32        885.3 
      1812.0         0.23        841.5 
      1813.0         0.27        802.5 
      1814.0         0.27        766.0 
      1815.0         0.27        734.9 
      1816.0         0.30        717.4 
      1817.0         0.27        684.4 
      1818.0         0.27        677.1 
      1819.0         0.23        660.0 
      1820.0         0.27        656.8 
      1821.0         0.27        655.2 
      1822.0         0.27        657.1 
      1823.0         0.23        655.9 
      1824.0         0.28        647.0 
      1825.0         0.20        639.0 
      1826.0         3.55        958.6 
      1827.0         0.23       1021.2 
      1828.0         0.27       1030.4 
      1829.0         0.23        993.2 
      1830.0         0.23       1003.4 
