~Version Information
VERS.                      2.0: CWLS Log ASCII Standard - VERSION 2.0
WRAP.                       NO: One line per depth step
~Well Information Block
STRT.FT               335.0000: 
STOP.FT              1154.7000: 
STEP.FT                 0.1000: 
NULL.                -999.2500: 
COMP.          Pioneer Natural Resources: COMPANY
WELL.             Croc 42-9 Tr: WELL
FLD.           Purgatoire River: FIELD
LOC.           2429' FNL & 315' FEL--: LOCATION
STAT.                 Colorado: State
CNTY.               Las Animas: COUNTY
CTRY. USA : Country
SECT. 9 : Section
TOWN. 32S : Township
RANG. 66W : Range
SRVC.                Patterson: SERVICE COMPANY
DATE.          Fri Oct 14 07:56:23 2005: LOG DATE
API.           05 071 08550 00: UNIQUE WELL ID
~Curve Information Block
DEPT.FT            0 000 00 00: Depth
DCAL.in                       : CDL Caliper
RHOB.g/cc                     : CDL Bulk Density
RHOC.g/cc                     : CDL Density Correction
DPOR.pu                       : CDL Density Porosity
NPOR.pu                       : Neutron Porosity
GR.GAPI                       : Gamma Ray
~Parameter Information Block
~A  Depth       DCAL        RHOB        RHOC        DPOR        NPOR         GR     
# ...
   440.6000      8.0496      2.5790      0.0554      4.3011     17.9166    112.9628
   440.7000      8.0496      2.5653      0.0494      5.1344     17.1815    108.9714
   440.8000      8.0411      2.5568      0.0134      5.6511     15.0796    107.2788
   440.9000      8.0411      2.5664     -0.0011      5.0690     14.6324    107.1336
   441.0000      8.0318      2.5830      0.0574      4.0589     15.8630    106.3810
   441.1000      8.0318      2.5885      0.0493      3.7283     16.1534    104.2299
   441.2000      8.0318      2.5833      0.0468      4.0412     14.5127    102.3091
   441.3000      8.0308      2.5772      0.0311      4.4110     13.5703    100.1667
   441.4000      8.0308      2.5759      0.0399      4.4915     14.9625     96.2423
   441.5000      8.0370      2.5801      0.0589      4.2356     16.7466     92.0845
   441.6000      8.0370      2.5905      0.0226      3.6068     16.2797     92.0015
   441.7000      8.0370      2.6070      0.0723      2.6085     15.3995     97.2568
   441.8000      8.0428      2.6213      0.0839      1.7379     16.7364    102.5208
   441.9000      8.0428      2.6288      0.0670      1.2873     19.0185    102.8242
   442.0000      8.0479      2.6291      0.0919      1.2639     19.9455     97.6017
   442.1000      8.0479      2.6169      0.0330      2.0031     20.5832     91.7602
   442.2000      8.0479      2.5922      0.0547      3.5050     21.2044     95.5109
   442.3000      8.0508      2.5649      0.0244      5.1571     21.0054    111.1222
   442.4000      8.0508      2.5461      0.0225      6.2952     21.4136    125.7895
   442.5000      8.0511      2.5363      0.0150      6.8907     23.1713    132.1562
   442.6000      8.0511      2.5303      0.0072      7.2540     24.1429    138.4249
   442.7000      8.0511      2.5256      0.0209      7.5364     22.8422    150.0876
   442.8000      8.0511      2.5186      0.0402      7.9649     21.8817    163.1402
   442.9000      8.0511      2.5115     -0.0105      8.3965     23.4670    172.0922
   443.0000      8.0513      2.5117      0.0271      8.3810     25.0471    174.6433
   443.1000      8.0513      2.5177      0.0348      8.0174     23.7600    175.7976
   443.2000      8.0513      2.5291      0.0448      7.3292     22.2516    178.2831
   443.3000      8.0520      2.5487      0.0319      6.1414     23.8743    178.8786
   443.4000      8.0520      2.5688      0.0899      4.9214     26.4511    177.9224
   443.5000      8.0517      2.5805      0.0796      4.2129     26.6659    176.1353
   443.6000      8.0517      2.5872      0.0584      3.8054     26.3543    173.4707
   443.7000      8.0517      2.5897      0.0572      3.6520     25.7705    169.1059
   443.8000      8.0506      2.5817      0.0517      4.1387     23.6063    160.0357
   443.9000      8.0506      2.5644      0.0393      5.1882     23.0489    148.6213
   444.0000      8.0498      2.5547     -0.0095      5.7782     25.3612    142.0670
   444.1000      8.0498      2.5671      0.0487      5.0232     26.2356    144.8985
   444.2000      8.0498      2.5783      0.0949      4.3481     23.7370    153.8267
   444.3000      8.0508      2.5593      0.0433      5.4958     21.6560    159.7813
   444.4000      8.0508      2.5283     -0.0028      7.3735     22.1154    159.1090
   444.5000      8.0521      2.5131      0.0332      8.2997     22.9925    158.4215
   444.6000      8.0521      2.5178      0.0217      8.0151     21.9784    161.0909
   444.7000      8.0521      2.5391      0.0606      6.7212     19.4891    162.0305
   444.8000      8.0585      2.5607      0.0881      5.4124     17.4293    158.7380
   444.9000      8.0585      2.5662      0.0490      5.0781     17.3334    153.4633
   445.0000      8.0688      2.5674      0.0238      5.0059     18.9232    150.9478
   445.1000      8.0688      2.5755      0.0695      4.5150     19.9737    153.9721
   445.2000      8.0688      2.5770      0.0862      4.4265     19.6049    156.1485
   445.3000      8.0735      2.5665      0.0651      5.0580     19.6186    151.0288
   445.4000      8.0735      2.5598      0.0565      5.4658     20.1030    142.0202
   445.5000      8.0699      2.5658      0.0616      5.1037     19.3556    135.5639
   445.6000      8.0699      2.5783      0.0522      4.3437     18.2007    134.2032
   445.7000      8.0699      2.5867      0.0952      3.8339     18.4154    135.5183
   445.8000      8.0605      2.5879      0.0603      3.7651     18.9245    134.3292
   445.9000      8.0605      2.5898      0.0701      3.6514     18.0959    131.6801
   446.0000      8.0546      2.5918      0.0883      3.5256     17.4328    130.3441
   446.1000      8.0546      2.5850      0.0750      3.9373     18.6892    129.7709
   446.2000      8.0546      2.5757      0.0315      4.5055     20.6526    129.7560
   446.3000      8.0550      2.5764      0.0674      4.4632     20.5006    127.4917
   446.4000      8.0550      2.5816      0.0657      4.1463     18.5682    120.5995
   446.5000      8.0559      2.5833      0.0200      4.0415     17.8586    117.8359
   446.6000      8.0559      2.5834      0.0881      4.0346     19.4912    121.9738
   446.7000      8.0559      2.5826      0.0485      4.0831     21.2958    124.2701
   446.8000      8.0539      2.5815      0.0661      4.1521     20.4266    125.3963
   446.9000      8.0539      2.5776      0.0588      4.3856     18.2392    130.5275
   447.0000      8.0507      2.5699      0.0561      4.8516     18.2462    133.6365
   447.1000      8.0507      2.5641      0.0272      5.2037     20.7154    129.2993
   447.2000      8.0507      2.5643      0.0407      5.1946     22.5109    124.3078
   447.3000      8.0512      2.5680      0.0121      4.9716     22.5838    124.3833
   447.4000      8.0512      2.5722      0.0169      4.7132     23.0975    125.6476
   447.5000      8.0576      2.5749      0.0229      4.5543     23.6367    123.6297
   447.6000      8.0576      2.5707      0.0110      4.8045     22.9651    122.9499
   447.7000      8.0576      2.5615     -0.0107      5.3651     22.6785    126.9656
   447.8000      8.0670      2.5582      0.0361      5.5666     23.1552    131.9867
   447.9000      8.0670      2.5638      0.0346      5.2233     22.8928    136.4383
   448.0000      8.0738      2.5748      0.0359      4.5601     22.7551    139.4323
   448.1000      8.0738      2.5865      0.0452      3.8473     24.4219    139.8652
   448.2000      8.0738      2.5901      0.0615      3.6275     26.3675    139.9913
   448.3000      8.0779      2.5774      0.0536      4.3992     26.6673    145.2549
   448.4000      8.0779      2.5548      0.0165      5.7725     26.2436    154.8656
   448.5000      8.0807      2.5385      0.0486      6.7548     26.3082    161.0404
   448.6000      8.0807      2.5397      0.0180      6.6828     27.3058    162.1750
   448.7000      8.0807      2.5551      0.0441      5.7538     28.5501    166.2063
   448.8000      8.0810      2.5608      0.0805      5.4045     28.8494    173.7294
   448.9000      8.0810      2.5427      0.0422      6.5017     29.2884    177.3820
   449.0000      8.0811      2.5251      0.0049      7.5695     30.5619    176.7924
   449.1000      8.0811      2.5322      0.0138      7.1385     30.2121    173.5954
   449.2000      8.0811      2.5499      0.0544      6.0639     27.5435    167.6162
   449.3000      8.0811      2.5569      0.0301      5.6416     25.1321    161.6104
   449.4000      8.0811      2.5547      0.0193      5.7767     24.5601    159.4437
   449.5000      8.0805      2.5496      0.0563      6.0848     25.3892    160.9511
   449.6000      8.0805      2.5458      0.0142      6.3129     25.7237    162.0177
   449.7000      8.0805      2.5451      0.0533      6.3559     23.8140    159.6277
   449.8000      8.0794      2.5450      0.0101      6.3653     20.9688    154.7105
   449.9000      8.0794      2.5515      0.0223      5.9672     19.9827    150.2496
   450.0000      8.0781      2.5684      0.0311      4.9479     21.7216    147.7437
   450.1000      8.0781      2.5889      0.0328      3.7024     23.6688    148.6551
