~Version Information
VERS.                      2.0: CWLS Log ASCII Standard - VERSION 2.0
WRAP.                       NO: One line per depth step
~Well Information Block
STRT.FT               -10.7500: 
STOP.FT              1466.2500: 
STEP.FT                 0.2500: 
NULL.                -999.2500: 
COMP.          Pioneer Natural Resources: COMPANY
WELL.             Andrew 23-15: WELL
FLD.           Purgatorie River: FIELD
LOC.           2137' FSL & 2292' FWL--: LOCATION
PROV.                       CO: PROVINCE
CNTY.               Las Animas: COUNTRY
SRVC.          Patterson Wireline: SERVICE COMPANY
DATE.          Thu Aug 18 11:51:45 2005: LOG DATE
UWI.           05 071 08460 00: UNIQUE WELL ID
~Curve Information Block
DEPT.FT            0 000 00 00: Depth
CCL.                          : Casing Collar Locator
TT3.usec                      : CBL 3' Travel Time
AMP3.mV                       : CBL 3' Amplitude
GR.GAPI                       : Gamma Ray
~Parameter Information Block
~A  Depth       CCL         TT3         AMP3         GR     
# ...
   659.2500      0.0000    846.1207      9.9390    116.0235
   659.5000      0.0000    845.5783     10.1068    116.9829
   659.7500      0.0000    844.5610     10.2450    117.9604
   660.0000      0.0000    842.7610     10.3304    115.7827
   660.2500      0.0000    840.2443     10.3517    109.8486
   660.5000      0.0000    837.8572     10.3105    102.0005
   660.7500      0.0000    836.8895     10.2126     94.6768
   661.0000      0.0000    837.9773     10.0641     89.7766
   661.2500      0.0000    840.4664      9.8804     88.6713
   661.5000      0.0000    843.0625      9.7008     91.5522
   661.7500      0.0000    844.9108      9.5785     96.1093
   662.0000      0.0000    845.9241      9.5430     98.2495
   662.2500      0.0000    846.4013      9.5713     95.3572
   662.5000      0.0000    846.6228      9.6034     88.5182
   662.7500      0.0000    846.6794      9.5901     81.1289
   663.0000      0.0000    846.4374      9.5265     75.8661
   663.2500      0.0000    845.5619      9.4452     73.2932
   663.5000      0.0000    843.6705      9.3858     72.7946
   663.7500      0.0000    840.7058      9.3725     74.2594
   664.0000      0.0000    837.2348      9.4159     78.5854
   664.2500      0.0000    834.1282      9.5275     86.4530
   664.5000      0.0000    831.7822      9.7246     96.7154
   664.7500      0.0000    829.9774     10.0140    106.3599
   665.0000      0.0000    828.5942     10.3672    112.2238
   665.2500      0.0000    827.8793     10.7165    112.8091
   665.5000      0.0000    827.5308     10.9850    109.0474
   665.7500      0.0000    825.8622     11.1283    103.9411
   666.0000      0.0000    820.8433     11.1530    101.0934
   666.2500      0.0000    812.6725     11.0973    102.4671
   666.5000      0.0000    804.7798     10.9982    106.8900
   666.7500      0.0000    801.1893     10.8751    110.8802
   667.0000      0.0000    802.9953     10.7360    111.2656
   667.2500      0.0000    808.1849     10.5902    107.4597
   667.5000      0.0000    814.3577     10.4509    101.7802
   667.7500      0.0000    820.5366     10.3255     97.6476
   668.0000      0.0000    826.6988     10.2060     96.9599
   668.2500      0.0000    832.6691     10.0755     98.6745
   668.5000      0.0000    837.8013      9.9295     99.8484
   668.7500      0.0000    841.4918      9.7876     98.4411
   669.0000      0.0000    843.7066      9.6779     95.3154
   669.2500      0.0000    844.9108      9.6112     93.4667
   669.5000      0.0000    845.6155      9.5740     95.4519
   669.7500      0.0000    846.0955      9.5424    101.6351
   670.0000      0.0000    846.4213      9.4976    110.2698
   670.2500      0.0000    846.5505      9.4371    118.6241
   670.5000      0.0000    846.3256      9.3759    124.4316
   670.7500      0.0000    845.4376      9.3348    127.0621
   671.0000      0.0000    843.5562      9.3212    127.6578
   671.2500      0.0000    840.7842      9.3258    128.2177
   671.5000      0.0000    838.0748      9.3369    130.2608
   671.7500      0.0000    836.8461      9.3558    133.6877
   672.0000      0.0000    837.8036      9.3951    136.5434
   672.2500      0.0000    840.2665      9.4628    136.1919
   672.5000      0.0000    842.8573      9.5499    131.2414
   672.7500      0.0000    844.6390      9.6318    122.5070
   673.0000      0.0000    845.4703      9.6816    112.0476
   673.2500      0.0000    845.6427      9.6830    101.4920
   673.5000      0.0000    845.4879      9.6358     91.6234
   673.7500      0.0000    845.1830      9.5490     83.2027
   674.0000      0.0000    844.6354      9.4319     77.2249
   674.2500      0.0000    843.4010      9.2912     74.1212
   674.5000      0.0000    840.7957      9.1323     73.2243
   674.7500      0.0000    836.4570      8.9579     73.1589
   675.0000      0.0000    831.1188      8.7671     72.4226
   675.2500      0.0000    826.4334      8.5618     69.8270
   675.5000      0.0000    823.0963      8.3502     65.1772
   675.7500      0.0000    819.0121      8.1420     59.7563
   676.0000      0.0000    810.5474      7.9430     55.7381
   676.2500      0.0000    796.5710      7.7574     54.8377
   676.5000      0.0000    780.5618      7.5931     57.2909
   676.7500      0.0000    767.6201      7.4626     61.6150
   677.0000      0.0000    759.8566      7.3758     65.2152
   677.2500      0.0000    755.6977      7.3316     65.9230
   677.5000      0.0000    752.8813      7.3160     63.6464
   677.7500      0.0000    750.6017      7.3112     60.4891
   678.0000      0.0000    749.0685      7.3089     58.9514
   678.2500      0.0000    748.4333      7.3148     59.9058
   678.5000      0.0000    748.6265      7.3410     62.1668
   678.7500      0.0000    749.9550      7.3931     63.7609
   679.0000      0.0000    753.9537      7.4633     63.6800
   679.2500      0.0000    763.9847      7.5383     62.6094
   679.5000      0.0000    784.2838      7.6099     61.8429
   679.7500      0.0000    816.4090      7.6765     61.5826
   680.0000      0.0000    855.0655      7.7369     60.8449
   680.2500      0.0000    888.3749      7.7849     59.0542
   680.5000      0.0000    904.8788      7.8125     56.9446
   680.7500      0.0000    901.7481      7.8150     55.6608
   681.0000      0.0000    886.0749      7.7936     55.5795
   681.2500      0.0000    868.4083      7.7556     56.3190
   681.5000      0.0000    855.5745      7.7113     57.4627
   681.7500      0.0000    848.7338      7.6704     58.7801
   682.0000      0.0000    845.9135      7.6393     59.8191
   682.2500      0.0000    844.9271      7.6231     59.8547
   682.5000      0.0000    844.5213      7.6294     58.6568
   682.7500      0.0000    844.1847      7.6679     57.0539
   683.0000      0.0000    843.6331      7.7443     56.2494
   683.2500      0.0000    842.3956      7.8533     56.6074
   683.5000      0.0000    839.5721      7.9757     57.4527
   683.7500      0.0000    833.9636      8.0852     57.8874
   684.0000      0.0000    824.7823      8.1614     57.5023
   684.2500      0.0000    813.2460      8.1952     56.5503
   684.5000      0.0000    804.4208      8.1708     55.8028
   684.7500      0.0000    806.6865      8.0477     56.1004
   685.0000      0.0000    826.6120      7.7863     57.7245
   685.2500      0.0000    862.6875      7.4105     60.1127
   685.5000      0.0000    905.4718      7.0264     62.1792
   685.7500      0.0000    945.4736      6.7505     63.0305
   686.0000      0.0000    980.1944      6.6236     62.6588
   686.2500     -2.0000   1012.1776      6.6021     62.0893
   686.5000      2.0000   1040.6479      6.6160     62.6908
   686.7500      0.0000   1057.0133      6.6281     65.1238
   687.0000      0.0000   1049.5978      6.6688     68.8897
   687.2500      0.0000   1012.7136      6.8356     72.6855
   687.5000      0.0000    952.2614      7.2176     75.1383
   687.7500      0.0000    883.8748      7.7747     75.6206
   688.0000      0.0000    824.6021      8.3158     74.5066
   688.2500      0.0000    784.1389      8.6505     72.2565
   688.5000      0.0000    762.2603      8.7515     68.4641
   688.7500      0.0000    753.0158      8.7378     62.5425
   689.0000      0.0000    750.3836      8.7320     55.2398
   689.2500      0.0000    751.1188      8.7735     48.6247
   689.5000      0.0000    754.7137      8.8405     44.4734
   689.7500      0.0000    762.0225      8.9080     43.2448
   690.0000      0.0000    773.5694      8.9748     44.5281
   690.2500      0.0000    788.2711      9.0602     47.7960
   690.5000      0.0000    803.3995      9.1879     52.5451
   690.7500      0.0000    816.0245      9.3762     58.0720
   691.0000      0.0000    824.8607      9.6377     63.3295
   691.2500      0.0000    830.7537      9.9830     67.0567
   691.5000      0.0000    835.2878     10.4213     68.3925
   691.7500      0.0000    839.1703     10.9544     67.6326
   692.0000      0.0000    842.0543     11.5724     66.1052
   692.2500      0.0000    843.2985     12.2582     65.0946
   692.5000      0.0000    841.9617     12.9984     65.1282
