~Version Information
VERS.                      2.0: CWLS Log ASCII Standard - VERSION 2.0
WRAP.                       NO: One line per depth step
~Well Information Block
STRT.FT                10.0000: 
STOP.FT              1380.7500: 
STEP.FT                 0.2500: 
NULL.                -999.2500: 
COMP.          Pioneer Natural Resources: COMPANY
WELL.          Baa Baa 34-1 Tr: WELL
FLD.           Purgatoire River: FIELD
LOC.           785' FSL & 2304' FEL: LOCATION
CNTY.               Las Animas: COUNTY
SRVC.                Patterson: SERVICE COMPANY
DATE.          Tue Mar 07 13:08:19 2006: LOG DATE
UWI.           05 071 08710 00: UNIQUE WELL ID
STAT.                 Colorado: STATE
~Curve Information Block
DEPT.FT            0 000 00 00: Depth
GR.GAPI                       : Gamma Ray
CCL.                          : Casing Collar Locator
TT3.usec                      : CBL 3' Travel Time
AMP3.mV                       : CBL 3' Amplitude
~Parameter Information Block
~A  Depth        GR         CCL         TT3         AMP3    
# ...
   546.0000     97.8202      0.0000    768.7556     11.6314
   546.2500    105.6589      0.0000    764.8563     11.8505
   546.5000    112.2466      0.0000    758.7084     12.0053
   546.7500    115.3499      0.0000    751.8218     12.0619
   547.0000    113.9313      0.0000    744.6218     12.0091
   547.2500    108.4258      0.0000    737.4339     11.8754
   547.5000    100.6272      0.0000    731.5856     11.7204
   547.7500     93.1707      0.0000    728.8230     11.6019
   548.0000     88.3757      0.0000    729.9596     11.5478
   548.2500     87.0260      0.0000    734.4001     11.5538
   548.5000     88.1836      0.0000    740.7238     11.6016
   548.7500     90.0822      0.0000    747.4500     11.6740
   549.0000     91.1472      0.0000    753.2567     11.7562
   549.2500     90.5979      0.0000    756.9651     11.8292
   549.5000     88.5910      0.0000    758.0283     11.8699
   549.7500     85.8393      0.0000    757.1304     11.8629
   550.0000     82.8977      0.0000    755.6171     11.8133
   550.2500     79.7773      0.0000    753.9487     11.7447
   550.5000     76.2894      0.0000    751.2020     11.6838
   550.7500     72.6663      0.0000    746.6390     11.6449
   551.0000     69.7820      0.0000    741.3673     11.6280
   551.2500     68.9278      0.0000    737.7747     11.6312
   551.5000     71.3251      0.0000    737.4104     11.6644
   551.7500     77.3648      0.0000    740.0107     11.7492
   552.0000     85.9603      0.0000    744.4864     11.9046
   552.2500     94.8593      0.0000    750.0901     12.1321
   552.5000    101.8711      0.0000    756.3832     12.4141
   552.7500    105.8856      0.0000    762.6857     12.7192
   553.0000    107.1050      0.0000    767.9977     13.0050
   553.2500    106.7289      0.0000    771.3406     13.2252
   553.5000    106.2390      0.0000    772.1790     13.3487
   553.7500    106.5783      0.0000    770.6897     13.3774
   554.0000    107.8082      0.0000    767.6000     13.3451
   554.2500    109.3521      0.0000    763.8319     13.2950
   554.5000    110.4992      0.0000    760.3660     13.2562
   554.7500    110.8632      0.0000    757.9008     13.2353
   555.0000    110.4362      0.0000    756.0385     13.2265
   555.2500    109.1492      0.0000    753.2491     13.2260
   555.5000    106.5629      0.0000    748.4492     13.2351
   555.7500    102.3375      0.0000    742.5591     13.2500
   556.0000     96.8682      0.0000    737.8096     13.2523
   556.2500     91.0853      0.0000    735.5583     13.2148
   556.5000     85.7035      0.0000    735.3361     13.1209
   556.7500     80.9808      0.0000    735.9492     12.9799
   557.0000     77.1504      0.0000    736.7952     12.8263
   557.2500     74.7016      0.0000    738.0546     12.7008
   557.5000     73.9590      0.0000    740.1989     12.6244
   557.7500     74.4688      0.0000    743.1989     12.5793
   558.0000     75.1678      0.0000    745.6558     12.5081
   558.2500     75.2842      0.0000    745.1807     12.3401
   558.5000     74.9175      0.0000    740.4818     12.0301
   558.7500     74.7728      0.0000    733.0363     11.5575
   559.0000     75.5142      0.0000    726.3790     10.8774
   559.2500     77.2198      0.0000    723.8899      9.9292
   559.5000     79.2686      0.0000    727.1716      8.7616
   559.7500     80.8546      0.0000    735.6487      7.6115
   560.0000     81.6202      0.0000    747.1804      6.7682
   560.2500     81.7283      0.0000    759.2543      6.3586
   560.5000     81.6477      0.0000    769.8472      6.2941
   560.7500     82.2809     -3.0000    777.7772      6.3907
   561.0000     85.0438     -2.7296    783.1373      6.5115
   561.2500     91.1423      0.0000    787.3483      6.6395
   561.5000    100.4291      0.0000    791.8687      6.8629
   561.7500    110.9589      0.0000    796.5712      7.2956
   562.0000    119.7456      0.0000    800.0061      7.9992
   562.2500    124.3680      0.0000    801.4322      8.9621
   562.5000    124.4769      0.0000    801.7245     10.0927
   562.7500    121.9688      0.0000    801.8668     11.1942
   563.0000    119.4143      0.0000    801.3118     12.0133
   563.2500    118.0698      0.0000    798.6190     12.3928
   563.5000    117.2306      0.0000    793.6228     12.3704
   563.7500    115.0852      0.0000    788.4750     12.1187
   564.0000    109.9268      0.0000    786.2852     11.8176
   564.2500    100.9533      0.0000    788.6153     11.5805
   564.5000     88.7182      0.0000    794.2847     11.4507
   564.7500     75.2525      0.0000    800.5554     11.4252
   565.0000     63.4478      0.0000    805.2731     11.4766
   565.2500     55.6952      0.0000    807.8994     11.5726
   565.5000     52.8237      0.0000    809.0144     11.6918
   565.7500     54.2352      0.0000    809.3895     11.8310
   566.0000     58.7284      0.0000    809.5220     11.9942
   566.2500     64.9080      0.0000    809.6336     12.1793
   566.5000     71.1063      0.0000    809.7987     12.3867
   566.7500     75.5682      0.0000    809.9845     12.6415
   567.0000     77.0492      0.0000    810.0170     12.9955
   567.2500     75.3340      0.0000    809.5538     13.4914
   567.5000     71.3888      0.0000    808.2284     14.1196
   567.7500     67.0595      0.0000    806.0565     14.8107
   568.0000     64.2580      0.0000    803.7803     15.4725
   568.2500     64.2252      0.0000    802.4593     16.0373
   568.5000     67.5089      0.0000    802.3105     16.4829
   568.7500     74.1236      0.0000    802.1257     16.8213
   569.0000     83.1188      0.0000    800.3900     17.0776
   569.2500     92.3704      0.0000    797.1384     17.2756
   569.5000     99.7486      0.0000    794.2930     17.4307
   569.7500    104.6876      0.0000    793.6674     17.5433
   570.0000    108.1549      0.0000    794.6890     17.5940
   570.2500    111.1321      0.0000    794.6847     17.5544
   570.5000    113.5939      0.0000    791.6504     17.4110
   570.7500    114.9140      0.0000    786.4058     17.1826
   571.0000    114.7931      0.0000    781.8845     16.9139
   571.2500    113.5806      0.0000    780.6503     16.6524
   571.5000    111.7984      0.0000    783.2662     16.4291
   571.7500    109.7127      0.0000    788.6187     16.2525
   572.0000    107.5825      0.0000    795.1564     16.1143
   572.2500    105.9906      0.0000    801.5988     16.0018
   572.5000    105.4486      0.0000    806.9589     15.9054
   572.7500    105.7473      0.0000    810.6123     15.8158
   573.0000    105.9929      0.0000    812.5218     15.7180
   573.2500    105.2954      0.0000    813.1564     15.5970
   573.5000    103.3904      0.0000    813.1118     15.4469
   573.7500    100.8024      0.0000    812.8225     15.2709
   574.0000     98.4581      0.0000    812.5216     15.0736
   574.2500     96.9173      0.0000    812.3157     14.8585
   574.5000     95.9929      0.0000    812.2377     14.6342
   574.7500     95.2769      0.0000    812.2691     14.4177
   575.0000     94.8697      0.0000    812.3531     14.2297
   575.2500     95.4676      0.0000    812.4330     14.0860
   575.5000     97.8922      0.0000    812.4855     13.9928
   575.7500    102.4813      0.0000    812.5201     13.9451
   576.0000    108.7207      0.0000    812.5479     13.9274
   576.2500    115.4412      0.0000    812.5573     13.9199
   576.5000    121.3035      0.0000    812.5270     13.9096
   576.7500    125.1115      0.0000    812.4607     13.8953
   577.0000    126.0459      0.0000    812.4019     13.8817
   577.2500    124.0419      0.0000    812.4053     13.8708
   577.5000    119.9812      0.0000    812.4844     13.8592
   577.7500    115.2723      0.0000    812.5816     13.8431
   578.0000    110.9922      0.0000    812.6035     13.8237
   578.2500    107.3499      0.0000    812.5005     13.8097
   578.5000    103.9951      0.0000    812.3180     13.8122
   578.7500    100.7149      0.0000    812.1620     13.8336
   579.0000     97.6468      0.0000    812.1455     13.8626
   579.2500     94.8631      0.0000    812.4086     13.8822
