~Version Information
VERS.                      2.0: CWLS Log ASCII Standard - VERSION 2.0
WRAP.                       NO: One line per depth step
~Well Information Block
STRT.FT               460.0000: 
STOP.FT              1349.5000: 
STEP.FT                 0.2500: 
NULL.                -999.2500: 
COMP.          Pioneer Natural Resources: COMPANY
WELL.              Dicks 32-5R: WELL
FLD.           Purgatorie River: FIELD
LOC.           1485' FNL & 1684' FEL: LOCATION
PROV.                 Colorado: PROVINCE
CNTY.               Las Animas: COUNTRY
SRVC.                Patterson: SERVICE COMPANY
DATE.          Thu Dec 08 23:11:15 2005: LOG DATE
UWI.                          : UNIQUE WELL ID
~Curve Information Block
DEPT.FT            0 000 00 00: Depth
SN.Ohm-m                      : IEL Short Normal
SP.mV                         : IEL Spontaneous Potential
DIR.Ohm-m                     : IEL Induction Resistivity
GR.GAPI                       : Gamma Ray
~Parameter Information Block
~A  Depth        SN          SP         DIR          GR     
# ...
   694.5000   2000.0000   2000.0000     22.4848    151.1673
   694.7500   2000.0000   2000.0000     22.9083    150.1607
   695.0000   2000.0000   2000.0000     23.2995    150.3200
   695.2500   2000.0000   2000.0000     23.6686    150.9896
   695.5000   2000.0000   2000.0000     24.0330    151.4894
   695.7500   2000.0000   2000.0000     24.4114    150.9042
   696.0000   2000.0000   2000.0000     24.8183    148.5960
   696.2500   2000.0000   2000.0000     25.2582    146.4799
   696.5000   2000.0000   2000.0000     25.7183    142.8457
   696.7500   2000.0000   2000.0000     26.1661    139.9983
   697.0000   2000.0000   2000.0000     26.5569    134.9987
   697.2500   2000.0000   2000.0000     26.8515    131.6063
   697.5000   2000.0000   2000.0000     27.0306    127.6397
   697.7500   2000.0000   2000.0000     27.0972    126.1480
   698.0000   2000.0000   2000.0000     27.0637    125.2325
   698.2500   2000.0000   2000.0000     26.9378    124.8148
   698.5000   2000.0000   2000.0000     26.7257    123.2972
   698.7500   2000.0000   2000.0000     26.4545    121.3520
   699.0000   2000.0000   2000.0000     26.1918    117.3522
   699.2500   2000.0000   2000.0000     26.0349    114.5750
   699.5000   2000.0000   2000.0000     26.0695    111.3568
   699.7500   2000.0000   2000.0000     26.3275    110.1279
   700.0000   2000.0000   2000.0000     26.7724    109.3569
   700.2500   2000.0000   2000.0000     27.3205    109.2456
   700.5000   2000.0000   2000.0000     27.8815    109.5353
   700.7500   2000.0000   2000.0000     28.3937    110.0784
   701.0000   2000.0000   2000.0000     28.8322    111.0079
   701.2500   2000.0000   2000.0000     29.1911    111.1376
   701.5000   2000.0000   2000.0000     29.4608    109.9654
   701.7500   2000.0000   2000.0000     29.6233    108.5520
   702.0000   2000.0000   2000.0000     29.6722    106.8213
   702.2500   2000.0000   2000.0000     29.6379    106.6740
   702.5000   2000.0000   2000.0000     29.5892    108.3577
   702.7500   2000.0000   2000.0000     29.5993    110.3327
   703.0000   2000.0000   2000.0000     29.6960    113.1014
   703.2500   2000.0000   2000.0000     29.8425    113.9776
   703.5000   2000.0000   2000.0000     29.9724    113.3023
   703.7500   2000.0000   2000.0000     30.0608    111.8651
   704.0000   2000.0000   2000.0000     30.1653    109.3609
   704.2500   2000.0000   2000.0000     30.3912    107.9936
   704.5000   2000.0000   2000.0000     30.8162    106.6404
   704.7500   2000.0000   2000.0000     31.4417    105.9980
   705.0000   2000.0000   2000.0000     32.1972    104.8905
   705.2500   2000.0000   2000.0000     32.9769    103.8787
   705.5000   2000.0000   2000.0000     33.6769    102.1053
   705.7500   2000.0000   2000.0000     34.2141    101.0659
   706.0000   2000.0000   2000.0000     34.5380    100.2207
   706.2500   2000.0000   2000.0000     34.6438    100.1438
   706.5000   2000.0000   2000.0000     34.5769    100.2481
   706.7500   2000.0000   2000.0000     34.4087    100.1124
   707.0000   2000.0000   2000.0000     34.1954     99.3929
   707.2500   2000.0000   2000.0000     33.9450     98.6869
   707.5000   2000.0000   2000.0000     33.6173     97.5218
   707.7500   2000.0000   2000.0000     33.1600     96.6306
   708.0000   2000.0000   2000.0000     32.5664     94.7461
   708.2500   2000.0000   2000.0000     31.9118     92.9634
   708.5000   2000.0000   2000.0000     31.3276     89.8101
   708.7500   2000.0000   2000.0000     30.9245     87.8868
   709.0000   2000.0000   2000.0000     30.7238     85.9884
   709.2500   2000.0000   2000.0000     30.6521     85.4003
   709.5000   2000.0000   2000.0000     30.5988     85.1271
   709.7500   2000.0000   2000.0000     30.4848     85.2545
   710.0000   2000.0000   2000.0000     30.2819     86.2360
   710.2500   2000.0000   2000.0000     29.9822     87.6026
   710.5000   2000.0000   2000.0000     29.5656     90.3974
   710.7500   2000.0000   2000.0000     29.0037     92.2097
   711.0000   2000.0000   2000.0000     28.2848     94.1422
   711.2500   2000.0000   2000.0000     27.4255     95.1460
   711.5000   2000.0000   2000.0000     26.4583     97.6625
   711.7500   2000.0000   2000.0000     25.4119    100.7041
   712.0000   2000.0000   2000.0000     24.3031    106.9731
   712.2500   2000.0000   2000.0000     23.1427    111.3299
   712.5000   2000.0000   2000.0000     21.9459    116.5783
   712.7500   2000.0000   2000.0000     20.7367    119.0030
   713.0000   2000.0000   2000.0000     19.5455    121.8568
   713.2500   2000.0000   2000.0000     18.4045    123.8454
   713.5000   2000.0000   2000.0000     17.3425    127.0940
   713.7500   2000.0000   2000.0000     16.3811    128.9746
   714.0000   2000.0000   2000.0000     15.5280    130.7355
   714.2500   2000.0000   2000.0000     14.7738    131.4321
   714.5000   2000.0000   2000.0000     14.0935    132.9869
   714.7500   2000.0000   2000.0000     13.4556    135.0912
   715.0000   2000.0000   2000.0000     12.8344    140.4531
   715.2500   2000.0000   2000.0000     12.2197    145.3748
   715.5000   2000.0000   2000.0000     11.6177    153.8266
   715.7500   2000.0000   2000.0000     11.0444    159.3438
   716.0000   2000.0000   2000.0000     10.5163    166.0219
   716.2500   2000.0000   2000.0000     10.0442    168.7956
   716.5000   2000.0000   2000.0000      9.6340    169.8491
   716.7500   2000.0000   2000.0000      9.2895    168.4260
   717.0000   2000.0000   2000.0000      9.0144    163.8525
   717.2500   2000.0000   2000.0000      8.8109    160.3248
   717.5000   2000.0000   2000.0000      8.6764    157.0360
   717.7500   2000.0000   2000.0000      8.6003    157.3714
   718.0000   2000.0000   2000.0000      8.5653    161.6705
   718.2500   2000.0000   2000.0000      8.5513    165.9853
   718.5000   2000.0000   2000.0000      8.5410    172.3831
   718.7500   2000.0000   2000.0000      8.5249    175.6984
   719.0000   2000.0000   2000.0000      8.5019    178.6077
   719.2500   2000.0000   2000.0000      8.4779    179.2110
   719.5000   2000.0000   2000.0000      8.4614    178.7160
   719.7500   2000.0000   2000.0000      8.4619    177.8913
   720.0000   2000.0000   2000.0000      8.4883    176.1946
   720.2500   2000.0000   2000.0000      8.5493    174.6254
   720.5000   2000.0000   2000.0000      8.6543    171.6340
   720.7500   2000.0000   2000.0000      8.8129    169.7006
   721.0000   2000.0000   2000.0000      9.0339    168.1226
   721.2500   2000.0000   2000.0000      9.3227    168.3297
   721.5000   2000.0000   2000.0000      9.6796    170.0786
   721.7500   2000.0000   2000.0000     10.1004    171.6327
   722.0000   2000.0000   2000.0000     10.5782    173.9958
   722.2500   2000.0000   2000.0000     11.1037    175.6091
   722.5000   2000.0000   2000.0000     11.6637    178.0099
   722.7500   2000.0000   2000.0000     12.2406    179.1906
   723.0000   2000.0000   2000.0000     12.8161    179.1896
   723.2500   2000.0000   2000.0000     13.3821    177.3985
   723.5000   2000.0000   2000.0000     13.9474    171.4662
   723.7500   2000.0000   2000.0000     14.5339    165.3722
   724.0000   2000.0000   2000.0000     15.1609    153.7842
   724.2500   2000.0000   2000.0000     15.8275    145.3262
   724.5000   2000.0000   2000.0000     16.5060    133.4678
   724.7500   2000.0000   2000.0000     17.1476    127.0162
   725.0000   2000.0000   2000.0000     17.6983    120.0961
   725.2500   2000.0000   2000.0000     18.1153    117.1521
   725.5000   2000.0000   2000.0000     18.3773    114.6194
   725.7500   2000.0000   2000.0000     18.4857    113.9196
   726.0000   2000.0000   2000.0000     18.4599    114.4737
   726.2500   2000.0000   2000.0000     18.3307    116.3499
   726.5000   2000.0000   2000.0000     18.1321    122.1931
   726.7500   2000.0000   2000.0000     17.8937    128.0554
   727.0000   2000.0000   2000.0000     17.6353    138.5460
   727.2500   2000.0000   2000.0000     17.3665    145.6510
   727.5000   2000.0000   2000.0000     17.0900    155.1983
   727.7500   2000.0000   2000.0000     16.8050    160.5063
