~Version Information
VERS.                      2.0: CWLS Log ASCII Standard - VERSION 2.0
WRAP.                       NO: One line per depth step
~Well Information Block
STRT.FT               570.0000: 
STOP.FT              2094.0000: 
STEP.FT                 0.2500: 
NULL.                -999.2500: 
COMP.          XTO Energy Inc.: COMPANY
WELL.          Golden Eagle 19-10: WELL
FLD.           Purgatoire River: FIELD
LOC.           2684' FSL & 1825' FEL: LOCATION
CNTY.               Las Animas: COUNTY
CTRY.                      USA: COUNTRY
API.               05 071 08697:  
SRVC.                Patterson: SERVICE COMPANY
DATE.          Sun Mar 05 02:13:24 2006: LOG DATE
UWI.           05 071 08697 00: UNIQUE WELL ID
STAT.                 Colorado: STATE
~Curve Information Block
DEPT.FT            0 000 00 00: Depth
SP.mV                         : DIL Spontaneous Potential
RILD.Ohm-m                    : DIL Deep Resistivity
RILM.Ohm-m                    : DIL Medium Resistivity
RLL3.Ohm-m                    : DIL Shallow Resistivity
GR.GAPI                       : Gamma Ray
~Parameter Information Block
~A  Depth        SP         RILD        RILM        RLL3         GR     
   570.0000   -999.2500     10.5414 100000.0000   -999.2500     98.5359
   570.2500   -999.2500     10.6305 100000.0000   -999.2500    101.1469
   570.5000   -999.2500     10.7082 100000.0000   -999.2500    105.4509
   570.7500   -999.2500     10.7569 100000.0000   -999.2500    108.3429
   571.0000   -999.2500     10.7680 100000.0000   -999.2500    111.9767
   571.2500   -999.2500     10.7459 100000.0000   -999.2500    113.5845
   571.5000   -999.2500     10.7077 100000.0000   -999.2500    114.6103
   571.7500   -999.2500     10.6772 100000.0000   -999.2500    114.4851
   572.0000   -999.2500     10.6788 100000.0000   -999.2500    113.5779
   572.2500   -999.2500     10.7305 100000.0000   -999.2500    112.9030
   572.5000   -999.2500     10.8400 100000.0000   -999.2500    112.3990
   572.7500   -999.2500     11.0002 100000.0000   -999.2500    112.5650
   573.0000   -999.2500     11.1897 100000.0000   -999.2500    113.5654
   573.2500   -999.2500     11.3774 100000.0000   -999.2500    114.6090
   573.5000   -999.2500     11.5334 100000.0000   -999.2500    116.2304
   573.7500   -999.2500     11.6387 100000.0000   -999.2500    116.9270
   574.0000   -999.2500     11.6883 100000.0000   -999.2500    116.8038
   574.2500   -999.2500     11.6890 100000.0000   -999.2500    115.8410
   574.5000   -999.2500     11.6552 100000.0000   -999.2500    113.3818
   574.7500   -999.2500     11.6058 100000.0000   -999.2500    111.4678
   575.0000   -999.2500     11.5601 100000.0000   -999.2500    109.0164
   575.2500   -999.2500     11.5321 100000.0000   -999.2500    108.0057
   575.5000   -999.2500     11.5236 100000.0000   -999.2500    107.3539
   575.7500   -999.2500     11.5209 100000.0000   -999.2500    107.0075
   576.0000   -999.2500     11.4984 100000.0000   -999.2500    105.5785
   576.2500   -999.2500     11.4291 100000.0000   -999.2500    103.8349
   576.5000   -999.2500     11.3005 100000.0000   -999.2500    100.9724
   576.7500   -999.2500     11.1253 100000.0000   -999.2500     99.8543
   577.0000   -999.2500     10.9381 100000.0000   -999.2500    100.4373
   577.2500   -999.2500     10.7761 100000.0000   -999.2500    102.2063
   577.5000   -999.2500     10.6584 100000.0000   -999.2500    105.6270
   577.7500   -999.2500     10.5778 100000.0000   -999.2500    107.4454
   578.0000   -999.2500     10.5059 100000.0000   -999.2500    108.2424
   578.2500   -999.2500     10.4049 100000.0000   -999.2500    107.2625
   578.5000   -999.2500     10.2397 100000.0000   -999.2500    103.8851
   578.7500   -999.2500      9.9901 100000.0000   -999.2500    100.7242
   579.0000   -999.2500      9.6617 100000.0000   -999.2500     95.1061
   579.2500   -999.2500      9.2902 100000.0000   -999.2500     90.9403
   579.5000   -999.2500      8.9313 100000.0000   -999.2500     84.1957
   579.7500   -999.2500      8.6370 100000.0000   -999.2500     79.4438
   580.0000   -999.2500      8.4356 100000.0000   -999.2500     72.2892
   580.2500   -999.2500      8.3243 100000.0000   -999.2500     67.9082
   580.5000   -999.2500      8.2769 100000.0000   -999.2500     62.8861
   580.7500   -999.2500      8.2601 100000.0000   -999.2500     61.2195
   581.0000   -999.2500      8.2518 100000.0000   -999.2500     62.1679
   581.2500   -999.2500      8.2509 100000.0000   -999.2500     65.2141
   581.5000   -999.2500      8.2735 100000.0000   -999.2500     72.4032
   581.7500   -999.2500      8.3408 100000.0000   -999.2500     77.7835
   582.0000   -999.2500      8.4688 100000.0000   -999.2500     84.7443
   582.2500   -999.2500      8.6635 100000.0000   -999.2500     88.0662
   582.5000   -999.2500      8.9240 100000.0000   -999.2500     91.4065
   582.7500   -999.2500      9.2485 100000.0000   -999.2500     93.1726
   583.0000   -999.2500      9.6414 100000.0000   -999.2500     95.9420
   583.2500   -999.2500     10.1147 100000.0000   -999.2500     97.8260
   583.5000   -999.2500     10.6830 100000.0000   -999.2500     99.8946
   583.7500   -999.2500     11.3449 100000.0000   -999.2500    100.2862
   584.0000   -999.2500     12.0562 100000.0000   -999.2500     99.2862
   584.2500   -999.2500     12.7130 100000.0000   -999.2500     97.9526
   584.5000   -999.2500     13.1816 100000.0000   -999.2500     95.8226
   584.7500   -999.2500     13.3781 100000.0000   -999.2500     94.6527
   585.0000   -999.2500     13.3401 100000.0000   -999.2500     93.4355
   585.2500   -999.2500     13.2243 100000.0000   -999.2500     92.8688
   585.5000   -999.2500     13.2533 100000.0000   -999.2500     91.8612
   585.7500   -999.2500     13.6795 100000.0000   -999.2500     90.7034
   586.0000   -999.2500     14.7906 100000.0000   -999.2500     87.9164
   586.2500   -999.2500     16.9133 100000.0000   -999.2500     85.5457
   586.5000   -999.2500     20.2558 100000.0000   -999.2500     82.0273
   586.7500   -999.2500     24.1998 100000.0000   -999.2500     80.1862
   587.0000   -999.2500     26.3025 100000.0000   -999.2500     78.6566
   587.2500   -999.2500     24.3391 100000.0000   -999.2500     78.5162
   587.5000   -999.2500     20.0291 100000.0000   -999.2500     79.3210
   587.7500   -999.2500     16.1243 100000.0000   -999.2500     80.0696
   588.0000   -999.2500     13.4860 100000.0000   -999.2500     80.5746
   588.2500   -999.2500     11.9393 100000.0000   -999.2500     80.3177
   588.5000   -999.2500     11.1883 100000.0000   -999.2500     79.6405
   588.7500   -999.2500     11.0899 100000.0000   -999.2500     79.3570
   589.0000   -999.2500     11.7184 100000.0000   -999.2500     78.7846
   589.2500   -999.2500     13.3977 100000.0000   -999.2500     77.6346
   589.5000   -999.2500     16.6443 100000.0000   -999.2500     74.0554
   589.7500   -999.2500     21.2610 100000.0000   -999.2500     70.5957
   590.0000   -999.2500     23.3181 100000.0000   -999.2500     64.5833
   590.2500   -999.2500     18.7677 100000.0000   -999.2500     60.4510
   590.5000   -999.2500     12.7636 100000.0000   -999.2500     54.7613
   590.7500   -999.2500      8.9917 100000.0000   -999.2500     51.8452
   591.0000   -999.2500      7.0955 100000.0000   -999.2500     49.6401
   591.2500   -999.2500      6.3099 100000.0000   -999.2500     49.6471
   591.5000   -999.2500      6.2003 100000.0000   -999.2500     50.9563
   591.7500   -999.2500      6.5159 100000.0000   -999.2500     51.9992
   592.0000   -999.2500      6.9606 100000.0000   -999.2500     53.0634
   592.2500   -999.2500      6.9888 100000.0000   -999.2500     53.3061
   592.5000   -999.2500      6.1070 100000.0000   -999.2500     53.1108
   592.7500   -999.2500      4.6653 100000.0000   -999.2500     52.8695
   593.0000   -999.2500      3.4161 100000.0000   -999.2500     52.9425
   593.2500   -999.2500      2.6399 100000.0000   -999.2500     53.5452
   593.5000   -999.2500      2.2850     35.9151   -999.2500     55.2445
   593.7500   -999.2500      2.2840     14.6354   -999.2500     56.5684
   594.0000   -999.2500      2.6804     10.2579   -999.2500     58.0580
   594.2500   -999.2500      3.7583      8.8390   -999.2500     58.4504
   594.5000   -999.2500      6.6277      8.6906   -999.2500     58.2405
   594.7500   -999.2500     18.9686      9.4967   -999.2500     57.8045
   595.0000   -999.2500 100000.0000     11.4254   -999.2500     57.0445
   595.2500   -999.2500 100000.0000     15.1586   -999.2500     56.6230
   595.5000   -999.2500 100000.0000     22.5955   -999.2500     56.3920
   595.7500   -999.2500 100000.0000     40.3976   -999.2500     56.5168
   596.0000   -999.2500 100000.0000    116.5208   -999.2500     56.5846
   596.2500   -999.2500 100000.0000 100000.0000   -999.2500     56.0852
   596.5000   -999.2500 100000.0000 100000.0000   -999.2500     54.2503
   596.7500   -999.2500 100000.0000 100000.0000   -999.2500     52.6220
   597.0000   -999.2500 100000.0000 100000.0000   -999.2500     50.4148
   597.2500   -999.2500 100000.0000 100000.0000   -999.2500     49.4395
   597.5000   -999.2500    112.0764 100000.0000   -999.2500     49.0526
   597.7500   -999.2500     73.1003 100000.0000   -999.2500     49.6737
