~Version Information
VERS.                      2.0: CWLS Log ASCII Standard - VERSION 2.0
WRAP.                       NO: One line per depth step
~Well Information Block
STRT.FT               245.0000: 
STOP.FT              1273.7500: 
STEP.FT                 0.2500: 
NULL.                -999.2500: 
COMP.          Pioneer Natural Resources: COMPANY
WELL.                 Ray 34-6: WELL
FLD.           Purgatoire River: FIELD
LOC.           684' FSL & 2254' FEL--: LOCATION
CNTY.               Las Animas: COUNTY
SRVC.                Patterson: SERVICE COMPANY
DATE.          Fri May 26 03:08:09 2006: LOG DATE
UWI.           05 071 08695 00: UNIQUE WELL ID
STAT.                 Colorado: STATE
~Curve Information Block
DEPT.FT            0 000 00 00: Depth
SN.Ohm-m                      : IEL Short Normal
SP.mV                         : IEL Spontaneous Potential
DIR.Ohm-m                     : IEL Induction Resistivity
GR.GAPI                       : Gamma Ray
~Parameter Information Block
~A  Depth        SN          SP         DIR          GR     
# ...
   982.0000    685.7410   -563.8157     12.8894     77.1413
   982.2500    685.7410   -563.8099     13.2404     76.1522
   982.5000    685.7410   -563.8022     13.6058     76.3701
   982.7500    685.7410   -563.7933     13.9671     77.1976
   983.0000    685.7410   -563.7837     14.3100     78.7792
   983.2500    685.7410   -563.7742     14.6255     79.9410
   983.5000    685.7410   -563.7651     14.9080     81.9905
   983.7500    685.7410   -563.7570     15.1512     83.6239
   984.0000    685.7410   -563.7500     15.3479     86.1960
   984.2500    685.7410   -563.7440     15.4935     87.6223
   984.5000    685.7410   -563.7387     15.5910     88.7471
   984.7500    685.7410   -563.7340     15.6532     88.7510
   985.0000    685.7410   -563.7295     15.6975     88.0396
   985.2500    685.7410   -563.7251     15.7384     87.4066
   985.5000    685.7410   -563.7205     15.7820     86.4620
   985.7500    685.7410   -563.7158     15.8266     85.7746
   986.0000    685.7410   -563.7110     15.8691     84.5127
   986.2500    685.7410   -563.7062     15.9116     83.5067
   986.5000    685.7410   -563.7016     15.9644     81.8363
   986.7500    685.7410   -563.6974     16.0419     80.7329
   987.0000    685.7410   -563.6937     16.1522     79.4344
   987.2500    685.7410   -563.6908     16.2879     79.0204
   987.5000    685.7410   -563.6888     16.4261     79.2747
   987.7500    685.7410   -563.6877     16.5397     79.9427
   988.0000    685.7410   -563.6876     16.6154     81.1339
   988.2500    685.7410   -563.6883     16.6642     81.6765
   988.5000    685.7410   -563.6897     16.7140     81.9641
   988.7500    685.7410   -563.6915     16.7921     82.0614
   989.0000    685.7410   -563.6935     16.9107     82.5067
   989.2500    685.7410   -563.6953     17.0663     82.9905
   989.5000    685.7410   -563.6968     17.2495     83.7001
   989.7500    685.7410   -563.6976     17.4570     84.0971
   990.0000    685.7410   -563.6978     17.6963     84.7533
   990.2500    685.7410   -563.6970     17.9795     85.2873
   990.5000    685.7410   -563.6955     18.3107     85.8764
   990.7500    685.7410   -563.6933     18.6746     85.7488
   991.0000    685.7410   -563.6906     19.0345     84.4500
   991.2500    685.7410   -563.6874     19.3387     83.0896
   991.5000    685.7410   -563.6841     19.5318     81.3011
   991.7500    685.7410   -563.6808     19.5698     80.8899
   992.0000    685.7410   -563.6776     19.4349     82.0842
   992.2500    685.7410   -563.6745     19.1428     84.1186
   992.5000    685.7410   -563.6716     18.7370     88.6008
   992.7500    685.7410   -563.6690     18.2715     92.2268
   993.0000    685.7410   -563.6666     17.7955     98.2713
   993.2500    685.7410   -563.6641     17.3465    102.5059
   993.5000    685.7410   -563.6616     16.9499    108.3511
   993.7500    685.7410   -563.6588     16.6210    111.1100
   994.0000    685.7410   -563.6555     16.3672    112.2321
   994.2500    685.7410   -563.6517     16.1901    110.7332
   994.5000    685.7410   -563.6473     16.0887    106.0575
   994.7500    685.7410   -563.6420     16.0601    102.4030
   995.0000    685.7410   -563.6359     16.0987     97.7136
   995.2500    685.7410   -563.6289     16.1940     95.4279
   995.5000    685.7410   -563.6210     16.3308     92.9064
   995.7500    685.7410   -563.6123     16.4932     91.5402
   996.0000    685.7410   -563.6030     16.6705     89.7433
   996.2500    685.7410   -563.5931     16.8592     88.6876
   996.5000    685.7410   -563.5829     17.0605     87.3056
   996.7500    685.7410   -563.5729     17.2772     86.5412
   997.0000    685.7410   -563.5632     17.5143     85.7417
   997.2500    685.7410   -563.5541     17.7812     85.5031
   997.5000    685.7410   -563.5461     18.0923     85.5045
   997.7500    685.7410   -563.5391     18.4629     85.4912
   998.0000    685.7410   -563.5333     18.9042     84.7297
   998.2500    685.7410   -563.5287     19.4220     83.3641
   998.5000    685.7410   -563.5251     20.0193     79.9403
   998.7500    685.7410   -563.5223     20.6988     77.0239
   999.0000    685.7410   -563.5200     21.4610     72.3636
   999.2500    685.7410   -563.5181     22.2995     86.7295
   999.5000    685.7410   -563.5162     23.1961     81.9876
   999.7500    685.7410   -563.5142     24.1209     79.7659
  1000.0000    685.7410   -563.5121     25.0370     78.2733
  1000.2500    685.7410   -563.5099     25.9081     94.0888
  1000.5000    685.7410   -563.5079     26.7022     95.3217
  1000.7500    685.7410   -563.5060     27.3905     95.9881
  1001.0000    685.7410   -563.5044     27.9426     96.0290
  1001.2500    685.7410   -563.5032     28.3238     95.7035
  1001.5000    685.7410   -563.5024     28.5004     95.6244
  1001.7500    685.7410   -563.5018     28.4519     95.9078
  1002.0000    685.7410   -563.5013     28.1856     96.0080
  1002.2500    685.7410   -563.5006     27.7410     95.5744
  1002.5000    685.7410   -563.4995     27.1816     95.0227
  1002.7500    685.7410   -563.4975     26.5751     95.5934
  1003.0000    685.7410   -563.4946     25.9762     98.5944
  1003.2500    685.7410   -563.4905     25.4212    101.7624
  1003.5000    685.7410   -563.4855     24.9311    107.2379
  1003.7500    685.7410   -563.4794     24.5169    110.7559
  1004.0000    685.7410   -563.4725     24.1804    114.7991
  1004.2500    685.7410   -563.4648     23.9135    116.1337
  1004.5000    685.7410   -563.4567     23.7001    115.8307
  1004.7500    685.7410   -563.4482     23.5233    114.4515
  1005.0000    685.7410   -563.4393     23.3752    111.4421
  1005.2500    685.7410   -563.4302     23.2600    109.0147
  1005.5000    685.7410   -563.4207     23.1870    104.8652
  1005.7500    685.7410   -563.4109     23.1584    102.0993
  1006.0000    685.7410   -563.4008     23.1636     99.0330
  1006.2500    685.7410   -563.3903     23.1852     98.2038
  1006.5000    685.7410   -563.3798     23.2087     98.6406
  1006.7500    685.7410   -563.3691     23.2276     99.4180
  1007.0000    685.7410   -563.3585     23.2415    100.0435
  1007.2500    685.7410   -563.3480     23.2541     99.7110
  1007.5000    685.7410   -563.3378     23.2742     98.2562
  1007.7500    685.7410   -563.3279     23.3146     97.0062
  1008.0000    685.7410   -563.3183     23.3889     95.2011
  1008.2500    685.7410   -563.3090     23.5101     94.1249
  1008.5000    685.7410   -563.2999     23.6924     92.4827
  1008.7500    685.7410   -563.2908     23.9521     91.0506
  1009.0000    685.7410   -563.2817     24.3033     87.7562
  1009.2500    685.7410   -563.2723     24.7504     84.7219
  1009.5000    685.7410   -563.2625     25.2836     79.8205
  1009.7500    685.7410   -563.2524     25.8828     77.2898
  1010.0000    685.7410   -563.2419     26.5280     75.9490
  1010.2500    685.7410   -563.2310     27.2119     76.7845
  1010.5000    685.7410   -563.2198     27.9444     79.5634
  1010.7500    685.7410   -563.2085     28.7415     81.5554
  1011.0000    685.7410   -563.1971     29.6039     83.7645
  1011.2500    685.7410   -563.1860     30.5000     84.5725
  1011.5000    685.7410   -563.1752     31.3685     84.7558
  1011.7500    685.7410   -563.1649     32.1462     84.0269
  1012.0000    685.7410   -563.1551     32.8044     81.3510
  1012.2500    685.7410   -563.1461     33.3629     78.7073
  1012.5000    685.7410   -563.1378     33.8688     74.6427
  1012.7500    685.7410   -563.1303     34.3603     72.6479
  1013.0000    685.7410   -563.1238     34.8487     71.2559
  1013.2500    685.7410   -563.1181     35.3233     71.1585
  1013.5000    685.7410   -563.1134     35.7636     71.7276
  1013.7500    685.7410   -563.1096     36.1378     72.5631
  1014.0000    685.7410   -563.1069     36.3953     74.6315
  1014.2500    685.7410   -563.1051     36.4692     76.2764
  1014.5000    685.7410   -563.1043     36.2988     77.9690
  1014.7500    685.7410   -563.1043     35.8603     77.9946
  1015.0000    685.7410   -563.1050     35.1898     76.4781
  1015.2500    685.7410   -563.1063     34.3806     75.1481
