~Version Information
VERS.                      2.0: CWLS Log ASCII Standard - VERSION 2.0
WRAP.                       NO: One line per depth step
~Well Information Block
STRT.FT               615.0000: 
STOP.FT              2807.0000: 
STEP.FT                 0.1000: 
NULL.                -999.2500: 
COMP.          Pioneer Natural Resources: COMPANY
WELL.              Loews 41-32: WELL
FLD.           Purgatoire River: FIELD
LOC.           751' FNL & 128' FEL: LOCATION
CNTY.               Las Animas: COUNTY
SRVC.                Patterson: SERVICE COMPANY
DATE.          Mon Feb 13 07:19:27 2006: LOG DATE
UWI.           05 071 08693 00: UNIQUE WELL ID
STAT.                 Colorado: STATE
~Curve Information Block
DEPT.FT            0 000 00 00: Depth
DCAL.in                       : CDL Caliper
RHOB.g/cc                     : CDL Bulk Density
RHOC.g/cc                     : CDL Density Correction
DPOR.pu                       : CDL Density Porosity
GR.GAPI                       : Gamma Ray
NPOR.pu                       : Neutron Porosity
~Parameter Information Block
~A  Depth       DCAL        RHOB        RHOC        DPOR         GR         NPOR    
# ...
  2794.2000      7.8503      2.5421      0.0344      6.5398    105.3482   -999.2500
  2794.3000      7.8499      2.5368      0.0283      6.8581     94.4787   -999.2500
  2794.4000      7.8499      2.5391      0.0717      6.7201     87.0948   -999.2500
  2794.5000      7.8500      2.5345      0.0040      7.0029     81.9455   -999.2500
  2794.6000      7.8500      2.5217      0.0559      7.7746     79.9141   -999.2500
  2794.7000      7.8500      2.5036      0.0389      8.8728     80.2564   -999.2500
  2794.8000      7.8416      2.4861      0.0220      9.9342     81.5056   -999.2500
  2794.9000      7.8416      2.4812      0.0251     10.2295     80.3036   -999.2500
  2795.0000      7.8432      2.4892      0.0459      9.7435     75.2726   -999.2500
  2795.1000      7.8432      2.4932      0.0670      9.5051     69.6995   -999.2500
  2795.2000      7.8432      2.4811      0.0332     10.2384     67.4544   -999.2500
  2795.3000      7.8539      2.4640      0.0111     11.2716     68.5125   -999.2500
  2795.4000      7.8539      2.4566      0.0089     11.7199     69.6668   -999.2500
  2795.5000      7.8557      2.4561      0.0382     11.7505     65.6105   -999.2500
  2795.6000      7.8557      2.4618      0.0091     11.4045     49.9062   -999.2500
  2795.7000      7.8557      2.4806      0.0520     10.2688     26.2004   -999.2500
  2795.8000      7.8562      2.5024      0.0545      8.9465      8.4399   -999.2500
  2795.9000      7.8562      2.5135      0.0483      8.2713      1.5551   -999.2500
  2796.0000      7.8562      2.5209      0.0294      7.8241      0.1576   -999.2500
  2796.1000      7.8562      2.5349      0.0515      6.9745      0.0084   -999.2500
  2796.2000      7.8562      2.5479      0.0801      6.1859      0.0000   -999.2500
  2796.3000      7.8766      2.5497      0.0714      6.0782   -999.2500   -999.2500
  2796.4000      7.8766      2.5407      0.0710      6.6269   -999.2500   -999.2500
  2796.5000      7.8806      2.5240      0.0692      7.6344   -999.2500   -999.2500
  2796.6000      7.8806      2.5051      0.0437      8.7791   -999.2500   -999.2500
  2796.7000      7.8806      2.4978     -0.0129      9.2230   -999.2500   -999.2500
  2796.8000      7.8398      2.5102      0.0446      8.4736   -999.2500   -999.2500
  2796.9000      7.8398      2.5225      0.0928      7.7277   -999.2500   -999.2500
  2797.0000      7.8332      2.5147      0.0479      8.2001   -999.2500   -999.2500
  2797.1000      7.8332      2.5001      0.0177      9.0825   -999.2500   -999.2500
  2797.2000      7.8332      2.4986      0.0482      9.1777   -999.2500   -999.2500
  2797.3000      7.8464      2.5077      0.0247      8.6265   -999.2500   -999.2500
  2797.4000      7.8464      2.5165      0.0473      8.0918   -999.2500   -999.2500
  2797.5000      7.8371      2.5210      0.0313      7.8169   -999.2500   -999.2500
  2797.6000      7.8371      2.5197      0.0334      7.8994   -999.2500   -999.2500
  2797.7000      7.8371      2.5098      0.0137      8.4949   -999.2500   -999.2500
  2797.8000      7.8356      2.4983      0.0370      9.1957   -999.2500   -999.2500
  2797.9000      7.8356      2.4998     -0.0131      9.1035   -999.2500   -999.2500
  2798.0000      7.8390      2.5197      0.0142      7.8974   -999.2500   -999.2500
  2798.1000      7.8390      2.5411      0.0347      6.5973   -999.2500   -999.2500
  2798.2000      7.8390      2.5472      0.0386      6.2314   -999.2500   -999.2500
  2798.3000      7.8373      2.5386      0.0371      6.7530   -999.2500   -999.2500
  2798.4000      7.8373      2.5250      0.0723      7.5761   -999.2500   -999.2500
  2798.5000      7.8386      2.5185      0.0078      7.9715   -999.2500   -999.2500
  2798.6000      7.8386      2.5222      0.0380      7.7456   -999.2500   -999.2500
  2798.7000      7.8386      2.5266      0.0291      7.4817   -999.2500   -999.2500
  2798.8000      7.8390      2.5276      0.0133      7.4158   -999.2500   -999.2500
  2798.9000      7.8390      2.5275      0.0311      7.4256   -999.2500   -999.2500
  2799.0000      7.8373      2.5240      0.0315      7.6372   -999.2500   -999.2500
  2799.1000      7.8373      2.5183      0.0178      7.9791   -999.2500   -999.2500
  2799.2000      7.8373      2.5170      0.0228      8.0611   -999.2500   -999.2500
  2799.3000      7.8282      2.5218      0.0471      7.7685   -999.2500   -999.2500
  2799.4000      7.8282      2.5284      0.0453      7.3706   -999.2500   -999.2500
  2799.5000      7.8279      2.5329      0.0485      7.0965   -999.2500   -999.2500
  2799.6000      7.8279      2.5321      0.0428      7.1471   -999.2500   -999.2500
  2799.7000      7.8279      2.5267      0.0199      7.4756   -999.2500   -999.2500
  2799.8000      7.8294      2.5226      0.0798      7.7198   -999.2500   -999.2500
  2799.9000      7.8294      2.5217      0.0501      7.7784   -999.2500   -999.2500
  2800.0000      7.8225      2.5204      0.0605      7.8560   -999.2500   -999.2500
  2800.1000      7.8225      2.5093      0.0643      8.5257   -999.2500   -999.2500
  2800.2000      7.8225      2.4884      0.0202      9.7952   -999.2500   -999.2500
  2800.3000      7.8265      2.4787     -0.0123     10.3799   -999.2500   -999.2500
  2800.4000      7.8265      2.4915      0.0042      9.6062   -999.2500   -999.2500
  2800.5000      7.8324      2.5083      0.0633      8.5903   -999.2500   -999.2500
  2800.6000      7.8324      2.5082      0.0556      8.5909   -999.2500   -999.2500
  2800.7000      7.8324      2.4965      0.0120      9.3021   -999.2500   -999.2500
  2800.8000      7.8254      2.4892      0.0457      9.7465   -999.2500   -999.2500
  2800.9000      7.8254      2.4880      0.0136      9.8189   -999.2500   -999.2500
  2801.0000      7.8196      2.4880      0.0565      9.8168   -999.2500   -999.2500
  2801.1000      7.8196      2.4915      0.0109      9.6032   -999.2500   -999.2500
  2801.2000      7.8196      2.5087      0.0149      8.5625   -999.2500   -999.2500
  2801.3000      7.8197      2.5347      0.0612      6.9889   -999.2500   -999.2500
  2801.4000      7.8197      2.5447      0.0974      6.3809   -999.2500   -999.2500
  2801.5000      7.8199      2.5356      0.0259      6.9322   -999.2500   -999.2500
  2801.6000      7.8199      2.5308      0.0421      7.2241   -999.2500   -999.2500
  2801.7000      7.8199      2.5396      0.0215      6.6897   -999.2500   -999.2500
  2801.8000      7.8222      2.5490      0.0669      6.1228   -999.2500   -999.2500
  2801.9000      7.8222      2.5437      0.0486      6.4441   -999.2500   -999.2500
  2802.0000      7.8204      2.5251      0.0294      7.5683   -999.2500   -999.2500
  2802.1000      7.8204      2.5049      0.0129      8.7954   -999.2500   -999.2500
  2802.2000      7.8204      2.4908      0.0234      9.6478   -999.2500   -999.2500
  2802.3000      7.8156      2.4868      0.0176      9.8927   -999.2500   -999.2500
  2802.4000      7.8156      2.4956     -0.0034      9.3561   -999.2500   -999.2500
  2802.5000      7.8199      2.5107      0.0193      8.4427   -999.2500   -999.2500
  2802.6000      7.8199      2.5162      0.0274      8.1082   -999.2500   -999.2500
  2802.7000      7.8199      2.5114      0.0175      8.3992   -999.2500   -999.2500
  2802.8000      7.8046      2.5103      0.0176      8.4666   -999.2500   -999.2500
  2802.9000      7.8046      2.5180      0.0283      7.9975   -999.2500   -999.2500
  2803.0000      7.8031      2.5297      0.0482      7.2911   -999.2500   -999.2500
  2803.1000      7.8031      2.5422      0.0467      6.5325   -999.2500   -999.2500
  2803.2000      7.8031      2.5509      0.0415      6.0060   -999.2500   -999.2500
  2803.3000      7.8033      2.5507      0.0234      6.0207   -999.2500   -999.2500
  2803.4000      7.8033      2.5432      0.0447      6.4730   -999.2500   -999.2500
  2803.5000      7.7965      2.5322      0.0297      7.1395   -999.2500   -999.2500
  2803.6000      7.7965      2.5233      0.0212      7.6780   -999.2500   -999.2500
  2803.7000      7.7965      2.5266      0.0077      7.4782   -999.2500   -999.2500
