~Version Information
VERS.                      2.0: CWLS Log ASCII Standard - VERSION 2.0
WRAP.                       NO: One line per depth step
~Well Information Block
STRT.FT                -2.7500: 
STOP.FT               973.2500: 
STEP.FT                 0.2500: 
NULL.                -999.2500: 
COMP.          Pioneer Natural Resources: COMPANY
WELL.          Red Raider 22-15: WELL
FLD.           Purgatoire River: FIELD
LOC.           1809' FNL & 2107' FWL: LOCATION
CNTY.               Las Animas: COUNTY
SRVC.                Patterson: SERVICE COMPANY
DATE.          Mon Apr 17 16:50:50 2006: LOG DATE
UWI.           05 071 08718 00: UNIQUE WELL ID
STAT.                 Colorado: STATE
~Curve Information Block
DEPT.FT            0 000 00 00: Depth
GR.GAPI                       : Gamma Ray
CCL.                          : Casing Collar Locator
TT3.usec                      : CBL 3' Travel Time
AMP3.mV                       : CBL 3' Amplitude
~Parameter Information Block
~A  Depth        GR         CCL         TT3         AMP3    
# ...
   633.7500    137.5843      0.0000    555.0898     11.2544
   634.0000    136.0585      0.0000    561.1264     11.3133
   634.2500    133.0458      0.0000    543.5226     11.3628
   634.5000    129.5238      0.0000    515.9864     11.3822
   634.7500    126.0412      0.0000    501.0983     11.3675
   635.0000    122.2947      0.0000    512.2714     11.3329
   635.2500    117.8663      0.0000    544.1630     11.2999
   635.5000    113.0842      0.0000    578.7056     11.2825
   635.7500    108.8490      0.0000    597.5667     11.2816
   636.0000    105.8501      0.0000    591.2830     11.2919
   636.2500    104.2104      0.0000    563.6348     11.3107
   636.5000    103.6006      0.0000    530.5561     11.3361
   636.7500    103.4570      0.0000    511.4229     11.3583
   637.0000    103.3710      0.0000    517.5104     11.3588
   637.2500    103.3383      0.0000    546.9402     11.3214
   637.5000    103.3391      0.0000    588.1765     11.2447
   637.7500    102.7157      0.0000    627.4657     11.1450
   638.0000    100.3610      0.0000    655.6843     11.0477
   638.2500     95.7943      0.0000    671.2219     10.9738
   638.5000     90.1275      0.0000    677.6647     10.9318
   638.7500     85.7680      0.0000    679.4913     10.9178
   639.0000     84.7028      0.0000    679.6039     10.9229
   639.2500     86.8200      0.0000    679.2468     10.9386
   639.5000     90.1395      0.0000    678.7507     10.9575
   639.7500     92.8070      0.0000    677.9434     10.9727
   640.0000     94.7290      0.0000    676.1451     10.9788
   640.2500     97.3369      0.0000    671.9551     10.9733
   640.5000    101.9876      0.0000    663.7974     10.9565
   640.7500    108.5424      0.0000    651.9370     10.9315
   641.0000    115.3200      0.0000    640.4750     10.9023
   641.2500    120.2711      0.0000    635.7247     10.8722
   641.5000    122.1661      0.0000    640.8041     10.8413
   641.7500    120.9912      0.0000    652.4430     10.8089
   642.0000    117.7279      0.0000    664.2211     10.7765
   642.2500    113.8239      0.0000    672.0125     10.7500
   642.5000    110.4538      0.0000    675.6240     10.7378
   642.7500    108.0549      0.0000    676.7626     10.7481
   643.0000    106.5457      0.0000    676.9240     10.7850
   643.2500    105.7912      0.0000    676.7964     10.8485
   643.5000    105.7467      0.0000    676.5458     10.9340
   643.7500    106.3876      0.0000    676.1714     11.0325
   644.0000    107.6382      0.0000    675.7384     11.1306
   644.2500    109.2454      0.0000    675.3001     11.2120
   644.5000    110.8017      0.0000    674.5604     11.2643
   644.7500    112.1343      0.0000    672.3713     11.2877
   645.0000    113.5487      0.0000    666.8974     11.2961
   645.2500    115.3224      0.0000    657.4280     11.3047
   645.5000    117.1016      0.0000    646.8120     11.3143
   645.7500    118.3897      0.0000    640.8496     11.3104
   646.0000    119.7399      0.0000    643.4271     11.2771
   646.2500    122.7805      0.0000    652.6743     11.2106
   646.5000    128.3869      0.0000    663.1290     11.1206
   646.7500    135.1084      0.0000    670.7906     11.0234
   647.0000    140.0120      0.0000    675.0773     10.9349
   647.2500    141.0572      0.0000    677.2002     10.8657
   647.5000    138.4704      0.0000    678.2400     10.8214
   647.7500    134.1926      0.0000    678.4181     10.8057
   648.0000    130.4111      0.0000    676.8837     10.8235
   648.2500    128.4577      0.0000    671.2791     10.8765
   648.5000    128.4258      0.0000    657.8651     10.9558
   648.7500    129.3192      0.0000    633.8566     11.0382
   649.0000    129.7176      0.0000    602.0768     11.0966
   649.2500    128.8262      0.0000    573.4222     11.1183
   649.5000    127.1367      0.0000    561.7602     11.1115
   649.7500    125.9490      0.0000    573.5287     11.0971
   650.0000    126.0613      0.0000    602.2448     11.0918
   650.2500    126.8333      0.0000    633.9713     11.0983
   650.5000    126.4688      0.0000    657.6505     11.1064
   650.7500    123.2499      0.0000    670.0312     11.1040
   651.0000    116.7348      0.0000    672.7813     11.0897
   651.2500    108.0960      0.0000    667.2350     11.0737
   651.5000     99.4433      0.0000    652.3889     11.0681
   651.7500     92.7885      0.0000    628.0666     11.0771
   652.0000     89.3003      0.0000    600.6226     11.0945
   652.2500     88.9889      0.0000    583.6682     11.1102
   652.5000     90.9627      0.0000    588.8479     11.1167
   652.7500     94.2308      0.0000    614.5004     11.1084
   653.0000     98.1895      0.0000    646.2861     11.0774
   653.2500    102.1133      0.0000    669.8860     11.0136
   653.5000    104.6281      0.0000    680.9648     10.9134
   653.7500    104.4508      0.0000    683.6077     10.7871
   654.0000    101.7194      0.0000    683.4106     10.6547
   654.2500     98.1267      0.0000    683.7521     10.5395
   654.5000     95.4919      0.0000    686.1097     10.4648
   654.7500     94.3392      0.0000    690.9646     10.4492
   655.0000     94.0953      0.0000    697.5981     10.4961
   655.2500     94.5608      0.0000    703.9949     10.5896
   655.5000     96.6944      0.0000    708.3134     10.7067
   655.7500    101.6939      0.0000    710.8445     10.8314
   656.0000    109.4820      0.0000    713.8801     10.9546
   656.2500    118.2965      0.0000    719.4935     11.0602
   656.5000    125.6103      0.0000    727.8783     11.1191
   656.7500    129.5811      0.0000    737.5337     11.1029
   657.0000    130.1585      0.0000    746.4583     11.0052
   657.2500    128.8724      0.0000    753.4008     10.8490
   657.5000    127.2623      0.0000    758.2947     10.6744
   657.7500    125.6380      0.0000    761.1072     10.5154
   658.0000    123.5305      0.0000    759.9911     10.3849
   658.2500    120.8536      0.0000    751.4340     10.2794
   658.5000    118.1617      0.0000    733.7977     10.1963
   658.7500    116.0688      0.0000    711.3674     10.1421
   659.0000    114.9079      0.0000    693.7855     10.1234
   659.2500    114.8721      0.0000    689.8336     10.1337
   659.5000    116.0953      0.0000    700.8180     10.1538
   659.7500    118.5035      0.0000    719.8268     10.1634
   660.0000    121.6810      0.0000    737.3973     10.1503
   660.2500    124.9434      0.0000    747.8957     10.1084
   660.5000    127.5418      0.0000    751.1813     10.0331
   660.7500    128.8059      0.0000    750.1201      9.9209
   661.0000    128.2055      0.0000    747.9088      9.7767
   661.2500    125.5475      0.0000    746.8393      9.6241
   661.5000    121.1671      0.0000    747.6629      9.5152
   661.7500    115.6877      0.0000    749.4323      9.5347
   662.0000    109.5629      0.0000    750.3491      9.7731
   662.2500    103.0615      0.0000    749.1890     10.2594
   662.5000     96.6367      0.0000    746.4143     10.9036
   662.7500     91.1131      0.0000    744.3531     11.5186
   663.0000     87.5502      0.0000    745.7694     11.9290
   663.2500     86.8325      0.0000    751.4009     12.0792
   663.5000     88.9856      0.0000    759.0984     12.0474
   663.7500     92.7163      0.0000    765.6966     11.9569
   664.0000     95.9031      0.0000    769.2192     11.8770
   664.2500     96.7786      0.0000    769.5178     11.7931
   664.5000     94.6853      0.0000    768.2148     11.6563
   664.7500     89.9580      0.0000    768.0010     11.4514
   665.0000     83.3939      0.0000    770.3199     11.1993
   665.2500     75.8111      0.0000    773.6239     10.8783
   665.5000     67.8932      0.0000    775.2646     10.3896
   665.7500     60.1960      0.0000    775.1199      9.6792
   666.0000     53.0672      0.0000    776.0215      8.8673
   666.2500     46.6136      0.0000    780.3108      8.1665
   666.5000     41.0282      0.0000    787.1304      7.6916
   666.7500     37.0116      0.0000    793.6505      7.4125
   667.0000     35.5659      3.0000    797.9434      7.2622
