~Version Information
VERS.                      2.0: CWLS Log ASCII Standard - VERSION 2.0
WRAP.                       NO: One line per depth step
~Well Information Block
STRT.FT               655.0000: 
STOP.FT              2623.7500: 
STEP.FT                 0.2500: 
NULL.                -999.2500: 
COMP.          Pioneer Natural Resources: COMPANY
WELL.             Aviator 12-4: WELL
FLD.           Purgatoire River: FIELD
LOC.           1969' FNL & 732' FWL--: LOCATION
CNTY.               Las Animas: COUNTY
SRVC.                Patterson: SERVICE COMPANY
DATE.          Sun Apr 09 14:25:03 2006: LOG DATE
UWI.           05 071 08714 00: UNIQUE WELL ID
STAT.                 Colorado: STATE
~Curve Information Block
DEPT.FT            0 000 00 00: Depth
SN.Ohm-m                      : IEL Short Normal
SP.mV                         : IEL Spontaneous Potential
DIR.Ohm-m                     : IEL Induction Resistivity
GR.GAPI                       : Gamma Ray
~Parameter Information Block
~A  Depth        SN          SP         DIR          GR     
# ...
  1961.5000      8.3289     19.9330      7.0793    147.4729
  1961.7500      8.3561     19.9224      7.2163    145.0180
  1962.0000      8.3501     19.8918      7.3642    139.6701
  1962.2500      8.3395     19.8407      7.5214    135.9329
  1962.5000      8.4080     19.7694      7.6920    132.0879
  1962.7500      8.6674     19.6776      7.8852    131.5969
  1963.0000      9.1960     19.5623      8.1132    133.9211
  1963.2500      9.9748     19.4154      8.3881    136.4417
  1963.5000     10.8881     19.2225      8.7198    139.2727
  1963.7500     11.8061     18.9638      9.1166    139.5872
  1964.0000     12.6774     18.6168      9.5868    137.1056
  1964.2500     13.5514     18.1619     10.1415    133.3385
  1964.5000     14.5259     17.5896     10.7964    124.5346
  1964.7500     15.6845     16.9069     11.5714    117.0819
  1965.0000     17.0591     16.1408     12.4867    105.2113
  1965.2500     18.6303     15.3388     13.5570     97.6455
  1965.5000     20.3380     14.5631     14.7819     87.1445
  1965.7500     22.0582     13.8825     16.1339     80.7278
  1966.0000     23.6186     13.3615     17.5457     73.0853
  1966.2500     24.8802     13.0503     18.9042     70.5623
  1966.5000     25.7777     12.9768     20.0632     72.1135
  1966.7500     26.2721     13.1424     20.8824     76.4316
  1967.0000     26.3211     13.5223     21.2757     86.0203
  1967.2500     25.9268     14.0694     21.2378     93.5113
  1967.5000     25.1745     14.7212     20.8357    105.3640
  1967.7500     24.2102     15.4093     20.1796    112.9912
  1968.0000     23.1903     16.0693     19.3936    122.2293
  1968.2500     22.2354     16.6492     18.5912    126.0622
  1968.5000     21.4059     17.1157     17.8561    128.5482
  1968.7500     20.6907     17.4561     17.2313    129.0362
  1969.0000     20.0307     17.6768     16.7219    129.4775
  1969.2500     19.3657     17.7983     16.3083    129.6611
  1969.5000     18.6675     17.8491     15.9646    129.2928
  1969.7500     17.9566     17.8591     15.6709    128.6261
  1970.0000     17.2923     17.8556     15.4153    127.5640
  1970.2500     16.7289     17.8601     15.1841    127.0356
  1970.5000     16.2714     17.8885     14.9531    126.1900
  1970.7500     15.8857     17.9514     14.6893    125.1718
  1971.0000     15.5335     18.0555     14.3627    122.7587
  1971.2500     15.1951     18.2038     13.9603    121.0554
  1971.5000     14.8797     18.3963     13.4900    119.6879
  1971.7500     14.6096     18.6292     12.9735    119.9988
  1972.0000     14.3801     18.8953     12.4366    122.0412
  1972.2500     14.1460     19.1844     11.9021    124.0621
  1972.5000     13.8518     19.4839     11.3880    127.6022
  1972.7500     13.4706     19.7807     10.9092    130.1498
  1973.0000     13.0208     20.0626     10.4778    134.1454
  1973.2500     12.5548     20.3201     10.1018    136.9943
  1973.5000     12.1208     20.5477      9.7841    141.5694
  1973.7500     11.7357     20.7437      9.5206    144.4362
  1974.0000     11.4020     20.9107      9.3020    147.1507
  1974.2500     11.1271     21.0539      9.1167    147.2712
  1974.5000     10.9226     21.1795      8.9552    144.9574
  1974.7500     10.7964     21.2924      8.8144    142.5010
  1975.0000     10.7499     21.3939      8.6996    139.2796
  1975.2500     10.7831     21.4799      8.6226    138.1692
  1975.5000     10.9003     21.5399      8.5969    137.9303
  1975.7500     11.1038     21.5579      8.6346    138.1283
  1976.0000     11.3901     21.5143      8.7453    138.2383
  1976.2500     11.7576     21.3892      8.9370    138.0761
  1976.5000     12.2086     21.1667      9.2173    137.0333
  1976.7500     12.7405     20.8394      9.5920    135.1450
  1977.0000     13.3332     20.4118     10.0618    129.2017
  1977.2500     13.9453     19.9032     10.6193    122.6425
  1977.5000     14.5290     19.3478     11.2474    108.9127
  1977.7500     15.0654     18.7925     11.9221     97.9867
  1978.0000     15.6126     18.2919     12.6159     81.8954
  1978.2500     16.2978     17.9008     13.2978     73.4134
  1978.5000     17.2007     17.6657     13.9281     66.5150
  1978.7500     18.2160     17.6170     14.4530     66.2556
  1979.0000     19.0423     17.7640     14.8081     71.8476
  1979.2500     19.3635     18.0938     14.9379     78.6796
  1979.5000     19.0616     18.5744     14.8188     91.2145
  1979.7500     18.2233     19.1616     14.4700     99.5845
  1980.0000     17.0206     19.8069     13.9458    110.4464
  1980.2500     15.6568     20.4648     13.3166    116.2978
  1980.5000     14.3529     21.0988     12.6526    123.2494
  1980.7500     13.3008     21.6838     12.0124    126.8523
  1981.0000     12.5925     22.2064     11.4377    130.7142
  1981.2500     12.1905     22.6626     10.9524    132.0213
  1981.5000     11.9750     23.0559     10.5646    131.6763
  1981.7500     11.8282     23.3939     10.2713    130.1655
  1982.0000     11.6939     23.6866     10.0625    127.5126
  1982.2500     11.5785     23.9445      9.9255    126.5202
  1982.5000     11.5039     24.1777      9.8468    126.9883
  1982.7500     11.4695     24.3960      9.8120    128.2400
  1983.0000     11.4575     24.6083      9.8065    130.0395
  1983.2500     11.4507     24.8231      9.8160    130.4514
  1983.5000     11.4440     25.0484      9.8305    129.7787
  1983.7500     11.4449     25.2918      9.8465    129.0302
  1984.0000     11.4635     25.5599      9.8669    128.4323
  1984.2500     11.5007     25.8576      9.8976    128.4152
  1984.5000     11.5436     26.1868      9.9414    128.2156
  1984.7500     11.5814     26.5456      9.9953    127.6714
  1985.0000     11.6174     26.9281     10.0502    126.5447
  1985.2500     11.6546     27.3244     10.0950    125.8519
  1985.5000     11.6826     27.7222     10.1203    124.7730
  1985.7500     11.6838     28.1081     10.1213    123.8598
  1986.0000     11.6470     28.4698     10.0993    122.6512
  1986.2500     11.5821     28.7972     10.0615    122.6817
  1986.5000     11.5184     29.0835     10.0190    125.1441
  1986.7500     11.4833     29.3247      9.9850    128.4958
  1987.0000     11.4840     29.5191      9.9718    134.9846
  1987.2500     11.5101     29.6668      9.9898    139.1382
  1987.5000     11.5452     29.7688     10.0468    143.1093
  1987.7500     11.5834     29.8278     10.1468    143.6049
  1988.0000     11.6398     29.8490     10.2897    141.6111
  1988.2500     11.7355     29.8397     10.4709    139.4584
  1988.5000     11.8749     29.8100     10.6832    136.5216
  1988.7500     12.0432     29.7711     10.9180    135.0236
  1989.0000     12.2274     29.7335     11.1671    133.1583
  1989.2500     12.4342     29.7050     11.4227    131.9321
  1989.5000     12.6790     29.6885     11.6793    129.9520
  1989.7500     12.9672     29.6808     11.9364    128.6034
  1990.0000     13.2967     29.6726     12.2013    126.8071
  1990.2500     13.6750     29.6500     12.4881    125.8961
  1990.5000     14.1317     29.5960     12.8147    125.2774
  1990.7500     14.7043     29.4932     13.1990    125.6728
  1991.0000     15.4038     29.3258     13.6562    127.4443
  1991.2500     16.2054     29.0819     14.1974    128.5186
  1991.5000     17.0879     28.7536     14.8289    127.5895
  1991.7500     18.0823     28.3376     15.5536    124.4676
  1992.0000     19.2895     27.8344     16.3760    116.5015
  1992.2500     20.8663     27.2485     17.3098    109.8677
  1992.5000     22.9893     26.5873     18.3856     99.5796
  1992.7500     25.7950     25.8616     19.6528     93.4397
  1993.0000     29.2910     25.0862     21.1725     86.2650
  1993.2500     33.2605     24.2810     23.0011     82.5089
  1993.5000     37.2725     23.4713     25.1633     76.5384
  1993.7500     40.8412     22.6893     27.6200     71.3761
  1994.0000     43.6512     21.9728     30.2367     62.0482
  1994.2500     45.6583     21.3637     32.7749     55.9488
  1994.5000     46.9369     20.9047     34.9321     49.3231
  1994.7500     47.4672     20.6345     36.4317     47.3570
