~Version Information
VERS.                      2.0: CWLS Log ASCII Standard - VERSION 2.0
WRAP.                       NO: One line per depth step
~Well Information Block
STRT.FT                -6.7500: 
STOP.FT              2256.0000: 
STEP.FT                 0.2500: 
NULL.                -999.2500: 
COMP.          Pioneer Natural Resources: COMPANY
WELL.               Relay 12-7: WELL
FLD.           Purgatorie River: FIELD
LOC.           1999' FNL & 848' FWL--: LOCATION
PROV.                       CO: PROVINCE
CNTY.               Las Animas: COUNTRY
SRVC.          Patterson Wireline: SERVICE COMPANY
DATE.          Thu Dec 22 09:06:31 2005: LOG DATE
UWI.           05 071 08453 00: UNIQUE WELL ID
~Curve Information Block
DEPT.FT            0 000 00 00: Depth
CCL.                          : Casing Collar Locator
TT3.usec                      : CBL 3' Travel Time
AMP3.mV                       : CBL 3' Amplitude
GR.GAPI                       : Gamma Ray
~Parameter Information Block
~A  Depth       CCL         TT3         AMP3         GR     
    -6.7500   -999.2500   -999.2500   -999.2500     74.7717
    -6.5000   -999.2500   -999.2500   -999.2500     79.5810
    -6.2500   -999.2500   -999.2500   -999.2500     84.4326
    -6.0000   -999.2500   -999.2500   -999.2500     88.1946
    -5.7500   -999.2500   -999.2500   -999.2500     90.4581
    -5.5000   -999.2500   -999.2500   -999.2500     91.1594
    -5.2500   -999.2500   -999.2500   -999.2500     90.0939
    -5.0000   -999.2500   -999.2500   -999.2500     87.0595
    -4.7500   -999.2500   -999.2500   -999.2500     82.5115
    -4.5000   -999.2500   -999.2500   -999.2500     77.8414
    -4.2500   -999.2500   -999.2500   -999.2500     74.9031
    -4.0000   -999.2500   -999.2500   -999.2500     75.1005
    -3.7500   -999.2500   -999.2500   -999.2500     78.5441
    -3.5000   -999.2500   -999.2500   -999.2500     83.7880
    -3.2500   -999.2500   -999.2500   -999.2500     88.4153
    -3.0000   -999.2500   -999.2500   -999.2500     90.1898
    -2.7500   -999.2500   -999.2500   -999.2500     88.0854
    -2.5000   -999.2500   -999.2500   -999.2500     82.7411
    -2.2500   -999.2500   -999.2500   -999.2500     76.1340
    -2.0000   -999.2500   -999.2500   -999.2500     70.4062
    -1.7500   -999.2500   1167.0000      1.0103     66.5141
    -1.5000   -999.2500   1167.0000      1.0117     63.8911
    -1.2500   -999.2500   1167.0000      1.0059     61.5019
    -1.0000   -999.2500   1167.0000      0.9956     59.0680
    -0.7500   -999.2500   1167.0000      0.9856     57.0139
    -0.5000   -999.2500   1167.0000      0.9800     55.4005
    -0.2500   -999.2500   1167.0000      0.9812     53.5224
     0.0000   -999.2500   1167.0000      0.9894     50.6975
     0.2500   -999.2500   1167.0000      1.0116     43.9215
     0.5000   -999.2500   1167.0000      1.0141     41.8388
     0.7500   -999.2500   1167.0000      1.0078     40.6067
     1.0000   -999.2500   1167.0000      0.9968     38.9513
     1.2500   -999.2500   1167.0000      0.9881     35.8314
     1.5000   -999.2500   1167.0000      0.9847     31.4445
     1.7500   -999.2500   1167.0000      0.9846     26.9712
     2.0000   -999.2500   1167.0000      0.9837     23.5777
     2.2500   -999.2500   1167.0000      0.9811     21.9935
     2.5000   -999.2500   1167.0000      0.9786     22.7860
     2.7500   -999.2500   1167.0000      0.9778     26.3284
     3.0000   -999.2500   1167.0000      0.9778     32.2533
     3.2500   -999.2500   1167.0000      0.9778     39.2404
     3.5000      0.0000   1167.0000      0.9787     45.5612
     3.7500      0.0000   1167.0000      0.9813     49.8945
     4.0000      0.0000   1167.0000      0.9844     51.9301
     4.2500      0.0000   1167.0000      0.9865     52.4812
     4.5000      0.0000   1167.0000      0.9886     52.9495
     4.7500      0.0000   1167.0000      0.9939     54.3751
     5.0000      0.0000   1167.0000      1.0026     56.6712
     5.2500      0.0000   1167.0000      1.0104     58.5970
     5.5000      0.0000   1167.0000      1.0127     58.6531
     5.7500      0.0000   1167.0000      1.0089     56.4419
     6.0000      0.0000   1167.0000      1.0030     53.2435
     6.2500      0.0000   1167.0000      0.9999     50.9110
     6.5000      0.0000   1167.0000      1.0015     50.2900
     6.7500      0.0000   1167.0000      1.0058     51.1514
     7.0000      0.0000   1167.0000      1.0094     53.2699
     7.2500      0.0000   1167.0000      1.0106     56.6376
     7.5000      0.0000   1167.0000      1.0102     60.7076
     7.7500      0.0000   1167.0000      1.0088     64.1751
     8.0000      0.0000   1166.9897      1.0053     65.6469
     8.2500      0.0000   1166.9332      0.9991     64.3819
     8.5000      0.0000   1166.6406      0.9932     60.7104
     8.7500      0.0000   1165.4709      0.9930     55.9937
     9.0000      0.0000   1161.7745      1.0098     51.8921
     9.2500      0.0000   1152.1401      1.0846     49.2967
     9.5000      0.0000   1130.5758      1.3762     47.8494
     9.7500      0.0000   1087.6627      2.3427     46.5039
    10.0000      0.0000   1011.3119      4.9583     44.5794
    10.2500      0.0000    893.0519     10.6433     42.2660
    10.5000     -2.0000    739.3904     20.4854     40.2138
    10.7500      0.0000    576.6234     33.9913     39.0712
    11.0000      0.0000    438.3500     48.6397     39.6285
    11.2500      0.0000    344.8594     61.1816     42.7161
    11.5000      0.0000    294.6918     69.6584     48.2288
    11.7500      0.0000    273.3393     74.1739     54.5930
    12.0000      0.0000    266.1302     76.0364     59.9545
    12.2500      0.0000    264.2051     76.5655     63.8232
    12.5000      0.0000    263.8090     76.5696     67.1179
    12.7500      0.0000    263.7773     76.3944     70.8040
    13.0000      0.0000    263.8716     76.0650     74.8474
    13.2500      0.0000    264.1779     75.3361     78.2848
    13.5000      0.0000    264.9983     73.7427     80.0320
    13.7500      0.0000    266.7179     70.8647     79.7771
    14.0000      0.0000    269.4220     66.8007     78.2846
    14.2500      0.0000    272.4806     62.3602     76.8261
    14.5000      0.0000    274.7424     58.5324     76.4975
    14.7500      0.0000    275.4376     55.7229     78.0773
    15.0000      0.0000    274.8184     53.6950     81.8315
    15.2500      0.0000    273.7691     52.1427     86.8451
    15.5000      0.0000    272.9705     51.0080     90.9421
    15.7500     -2.0000    272.5722     50.3233     92.1834
    16.0000      0.0000    272.4202     50.0736     90.7019
    16.2500      2.0000    272.3283     50.2714     88.6595
    16.5000      0.0000    272.1548     51.0461     88.2887
    16.7500      0.0000    271.7713     52.5791     90.1510
    17.0000      0.0000    271.0505     54.9234     92.9960
    17.2500      0.0000    269.9164     57.9013     94.8761
    17.5000      0.0000    268.4402     61.2306     94.5137
    17.7500      0.0000    266.8752     64.7112     91.9560
    18.0000      0.0000    265.5443     68.1515     88.1350
    18.2500      0.0000    264.6472     71.1967     84.0029
    18.5000      0.0000    264.1727     73.4586     80.3300
    18.7500      0.0000    263.9777     74.8219     78.0596
    19.0000      0.0000    263.9175     75.4954     78.0922
    19.2500      0.0000    263.9074     75.7885     80.2880
    19.5000      0.0000    263.9135     75.9198     83.0400
    19.7500      0.0000    263.9250     75.9909     84.4302
    20.0000      0.0000    263.9373     76.0458     83.8406
    20.2500      0.0000    263.9460     76.1125     82.1301
    20.5000      0.0000    263.9475     76.2070     80.4005
    20.7500      0.0000    263.9417     76.3169     79.0514
    21.0000      0.0000    263.9322     76.4093     77.9851
    21.2500      0.0000    263.9234     76.4605     77.2228
    21.5000      0.0000    263.9170     76.4739     77.0290
    21.7500      0.0000    263.9126     76.4685     77.4432
    22.0000      0.0000    263.9097     76.4570     77.8257
    22.2500      0.0000    263.9088     76.4395     77.0749
    22.5000      0.0000    263.9105     76.4134     74.4534
    22.7500      0.0000    263.9135     76.3817     70.2114
    23.0000      0.0000    263.9155     76.3496     65.4723
    23.2500      0.0000    263.9145     76.3149     61.5600
    23.5000      0.0000    263.9097     76.2662     59.2990
    23.7500      0.0000    263.9017     76.1899     58.7392
    24.0000      0.0000    263.8911     76.0816     59.3008
    24.2500      0.0000    263.8790     75.9537     60.0694
    24.5000      0.0000    263.8680     75.8314     60.2789
    24.7500      0.0000    263.8605     75.7390     59.8822
    25.0000      0.0000    263.8579     75.6875     59.5332
    25.2500      0.0000    263.8600     75.6732     59.7607
    25.5000      0.0000    263.8659     75.6834     60.2986
    25.7500      0.0000    263.8748     75.7040     60.4236
    26.0000      0.0000    263.8852     75.7245     59.8609
    26.2500      0.0000    263.8949     75.7416     59.1792
    26.5000      0.0000    263.9023     75.7541     59.2346
