~Version Information
VERS.                      2.0: CWLS Log ASCII Standard - VERSION 2.0
WRAP.                       NO: One line per depth step
~Well Information Block
STRT.FT               410.0000: 
STOP.FT              1252.0000: 
STEP.FT                 0.2500: 
NULL.                -999.2500: 
COMP.          Petrogulf Corporation: COMPANY
WELL.           Parsons 15-23R: WELL
FLD.           Purgatorie River: FIELD
LOC.           2244' FSL & 1932' FWL: LOCATION
PROV.                 Colorado: PROVINCE
CNTY.               Las Animas: COUNTRY
SRVC.                Patterson: SERVICE COMPANY
DATE.          Mon Sep 12 10:30:11 2005: LOG DATE
UWI.                          : UNIQUE WELL ID
~Curve Information Block
DEPT.FT            0 000 00 00: Depth
SP.mV                         : DIL Spontaneous Potential
RILD.Ohm-m                    : DIL Deep Resistivity
RILM.Ohm-m                    : DIL Medium Resistivity
RLL3.Ohm-m                    : DIL Shallow Resistivity
GR.GAPI                       : Gamma Ray
~Parameter Information Block
~A  Depth        SP         RILD        RILM        RLL3         GR     
   410.0000     48.0911      5.7125   -999.2500      2.2820     77.1665
   410.2500     49.1656      5.7088   -999.2500     -1.5742     79.6153
   410.5000     50.8369      5.6702   -999.2500      0.0274     79.6562
   410.7500     52.3041      5.6395 100000.0000     -4.8372     83.7636
   411.0000     52.6679      5.6547 100000.0000     -2.5473     67.2052
   411.2500     52.3809      5.6559 100000.0000     -0.6157     74.0877
   411.5000     52.4071      5.6863 100000.0000     -0.3223     98.1476
   411.7500     53.0641      5.7105 100000.0000      0.3238     86.6715
   412.0000     53.0973      5.6713 100000.0000      0.3863     96.0898
   412.2500     53.1879      5.6071 100000.0000     -1.3668     80.8820
   412.5000     53.0726      5.6719 100000.0000      0.0244     74.8499
   412.7500     52.4638      5.6628 100000.0000      0.3957     65.6323
   413.0000     51.9176      5.6600 100000.0000      2.3784     86.0568
   413.2500     52.0148      5.6398 100000.0000     -2.1441     91.7379
   413.5000     51.5656      5.6855 100000.0000     -3.1059     89.3213
   413.7500     51.1926      5.6535 100000.0000     -2.0410     74.7832
   414.0000     51.7822      5.6381 100000.0000      0.0285     74.1206
   414.2500     51.8859      5.6039 100000.0000      2.0674     78.7110
   414.5000     52.2291      5.6344 100000.0000     -0.2057     77.0815
   414.7500     52.4273      5.6491 100000.0000     -0.5390     75.4714
   415.0000     52.7894      5.6843 100000.0000      0.5287     77.2459
   415.2500     53.4056      5.6142 100000.0000      3.4018     81.8508
   415.5000     54.2314      5.6316 100000.0000     -0.5664     78.4892
   415.7500     54.7887      5.6227 100000.0000      2.2982     86.4513
   416.0000     55.1954      5.6214 100000.0000      1.6326     93.3535
   416.2500     54.5513      5.5897 100000.0000      0.6877     89.6092
   416.5000     53.6092      5.5904 100000.0000      1.3525     71.7063
   416.7500     53.2303      5.5806 100000.0000      3.6617     58.8378
   417.0000     53.0957      5.5813 100000.0000      1.3508     42.6838
   417.2500     53.1286      5.5333 100000.0000     -0.0872     40.6763
   417.5000     52.9588      5.5315 100000.0000     -0.6117     40.6510
   417.7500     52.0611      5.5609 100000.0000     -0.9268     34.5760
   418.0000     51.1050      5.5577 100000.0000     -3.1563     53.7310
   418.2500     50.6848      5.5757 100000.0000      0.2425     57.2029
   418.5000     50.3647      5.5269 100000.0000      2.0769     67.1485
   418.7500     50.2608      5.4660 100000.0000      5.1758     60.7405
   419.0000     50.7146      5.2375 100000.0000      7.5038     63.3583
   419.2500     51.2464      4.8929 100000.0000      8.4962     53.6502
   419.5000     51.1094      5.0056 100000.0000     -0.1000     58.2331
   419.7500     50.6457      5.5721 100000.0000     -0.1683     64.1566
   420.0000     50.6719      6.0624 100000.0000      0.9509     79.1197
   420.2500     51.2916      6.1860 100000.0000      0.6753     77.9348
   420.5000     52.0783      6.0118 100000.0000      0.7975     86.4450
   420.7500     52.9314      5.8122 100000.0000      1.0260     88.8685
   421.0000     53.9636      5.6974 100000.0000     -1.1325     84.2828
   421.2500     54.5285      5.6206 100000.0000      0.0778     93.6302
   421.5000     54.7374      5.4242 100000.0000      1.6622    105.7941
   421.7500     55.1265      5.1865 100000.0000      0.9978    108.1802
   422.0000     54.7175      5.2561 100000.0000      0.5541     94.9335
   422.2500     53.3383      5.9735 100000.0000      2.3611     82.7181
   422.5000     52.0339      7.4829 100000.0000      3.1490     89.4754
   422.7500     50.7597      9.4265 100000.0000      0.6784     93.5643
   423.0000     49.8788      8.6233 100000.0000      0.1191     93.1973
   423.2500     49.8233      6.6408 100000.0000     -1.1184    107.2262
   423.5000     49.6746      5.5313 100000.0000      0.8937    112.5608
   423.7500     49.5251      5.1176 100000.0000      0.6166    101.6779
   424.0000     49.9186      5.0272 100000.0000      0.4275    122.7687
   424.2500     52.3637      5.1724 100000.0000     -1.5023    112.2980
   424.5000     56.4448      5.3001 100000.0000     -0.5732    101.8938
   424.7500     62.0607      5.2692 100000.0000     -0.6687    100.2022
   425.0000     70.0416      5.0752 100000.0000     -0.1925     77.8061
   425.2500     79.4706      5.2630 100000.0000      0.4565     78.1936
   425.5000     88.8570      7.5154 100000.0000      0.5253     78.2454
   425.7500     96.7586     53.9439 100000.0000      3.0457     75.5198
   426.0000    105.6808 100000.0000 100000.0000      0.1048     95.2972
   426.2500    114.4505     12.6253 100000.0000      1.2441     92.6024
   426.5000    118.2320      3.3018 100000.0000      1.7064     95.5441
   426.7500    123.6555      2.6976 100000.0000      0.2249     87.7792
   427.0000    123.7769      3.0767 100000.0000      3.7853     92.7758
   427.2500    117.8078      3.9955 100000.0000      1.8568     86.1421
   427.5000    110.8709      4.9513 100000.0000      4.0777    114.9710
   427.7500    115.3301      5.7843 100000.0000     13.4697    106.4774
   428.0000    127.8551      7.3412 100000.0000     22.5916    112.9193
   428.2500    138.6437     18.4535 100000.0000     30.1989    106.1165
   428.5000    145.5342 100000.0000 100000.0000     49.2766    110.2156
   428.7500    150.2751     11.6922 100000.0000     23.2784    111.2895
   429.0000    154.0881      2.8482 100000.0000     12.4754    105.9425
   429.2500    157.8952      1.2221 100000.0000     11.3453     96.1049
   429.5000    161.1780      1.1865     19.9693     11.2907    114.3499
   429.7500    164.6156      2.3314      2.6971     10.6037    116.5341
   430.0000    167.9618      4.9978      1.9520      9.0308    106.8492
   430.2500    172.0104     10.0273      3.1950     10.1106    114.8443
   430.5000    174.9953     17.1869      7.4580     11.8200    128.2480
   430.7500    176.3772     26.0722     16.1385     11.3703    120.4879
   431.0000    176.5903     37.3359     11.5749     11.4427    101.2050
   431.2500    176.7601    371.9864     10.1239     12.0529    119.6066
   431.5000    176.9547 100000.0000      9.9490     11.3053    119.7554
   431.7500    177.3782 100000.0000      9.9460      9.9006    111.4032
   432.0000    178.4421 100000.0000     10.5266     12.3438    117.1978
   432.2500    179.4425     33.0642     13.9967     11.9635    135.9152
   432.5000    180.0104     10.6047    176.3631     10.0756    124.0520
   432.7500    180.4662     10.5801 100000.0000     11.6396    115.1888
   433.0000    181.0109     10.9689     42.3323     11.1531    112.6357
   433.2500    181.5056     11.2623     17.2256     10.9962    120.1601
   433.5000    182.5366     11.6624     13.4765     12.1142    110.1136
   433.7500    184.4861     11.8030     12.5231     12.2873    110.7007
   434.0000    185.3307     11.7346     11.8679     12.5716    118.3511
   434.2500    184.5624     11.7147     11.3124     11.7695    139.9631
   434.5000    184.5457     12.3456     10.5335     11.1164    119.0959
   434.7500    184.4083     13.6605      9.9581     10.4765    108.7456
   435.0000    185.0710     13.4652      9.5593     10.3448    124.6426
   435.2500    185.2091     11.9222      9.5022      9.9731    119.9122
   435.5000    186.5495     11.3954      8.8215     10.1777    126.1601
   435.7500    187.7119     11.2557      9.5102     10.8268    121.6275
   436.0000    187.1845     11.3882     10.3862     11.2843    130.2900
   436.2500    186.9014     11.4837     10.7958     11.4383    124.5111
   436.5000    186.4661     11.7713     11.2051     11.1942    118.9163
   436.7500    186.0573     12.1798     11.5963     11.3356    113.2365
   437.0000    185.5825     12.3240     12.2868     11.4870    123.7945
   437.2500    185.4070     12.6751     12.7073     12.6141    136.4204
   437.5000    185.8840     13.1683     13.7561     14.4572    100.0005
   437.7500    186.9975     13.4670     15.0999     17.0742    111.6392
