~Version Information
VERS.                      2.0: CWLS Log ASCII Standard - VERSION 2.0
WRAP.                       NO: One line per depth step
~Well Information Block
STRT.FT               260.0000: 
STOP.FT              1229.5000: 
STEP.FT                 0.1000: 
NULL.                -999.2500: 
COMP.          Pioneer Natural Resources: COMPANY
WELL.             Mahalo 12-20: WELL
FLD.           Purgatoire River: FIELD
LOC.           1689' FNL & 479' FWL: LOCATION
CNTY.               Las Animas: COUNTY
SRVC.                Patterson: SERVICE COMPANY
DATE.          Mon Feb 27 07:00:19 2006: LOG DATE
UWI.           05 071 08700 00: UNIQUE WELL ID
STAT.                 Colorado: STATE
~Curve Information Block
DEPT.FT            0 000 00 00: Depth
DCAL.in                       : CDL Caliper
RHOB.g/cc                     : CDL Bulk Density
RHOC.g/cc                     : CDL Density Correction
DPOR.pu                       : CDL Density Porosity
GR.GAPI                       : Gamma Ray
NPOR.pu                       : Neutron Porosity
~Parameter Information Block
~A  Depth       DCAL        RHOB        RHOC        DPOR         GR         NPOR    
# ...
  1028.0000      7.8046      2.0451     -0.0432     36.6617     70.3132     29.9308
  1028.1000      7.8046      1.9199     -0.0681     44.2459     73.0710     30.6918
  1028.2000      7.8046      1.8048     -0.0550     51.2261     72.6026     30.3249
  1028.3000      7.8119      1.7052     -0.0946     57.2585     73.2032     29.7656
  1028.4000      7.8119      1.6205     -0.0873     62.3920     77.4090     29.9507
  1028.5000      7.8437      1.5563     -0.0900     66.2828     80.9667     30.8922
  1028.6000      7.8437      1.5188     -0.0589     68.5586     82.2761     31.8673
  1028.7000      7.8437      1.5023     -0.0098     69.5551     84.6561     32.4307
  1028.8000      7.9334      1.4974      0.0247     69.8572     87.0648     32.7261
  1028.9000      7.9334      1.4982      0.0491     69.8036     86.8279     32.7137
  1029.0000      7.9125      1.5024      0.0267     69.5516     85.6962     32.4599
  1029.1000      7.9125      1.5082      0.0226     69.2008     84.8949     32.2763
  1029.2000      7.9125      1.5051      0.0348     69.3894     78.6757     32.3522
  1029.3000      7.8976      1.4790     -0.0016     70.9710     66.0319     32.6487
  1029.4000      7.8976      1.4331     -0.0387     73.7509     56.7663     32.7456
  1029.5000      7.8502      1.3890     -0.0578     76.4257     55.4179     32.4055
  1029.6000      7.8502      1.3630     -0.0286     77.9991     55.3379     31.8369
  1029.7000      7.8502      1.3498     -0.0190     78.8012     51.7245     31.4258
  1029.8000      7.8693      1.3387     -0.0469     79.4730     46.1876     31.1747
  1029.9000      7.8693      1.3281     -0.0144     80.1173     38.7588     31.1930
  1030.0000      7.9236      1.3176     -0.0342     80.7538     30.6532     32.0925
  1030.1000      7.9236      1.3061     -0.0043     81.4497     26.1885     33.5077
  1030.2000      7.9236      1.2954     -0.0065     82.0973     26.3941     34.3706
  1030.3000      7.9010      1.2898     -0.0075     82.4380     28.8358     34.4091
  1030.4000      7.9010      1.2904     -0.0007     82.3976     30.2709     34.2004
  1030.5000      7.9074      1.2944      0.0047     82.1559     29.0716     34.0391
  1030.6000      7.9074      1.3031     -0.0060     81.6273     27.4815     33.5454
  1030.7000      7.9074      1.3234      0.0194     80.4016     28.7052     32.5159
  1030.8000      7.9901      1.3592      0.0071     78.2322     33.2546     31.6390
  1030.9000      7.9901      1.4154      0.0271     74.8215     39.7431     31.5512
  1031.0000      7.9019      1.4989      0.0263     69.7624     46.4302     32.0549
  1031.1000      7.9019      1.6041      0.0795     63.3898     53.0209     32.5247
  1031.2000      7.9019      1.7160      0.0903     56.6053     60.4285     32.4404
  1031.3000      7.8639      1.8330      0.1437     49.5123     68.6510     32.1933
  1031.4000      7.8639      1.9540      0.1772     42.1842     75.2524     32.1451
  1031.5000      7.8216      2.0598      0.1887     35.7669     80.3174     31.7937
  1031.6000      7.8216      2.1400      0.1802     30.9105     85.4382     31.0591
  1031.7000      7.8216      2.2059      0.1580     26.9148     91.3854     30.5412
  1031.8000      7.8127      2.2619      0.1349     23.5240     98.1393     30.1686
  1031.9000      7.8127      2.2969      0.0956     21.3995    103.1108     29.7795
  1032.0000      7.8117      2.3112      0.0279     20.5361    106.5824     29.4384
  1032.1000      7.8117      2.3181      0.0563     20.1132    110.8166     29.3870
  1032.2000      7.8117      2.3252      0.0627     19.6852    113.8165     30.0549
  1032.3000      7.8002      2.3327      0.0778     19.2332    112.4015     30.3198
  1032.4000      7.8002      2.3403      0.1012     18.7702    107.5649     28.8696
  1032.5000      7.8089      2.3475      0.0640     18.3309    102.3768     27.3332
  1032.6000      7.8089      2.3547      0.0889     17.8965    101.1938     27.8410
  1032.7000      7.8089      2.3586      0.0813     17.6621    105.2058     29.7818
  1032.8000      7.8106      2.3551      0.0718     17.8755    111.2114     31.3009
  1032.9000      7.8106      2.3464      0.0350     18.4017    114.6254     31.8288
  1033.0000      7.8153      2.3386      0.0648     18.8728    112.5741     31.8229
  1033.1000      7.8153      2.3271      0.0822     19.5711    109.7618     31.4590
  1033.2000      7.8153      2.2999      0.0360     21.2164    109.3015     30.9506
  1033.3000      7.8154      2.2661     -0.0219     23.2643    105.5948     30.7458
  1033.4000      7.8154      2.2478     -0.0323     24.3749     96.4178     30.8390
  1033.5000      7.8156      2.2406      0.0138     24.8093     86.5133     31.0218
  1033.6000      7.8156      2.2255      0.0015     25.7283     79.4407     31.0616
  1033.7000      7.8156      2.2124     -0.1048     26.5204     75.3818     31.2549
  1033.8000      7.8132      2.2106      0.0377     26.6285     74.4611     31.5954
  1033.9000      7.8132      2.1892      0.0467     27.9272     74.8289     31.0719
  1034.0000      7.8139      2.1265      0.0172     31.7272     71.0819     29.9138
  1034.1000      7.8139      2.0368     -0.0308     37.1607     62.2193     29.5553
  1034.2000      7.8139      1.9356     -0.0186     43.2939     53.9593     30.3480
  1034.3000      7.8250      1.8334     -0.0730     49.4884     52.1431     31.2127
  1034.4000      7.8250      1.7395     -0.0804     55.1800     56.8993     31.2578
  1034.5000      7.8745      1.6480     -0.0711     60.7296     60.9785     31.0090
  1034.6000      7.8745      1.5636     -0.1419     65.8446     60.1070     31.5131
  1034.7000      7.8745      1.5228     -0.1358     68.3136     58.4598     32.5893
  1034.8000      7.9454      1.5545     -0.0943     66.3968     59.1899     32.7190
  1034.9000      7.9454      1.6471      0.0285     60.7812     61.2991     31.4705
  1035.0000      8.0108      1.7626      0.1001     53.7830     63.7780     30.3079
  1035.1000      8.0108      1.8764      0.1499     46.8853     66.9458     30.2989
  1035.2000      8.0108      1.9982      0.1484     39.5036     70.0569     30.8744
  1035.3000      7.8420      2.1384      0.2164     31.0054     72.4435     30.9430
  1035.4000      7.8420      2.2720      0.2806     22.9084     77.0412     30.3866
  1035.5000      7.6659      2.3700      0.2415     16.9686     85.0491     29.9275
  1035.6000      7.6659      2.4349      0.1663     13.0367     92.8115     29.5780
  1035.7000      7.6659      2.4746      0.1663     10.6333     97.6929     28.5926
  1035.8000      7.6439      2.4898      0.1399      9.7117     99.0700     27.4035
  1035.9000      7.6439      2.4933      0.1126      9.4985     97.9790     27.0501
  1036.0000      7.6404      2.4939      0.1079      9.4584     94.9296     27.4806
  1036.1000      7.6404      2.4788      0.0970     10.3787     89.6380     28.1932
  1036.2000      7.6404      2.4432      0.0949     12.5363     83.1763     28.7281
  1036.3000      7.6413      2.4084      0.0218     14.6448     77.9505     28.4923
  1036.4000      7.6413      2.3934      0.0362     15.5498     77.4352     27.1786
  1036.5000      7.7961      2.3950     -0.0079     15.4541     80.2658     25.8476
  1036.6000      7.7961      2.4096      0.0045     14.5685     80.8518     26.0782
  1036.7000      7.7961      2.4424      0.0265     12.5791     76.4587     27.4535
  1036.8000      7.7953      2.4873      0.0914      9.8610     69.3512     27.8344
  1036.9000      7.7953      2.5225      0.1170      7.7252     63.0677     26.7043
  1037.0000      7.7927      2.5370      0.1094      6.8465     62.1612     25.7938
  1037.1000      7.7927      2.5432      0.0882      6.4725     68.9253     26.0900
  1037.2000      7.7927      2.5523      0.1619      5.9220     80.3345     26.6648
  1037.3000      7.7794      2.5555      0.1240      5.7281     92.5783     26.6442
  1037.4000      7.7794      2.5376      0.1521      6.8129    100.9439     26.0552
  1037.5000      7.7941      2.4939      0.0994      9.4600     99.5599     25.8670
