~Version Information
VERS.                      2.0: CWLS Log ASCII Standard - VERSION 2.0
WRAP.                       NO: One line per depth step
~Well Information Block
STRT.FT               619.7000: 
STOP.FT               951.7000: 
STEP.FT                 0.1000: 
NULL.                -999.2500: 
COMP.          Pioneer Natural Resources: COMPANY
WELL.          Screamin 12-29 Tr: WELL
FLD.           Purgatoire River: FIELD
LOC.           1979' FNL & 532' FWL--: LOCATION
CNTY.               Las Animas: COUNTY
SRVC.                Patterson: SERVICE COMPANY
DATE.          Fri Mar 31 15:43:57 2006: LOG DATE
UWI.           05 071 08660 00: UNIQUE WELL ID
STAT.                 Colorado: STATE
~Curve Information Block
DEPT.FT            0 000 00 00: Depth
DCAL.in                       : CDL Caliper
RHOB.g/cc                     : CDL Bulk Density
RHOC.g/cc                     : CDL Density Correction
DPOR.pu                       : CDL Density Porosity
GR.GAPI                       : Gamma Ray
~Parameter Information Block
~A  Depth       DCAL        RHOB        RHOC        DPOR         GR     
# ...
   888.5000      7.8594      2.6137      0.0613      2.2015    103.0021
   888.6000      7.8594      2.6028      0.0104      2.8582    105.2016
   888.7000      7.8594      2.5964      0.0924      3.2489    105.9608
   888.8000      7.8604      2.5786      0.0434      4.3245    105.2099
   888.9000      7.8604      2.5513      0.0337      5.9833    104.1081
   889.0000      7.8553      2.5335     -0.0022      7.0625    102.5553
   889.1000      7.8553      2.5297      0.0419      7.2887    100.3921
   889.2000      7.8553      2.5284      0.0312      7.3673     98.2314
   889.3000      7.8415      2.5277      0.0266      7.4141     96.5198
   889.4000      7.8415      2.5413      0.0176      6.5874     95.2197
   889.5000      7.8322      2.5697      0.1054      4.8669     95.1709
   889.6000      7.8322      2.5929      0.0973      3.4581     96.3950
   889.7000      7.8322      2.5950      0.1057      3.3327     98.0764
   889.8000      7.8352      2.5760      0.0636      4.4826    101.8177
   889.9000      7.8352      2.5451      0.0599      6.3584    106.7782
   890.0000      7.8430      2.5120      0.0092      8.3629    110.3465
   890.1000      7.8430      2.4976     -0.0395      9.2364    114.1488
   890.2000      7.8430      2.5171      0.0103      8.0561    116.5965
   890.3000      7.8531      2.5478      0.0775      6.1959    113.3483
   890.4000      7.8531      2.5572      0.0644      5.6233    107.8388
   890.5000      7.8639      2.5477      0.0181      6.1996    105.3189
   890.6000      7.8639      2.5432      0.0469      6.4719    106.2050
   890.7000      7.8639      2.5492      0.0605      6.1078    110.9426
   890.8000      7.8673      2.5562      0.0913      5.6849    117.9414
   890.9000      7.8673      2.5653      0.0671      5.1312    122.4934
   891.0000      7.8599      2.5791      0.0925      4.2976    125.3371
   891.1000      7.8599      2.5884      0.1013      3.7364    128.6426
   891.2000      7.8599      2.5959      0.0331      3.2777    129.3291
   891.3000      7.8455      2.6081      0.1127      2.5400    125.5734
   891.4000      7.8455      2.6189      0.0786      1.8844    122.0628
   891.5000      7.8320      2.6378      0.0740      0.7398    119.9828
   891.6000      7.8320      2.6748      0.0877     -1.5018    114.9428
   891.7000      7.8320      2.7070      0.1335     -3.4569    107.4395
   891.8000      7.8234      2.7087      0.1214     -3.5565    102.1098
   891.9000      7.8234      2.6936      0.0444     -2.6418     99.1991
   892.0000      7.8247      2.6863      0.0486     -2.2005     96.3422
   892.1000      7.8247      2.6840      0.0515     -2.0614     92.4023
   892.2000      7.8247      2.6821      0.0030     -1.9458     86.2035
   892.3000      7.8341      2.6916      0.0180     -2.5187     78.7839
   892.4000      7.8341      2.7083      0.0626     -3.5349     72.4600
   892.5000      7.8416      2.7208     -0.0217     -4.2900     67.4063
   892.6000      7.8416      2.7315      0.0253     -4.9369     62.7531
   892.7000      7.8416      2.7342      0.0364     -5.1057     59.4329
   892.8000      7.8443      2.7252      0.0147     -4.5557     59.6897
   892.9000      7.8443      2.7168      0.0326     -4.0472     62.4874
   893.0000      7.8479      2.7126      0.0361     -3.7910     64.2097
   893.1000      7.8479      2.7083     -0.0002     -3.5334     63.4440
   893.2000      7.8479      2.7105      0.0255     -3.6678     61.0412
   893.3000      7.8530      2.7251      0.0619     -4.5539     60.6682
   893.4000      7.8530      2.7427      0.0774     -5.6160     64.0303
   893.5000      7.8477      2.7472      0.0521     -5.8934     66.7161
   893.6000      7.8477      2.7351      0.0602     -5.1597     65.5896
   893.7000      7.8477      2.7214      0.0341     -4.3243     63.6644
   893.8000      7.8336      2.7142      0.0621     -3.8888     62.4731
   893.9000      7.8336      2.6931      0.0501     -2.6149     60.6651
   894.0000      7.8285      2.6466     -0.0171      0.2067     60.2839
   894.1000      7.8285      2.5974     -0.0264      3.1872     64.4804
   894.2000      7.8285      2.5704     -0.0610      4.8227     69.4018
   894.3000      7.8356      2.5680     -0.0134      4.9700     71.5649
   894.4000      7.8356      2.5747     -0.0023      4.5664     74.6553
   894.5000      7.8474      2.5753     -0.0052      4.5274     79.2361
   894.6000      7.8474      2.5631      0.0034      5.2650     80.6211
   894.7000      7.8474      2.5411     -0.0026      6.5981     80.7403
   894.8000      7.8613      2.5261     -0.0190      7.5082     85.5969
   894.9000      7.8613      2.5297      0.0278      7.2898     95.6301
   895.0000      7.8706      2.5420      0.0338      6.5450    104.9497
   895.1000      7.8706      2.5510      0.0276      6.0025    107.7358
   895.2000      7.8706      2.5601      0.0181      5.4499    106.0508
   895.3000      7.8726      2.5788      0.0468      4.3177    105.3890
   895.4000      7.8726      2.6032      0.0426      2.8373    105.5974
   895.5000      7.8683      2.6212      0.0791      1.7444    104.7820
   895.6000      7.8683      2.6255      0.0796      1.4863    103.1982
   895.7000      7.8683      2.6126      0.0753      2.2667     99.9813
   895.8000      7.8644      2.5846      0.0389      3.9658     95.5612
   895.9000      7.8644      2.5570      0.0240      5.6348     94.1631
   896.0000      7.8625      2.5522     -0.0133      5.9265     95.5706
   896.1000      7.8625      2.5749      0.0264      4.5514     93.3838
   896.2000      7.8625      2.5992      0.0769      3.0767     88.1947
   896.3000      7.8591      2.5990      0.0555      3.0906     87.1366
   896.4000      7.8591      2.5846      0.0189      3.9642     90.8919
   896.5000      7.8544      2.5801      0.0634      4.2370     96.1182
   896.6000      7.8544      2.5872      0.0446      3.8064     99.8281
   896.7000      7.8544      2.5891      0.0771      3.6894     99.5716
   896.8000      7.8537      2.5770      0.0142      4.4270     98.5086
   896.9000      7.8537      2.5695      0.0079      4.8779    100.2748
   897.0000      7.8596      2.5817      0.0627      4.1372    101.6454
   897.1000      7.8596      2.6007      0.0838      2.9899     98.8293
   897.2000      7.8596      2.6124      0.0664      2.2786     92.4044
   897.3000      7.8596      2.6192      0.0687      1.8686     85.3143
   897.4000      7.8596      2.6246      0.0831      1.5388     81.5129
   897.5000      7.8499      2.6290      0.0782      1.2722     83.0024
   897.6000      7.8499      2.6342      0.0873      0.9558     88.0933
   897.7000      7.8499      2.6319      0.0917      1.0985     93.9295
   897.8000      7.8428      2.6154      0.0718      2.0968     97.7873
   897.9000      7.8428      2.5977      0.0451      3.1690     98.8055
   898.0000      7.8459      2.5912      0.0755      3.5632     99.1265
   898.1000      7.8459      2.5968      0.0646      3.2255     99.5324
   898.2000      7.8459      2.6074      0.0758      2.5829     98.2557
   898.3000      7.8589      2.6075      0.0572      2.5745     95.2377
   898.4000      7.8589      2.5879      0.0763      3.7612     93.2201
   898.5000      7.8683      2.5625      0.0199      5.3030     93.7834
   898.6000      7.8683      2.5518      0.0329      5.9516     95.7076
   898.7000      7.8683      2.5526      0.0446      5.9029     98.2169
   898.8000      7.8656      2.5501      0.0423      6.0552    101.2702
   898.9000      7.8656      2.5455      0.0192      6.3321    103.8461
   899.0000      7.8598      2.5471      0.0358      6.2347    105.1178
   899.1000      7.8598      2.5514      0.0931      5.9730    103.8839
   899.2000      7.8598      2.5530      0.0308      5.8772    102.8851
   899.3000      7.8565      2.5539      0.0653      5.8234    107.3742
   899.4000      7.8565      2.5518      0.0315      5.9542    117.8514
   899.5000      7.8562      2.5451      0.0432      6.3551    129.6324
   899.6000      7.8562      2.5352      0.0440      6.9575    137.2749
