~Version Information
VERS.                      2.0: CWLS Log ASCII Standard - VERSION 2.0
WRAP.                       NO: One line per depth step
~Well Information Block
STRT.FT               520.0000: 
STOP.FT              1373.0000: 
STEP.FT                 0.1000: 
NULL.                -999.2500: 
COMP.          Pioneer Natural Resources: COMPANY
WELL.            Gamma 13-3 Tr: WELL
FLD.           Purgatoire River: FIELD
LOC.           2127' FSL & 738' FWL: LOCATION
STAT.                 Colorado: State
CNTY.               Las Animas: COUNTY
CTRY.                      USA: Country
SECT.                        3: Section
TOWN.                       33S: Township
RANG.                       67W: Range
SRVC.                Patterson: SERVICE COMPANY
DATE.          Mon Sep 19 09:58:04 2005: LOG DATE
API.           05 071 08524 00: API
~Curve Information Block
DEPT.FT            0 000 00 00: Depth
DPOR.pu                       : CDL Density Porosity
GR.GAPI                       : Gamma Ray
NPOR.pu                       : Neutron Porosity
RHOB.g/cc                     : CDL Bulk Density
RHOC.g/cc                     : CDL Density Correction
DCAL.in                       : CDL Caliper
~Parameter Information Block
~A  Depth       DPOR         GR         NPOR        RHOB        RHOC        DCAL    
# ...
  1076.8000      7.2744    143.8856     25.0524      2.5300     -0.0769      8.0044
  1076.9000      6.2245    142.9182     25.5039      2.5473     -0.0353      8.0044
  1077.0000      3.9599    144.0705     26.1221      2.5847      0.0196      8.0161
  1077.1000      1.4871    140.7147     26.7179      2.6255      0.0963      8.0161
  1077.2000     -0.1891    136.2324     27.0983      2.6531      0.0802      8.0161
  1077.3000     -1.4013    137.4739     27.0900      2.6731      0.0573      8.0243
  1077.4000     -3.7489    139.6944     26.9290      2.7119      0.0769      8.0243
  1077.5000     -8.2244    138.7975     26.9990      2.7857      0.0726      8.0233
  1077.6000    -14.3043    138.2477     27.3516      2.8860      0.0849      8.0233
  1077.7000    -19.5644    137.1248     27.7463      2.9728      0.2012      8.0233
  1077.8000    -21.2611    132.4374     28.0032      3.0008      0.1861      8.0156
  1077.9000    -19.6387    124.2512     27.9232      2.9740      0.0758      8.0156
  1078.0000    -17.4840    117.9830     27.4291      2.9385      0.0283      8.0124
  1078.1000    -16.5018    116.2300     26.7127      2.9223      0.0353      8.0124
  1078.2000    -16.0335    112.7562     26.0374      2.9146      0.0068      8.0124
  1078.3000    -14.3303    105.5146     25.5740      2.8864     -0.0129      8.0216
  1078.4000    -10.4531    100.9497     25.2629      2.8225     -0.0567      8.0216
  1078.5000     -5.5723    105.2245     24.9255      2.7419     -0.0545      8.0587
  1078.6000     -1.6211    115.0825     24.5465      2.6767     -0.0648      8.0587
  1078.7000      0.6185    121.2858     24.1215      2.6398      0.0187      8.0587
  1078.8000      1.7429    122.6703     23.6264      2.6212     -0.0034      8.1151
  1078.9000      2.6770    123.9113     23.2811      2.6058      0.0168      8.1151
  1079.0000      4.0906    125.5427     23.4482      2.5825      0.0068      8.1482
  1079.1000      6.0790    127.9732     24.0383      2.5497      0.0082      8.1482
  1079.2000      8.1750    134.0993     24.5499      2.5151     -0.0361      8.1482
  1079.3000      9.6373    143.5178     24.7279      2.4910     -0.0175      8.1526
  1079.4000     10.0619    152.6254     24.7968      2.4840     -0.0333      8.1526
  1079.5000      9.6227    156.6947     25.0957      2.4912      0.0006      8.1479
  1079.6000      8.9296    152.7256     25.4817      2.5027      0.0476      8.1479
  1079.7000      8.4460    144.7780     25.6321      2.5106      0.0010      8.1479
  1079.8000      8.1728    136.4875     25.5973      2.5151     -0.0273      8.1421
  1079.9000      7.7891    127.5108     25.6870      2.5215      0.0077      8.1421
  1080.0000      6.8731    120.1895     26.1995      2.5366      0.0331      8.1308
  1080.1000      6.0976    117.0134     27.0866      2.5494      0.0497      8.1308
  1080.2000      6.5469    114.4492     27.8105      2.5420     -0.0056      8.1308
  1080.3000      7.4443    110.9132     28.0295      2.5272     -0.0203      8.1082
  1080.4000      7.1920    109.6315     28.0745      2.5313     -0.0353      8.1082
  1080.5000      5.5132    111.0090     28.1117      2.5590     -0.0151      8.0807
  1080.6000      3.5134    112.9465     27.7837      2.5920      0.0226      8.0807
  1080.7000      2.1073    112.9832     26.9777      2.6152      0.0423      8.0807
  1080.8000      1.1179    108.4760     26.1793      2.6316      0.0236      8.0563
  1080.9000      0.8182    102.3721     25.7696      2.6365      0.0725      8.0563
  1081.0000      2.0488     98.5970     25.6453      2.6162      0.0094      8.0379
  1081.1000      4.2397     97.4033     25.5802      2.5800     -0.0129      8.0379
  1081.2000      5.7163     98.6308     25.2939      2.5557     -0.0381      8.0379
  1081.3000      5.4435    101.1573     24.8288      2.5602     -0.0068      8.0292
  1081.4000      4.2176    103.4739     24.5486      2.5804      0.0608      8.0292
  1081.5000      3.1464    103.6954     24.3290      2.5981     -0.0031      8.0291
  1081.6000      2.1856     98.7327     23.8841      2.6139      0.0554      8.0291
  1081.7000      1.7435     89.9383     23.5623      2.6212      0.0649      8.0291
  1081.8000      2.7287     82.1069     23.5999      2.6050      0.0737      8.0297
  1081.9000      4.3473     78.6267     23.4979      2.5783      0.0032      8.0297
  1082.0000      4.7908     78.5601     22.9564      2.5710      0.0195      8.0251
  1082.1000      4.1153     77.7107     22.4937      2.5821      0.0509      8.0251
  1082.2000      3.5568     76.0640     22.4927      2.5913      0.0689      8.0251
  1082.3000      3.3884     76.8796     22.7014      2.5941      0.0744      8.0101
  1082.4000      3.0794     80.8298     22.8057      2.5992      0.0235      8.0101
  1082.5000      2.0779     83.4190     22.6200      2.6157      0.0454      7.9956
  1082.6000      0.4234     79.8999     22.2874      2.6430      0.0435      7.9956
  1082.7000     -1.2567     72.9640     21.7909      2.6707      0.0719      7.9956
  1082.8000     -2.0402     69.5871     20.9250      2.6837      0.0972      7.9956
  1082.9000     -1.2533     73.0044     20.1137      2.6707      0.0719      7.9956
  1083.0000      0.8590     80.3834     19.7127      2.6358      0.0611      7.9978
  1083.1000      3.0898     84.2226     19.4456      2.5990     -0.0012      7.9978
  1083.2000      4.4295     82.9606     19.3034      2.5769      0.0031      7.9978
  1083.3000      5.2022     82.4352     19.5943      2.5642      0.0080      7.9920
  1083.4000      6.3186     85.0592     20.2643      2.5457     -0.0237      7.9920
  1083.5000      7.6646     90.9589     20.8772      2.5235     -0.0109      8.0031
  1083.6000      8.2943    100.1341     21.1515      2.5131      0.0054      8.0031
  1083.7000      7.8303    108.5706     21.3010      2.5208      0.0159      8.0031
  1083.8000      6.6560    109.8531     21.6971      2.5402      0.0313      8.0336
  1083.9000      5.4447    104.1193     22.1631      2.5602      0.0165      8.0336
  1084.0000      5.1471     99.4824     22.2309      2.5651      0.0518      8.0452
  1084.1000      6.2787    101.5051     21.9303      2.5464      0.0713      8.0452
  1084.2000      7.7546    107.9470     21.7285      2.5220      0.0044      8.0452
  1084.3000      8.1967    113.4305     21.9121      2.5148      0.0568      8.0321
  1084.4000      8.2076    115.7957     22.4109      2.5146      0.0714      8.0321
  1084.5000      8.8088    115.7436     22.9105      2.5047      0.0503      8.0141
  1084.6000      9.7213    112.6935     23.0731      2.4896      0.0653      8.0141
  1084.7000     10.7286    107.9588     22.9312      2.4730      0.0484      8.0141
  1084.8000     11.7595    105.4015     22.7139      2.4560      0.0525      8.0000
  1084.9000     12.2470    107.7872     22.6197      2.4479      0.0573      8.0000
  1085.0000     12.0448    115.9742     22.8114      2.4513      0.0820      7.9915
  1085.1000     11.8875    125.0204     23.1829      2.4539      0.1412      7.9915
  1085.2000     12.3056    125.7952     23.2886      2.4470      0.0808      7.9915
  1085.3000     12.7289    118.7581     23.1123      2.4400      0.0894      7.9784
  1085.4000     12.2933    114.8022     23.2633      2.4472      0.0378      7.9784
  1085.5000     11.3399    117.4770     23.7745      2.4629      0.1253      7.9635
  1085.6000     10.8788    119.2584     23.9519      2.4705      0.0983      7.9635
  1085.7000     10.1504    115.4376     23.7499      2.4825      0.0388      7.9635
  1085.8000      7.9685    109.2955     23.7270      2.5185      0.0925      7.9687
  1085.9000      5.3141    107.9324     24.1063      2.5623      0.1138      7.9687
  1086.0000      4.0485    114.2945     24.7466      2.5832      0.1547      7.9933
  1086.1000      4.5009    122.4273     25.1297      2.5757      0.0497      7.9933
  1086.2000      5.5052    124.7206     25.0589      2.5592      0.0721      7.9933
  1086.3000      5.9337    123.1385     24.9562      2.5521      0.0708      8.0207
