~Version Information
VERS.                      2.0: CWLS Log ASCII Standard - VERSION 2.0
WRAP.                       NO: One line per depth step
~Well Information Block
STRT.FT               240.0000: 
STOP.FT              1159.2000: 
STEP.FT                 0.1000: 
NULL.                -999.2500: 
COMP.          Pioneer Natural Resources: COMPANY
WELL.               Ryan 41-17: WELL
FLD.           Purgatoire River: FIELD
LOC.           822' FNL & 532' FEL--: LOCATION
CNTY.               Las Animas: COUNTY
SRVC.                Patterson: SERVICE COMPANY
DATE.          Fri Mar 17 07:19:36 2006: LOG DATE
UWI.           05 071 08719 00: UNIQUE WELL ID
STAT.                 Colorado: STATE
~Curve Information Block
DEPT.FT            0 000 00 00: Depth
DCAL.in                       : CDL Caliper
RHOB.g/cc                     : CDL Bulk Density
RHOC.g/cc                     : CDL Density Correction
DPOR.pu                       : CDL Density Porosity
NPOR.pu                       : Neutron Porosity
GR.GAPI                       : Gamma Ray
~Parameter Information Block
~A  Depth       DCAL        RHOB        RHOC        DPOR        NPOR         GR     
# ...
  1132.8000      7.7227      2.5831      0.0786      4.0521     48.8006   -999.2500
  1132.9000      7.7227      2.5724      0.0482      4.7042     49.2936   -999.2500
  1133.0000      7.7312      2.5628      0.0761      5.2873     49.3459   -999.2500
  1133.1000      7.7312      2.5398      0.0711      6.6760     49.3489   -999.2500
  1133.2000      7.7312      2.5020      0.0474      8.9673   -999.2500   -999.2500
  1133.3000      7.7383      2.4679      0.0301     11.0360   -999.2500   -999.2500
  1133.4000      7.7383      2.4498      0.0368     12.1335   -999.2500   -999.2500
  1133.5000      7.7374      2.4433      0.0672     12.5288   -999.2500   -999.2500
  1133.6000      7.7374      2.4436      0.0311     12.5109   -999.2500   -999.2500
  1133.7000      7.7374      2.4478      0.0581     12.2546   -999.2500   -999.2500
  1133.8000      7.7332      2.4485      0.0859     12.2127   -999.2500   -999.2500
  1133.9000      7.7332      2.4506      0.0461     12.0864   -999.2500   -999.2500
  1134.0000      7.7361      2.4681      0.0405     11.0222   -999.2500   -999.2500
  1134.1000      7.7361      2.4927      0.0926      9.5362   -999.2500   -999.2500
  1134.2000      7.7361      2.5046      0.0955      8.8096   -999.2500   -999.2500
  1134.3000      7.7402      2.5016      0.0765      8.9911   -999.2500   -999.2500
  1134.4000      7.7402      2.4890      0.0690      9.7558   -999.2500   -999.2500
  1134.5000      7.7387      2.4731      0.0612     10.7242   -999.2500   -999.2500
  1134.6000      7.7387      2.4614      0.0573     11.4295   -999.2500   -999.2500
  1134.7000      7.7387      2.4549      0.0497     11.8268   -999.2500   -999.2500
  1134.8000      7.7351      2.4478      0.0339     12.2545   -999.2500   -999.2500
  1134.9000      7.7351      2.4407      0.0173     12.6839   -999.2500   -999.2500
  1135.0000      7.7292      2.4421      0.0133     12.6017   -999.2500   -999.2500
  1135.1000      7.7292      2.4477      0.0762     12.2579   -999.2500   -999.2500
  1135.2000      7.7292      2.4442      0.0558     12.4714   -999.2500   -999.2500
  1135.3000      7.7216      2.4339      0.0343     13.0966   -999.2500   -999.2500
  1135.4000      7.7216      2.4263      0.0457     13.5573   -999.2500   -999.2500
  1135.5000      7.7178      2.4277      0.0146     13.4740   -999.2500   -999.2500
  1135.6000      7.7178      2.4384      0.0722     12.8248   -999.2500   -999.2500
  1135.7000      7.7178      2.4427      0.0654     12.5606   -999.2500   -999.2500
  1135.8000      7.7168      2.4323      0.0361     13.1921   -999.2500   -999.2500
  1135.9000      7.7168      2.4252      0.0150     13.6222   -999.2500   -999.2500
  1136.0000      7.7174      2.4346      0.0589     13.0575   -999.2500   -999.2500
  1136.1000      7.7174      2.4483      0.0765     12.2213   -999.2500   -999.2500
  1136.2000      7.7174      2.4567      0.0475     11.7145   -999.2500   -999.2500
  1136.3000      7.7192      2.4676      0.0252     11.0562   -999.2500   -999.2500
  1136.4000      7.7192      2.4845      0.0829     10.0280   -999.2500   -999.2500
  1136.5000      7.7203      2.4944      0.0753      9.4285   -999.2500   -999.2500
  1136.6000      7.7203      2.4909      0.0781      9.6413   -999.2500   -999.2500
  1136.7000      7.7203      2.4829      0.0613     10.1275   -999.2500   -999.2500
  1136.8000      7.7183      2.4779      0.0656     10.4296   -999.2500   -999.2500
  1136.9000      7.7183      2.4756      0.0637     10.5669   -999.2500   -999.2500
  1137.0000      7.7171      2.4716      0.0661     10.8104   -999.2500   -999.2500
  1137.1000      7.7171      2.4605      0.0614     11.4868   -999.2500   -999.2500
  1137.2000      7.7171      2.4437      0.0488     12.5001   -999.2500   -999.2500
  1137.3000      7.7191      2.4294      0.0275     13.3698   -999.2500   -999.2500
  1137.4000      7.7191      2.4274     -0.0012     13.4928   -999.2500   -999.2500
  1137.5000      7.7216      2.4418      0.0371     12.6175   -999.2500   -999.2500
  1137.6000      7.7216      2.4572      0.0469     11.6823   -999.2500   -999.2500
  1137.7000      7.7216      2.4576      0.0495     11.6635   -999.2500   -999.2500
  1137.8000      7.7225      2.4488      0.0318     12.1915   -999.2500   -999.2500
  1137.9000      7.7225      2.4467      0.0263     12.3198   -999.2500   -999.2500
  1138.0000      7.7205      2.4547      0.0481     11.8391   -999.2500   -999.2500
  1138.1000      7.7205      2.4628      0.0709     11.3470   -999.2500   -999.2500
  1138.2000      7.7205      2.4636      0.0533     11.2967   -999.2500   -999.2500
  1138.3000      7.7189      2.4577      0.0591     11.6517   -999.2500   -999.2500
  1138.4000      7.7189      2.4488      0.0376     12.1935   -999.2500   -999.2500
  1138.5000      7.7185      2.4393      0.0421     12.7693   -999.2500   -999.2500
  1138.6000      7.7185      2.4277      0.0402     13.4739   -999.2500   -999.2500
  1138.7000      7.7185      2.4169      0.0340     14.1254   -999.2500   -999.2500
  1138.8000      7.7170      2.4177     -0.0066     14.0764   -999.2500   -999.2500
  1138.9000      7.7170      2.4303      0.0283     13.3167   -999.2500   -999.2500
  1139.0000      7.7150      2.4424      0.0355     12.5848   -999.2500   -999.2500
  1139.1000      7.7150      2.4498      0.0420     12.1363   -999.2500   -999.2500
  1139.2000      7.7150      2.4540      0.0426     11.8795   -999.2500   -999.2500
  1139.3000      7.7108      2.4539      0.0404     11.8857   -999.2500   -999.2500
  1139.4000      7.7108      2.4497      0.0469     12.1397   -999.2500   -999.2500
  1139.5000      7.7026      2.4446      0.0465     12.4495   -999.2500   -999.2500
  1139.6000      7.7026      2.4431      0.0335     12.5384   -999.2500   -999.2500
  1139.7000      7.7026      2.4460      0.0212     12.3660   -999.2500   -999.2500
  1139.8000      7.6946      2.4506      0.0396     12.0835   -999.2500   -999.2500
  1139.9000      7.6946      2.4734      0.0459     10.7010   -999.2500   -999.2500
  1140.0000      7.6504      2.5526      0.0079      5.9038   -999.2500   -999.2500
  1140.1000      7.6504      2.5800      0.0448      4.2397   -999.2500   -999.2500
  1140.2000      7.6504      2.1569      0.5760     29.8875   -999.2500   -999.2500
  1140.3000      7.2057      1.2238      0.0800     86.4361   -999.2500   -999.2500
  1140.4000      7.2057      0.4147      0.0800    135.4700   -999.2500   -999.2500
  1140.5000      5.2741      0.0787   -999.2500    155.8347   -999.2500   -999.2500
  1140.6000      5.2741      0.0081   -999.2500    160.1143   -999.2500   -999.2500
  1140.7000      5.2741      0.0004   -999.2500    160.5794   -999.2500   -999.2500
  1140.8000      2.1113      0.0000   -999.2500    160.6061   -999.2500   -999.2500
  1140.9000      2.1113      0.0000   -999.2500    160.6061   -999.2500   -999.2500
  1141.0000      0.1966   -999.2500   -999.2500   -999.2500   -999.2500   -999.2500
  1141.1000      0.1966   -999.2500   -999.2500   -999.2500   -999.2500   -999.2500
  1141.2000      0.1966   -999.2500   -999.2500   -999.2500   -999.2500   -999.2500
  1141.3000     -0.2304   -999.2500   -999.2500   -999.2500   -999.2500   -999.2500
  1141.4000     -0.2304   -999.2500   -999.2500   -999.2500   -999.2500   -999.2500
  1141.5000     -0.2654   -999.2500   -999.2500   -999.2500   -999.2500   -999.2500
  1141.6000     -0.2654   -999.2500   -999.2500   -999.2500   -999.2500   -999.2500
  1141.7000     -0.2654   -999.2500   -999.2500   -999.2500   -999.2500   -999.2500
  1141.8000   -999.2500   -999.2500   -999.2500   -999.2500   -999.2500   -999.2500
  1141.9000   -999.2500   -999.2500   -999.2500   -999.2500   -999.2500   -999.2500
  1142.0000   -999.2500   -999.2500   -999.2500   -999.2500   -999.2500   -999.2500
  1142.1000   -999.2500   -999.2500   -999.2500   -999.2500   -999.2500   -999.2500
  1142.2000   -999.2500   -999.2500   -999.2500   -999.2500   -999.2500   -999.2500
  1142.3000   -999.2500   -999.2500   -999.2500   -999.2500   -999.2500   -999.2500
