~Version Information
VERS.                      2.0: CWLS Log ASCII Standard - VERSION 2.0
WRAP.                       NO: One line per depth step
~Well Information Block
STRT.FT               555.0000: 
STOP.FT              2283.0000: 
STEP.FT                 0.2500: 
NULL.                -999.2500: 
COMP.          Pioneer Natural Resources: COMPANY
WELL.          Roadster 41-33 Kv: WELL
FLD.           Purgatoire River: FIELD
LOC.           903' FNL & 248' FEL: LOCATION
PROV.                 Colorado: PROVINCE
CNTY.               Las Animas: COUNTRY
SRVC.                Patterson: SERVICE COMPANY
DATE.          Wed Dec 14 23:52:42 2005: LOG DATE
UWI.           05 071 08615 00: UNIQUE WELL ID
~Curve Information Block
DEPT.FT            0 000 00 00: Depth
SN.Ohm-m                      : IEL Short Normal
SP.mV                         : IEL Spontaneous Potential
DIR.Ohm-m                     : IEL Induction Resistivity
GR.GAPI                       : Gamma Ray
~Parameter Information Block
~A  Depth        SN          SP         DIR          GR     
# ...
  1024.0000      8.7777     25.5057      8.4208    132.7753
  1024.2500      9.0836     25.3607      8.4702    130.0786
  1024.5000      9.5061     25.2643      8.5063    124.8487
  1024.7500      9.9647     25.2329      8.5333    122.6565
  1025.0000     10.3674     25.2493      8.5540    123.8848
  1025.2500     10.6204     25.2683      8.5673    127.4971
  1025.5000     10.6570     25.2470      8.5691    134.1108
  1025.7500     10.4767     25.1729      8.5541    137.2947
  1026.0000     10.1652     25.0632      8.5180    138.4323
  1026.2500      9.8447     24.9448      8.4591    136.9756
  1026.5000      9.5950     24.8401      8.3791    133.3084
  1026.7500      9.4491     24.7670      8.2833    131.3419
  1027.0000      9.4009     24.7409      8.1786    131.3407
  1027.2500      9.3743     24.7681      8.0729    133.7901
  1027.5000      9.2675     24.8396      7.9732    139.8700
  1027.7500      9.0477     24.9321      7.8850    144.0260
  1028.0000      8.7599     25.0170      7.8108    148.4355
  1028.2500      8.4638     25.0715      7.7501    149.9190
  1028.5000      8.1959     25.0856      7.6996    150.4791
  1028.7500      7.9802     25.0652      7.6545    150.0019
  1029.0000      7.8416     25.0268      7.6115    148.1878
  1029.2500      7.7976     24.9883      7.5721    146.3874
  1029.5000      7.8434     24.9616      7.5437    143.1752
  1029.7500      7.9524     24.9520      7.5379    140.9088
  1030.0000      8.0895     24.9608      7.5648    137.7662
  1030.2500      8.2328     24.9847      7.6299    136.1805
  1030.5000      8.3898     25.0120      7.7325    135.0325
  1030.7500      8.5702     25.0252      7.8682    135.1078
  1031.0000      8.7452     25.0071      8.0311    135.9506
  1031.2500      8.8699     24.9449      8.2147    136.4290
  1031.5000      8.9350     24.8284      8.4120    136.0932
  1031.7500      8.9648     24.6492      8.6142    135.0319
  1032.0000      9.0016     24.4044      8.8126    132.8166
  1032.2500      9.0920     24.1037      9.0029    131.4452
  1032.5000      9.2562     23.7710      9.1887    130.0588
  1032.7500      9.4900     23.4401      9.3825    129.6742
  1033.0000      9.7914     23.1451      9.6010    130.0354
  1033.2500     10.1622     22.9087      9.8581    130.9833
  1033.5000     10.5995     22.7355     10.1583    133.3720
  1033.7500     11.0863     22.6128     10.4947    135.3463
  1034.0000     11.5786     22.5207     10.8505    138.1386
  1034.2500     12.0286     22.4424     11.2021    139.3387
  1034.5000     12.4222     22.3685     11.5232    139.2164
  1034.7500     12.7638     22.2995     11.7896    137.6162
  1035.0000     13.0661     22.2451     11.9845    133.4626
  1035.2500     13.3571     22.2214     12.1036    130.1558
  1035.5000     13.6330     22.2445     12.1551    125.3118
  1035.7500     13.8209     22.3262     12.1526    122.5050
  1036.0000     13.8352     22.4710     12.1068    119.4102
  1036.2500     13.6283     22.6724     12.0214    118.3417
  1036.5000     13.1882     22.9076     11.8986    118.5058
  1036.7500     12.5515     23.1353     11.7464    119.7626
  1037.0000     11.8059     23.3076     11.5787    122.7954
  1037.2500     11.0378     23.3949     11.4051    124.9810
  1037.5000     10.3001     23.4025     11.2229    127.4873
  1037.7500      9.6367     23.3648     11.0209    128.3474
  1038.0000      9.1014     23.3217     10.7932    128.7954
  1038.2500      8.7336     23.2993     10.5487    129.2811
  1038.5000      8.5399     23.3042     10.3057    131.8724
  1038.7500      8.5302     23.3260     10.0775    135.2678
  1039.0000      8.7305     23.3456      9.8620    141.8718
  1039.2500      9.1218     23.3439      9.6443    145.9586
  1039.5000      9.6187     23.3085      9.4085    149.7280
  1039.7500     10.1277     23.2361      9.1541    150.5744
  1040.0000     10.5784     23.1306      8.9041    150.8151
  1040.2500     10.9066     22.9985      8.7033    151.2892
  1040.5000     11.0857     22.8450      8.6091    153.0004
  1040.7500     11.1670     22.6707      8.6870    154.3612
  1041.0000     11.2227     22.4715      9.0150    155.5429
  1041.2500     11.2881     22.2452      9.7026    155.1905
  1041.5000     11.3828     21.9999     10.9310    152.4081
  1041.7500     11.5202     21.7568     13.0486    149.1544
  1042.0000     11.6842     21.5411     16.8308    143.4315
  1042.2500     11.8332     21.3681     24.3608    140.2152
  1042.5000     11.9405     21.2336     43.2339    137.7702
  1042.7500     12.0162     21.1120    131.1270    137.7513
  1043.0000     12.0809     20.9643 100000.0000    138.8988
  1043.2500     12.1336     20.7529 100000.0000    139.6560
  1043.5000     12.1629     20.4564 100000.0000    140.5409
  1043.7500     12.1669     20.0805   3333.8066    141.5043
  1044.0000     12.1421     19.6571     94.4434    144.4019
  1044.2500     12.0878     19.2255     47.4389    147.1675
  1044.5000     12.0271     18.8020     34.3943    151.3412
  1044.7500     11.9912     18.3623     30.3121    153.4532
  1045.0000     11.9892     17.8512     31.0821    155.1958
  1045.2500     12.0086     17.2039     38.3706    155.4545
  1045.5000     12.0320     16.3583     74.9271    154.4951
  1045.7500     12.0450     15.2569 100000.0000    152.8464
  1046.0000     12.0498     13.8496 100000.0000    148.8660
  1046.2500     12.0791     12.0958 100000.0000    145.5515
  1046.5000     12.1763      9.9586 100000.0000    140.8246
  1046.7500     12.3648      7.3878 100000.0000    138.7069
  1047.0000     12.6347      4.3001 100000.0000    138.0032
  1047.2500     12.9305      0.5717 100000.0000    138.8960
  1047.5000     13.1514     -3.9514 100000.0000    140.1675
  1047.7500     13.1957     -9.4318 100000.0000    139.4400
  1048.0000     13.0054    -16.0174 100000.0000    134.8305
  1048.2500     12.5397    -23.8163      7.0866    130.1138
  1048.5000     11.7065    -32.8661      2.1247    122.8566
  1048.7500     10.3737    -43.1025      1.1241    118.6129
  1049.0000      8.5255    -54.3288      0.7377    112.4272
  1049.2500      6.4449    -66.1907      0.5602    107.5015
  1049.5000      4.6356    -78.1723      0.4900     97.9948
  1049.7500      3.4338    -89.6572      0.5013     90.4385
  1050.0000      2.7598   -100.0804      0.6067     78.7419
  1050.2500      2.3137   -109.1189      0.8727     71.9544
  1050.5000      1.8989   -116.7790      1.5304     65.1595
  1050.7500      1.5125   -123.2749      3.6264     63.2764
  1051.0000      1.2251   -128.7732     19.7892     63.5886
  1051.2500      1.0570   -133.2142 100000.0000     64.8147
  1051.5000      0.9731   -136.3605 100000.0000     66.1195
  1051.7500      0.9389   -138.0265 100000.0000     65.6933
  1052.0000      0.9357   -138.3059     24.7609     62.6370
  1052.2500      0.9448   -137.6416     14.5464     59.5509
  1052.5000      0.9488   -136.7038     15.1996     55.2045
  1052.7500      0.9368   -136.1552     25.3823     53.4763
  1053.0000      0.8999   -136.4147    155.0889     53.5131
  1053.2500      0.8392   -137.4984 100000.0000     55.4967
  1053.5000      0.7911   -138.9687 100000.0000     61.7485
  1053.7500      0.8236   -139.9885 100000.0000     68.0986
  1054.0000      0.9453   -139.4615 100000.0000     79.6519
  1054.2500      1.0494   -136.2186   1157.0831     87.2873
  1054.5000      1.0422   -129.2264 100000.0000     96.6733
  1054.7500      0.9615   -117.8536 100000.0000    101.5357
  1055.0000      0.8970   -102.1953 100000.0000    108.3077
  1055.2500      0.9003    -83.3175     36.8014    113.2910
  1055.5000      1.0300    -63.2487      6.1231    121.1919
  1055.7500      1.4399    -44.6268      2.3986    125.7017
  1056.0000      2.4257    -29.9118      1.3150    129.4660
  1056.2500      4.3696    -20.2357      0.9061    129.4751
  1056.5000      7.5220    -14.5585      0.7557    126.0680
  1056.7500     11.7327    -10.0876      0.7498    134.5509
  1057.0000     16.4238     -3.9991      0.8719    128.4328
  1057.2500     20.8749      4.7931      1.1815    126.0309
