~Version Information
VERS.                      2.0: CWLS Log ASCII Standard - VERSION 2.0
WRAP.                       NO: One line per depth step
~Well Information Block
STRT.FT                10.0000: 
STOP.FT              1665.0000: 
STEP.FT                 0.1000: 
NULL.                -999.2500: 
COMP.          Pioneer Natural Resources: COMPANY
WELL.          Stock Canyon 34-33: WELL
FLD.           Purgatorie River: FIELD
LOC.           980' FSL & 2191' FEL: LOCATION
PROV.                 Colorado: PROVINCE
CNTY.               Las Animas: COUNTRY
SRVC.                Patterson: SERVICE COMPANY
DATE.          Mon Dec 05 10:33:50 2005: LOG DATE
UWI.                          : UNIQUE WELL ID
~Curve Information Block
DEPT.FT            0 000 00 00: Depth
DCAL.in                       : CDL Caliper
RHOB.g/cc                     : CDL Bulk Density
RHOC.g/cc                     : CDL Density Correction
DPOR.pu                       : CDL Density Porosity
GR.GAPI                       : Gamma Ray
NPOR.pu                       : Neutron Porosity
~Parameter Information Block
~A  Depth       DCAL        RHOB        RHOC        DPOR         GR         NPOR    
# ...
  1430.8000      7.9907      2.5198     -0.0207      7.8888     57.2034     17.5187
  1430.9000      7.9907      2.5360      0.0169      6.9063     57.6810     17.6356
  1431.0000      7.9786      2.5624      0.0716      5.3084     58.6966     17.8611
  1431.1000      7.9786      2.5732      0.0414      4.6517     60.2361     18.0044
  1431.2000      7.9786      2.5651     -0.0065      5.1447     62.4375     17.9131
  1431.3000      7.9809      2.5535      0.0123      5.8508     63.6323     17.5353
  1431.4000      7.9809      2.5548      0.0153      5.7697     62.5282     17.0048
  1431.5000      7.9745      2.5730      0.0460      4.6650     59.9184     16.6342
  1431.6000      7.9745      2.5891      0.0588      3.6937     58.7410     16.6433
  1431.7000      7.9745      2.5813      0.0571      4.1642     60.1847     17.0891
  1431.8000      7.9748      2.5544      0.0512      5.7965     61.8562     17.7097
  1431.9000      7.9748      2.5363      0.0085      6.8901     62.1367     18.1537
  1432.0000      7.9746      2.5435      0.0363      6.4572     63.1320     18.3859
  1432.1000      7.9746      2.5597      0.0387      5.4746     66.0003     18.4372
  1432.2000      7.9746      2.5646      0.0684      5.1773     68.3656     18.5245
  1432.3000      7.9580      2.5606      0.0463      5.4167     68.8634     18.7754
  1432.4000      7.9580      2.5589      0.0549      5.5210     67.8125     18.7286
  1432.5000      7.9616      2.5609      0.0244      5.3972     65.8258     18.3824
  1432.6000      7.9616      2.5659      0.0503      5.0993     63.9222     18.3599
  1432.7000      7.9616      2.5707      0.0530      4.8054     64.3417     18.6166
  1432.8000      7.9673      2.5700      0.0599      4.8488     68.3184     18.8060
  1432.9000      7.9673      2.5651      0.0314      5.1485     73.1964     19.0312
  1433.0000      7.9592      2.5620      0.0369      5.3320     76.2099     19.3136
  1433.1000      7.9592      2.5622      0.0553      5.3188     76.6146     19.4271
  1433.2000      7.9592      2.5602      0.0907      5.4395     75.1326     19.2557
  1433.3000      7.9611      2.5551      0.0462      5.7544     73.1680     18.9598
  1433.4000      7.9611      2.5537      0.0354      5.8380     70.4154     18.6931
  1433.5000      7.9612      2.5546      0.0447      5.7788     66.8618     18.5276
  1433.6000      7.9612      2.5537      0.0771      5.8376     65.5190     18.7143
  1433.7000      7.9612      2.5576      0.0415      5.6002     66.8162     19.0773
  1433.8000      7.9593      2.5671      0.0677      5.0270     66.9274     18.8218
  1433.9000      7.9593      2.5681      0.0876      4.9637     64.9974     17.9102
  1434.0000      7.9599      2.5584      0.0514      5.5510     64.4133     17.2138
  1434.1000      7.9599      2.5479      0.0641      6.1893     65.4568     17.1740
  1434.2000      7.9599      2.5330      0.0566      7.0894     64.5246     17.5576
  1434.3000      7.9589      2.5090      0.0539      8.5432     61.4878     17.9558
  1434.4000      7.9589      2.4915      0.0297      9.6088     60.4367     18.0595
  1434.5000      7.9571      2.4984      0.0342      9.1869     63.3310     17.9967
  1434.6000      7.9571      2.5277      0.0263      7.4141     68.1778     18.1344
  1434.7000      7.9571      2.5606      0.1076      5.4172     72.4517     18.4859
  1434.8000      7.9527      2.5773      0.0980      4.4060     74.2259     18.8290
  1434.9000      7.9527      2.5789      0.0823      4.3116     71.7212     19.0135
  1435.0000      7.9511      2.5826      0.0948      4.0858     66.0098     19.0762
  1435.1000      7.9511      2.5914      0.1076      3.5539     62.1494     19.0777
  1435.2000      7.9511      2.5922      0.1204      3.5035     64.3473     18.8784
  1435.3000      7.9501      2.5791      0.0692      4.2967     70.3660     18.3444
  1435.4000      7.9501      2.5568      0.0885      5.6506     75.4200     17.7004
  1435.5000      7.9444      2.5261      0.0992      7.5078     77.7422     17.4582
  1435.6000      7.9444      2.4960      0.0226      9.3342     77.9410     17.8819
  1435.7000      7.9444      2.4914      0.0157      9.6129     76.9661     18.6816
  1435.8000      7.9470      2.5175      0.0645      8.0289     75.1187     19.2882
  1435.9000      7.9470      2.5426      0.1215      6.5119     73.9828     19.4042
  1436.0000      7.9493      2.5448      0.1016      6.3782     74.8788     19.1985
  1436.1000      7.9493      2.5467      0.0554      6.2617     74.4601     18.9613
  1436.2000      7.9493      2.5786      0.0904      4.3286     70.5847     18.8186
  1436.3000      7.9386      2.6329      0.1775      1.0383     66.1468     18.7598
  1436.4000      7.9386      2.6782      0.1864     -1.7085     62.4988     18.8133
  1436.5000      7.9237      2.6968      0.1812     -2.8384     58.6614     19.0136
  1436.6000      7.9237      2.6924      0.1603     -2.5667     56.6109     19.2695
  1436.7000      7.9237      2.6777      0.1874     -1.6775     57.3786     19.6073
  1436.8000      7.9221      2.6678      0.1269     -1.0773     57.2285     20.0557
  1436.9000      7.9221      2.6659      0.1134     -0.9656     53.2283     20.4433
  1437.0000      7.9334      2.6555      0.0850     -0.3339     47.6090     20.4731
  1437.1000      7.9334      2.6284      0.0679      1.3063     43.8419     19.8633
  1437.2000      7.9334      2.5967      0.0101      3.2290     42.5853     18.7321
  1437.3000      7.9540      2.5761     -0.0279      4.4814     42.2502     17.6060
  1437.4000      7.9540      2.5757     -0.0196      4.5035     42.0089     16.8572
  1437.5000      7.9858      2.5909      0.0157      3.5815     43.4115     16.5070
  1437.6000      7.9858      2.6034      0.0495      2.8223     46.3390     16.4287
  1437.7000      7.9858      2.5987      0.0348      3.1096     47.0491     16.4899
  1437.8000      7.9998      2.5810      0.0467      4.1803     43.9561     16.5680
  1437.9000      7.9998      2.5717      0.0124      4.7466     40.8305     16.7273
  1438.0000      7.9765      2.5835      0.0173      4.0332     40.4178     17.0521
  1438.1000      7.9765      2.6021      0.0810      2.9004     41.5403     17.3435
  1438.2000      7.9765      2.6137      0.0327      2.2006     42.9317     17.3109
  1438.3000      7.9626      2.6243      0.0701      1.5573     45.4627     16.9015
  1438.4000      7.9626      2.6354      0.0894      0.8839     48.8339     16.3661
  1438.5000      7.9580      2.6402      0.0883      0.5946     51.0025     16.0569
  1438.6000      7.9580      2.6356      0.1133      0.8738     51.6132     16.2254
  1438.7000      7.9580      2.6235      0.0744      1.6071     51.3415     16.8123
  1438.8000      7.9498      2.6077      0.0823      2.5663     50.5040     17.4356
  1438.9000      7.9498      2.5843      0.0854      3.9807     50.2378     17.8179
  1439.0000      7.9515      2.5569      0.0337      5.6403     53.0148     18.0658
  1439.1000      7.9515      2.5416      0.0241      6.5686     58.4497     18.2528
  1439.2000      7.9515      2.5383      0.0956      6.7716     61.6766     18.2784
  1439.3000      7.9590      2.5341      0.0773      7.0243     61.9214     18.1349
  1439.4000      7.9590      2.5309      0.0390      7.2194     62.4260     17.8832
  1439.5000      7.9671      2.5371      0.0600      6.8423     63.3497     17.5770
  1439.6000      7.9671      2.5486      0.0960      6.1474     63.3713     17.4093
  1439.7000      7.9671      2.5569      0.0859      5.6449     63.2751     17.6619
  1439.8000      7.9675      2.5624      0.1096      5.3094     64.8479     18.1039
  1439.9000      7.9675      2.5684      0.0534      4.9426     66.5453     17.9882
  1440.0000      7.9634      2.5768      0.0493      4.4376     65.1136     17.2183
  1440.1000      7.9634      2.5840      0.1020      4.0022     62.4019     16.4844
  1440.2000      7.9634      2.5816      0.1026      4.1465     61.4086     16.2827
  1440.3000      7.9624      2.5722      0.0645      4.7122     61.5037     16.4455
