~Version Information
VERS.                      2.0: CWLS Log ASCII Standard - VERSION 2.0
WRAP.                       NO: One line per depth step
~Well Information Block
STRT.FT               875.0000: 
STOP.FT              2053.0000: 
STEP.FT                 0.1000: 
NULL.                -999.2500: 
COMP.          Pioneer Natural Resources: COMPANY
WELL.          Woodstock 43-19: WELL
FLD.           Purgatoire River: FIELD
LOC.           2195' FSL & 250' FEL: LOCATION
CNTY.               Las Animas: COUNTY
SRVC.                Patterson: SERVICE COMPANY
DATE.          Thu Feb 02 12:45:04 2006: LOG DATE
UWI.           05 071 08677 00: UNIQUE WELL ID
STAT.                 Colorado: STATE
~Curve Information Block
DEPT.FT            0 000 00 00: Depth
DCAL.in                       : CDL Caliper
RHOB.g/cc                     : CDL Bulk Density
RHOC.g/cc                     : CDL Density Correction
DPOR.pu                       : CDL Density Porosity
GR.GAPI                       : Gamma Ray
NPOR.pu                       : Neutron Porosity
~Parameter Information Block
~A  Depth       DCAL        RHOB        RHOC        DPOR         GR         NPOR    
# ...
  1499.0000      8.5642      2.3303      0.0437     19.3760    142.1151     32.3062
  1499.1000      8.5642      2.3364      0.0071     19.0054    147.6606     31.6695
  1499.2000      8.5642      2.3661      0.0191     17.2054    155.4940     31.7262
  1499.3000      8.4139      2.4055      0.0806     14.8187    162.1166     31.7973
  1499.4000      8.4139      2.4397      0.1490     12.7469    166.9889     30.9939
  1499.5000      8.2157      2.4650      0.1436     11.2101    166.9689     29.7875
  1499.6000      8.2157      2.4897      0.1377      9.7176    160.8854     29.3438
  1499.7000      8.2157      2.5182      0.2245      7.9881    154.7696     29.8734
  1499.8000      8.0395      2.5485      0.1355      6.1516    153.9131     30.8116
  1499.9000      8.0395      2.5724      0.1849      4.7019    157.8041     31.5251
  1500.0000      8.0398      2.5664      0.1722      5.0642    161.9120     31.7813
  1500.1000      8.0398      2.5363      0.0491      6.8888    162.4880     31.6234
  1500.2000      8.0398      2.5266      0.0976      7.4814    159.7158     30.9092
  1500.3000      8.0800      2.5507      0.1154      6.0172    155.2215     30.3612
  1500.4000      8.0800      2.5801      0.1286      4.2392    150.1663     30.5600
  1500.5000      8.1118      2.5842      0.0916      3.9860    146.6659     30.7108
  1500.6000      8.1118      2.5591      0.0916      5.5072    146.1953     30.6085
  1500.7000      8.1118      2.5267      0.0482      7.4742    146.4564     30.6140
  1500.8000      8.1484      2.5116      0.0398      8.3879    143.6927     30.4273
  1500.9000      8.1484      2.5162      0.0354      8.1077    137.9887     29.8919
  1501.0000      8.1267      2.5289      0.0191      7.3423    131.7589     29.1832
  1501.1000      8.1267      2.5402      0.1120      6.6554    126.2355     28.6769
  1501.2000      8.1267      2.5426      0.0683      6.5091    123.7347     28.4938
  1501.3000      8.0999      2.5399      0.0742      6.6755    126.3008     28.0040
  1501.4000      8.0999      2.5383      0.1209      6.7704    131.7128     27.1880
  1501.5000      8.0922      2.5383      0.1007      6.7700    134.6129     27.2724
  1501.6000      8.0922      2.5476      0.0548      6.2053    133.7712     28.7224
  1501.7000      8.0922      2.5642      0.1353      5.1993    132.0016     30.1028
  1501.8000      8.0414      2.5660      0.1441      5.0909    130.4630     30.3317
  1501.9000      8.0414      2.5477      0.0943      6.1981    133.1135     30.0365
  1502.0000      8.0466      2.5280      0.0676      7.3933    142.6293     29.9160
  1502.1000      8.0466      2.5172      0.1137      8.0462    150.3973     29.9571
  1502.2000      8.0466      2.5174      0.0576      8.0355    147.7255     30.1843
  1502.3000      8.0290      2.5241      0.1480      7.6295    140.1644     30.9007
  1502.4000      8.0290      2.5218      0.0904      7.7718    139.2313     31.6606
  1502.5000      8.0342      2.5128      0.0284      8.3126    146.6799     31.4577
  1502.6000      8.0342      2.5146      0.0796      8.2063    154.2132     30.6802
  1502.7000      8.0342      2.5297      0.0882      7.2907    156.5994     30.3831
  1502.8000      8.0820      2.5505      0.1644      6.0277    155.4429     30.4368
  1502.9000      8.0820      2.5694      0.1488      4.8842    155.9936     30.2790
  1503.0000      8.1163      2.5821      0.1349      4.1179    161.9372     29.7779
  1503.1000      8.1163      2.5877      0.1044      3.7769    168.8586     29.2432
  1503.2000      8.1163      2.5849      0.0979      3.9442    169.9951     29.0337
  1503.3000      8.1760      2.5660      0.1240      5.0900    164.5150     29.1896
  1503.4000      8.1760      2.5300      0.0300      7.2716    155.5480     29.5866
  1503.5000      8.0576      2.4926      0.0492      9.5424    147.5611     29.8977
  1503.6000      8.0576      2.4700     -0.0052     10.9096    145.8475     30.0397
  1503.7000      8.0576      2.4692      0.0324     10.9562    149.1284     30.0196
  1503.8000      8.0555      2.4884      0.0314      9.7940    148.2365     29.3559
  1503.9000      8.0555      2.5286      0.0364      7.3576    140.7000     28.2670
  1504.0000      8.0667      2.5823      0.1194      4.1060    136.6377     27.2588
  1504.1000      8.0667      2.6186      0.1271      1.9030    141.3246     25.8813
  1504.2000      8.0667      2.6234      0.1266      1.6122    145.3007     24.6061
  1504.3000      7.9162      2.6180      0.1206      1.9379    139.7788     24.5069
  1504.4000      7.9162      2.6157      0.1510      2.0811    124.9389     25.1412
  1504.5000      7.8704      2.6125      0.1308      2.2739    104.9074     25.6501
  1504.6000      7.8704      2.6153      0.0839      2.1029     86.0459     25.8028
  1504.7000      7.8704      2.6259      0.0619      1.4631     74.2912     25.5462
  1504.8000      7.8794      2.6319      0.0754      1.0983     70.4552     24.9967
  1504.9000      7.8794      2.6392      0.0565      0.6568     70.9417     24.8452
  1505.0000      7.8922      2.6689      0.0608     -1.1451     72.4177     24.9726
  1505.1000      7.8922      2.7023      0.1668     -3.1693     73.4985     24.7174
  1505.2000      7.8922      2.7000      0.1681     -3.0290     71.9392     24.5938
  1505.3000      7.9316      2.6750      0.0842     -1.5149     69.5098     24.8086
  1505.4000      7.9316      2.6582      0.1086     -0.4984     70.0060     24.7418
  1505.5000      7.8972      2.6484      0.1017      0.0979     70.2714     24.6346
  1505.6000      7.8972      2.6376      0.1156      0.7513     68.3081     24.8455
  1505.7000      7.8972      2.6217      0.1388      1.7170     67.7484     24.9350
  1505.8000      7.8761      2.6058      0.0619      2.6808     68.5187     24.3721
  1505.9000      7.8761      2.6077      0.0873      2.5653     66.1534     23.1825
  1506.0000      7.8810      2.6276      0.0963      1.3601     61.1726     22.2361
  1506.1000      7.8810      2.6441      0.1565      0.3580     58.0979     22.1638
  1506.2000      7.8810      2.6485      0.0891      0.0909     56.8998     22.2145
  1506.3000      7.8879      2.6504      0.1579     -0.0228     56.1909     21.5998
  1506.4000      7.8879      2.6492      0.1279      0.0465     56.0887     20.7577
  1506.5000      7.8784      2.6390      0.1083      0.6690     55.7084     20.4108
  1506.6000      7.8784      2.6255      0.0528      1.4848     54.1997     20.4141
  1506.7000      7.8784      2.6165      0.0741      2.0282     51.1436     19.9207
  1506.8000      7.8876      2.6058      0.0410      2.6810     46.6603     19.0404
  1506.9000      7.8876      2.5874      0.0621      3.7917     40.7675     18.9298
  1507.0000      7.9376      2.5654      0.0726      5.1257     35.3709     20.0842
  1507.1000      7.9376      2.5514      0.0558      5.9733     32.9479     21.6917
  1507.2000      7.9376      2.5634      0.0153      5.2456     34.1565     22.5882
  1507.3000      7.9601      2.5996      0.0797      3.0559     37.8359     22.6110
  1507.4000      7.9601      2.6383      0.0642      0.7088     39.3614     22.4235
  1507.5000      7.8975      2.6727      0.0258     -1.3735     34.6151     22.4135
  1507.6000      7.8975      2.7088      0.0295     -3.5634     27.9317     22.3084
  1507.7000      7.8975      2.7507      0.1101     -6.1042     25.4128     21.5499
  1507.8000      7.8663      2.7964      0.0730     -8.8741     26.6295     20.1183
  1507.9000      7.8663      2.8345      0.0725    -11.1809     28.3786     18.7159
  1508.0000      7.8626      2.8491      0.1203    -12.0658     28.0144     17.9474
  1508.1000      7.8626      2.8333      0.0289    -11.1109     25.5559     18.1679
  1508.2000      7.8626      2.7879      0.0352     -8.3585     23.0513     19.1041
  1508.3000      7.8723      2.7191     -0.0437     -4.1893     20.3871     19.6949
  1508.4000      7.8723      2.6512     -0.0456     -0.0711     16.9680     19.6842
  1508.5000      7.9308      2.6095     -0.0639      2.4558     15.5995     19.4032
