~Version Information
VERS.                      2.0: CWLS Log ASCII Standard - VERSION 2.0
WRAP.                       NO: One line per depth step
~Well Information Block
STRT.FT               840.0000: 
STOP.FT              1912.0000: 
STEP.FT                 0.1000: 
NULL.                -999.2500: 
COMP.          Petrogulf Corporation: COMPANY
WELL.             Kraft 17-23R: WELL
FLD.           Purgatorie River: FIELD
LOC.           1509' FSL & 1673' FWL: LOCATION
PROV.                 Colorado: PROVINCE
CNTY.               Las Animas: COUNTRY
SRVC.                Patterson: SERVICE COMPANY
DATE.          Wed Oct 12 07:01:14 2005: LOG DATE
UWI.                          : UNIQUE WELL ID
~Curve Information Block
DEPT.FT            0 000 00 00: Depth
DCAL.in                       : CDL Caliper
RHOB.g/cc                     : CDL Bulk Density
RHOC.g/cc                     : CDL Density Correction
DPOR.pu                       : CDL Density Porosity
GR.GAPI                       : Gamma Ray
NPOR.pu                       : Neutron Porosity
~Parameter Information Block
~A  Depth       DCAL        RHOB        RHOC        DPOR         GR         NPOR    
# ...
  1118.4000      7.9557      2.5472      0.0286      6.2332     89.9651     15.6293
  1118.5000      7.9511      2.5320      0.0232      7.1487     92.5003     15.9334
  1118.6000      7.9511      2.5191     -0.0047      7.9325     89.0555     16.0563
  1118.7000      7.9511      2.5087      0.0200      8.5611     83.7188     16.0812
  1118.8000      7.9472      2.4994      0.0100      9.1252     81.0011     16.0592
  1118.9000      7.9472      2.4887      0.0414      9.7736     82.1420     15.8854
  1119.0000      7.9444      2.4713      0.0028     10.8318     84.8327     15.7066
  1119.1000      7.9444      2.4516     -0.0072     12.0231     87.4947     15.8259
  1119.2000      7.9444      2.4338     -0.0102     13.1011     90.4714     16.1756
  1119.3000      7.9433      2.4139     -0.0139     14.3062     94.1886     16.6469
  1119.4000      7.9433      2.3906      0.0034     15.7226     98.9247     17.3304
  1119.5000      7.9522      2.3688     -0.0298     17.0446    102.0884     17.9828
  1119.6000      7.9522      2.3530     -0.0141     17.9984    101.9884     18.2648
  1119.7000      7.9522      2.3356     -0.0075     19.0520    103.7322     18.4147
  1119.8000      7.9516      2.3136     -0.0199     20.3897    111.1560     18.9699
  1119.9000      7.9516      2.2975      0.0005     21.3625    121.3967     20.1572
  1120.0000      7.9415      2.2915      0.0426     21.7246    129.6442     21.7329
  1120.1000      7.9415      2.2967      0.0621     21.4143    134.2122     23.3213
  1120.2000      7.9415      2.3137      0.1100     20.3828    135.9129     24.8137
  1120.3000      7.9257      2.3285      0.1501     19.4821    135.4058     26.0600
  1120.4000      7.9257      2.3279      0.0967     19.5221    133.2831     26.9040
  1120.5000      8.0162      2.3236      0.0267     19.7802    130.0814     27.4504
  1120.6000      8.0162      2.3384      0.0728     18.8845    128.0950     27.8342
  1120.7000      8.0162      2.3815      0.0538     16.2724    128.2692     28.1141
  1120.8000      8.0119      2.4414      0.1661     12.6451    130.2794     28.2455
  1120.9000      8.0119      2.4901      0.1750      9.6916    135.9527     28.2977
  1121.0000      7.9875      2.5176      0.0874      8.0248    143.2998     28.3432
  1121.1000      7.9875      2.5332      0.1492      7.0800    147.2352     28.2332
  1121.2000      7.9875      2.5409      0.1161      6.6133    148.4367     28.1797
  1121.3000      7.9721      2.5447      0.1143      6.3790    152.1490     28.4835
  1121.4000      7.9721      2.5476      0.1058      6.2071    158.8052     28.8580
  1121.5000      7.9783      2.5483      0.0882      6.1633    165.1201     28.9249
  1121.6000      7.9783      2.5501      0.0777      6.0561    168.6231     28.6132
  1121.7000      7.9783      2.5605      0.0421      5.4271    167.9438     27.8762
  1121.8000      7.9928      2.5747      0.1103      4.5641    164.2987     26.8339
  1121.9000      7.9928      2.5794      0.0719      4.2767    161.7451     25.9286
  1122.0000      8.0028      2.5819      0.0391      4.1273    161.8800     25.5970
  1122.1000      8.0028      2.5940      0.0674      3.3918    161.2481     25.8897
  1122.2000      8.0028      2.6063      0.1071      2.6487    156.5464     26.2693
  1122.3000      8.0545      2.6096      0.0565      2.4496    151.4541     26.3675
  1122.4000      8.0545      2.6114      0.0479      2.3422    152.4601     26.4876
  1122.5000      8.1147      2.6189      0.0232      1.8841    158.0810     26.7334
  1122.6000      8.1147      2.6223      0.1147      1.6803    161.7720     26.8588
  1122.7000      8.1147      2.6065      0.0468      2.6355    160.9027     26.8249
  1122.8000      8.1422      2.5783      0.0056      4.3439    156.7715     26.6953
  1122.9000      8.1422      2.5581     -0.0282      5.5687    151.9771     26.4728
  1123.0000      8.1675      2.5553      0.0066      5.7385    150.1342     26.4010
  1123.1000      8.1675      2.5621      0.0296      5.3254    151.3076     26.6394
  1123.2000      8.1675      2.5719      0.0176      4.7344    153.9338     26.8415
  1123.3000      8.1791      2.5836      0.0625      4.0243    159.5433     26.7702
  1123.4000      8.1791      2.5897      0.0916      3.6569    165.2464     26.6755
  1123.5000      8.1821      2.5821      0.0907      4.1133    164.8364     26.7721
  1123.6000      8.1821      2.5653      0.0417      5.1363    159.8147     26.9827
  1123.7000      8.1821      2.5512      0.0256      5.9884    156.8895     27.0880
  1123.8000      8.1650      2.5470      0.0059      6.2432    158.6483     26.7609
  1123.9000      8.1650      2.5491      0.0325      6.1160    162.3555     26.0093
  1124.0000      8.0959      2.5483      0.0618      6.1631    164.0516     25.3875
  1124.1000      8.0959      2.5397      0.0257      6.6861    164.4732     25.3983
  1124.2000      8.0959      2.5258      0.0541      7.5257    167.2168     25.8320
  1124.3000      8.0295      2.5213     -0.0042      7.7995    170.4791     26.0456
  1124.4000      8.0295      2.5440      0.0418      6.4256    169.6530     25.7773
  1124.5000      8.0174      2.5924      0.0354      3.4938    163.5006     25.4257
  1124.6000      8.0174      2.6534      0.0964     -0.2068    155.8346     25.2271
  1124.7000      8.0174      2.7112      0.1523     -3.7080    151.7876     25.1868
  1124.8000      8.0058      2.7507      0.1997     -6.1051    151.7216     25.3672
  1124.9000      8.0058      2.7651      0.2259     -6.9751    152.2794     25.5042
  1125.0000      7.9822      2.7576      0.2026     -6.5214    149.0916     25.3744
  1125.1000      7.9822      2.7486      0.1573     -5.9771    141.6301     25.0792
  1125.2000      7.9822      2.7600      0.1480     -6.6641    134.1852     24.7713
  1125.3000      7.9664      2.7990      0.1291     -9.0333    131.1122     24.5624
  1125.4000      7.9664      2.8615      0.1051    -12.8158    132.0806     24.4478
  1125.5000      7.9650      2.9211      0.1854    -16.4329    132.4240     24.3874
  1125.6000      7.9650      2.9435      0.2016    -17.7900    130.7241     24.3932
  1125.7000      7.9650      2.9208      0.1982    -16.4095    128.2256     24.4170
  1125.8000      7.9404      2.8698      0.1426    -13.3232    124.4848     24.3461
  1125.9000      7.9404      2.8192      0.0473    -10.2518    121.1519     24.3583
  1126.0000      7.9011      2.7940      0.0010     -8.7277    120.3354     24.6768
  1126.1000      7.9011      2.7941     -0.0116     -8.7327    120.8993     24.8995
  1126.2000      7.9011      2.7988     -0.0124     -9.0169    121.4813     24.5838
  1126.3000      7.9159      2.7938     -0.0171     -8.7158    122.5509     24.0000
  1126.4000      7.9159      2.7739      0.0480     -7.5079    125.6006     23.7211
  1126.5000      7.9219      2.7385      0.1022     -5.3632    128.9602     23.9598
  1126.6000      7.9219      2.6965      0.0585     -2.8182    131.1287     24.2224
  1126.7000      7.9219      2.6631      0.0313     -0.7939    134.1026     24.1077
  1126.8000      7.9280      2.6436      0.0389      0.3875    138.0894     23.9095
  1126.9000      7.9280      2.6294     -0.0055      1.2486    140.3878     23.9304
  1127.0000      7.9564      2.6158     -0.0422      2.0745    140.9167     24.1066
  1127.1000      7.9564      2.6075      0.0367      2.5777    140.3708     24.2400
  1127.2000      7.9564      2.6085      0.0323      2.5158    141.4438     24.3737
  1127.3000      7.9702      2.6156      0.0845      2.0870    147.2868     24.8383
  1127.4000      7.9702      2.6183      0.1065      1.9229    151.2560     25.4618
  1127.5000      7.9901      2.6119      0.1135      2.3068    149.3625     25.6832
  1127.6000      7.9901      2.5963      0.0934      3.2565    148.6537     25.5391
  1127.7000      7.9901      2.5666      0.0812      5.0560    151.1311     25.3844
  1127.8000      8.0264      2.5262      0.0488      7.5021    151.6810     25.3404
  1127.9000      8.0264      2.4962      0.0355      9.3217    150.2421     25.4328
