~Version Information
VERS.                      2.0: CWLS Log ASCII Standard - VERSION 2.0
WRAP.                       NO: One line per depth step
~Well Information Block
STRT.FT                10.0000: 
STOP.FT              1485.0000: 
STEP.FT                 0.1000: 
NULL.                -999.2500: 
COMP.          Pioneer Natural Resources: COMPANY
WELL.          Old Faithful 21-2: WELL
FLD.           Purgatorie River: FIELD
LOC.           806' FNL & 2509' FWL: LOCATION
PROV.                 Colorado: PROVINCE
CNTY.               Las Animas: COUNTRY
SRVC.                Patterson: SERVICE COMPANY
DATE.          Wed Dec 07 13:17:12 2005: LOG DATE
UWI.                          : UNIQUE WELL ID
~Curve Information Block
DEPT.FT            0 000 00 00: Depth
DCAL.in                       : CDL Caliper
RHOB.g/cc                     : CDL Bulk Density
RHOC.g/cc                     : CDL Density Correction
DPOR.pu                       : CDL Density Porosity
GR.GAPI                       : Gamma Ray
NPOR.pu                       : Neutron Porosity
~Parameter Information Block
~A  Depth       DCAL        RHOB        RHOC        DPOR         GR         NPOR    
    10.0000     -3.1029      2.2535      2.1931     -0.0079     86.8516     32.2648
    10.1000     -3.1029      2.2555      2.1929     -0.0079     82.2002     32.9044
    10.2000     -3.1029      2.2661      2.1962     -0.0077     80.2881     33.4420
    10.3000     -3.1029      2.2862      2.2105     -0.0073     82.4424     33.5726
    10.4000     -3.1029      2.3164      2.2526     -0.0067     88.1432     33.4401
    10.5000     -3.1029      2.3507      2.2711     -0.0060     95.8657     33.4040
    10.6000     -3.1029      2.3788      2.2674     -0.0054    100.4500     33.7690
    10.7000     -3.1029      2.3968      2.2420     -0.0051     98.6450     34.5087
    10.8000     -3.1029      2.4102      2.2549     -0.0048     95.4824     35.2356
    10.9000     -3.1029      2.4159      2.3107     -0.0047     94.8994     35.5547
    11.0000     -3.1029      2.3968      2.3140     -0.0051     94.2870     35.3428
    11.1000     -3.1029      2.3512      2.2355     -0.0060     91.1674     34.9832
    11.2000     -3.1029      2.2975      2.2436     -0.0071     87.3465     34.7974
    11.3000     -3.1029      2.2539      2.1725     -0.0079     84.5938     34.5473
    11.4000     -3.1029      2.2370      2.1789     -0.0083     83.1140     34.0900
    11.5000     -3.1029      2.2587      2.1567     -0.0078     82.7047     33.8085
    11.6000     -3.1029      2.3135      2.1920     -0.0067     82.7582     33.9797
    11.7000     -3.1029      2.3731      2.2929     -0.0055     83.3431     34.2519
    11.8000     -3.1029      2.4153      2.2824     -0.0047     83.1623     34.2536
    11.9000     -3.1029      2.4420      2.3058     -0.0042     80.9111     34.0468
    12.0000     -3.1029      2.4536      2.3241     -0.0039     79.1061     33.8448
    12.1000     -3.1029      2.4424      2.2994     -0.0042     80.6926     33.8908
    12.2000     -3.1029      2.4013      2.2980     -0.0050     84.5020     34.0530
    12.3000     -3.1029      2.3274      2.2628     -0.0065     86.2643     33.9585
    12.4000     -3.1029      2.2372      2.1570     -0.0083     85.3185     33.8834
    12.5000     -3.1029      2.1636      2.0625     -0.0097     84.3068     33.9681
    12.6000     -3.1029      2.1263      2.1077     -0.0105     83.5277     33.7236
    12.7000     -3.1029      2.1189      2.1386     -0.0106     83.7342     33.0574
    12.8000     -3.1029      2.1266      2.1527     -0.0105     85.2349     32.4490
    12.9000     -3.1029      2.1396      2.1471     -0.0102     84.5983     32.2464
    13.0000     -3.1029      2.1523      2.1903     -0.0100     80.9201     32.3435
    13.1000     -3.1029      2.1612      2.1975     -0.0098     77.4503     32.3444
    13.2000     -3.1029      2.1669      2.1913     -0.0097     78.1038     31.9765
    13.3000     -3.1029      2.1692      2.2000     -0.0096     85.2445     31.6975
    13.4000     -3.1029      2.1645      2.2017     -0.0097     94.9698     31.9290
    13.5000     -3.1029      2.1554      2.1648     -0.0099    100.7363     32.3225
    13.6000     -3.1029      2.1476      2.1573     -0.0101    100.9201     32.3515
    13.7000     -3.1029      2.1393      2.1651     -0.0102     98.4742     31.7918
    13.8000     -3.1029      2.1284      2.1576     -0.0104     97.2712     30.9935
    13.9000     -3.1029      2.1193      2.1726     -0.0106     99.1628     30.6867
    14.0000     -3.1029      2.1128      2.2041     -0.0108    103.1464     31.0764
    14.1000     -3.1029      2.1084      2.1679     -0.0108    105.5200     31.7121
    14.2000     -3.1029      2.1085      2.1775     -0.0108    103.4861     32.1115
    14.3000     -3.1029      2.1085      2.1853     -0.0108     98.7979     32.0524
    14.4000     -3.1029      2.1086      2.1404     -0.0108     94.9826     31.8635
    14.5000     -3.1029      2.1204      2.1183     -0.0106     93.6552     31.8795
    14.6000     -3.1029      2.1410      2.1818     -0.0102     94.5814     31.8722
    14.7000     -3.1029      2.1554      2.1736     -0.0099     97.0299     31.6419
    14.8000     -3.1029      2.1586      2.1944     -0.0098     99.1887     31.4875
    14.9000     -3.1029      2.1478      2.2238     -0.0100     98.6512     31.7462
    15.0000     -3.1029      2.1236      2.1739     -0.0105     95.5556     32.2233
    15.1000     -3.1029      2.1009      2.1540     -0.0110     94.3513     32.5373
    15.2000     -3.1029      2.0967      2.1274     -0.0111     97.0020     32.5566
    15.3000     -3.1029      2.1133      2.1809     -0.0107     99.2542     32.2285
    15.4000     -3.1029      2.1384      2.1907     -0.0102     98.6342     31.7738
    15.5000     -3.1029      2.1594      2.1881     -0.0098     97.6418     31.5125
    15.6000     -3.1029      2.1710      2.2338     -0.0096     96.5379     31.5212
    15.7000     -3.1029      2.1789      2.2004     -0.0094     94.4070     31.8193
    15.8000     -3.1029      2.1935      2.1983     -0.0091     93.7844     32.1114
    15.9000     -3.1029      2.2167      2.2005     -0.0087     94.8282     31.9795
    16.0000     -3.1029      2.2392      2.2498     -0.0082     94.2689     31.4915
    16.1000     -3.1029      2.2509      2.2218     -0.0080     92.6661     31.1831
    16.2000     -3.1029      2.2536      2.2006     -0.0079     92.7853     31.2297
    16.3000     -3.1029      2.2533      2.2121     -0.0079     94.5465     31.1265
    16.4000     -3.1029      2.2442      2.2109     -0.0081     96.2623     30.7728
    16.5000     -3.1029      2.2167      2.1897     -0.0087     96.0499     30.5892
    16.6000     -3.1029      2.1795      2.1049     -0.0094     92.7509     30.6720
    16.7000     -3.1029      2.1527      2.1259     -0.0100     89.2496     30.8905
    16.8000     -3.1029      2.1420      2.1089     -0.0102     89.6526     30.9719
    16.9000     -3.1029      2.1365      2.1626     -0.0103     93.5984     30.7425
    17.0000     -3.1029      2.1234      2.1316     -0.0105     96.9974     30.4127
    17.1000     -3.1029      2.1037      2.1389     -0.0109     97.6593     30.2836
    17.2000     -3.1029      2.0939      2.0850     -0.0111     96.8019     30.4598
    17.3000     -3.1029      2.1102      2.1463     -0.0108     95.0690     30.8074
    17.4000     -3.1029      2.1514      2.1709     -0.0100     92.9201     31.1117
    17.5000     -3.1029      2.1990      2.2488     -0.0090     92.3653     31.2424
    17.6000     -3.1029      2.2366      2.2401     -0.0083     92.9140     31.0372
    17.7000     -3.1029      2.2644      2.2746     -0.0077     92.9135     30.5429
    17.8000     -3.1029      2.2837      2.2901     -0.0073     93.5628     30.3046
    17.9000     -3.1029      2.2921      2.2926     -0.0072     93.9473     30.6510
    18.0000     -3.1029      2.2969      2.2539     -0.0071     91.2149     31.2307
    18.1000     -3.1029      2.3124      2.2266     -0.0068     87.4085     31.4981
    18.2000     -3.1029      2.3384      2.2659     -0.0062     87.1901     31.2940
    18.3000     -3.1029      2.3541      2.2582     -0.0059     89.2727     30.9325
    18.4000     -3.1029      2.3459      2.2370     -0.0061     90.0890     30.7501
    18.5000     -3.1029      2.3214      2.1940     -0.0066     90.3510     30.8017
    18.6000     -3.1029      2.2912      2.1630     -0.0072     90.7780     31.1604
    18.7000     -3.1029      2.2557      2.1444     -0.0079     89.7399     31.8638
    18.8000     -3.1029      2.2109      2.1157     -0.0088     86.8139     32.5397
    18.9000     -3.1029      2.1604      2.0615     -0.0098     83.7139     32.8021
    19.0000     -3.1029      2.1156      2.0768     -0.0107     80.8859     32.7022
    19.1000     -3.1029      2.0863      2.0918     -0.0113     77.5211     32.4040
    19.2000     -3.1029      2.0770      2.0816     -0.0115     75.9161     31.7990
    19.3000     -3.1029      2.0840      2.1348     -0.0113     79.1542     30.9734
    19.4000     -3.1029      2.1001      2.1145     -0.0110     85.7507     30.5102
    19.5000     -3.1029      2.1235      2.1540     -0.0105     91.9762     30.7905
