~Version Information
VERS.                      2.0: CWLS Log ASCII Standard - VERSION 2.0
WRAP.                       NO: One line per depth step
~Well Information Block
STRT.FT                 0.0000: 
STOP.FT              1923.5000: 
STEP.FT                 0.2500: 
NULL.                -999.2500: 
COMP.          Petrogulf Corporation: COMPANY
WELL.            Montoya 7-14R: WELL
FLD.           Purgatorie River: FIELD
LOC.           628' FSL & 454' FWL: LOCATION
STAT.                 Colorado: State
CNTY.               Las Animas: COUNTY
CTRY. USA : Country
SECT. 7 : Section
TOWN. 33S : Township
RANG. 67W : Range
SRVC.                Patterson: SERVICE COMPANY
DATE.          Wed Nov 09 12:02:27 2005: LOG DATE
API. 05-071-08554                         : UNIQUE WELL ID
~Curve Information Block
DEPT.FT            0 000 00 00: Depth
CCL.                          : Casing Collar Locator
TT3.usec                      : CBL 3' Travel Time
AMP3.mV                       : CBL 3' Amplitude
GR.GAPI                       : Gamma Ray
~Parameter Information Block
~A  Depth       CCL         TT3         AMP3         GR     
# ...
   234.5000      0.0000    258.4597     77.8637     86.2087
   234.7500      0.0000    258.4633     77.8444     94.8291
   235.0000      0.0000    258.4468     77.9067    105.0241
   235.2500      0.0000    258.4228     77.9495    113.9282
   235.5000      0.0000    258.4086     77.9114    119.5644
   235.7500      0.0000    258.4116     77.8272    121.7264
   236.0000      0.0000    258.4279     77.7595    121.7917
   236.2500      0.0000    258.4516     77.7494    121.4053
   236.5000      0.0000    258.4727     77.8154    121.1084
   236.7500      0.0000    258.4789     77.9321    120.1599
   237.0000      0.0000    258.4701     78.0339    117.4551
   237.2500      0.0000    258.4574     78.0784    112.5781
   237.5000      0.0000    258.4487     78.0809    106.2241
   237.7500      0.0000    258.4451     78.0653     99.7233
   238.0000      0.0000    258.4501     78.0326     94.2314
   238.2500      0.0000    258.4632     77.9996     90.5178
   238.5000      0.0000    258.4690     77.9960     89.2959
   238.7500      0.0000    258.4597     78.0277     91.1543
   239.0000      0.0000    258.4464     78.0937     95.9140
   239.2500      0.0000    258.4425     78.1841    102.2966
   239.5000      0.0000    258.4497     78.2626    108.5408
   239.7500      0.0000    258.4566     78.3020    113.3533
   240.0000      0.0000    258.4555     78.3047    116.1194
   240.2500      0.0000    258.4567     78.2790    116.5131
   240.5000      0.0000    258.4697     78.2295    114.6531
   240.7500      0.0000    258.4845     78.1720    111.7411
   241.0000      0.0000    258.4821     78.1307    109.6482
   241.2500      0.0000    258.4548     78.1017    109.0828
   241.5000      0.0000    258.4117     78.0679    108.4802
   241.7500      0.0000    258.3721     78.0386    105.5950
   242.0000      0.0000    258.3547     78.0272    100.3768
   242.2500      0.0000    258.3653     78.0264     95.6275
   242.5000      0.0000    258.3978     78.0155     94.5214
   242.7500      0.0000    258.4385     77.9996     97.8638
   243.0000      0.0000    258.4683     78.0231    103.7582
   243.2500      0.0000    258.4773     78.0813    109.2886
   243.5000      0.0000    258.4736     78.1119    112.3436
   243.7500      0.0000    258.4699     78.0998    112.4479
   244.0000      0.0000    258.4730     78.0636    110.6414
   244.2500      0.0000    258.4824     78.0091    108.8592
   244.5000      0.0000    258.4837     77.9763    108.8895
   244.7500      0.0000    258.4665     78.0154    111.0928
   245.0000      0.0000    258.4476     78.0937    114.0489
   245.2500      0.0000    258.4450     78.1346    115.8662
   245.5000      0.0000    258.4471     78.1210    115.6506
   245.7500      0.0000    258.4401     78.0879    113.4072
   246.0000      0.0000    258.4287     78.0700    109.3144
   246.2500      0.0000    258.4160     78.0710    104.0125
   246.5000      0.0000    258.3975     78.0555     99.1771
   246.7500      0.0000    258.3710     78.0192     96.7481
   247.0000      0.0000    258.3379     78.0162     97.3136
   247.2500      0.0000    258.3090     78.0513     99.6067
   247.5000      0.0000    258.3000     78.0761    101.7938
   247.7500      0.0000    258.3159     78.0857    103.0846
   248.0000      0.0000    258.3445     78.0864    103.8973
   248.2500      0.0000    258.3656     78.0762    104.7028
   248.5000      0.0000    258.3714     78.0962    105.2381
   248.7500      0.0000    258.3767     78.1670    104.9392
   249.0000      0.0000    258.3929     78.2332    103.6399
   249.2500      0.0000    258.4081     78.2344    101.5622
   249.5000      0.0000    258.4071     78.1795     98.9336
   249.7500      0.0000    258.3897     78.1253     95.9534
   250.0000      0.0000    258.3678     78.0970     93.1083
   250.2500      0.0000    258.3507     78.0943     91.3610
   250.5000      0.0000    258.3358     78.1421     91.8708
   250.7500      0.0000    258.3156     78.2441     95.1153
   251.0000      0.0000    258.2919     78.3368     99.9870
   251.2500      0.0000    258.2809     78.3649    103.9750
   251.5000      0.0000    258.3017     78.3466    104.6492
   251.7500      0.0000    258.3480     78.3007    101.1802
   252.0000      0.0000    258.3859     78.2150     94.6083
   252.2500      0.0000    258.3916     78.1196     86.9104
   252.5000      0.0000    258.3701     78.0829     79.8724
   252.7500      0.0000    258.3374     78.1095     74.5198
   253.0000      0.0000    258.3066     78.1308     71.1992
   253.2500      0.0000    258.2861     78.1204     69.9564
   253.5000      0.0000    258.2795     78.1326     70.7416
   253.7500      0.0000    258.2820     78.2043     73.4403
   254.0000      0.0000    258.2806     78.2927     77.9903
   254.2500      0.0000    258.2704     78.3360     84.2929
   254.5000      0.0000    258.2596     78.3291     91.6705
   254.7500      0.0000    258.2532     78.2971     98.6504
   255.0000      0.0000    258.2474     78.2441    103.7588
   255.2500      0.0000    258.2415     78.1800    106.4132
   255.5000      0.0000    258.2380     78.1451    106.8508
   255.7500      0.0000    258.2346     78.1585    105.6055
   256.0000      0.0000    258.2303     78.1745    103.4213
   256.2500      0.0000    258.2284     78.1332    101.4029
   256.5000      0.0000    258.2246     78.0481    100.8693
   256.7500      0.0000    258.2095     78.0077    102.8372
   257.0000      0.0000    258.1850     78.0620    107.3400
   257.2500      0.0000    258.1700     78.1571    113.1163
   257.5000      0.0000    258.1838     78.2194    118.1679
   257.7500      0.0000    258.2250     78.2407    120.7421
   258.0000      0.0000    258.2719     78.2621    119.8190
   258.2500      0.0000    258.3087     78.3089    115.1145
   258.5000      0.0000    258.3357     78.3634    107.2278
   258.7500      0.0000    258.3456     78.4199     97.7684
   259.0000      0.0000    258.3283     78.4977     88.7164
   259.2500      0.0000    258.3001     78.5784     81.4260
   259.5000      0.0000    258.2885     78.6180     76.4437
   259.7500      0.0000    258.3078     78.5978     73.9080
   260.0000      0.0000    258.3578     78.5313     73.4036
   260.2500      0.0000    258.4173     78.4632     73.6116
   260.5000      0.0000    258.4514     78.4440     72.8869
   260.7500      0.0000    258.4495     78.4695     70.3030
   261.0000      0.0000    258.4407     78.4785     65.9339
   261.2500      0.0000    258.4510     78.4289     60.5367
   261.5000      0.0000    258.4646     78.3508     55.4094
   261.7500      0.0000    258.4489     78.3162     52.1865
   262.0000      0.0000    258.4082     78.3573     52.0647
   262.2500      0.0000    258.3914     78.4245     55.1237
   262.5000      0.0000    258.4243     78.4316     60.5643
   262.7500      0.0000    258.4799     78.2234     67.4595
   263.0000      0.0000    258.5826     77.3731     75.1721
   263.2500      0.0000    258.8930     75.1824     83.2671
   263.5000      0.0000    259.6276     71.2325     91.1590
   263.7500      0.0000    260.8494     65.9875     97.7724
   264.0000      0.0000    262.3339     60.5918    101.5690
   264.2500      0.0000    263.7253     56.1122    101.2565
   264.5000      0.0000    264.7848     53.2049     97.0694
   264.7500      0.0000    265.4422     51.9673     91.4833
   265.0000      0.0000    265.7556     51.7670     88.0000
   265.2500      2.0000    265.8568     51.8119     88.5068
   265.5000     -2.0000    265.8637     51.7764     91.9864
   265.7500      0.0000    265.8396     51.6315     96.1885
   266.0000      0.0000    265.8049     51.3619    100.1918
   266.2500      0.0000    265.7045     51.3544    104.7484
   266.5000      0.0000    265.3111     53.0785    110.3339
   266.7500      0.0000    264.3067     57.9795    115.5440
   267.0000      0.0000    262.6827     64.8863    117.7938
   267.2500      0.0000    260.9077     70.8567    115.6237
   267.5000      0.0000    259.5144     74.6347    110.2251
   267.7500      0.0000    258.7018     76.7594    104.5836
