~Version Information
VERS.                      2.0: CWLS Log ASCII Standard - VERSION 2.0
WRAP.                       NO: One line per depth step
~Well Information Block
STRT.FT               460.0000: 
STOP.FT              3058.5000: 
STEP.FT                 0.1000: 
NULL.                -999.2500: 
COMP.          Pioneer Natural Resources: COMPANY
WELL.            Cleaver 24-12: WELL
FLD.           Purgatoire River: FIELD
LOC.           204' FSL & 2351' FWL: LOCATION
PROV.                 Colorado: PROVINCE
CNTY.               Las Animas: COUNTRY
SRVC.                Patterson: SERVICE COMPANY
DATE.          Mon Jan 09 13:49:27 2006: LOG DATE
UWI.           05 071 08634 00: UNIQUE WELL ID
~Curve Information Block
DEPT.FT            0 000 00 00: Depth
DCAL.in                       : CDL Caliper
RHOB.g/cc                     : CDL Bulk Density
RHOC.g/cc                     : CDL Density Correction
DPOR.pu                       : CDL Density Porosity
GR.GAPI                       : Gamma Ray
NPOR.pu                       : Neutron Porosity
~Parameter Information Block
~A  Depth       DCAL        RHOB        RHOC        DPOR         GR         NPOR    
# ...
  1151.2000      7.9900      1.8869     -0.0703     46.2490    135.3714     22.7841
  1151.3000      7.9824      1.8493     -0.0398     48.5277    136.9263     23.7538
  1151.4000      7.9824      1.8318     -0.0789     49.5869    137.9138     24.9912
  1151.5000      7.9715      1.8475     -0.0375     48.6356    141.8772     26.3263
  1151.6000      7.9715      1.9002      0.1445     45.4451    146.3499     27.6436
  1151.7000      7.9715      1.9760      0.2074     40.8473    142.0155     28.6738
  1151.8000      7.9455      2.0667      0.2686     35.3487    130.0576     28.9483
  1151.9000      7.9455      2.1700      0.2593     29.0932    121.7144     28.7524
  1152.0000      7.9579      2.2689      0.2649     23.0950    119.0217     28.8434
  1152.1000      7.9579      2.3398      0.2541     18.8005    117.6198     29.1586
  1152.2000      7.9579      2.3898      0.1559     15.7669    120.4299     29.4354
  1152.3000      7.9907      2.4428      0.1754     12.5547    129.2688     29.6617
  1152.4000      7.9907      2.4916      0.1823      9.5989    136.8100     29.5620
  1152.5000      7.9928      2.5236      0.1577      7.6626    139.0316     29.1566
  1152.6000      7.9928      2.5484      0.1087      6.1602    136.5707     28.9449
  1152.7000      7.9928      2.5693      0.1079      4.8884    130.2253     29.1799
  1152.8000      7.9573      2.5875      0.0856      3.7863    125.6825     29.5068
  1152.9000      7.9573      2.6103      0.0917      2.4084    127.0916     29.3408
  1153.0000      7.9402      2.6230      0.1387      1.6334    131.5864     28.5039
  1153.1000      7.9402      2.6131      0.0653      2.2386    138.0214     27.4679
  1153.2000      7.9402      2.6012      0.0523      2.9606    143.8219     26.9106
  1153.3000      7.9352      2.6009      0.0786      2.9743    143.8914     27.0591
  1153.4000      7.9352      2.6022      0.0570      2.8994    139.8852     27.5015
  1153.5000      7.9375      2.6010      0.0633      2.9677    134.9108     27.6212
  1153.6000      7.9375      2.6010      0.0587      2.9721    131.3203     27.2385
  1153.7000      7.9375      2.6016      0.0734      2.9339    130.9701     27.0139
  1153.8000      7.9268      2.6018      0.0506      2.9209    131.5008     27.4640
  1153.9000      7.9268      2.6052      0.0584      2.7129    132.6669     28.0974
  1154.0000      7.9306      2.6152      0.0593      2.1078    136.3773     28.3808
  1154.1000      7.9306      2.6297      0.0863      1.2332    138.7369     28.4582
  1154.2000      7.9306      2.6358      0.1560      0.8633    134.9630     28.5576
  1154.3000      7.9350      2.6263      0.0424      1.4349    128.6978     28.7334
  1154.4000      7.9350      2.6184      0.0465      1.9135    125.2528     28.9648
  1154.5000      7.9367      2.6173      0.0562      1.9828    124.6312     29.2127
  1154.6000      7.9367      2.6079      0.1072      2.5502    126.5355     29.3033
  1154.7000      7.9367      2.5978      0.0572      3.1634    129.9715     28.9270
  1154.8000      7.9342      2.6055      0.0783      2.6995    130.0901     28.2787
  1154.9000      7.9342      2.6196      0.0664      1.8402    124.8986     27.7120
  1155.0000      7.9399      2.6257      0.0171      1.4729    119.4608     27.4917
  1155.1000      7.9399      2.6272      0.0457      1.3804    119.3465     27.8154
  1155.2000      7.9399      2.6247      0.0980      1.5364    124.6442     28.3024
  1155.3000      7.9483      2.6153      0.0534      2.1002    131.4790     28.5588
  1155.4000      7.9483      2.6017      0.0772      2.9248    134.8112     28.7215
  1155.5000      7.9537      2.5881      0.0088      3.7502    133.3876     28.8680
  1155.6000      7.9537      2.5829      0.0019      4.0673    133.9549     28.8306
  1155.7000      7.9537      2.5861      0.0324      3.8716    138.4895     28.6491
  1155.8000      7.9555      2.5883      0.0412      3.7392    138.7168     28.5391
  1155.9000      7.9555      2.5836      0.0434      4.0236    132.3576     28.4008
  1156.0000      7.9643      2.5708      0.0573      4.8000    127.2968     28.1017
  1156.1000      7.9643      2.5579     -0.0149      5.5800    128.0206     27.8281
  1156.2000      7.9643      2.5556      0.0264      5.7237    131.2137     27.7801
  1156.3000      7.9871      2.5568      0.0202      5.6479    133.8519     27.8990
  1156.4000      7.9871      2.5552      0.0361      5.7475    134.6288     27.8066
  1156.5000      7.9865      2.5561     -0.0085      5.6931    132.6756     27.2234
  1156.6000      7.9865      2.5630      0.0368      5.2737    128.5935     26.4811
  1156.7000      7.9865      2.5695      0.0867      4.8763    124.3815     25.9986
  1156.8000      7.9825      2.5650      0.0842      5.1492    120.0824     25.9142
  1156.9000      7.9825      2.5465      0.0507      6.2748    117.8848     26.2788
  1157.0000      7.9873      2.5186      0.0432      7.9637    122.3331     26.9226
  1157.1000      7.9873      2.4882      0.0385      9.8061    131.9830     27.5950
  1157.2000      7.9873      2.4599      0.0219     11.5239    141.2487     28.1911
  1157.3000      8.0055      2.4320     -0.0145     13.2139    145.7710     28.6856
  1157.4000      8.0055      2.4018      0.0439     15.0410    145.6588     29.1122
  1157.5000      7.9693      2.3827     -0.0561     16.1993    145.3869     29.3879
  1157.6000      7.9693      2.3995     -0.0262     15.1795    145.1682     29.3265
  1157.7000      7.9693      2.4569      0.0115     11.7032    142.9034     29.1378
  1157.8000      7.9646      2.5404      0.0678      6.6449    139.9500     29.2618
  1157.9000      7.9646      2.6288      0.1780      1.2836    136.2335     29.5947
  1158.0000      7.9289      2.6989      0.2326     -2.9638    126.4486     29.5615
  1158.1000      7.9289      2.7380      0.2420     -5.3349    111.8062     29.0473
  1158.2000      7.9289      2.7442      0.2512     -5.7071    103.5705     28.6515
  1158.3000      7.9102      2.7213      0.1844     -4.3205    105.0997     28.7427
  1158.4000      7.9102      2.6810      0.1415     -1.8797    108.3809     29.0151
  1158.5000      7.9418      2.6455      0.0412      0.2715    108.3529     29.0697
  1158.6000      7.9418      2.6345      0.0373      0.9369    105.6450     28.7263
  1158.7000      7.9418      2.6401      0.0246      0.5973    101.7366     28.0745
  1158.8000      7.9580      2.6397      0.0419      0.6222     97.7040     27.4470
  1158.9000      7.9580      2.6323      0.0083      1.0723     95.2930     27.0972
  1159.0000      7.9375      2.6313      0.0262      1.1319     93.2599     26.9127
  1159.1000      7.9375      2.6290      0.0337      1.2736     88.1139     26.7687
  1159.2000      7.9375      2.6121      0.0038      2.2949     82.0332     26.6291
  1159.3000      7.9434      2.5990     -0.0339      3.0923     81.0112     26.3938
  1159.4000      7.9434      2.6079      0.0017      2.5492     82.8948     26.2945
  1159.5000      7.9670      2.6199     -0.0128      1.8220     80.4517     26.3293
  1159.6000      7.9670      2.6062      0.0522      2.6572     75.2805     26.0673
  1159.7000      7.9670      2.5734     -0.0357      4.6422     71.1879     25.7378
  1159.8000      7.9559      2.5640     -0.0701      5.2117     70.3962     25.6311
  1159.9000      7.9559      2.5947     -0.0198      3.3537     73.7945     25.4307
  1160.0000      7.9446      2.6276      0.0400      1.3584     77.9739     24.9921
  1160.1000      7.9446      2.6195      0.0349      1.8493     79.1955     24.6413
  1160.2000      7.9446      2.5717      0.0014      4.7467     77.4025     24.6694
  1160.3000      7.9394      2.5219     -0.0135      7.7643     75.1985     24.9158
  1160.4000      7.9394      2.5001     -0.0437      9.0832     74.0087     25.0461
  1160.5000      7.9235      2.5059     -0.0284      8.7350     74.4256     25.0370
  1160.6000      7.9235      2.5193     -0.0046      7.9196     76.7589     25.1559
  1160.7000      7.9235      2.5290      0.0128      7.3330     79.7659     25.5311
