~Version Information
VERS.                      2.0: CWLS Log ASCII Standard - VERSION 2.0
WRAP.                       NO: One line per depth step
~Well Information Block
STRT.FT                -6.7500: 
STOP.FT              2027.0000: 
STEP.FT                 0.2500: 
NULL.                -999.2500: 
COMP.          Pioneer Natural Resources: COMPANY
WELL.             Fleming 11-2: WELL
FLD.           Purgatorie River: FIELD
LOC.           534' FNL & 160' FWL--: LOCATION
CNTY.               Las Animas: COUNTY
SRVC.          Patterson Wireline: SERVICE COMPANY
DATE.          Thu Jul 13 10:28:00 2006: LOG DATE
UWI.           05 071 08491 00: UNIQUE WELL ID
STAT.                       CO: STATE
~Curve Information Block
DEPT.FT            0 000 00 00: Depth
CCL.                          : Casing Collar Locator
TT3.usec                      : CBL 3' Travel Time
AMP3.mV                       : CBL 3' Amplitude
GR.GAPI                       : Gamma Ray
~Parameter Information Block
~A  Depth       CCL         TT3         AMP3         GR     
# ...
   663.2500      0.0000    637.5709      5.1532    126.8011
   663.5000      0.0000    617.1721      5.1790    121.0787
   663.7500      0.0000    593.4111      5.2092    111.9153
   664.0000      0.0000    568.1157      5.2451    103.0948
   664.2500      0.0000    542.6163      5.2842     97.5244
   664.5000      0.0000    518.2996      5.3260     95.5287
   664.7500      0.0000    497.6021      5.3724     95.4086
   665.0000      0.0000    483.9180      5.4194     95.5672
   665.2500      0.0000    480.5043      5.4528     96.2362
   665.5000      0.0000    489.6699      5.4594     99.3506
   665.7500      0.0000    512.0320      5.4396    106.6296
   666.0000      0.0000    545.0424      5.4032    117.5116
   666.2500      0.0000    582.0991      5.3540    128.9112
   666.5000      0.0000    614.7329      5.2855    137.2757
   666.7500      0.0000    636.8209      5.1926    141.2011
   667.0000      0.0000    646.6229      5.0847    142.0427
   667.2500      0.0000    645.3618      4.9866    142.1783
   667.5000      0.0000    635.1203      4.9244    143.1962
   667.7500      0.0000    618.1479      4.9106    145.5394
   668.0000      0.0000    597.6526      4.9393    148.6858
   668.2500      0.0000    578.9479      4.9937    151.1336
   668.5000      0.0000    568.0961      5.0569    151.0921
   668.7500      0.0000    567.3304      5.1144    148.0257
   669.0000      0.0000    572.9186      5.1540    143.1337
   669.2500      0.0000    579.5056      5.1659    137.8870
   669.5000      0.0000    584.8652      5.1470    132.7386
   669.7500      0.0000    588.9732      5.1045    127.7331
   670.0000      0.0000    591.8015      5.0568    123.6719
   670.2500      0.0000    594.7422      5.0283    121.7192
   670.5000      0.0000    601.7721      5.0398    121.8901
   670.7500      0.0000    616.0803      5.0967    122.6607
   671.0000      0.0000    635.9667      5.1818    122.3729
   671.2500      0.0000    655.6601      5.2637    120.5689
   671.5000      0.0000    670.0988      5.3172    117.7092
   671.7500      0.0000    677.9957      5.3368    114.2515
   672.0000      0.0000    680.7737      5.3287    110.6503
   672.2500      0.0000    679.7720      5.2963    107.9012
   672.5000      0.0000    674.8699      5.2373    107.2599
   672.7500      0.0000    665.4236      5.1524    109.2230
   673.0000      0.0000    652.4631      5.0516    113.2564
   673.2500      0.0000    639.8742      4.9532    118.6093
   673.5000      0.0000    632.7055      4.8772    124.5317
   673.7500      0.0000    633.6836      4.8381    129.1966
   674.0000      0.0000    641.4326      4.8385    129.4773
   674.2500      0.0000    651.9365      4.8685    123.2560
   674.5000      0.0000    661.1146      4.9102    111.9571
   674.7500      0.0000    666.2448      4.9441     99.9732
   675.0000      0.0000    666.5236      4.9580     91.6909
   675.2500      0.0000    663.5189      4.9522     89.5191
   675.5000      0.0000    660.6702      4.9307     93.8559
   675.7500      0.0000    661.0780      4.8869    103.4356
   676.0000      0.0000    665.2163      4.8046    115.5829
   676.2500      0.0000    670.9862      4.6822    127.1525
   676.5000      0.0000    675.9251      4.5464    135.8530
   676.7500      0.0000    678.9833      4.4346    140.9967
   677.0000      0.0000    680.4676      4.3654    143.5428
   677.2500      0.0000    681.0514      4.3314    145.3579
   677.5000      0.0000    681.1641      4.3147    147.5384
   677.7500      0.0000    681.0001      4.3044    148.9814
   678.0000      0.0000    680.7128      4.2972    147.1294
   678.2500      0.0000    680.4634      4.2914    140.8557
   678.5000      0.0000    680.3483      4.2846    132.3861
   678.7500      0.0000    680.3671      4.2775    125.6732
   679.0000      0.0000    680.4788      4.2795    123.0627
   679.2500      0.0000    680.6605      4.3042    124.2279
   679.5000      0.0000    680.9088      4.3576    127.8042
   679.7500      0.0000    681.1988      4.4284    132.7669
   680.0000      0.0000    681.4535      4.4945    138.1279
   680.2500      0.0000    681.5731      4.5400    142.5193
   680.5000      0.0000    681.5103      4.5648    145.0059
   680.7500      0.0000    681.3176      4.5785    146.1560
   681.0000      0.0000    681.1148      4.5880    147.5714
   681.2500      0.0000    681.0106      4.5949    150.0471
   681.5000      0.0000    681.0535      4.5990    152.5991
   681.7500      0.0000    681.2344      4.6018    153.5980
   682.0000      0.0000    681.5097      4.6063    152.5186
   682.2500      0.0000    681.8175      4.6156    150.2021
   682.5000      0.0000    682.0831      4.6313    147.6766
   682.7500      0.0000    682.2267      4.6526    145.3506
   683.0000      0.0000    682.1852      4.6744    143.3861
   683.2500      0.0000    681.9039      4.6854    142.1337
   683.5000      0.0000    681.2067      4.6682    141.5973
   683.7500      0.0000    679.5831      4.6094    140.8348
   684.0000      0.0000    676.1130      4.5194    138.6655
   684.2500      0.0000    669.9781      4.4421    135.1587
   684.5000      0.0000    661.6319      4.4287    131.8256
   684.7500      0.0000    653.7402      4.4887    129.9283
   685.0000      0.0000    650.4778      4.5749    129.0055
   685.2500      0.0000    655.2659      4.6307    127.6977
   685.5000      0.0000    668.6078      4.6396    125.7352
   685.7500      0.0000    687.3049      4.6185    124.3803
   686.0000      0.0000    705.2177      4.5820    124.9433
   686.2500     -2.0000    714.9176      4.5364    127.4847
   686.5000      0.0000    709.3293      4.4963    130.9719
   686.7500      0.0000    683.9494      4.4918    133.9500
   687.0000      0.0000    641.5152      4.5525    135.0567
   687.2500      0.0000    595.9587      4.6765    133.8069
   687.5000      0.0000    567.4691      4.8097    131.1796
   687.7500      0.0000    568.4963      4.8747    128.9300
   688.0000      0.0000    593.8602      4.8425    128.1660
   688.2500      0.0000    625.5815      4.7640    128.7323
   688.5000      0.0000    646.5287      4.7117    129.5838
   688.7500      0.0000    649.4117      4.7066    129.4569
   689.0000      0.0000    636.5326      4.7167    127.6251
   689.2500      0.0000    615.2693      4.7062    124.5754
   689.5000      0.0000    593.8695      4.6680    121.8951
   689.7500      0.0000    578.6508      4.6169    121.1818
   690.0000      0.0000    572.8823      4.5684    122.7730
   690.2500      0.0000    577.3205      4.5279    125.4284
   690.5000      0.0000    590.9515      4.4932    127.3422
   690.7500      0.0000    610.3940      4.4625    127.5309
   691.0000      0.0000    629.4885      4.4379    126.3416
   691.2500      0.0000    641.9902      4.4225    124.9035
   691.5000      0.0000    646.1432      4.4153    124.4495
   691.7500      0.0000    645.9073      4.4103    126.0575
   692.0000      0.0000    647.1023      4.4007    130.3384
   692.2500      0.0000    652.6957      4.3836    136.8326
   692.5000      0.0000    661.5572      4.3589    143.7996
   692.7500      0.0000    670.5715      4.3275    149.0532
   693.0000      0.0000    677.3248      4.2922    151.3215
   693.2500      0.0000    681.2048      4.2590    150.7809
   693.5000      0.0000    682.8674      4.2342    148.4050
   693.7500      0.0000    683.2576      4.2199    145.4594
   694.0000      0.0000    683.0713      4.2115    143.7077
   694.2500      0.0000    682.7043      4.1990    144.9096
   694.5000      0.0000    682.3755      4.1703    149.1040
   694.7500      0.0000    682.2116      4.1184    153.9635
   695.0000      0.0000    682.2544      4.0462    156.7493
   695.2500      0.0000    682.4467      3.9668    156.6268
   695.5000      0.0000    682.6613      3.8989    154.6381
   695.7500      0.0000    682.7653      3.8610    152.0079
   696.0000      0.0000    682.6830      3.8634    149.1259
   696.2500      0.0000    682.4320      3.9012    145.7951
   696.5000      0.0000    682.1439      3.9540    141.6666
