~Version Information
VERS.                      2.0: CWLS Log ASCII Standard - VERSION 2.0
WRAP.                       NO: One line per depth step
~Well Information Block
STRT.FT                -6.7500: 
STOP.FT              1544.5000: 
STEP.FT                 0.2500: 
NULL.                -999.2500: 
COMP.          Pioneer Natural Resources: COMPANY
WELL.          Lorencito 10-36-33-67: WELL
FLD.           Purgatorie River: FIELD
LOC.           2130' FSL & 2362' FEL--: LOCATION
STAT.                       CO: State
CNTY.               Las Animas: COUNTY
CTRY. USA : Country
SECT. 36 : Section
TOWN. 33S : Township
RANG. 67W : Range
SRVC.          Patterson Wireline: SERVICE COMPANY
DATE.          Fri Sep 02 09:21:42 2005: LOG DATE
API.           05 071 08501 00: UNIQUE WELL ID
~Curve Information Block
DEPT.FT            0 000 00 00: Depth
CCL.                          : Casing Collar Locator
TT3.usec                      : CBL 3' Travel Time
AMP3.mV                       : CBL 3' Amplitude
GR.GAPI                       : Gamma Ray
~Parameter Information Block
~A  Depth       CCL         TT3         AMP3         GR     
# ...
  1500.7500      0.0000    517.2444      6.3223     55.9786
  1501.0000      0.0000    517.1061      6.3339     54.7173
  1501.2500      0.0000    516.9573      6.3516     53.6939
  1501.5000      0.0000    516.8317      6.3699     53.7103
  1501.7500      0.0000    516.7457      6.3846     55.1887
  1502.0000      0.0000    516.7065      6.3947     57.7702
  1502.2500      0.0000    516.6916      6.3990     60.5994
  1502.5000      0.0000    516.6310      6.3955     62.9510
  1502.7500      0.0000    516.4423      6.3825     64.5787
  1503.0000      0.0000    516.1017      6.3635     65.6392
  1503.2500      0.0000    515.6766      6.3470     66.3487
  1503.5000      0.0000    515.2768      6.3423     66.4798
  1503.7500      0.0000    514.9783      6.3514     65.3079
  1504.0000      0.0000    514.7953      6.3679     62.4665
  1504.2500      0.0000    514.7061      6.3826     58.7646
  1504.5000      0.0000    514.6779      6.3915     55.6546
  1504.7500      0.0000    514.6597      6.3971     53.9223
  1505.0000      0.0000    514.5602      6.4049     53.2421
  1505.2500      0.0000    514.2582      6.4200     52.8484
  1505.5000      0.0000    513.6694      6.4457     52.3623
  1505.7500      0.0000    512.8461      6.4792     52.1312
  1506.0000      0.0000    512.0276      6.5079     52.8937
  1506.2500      0.0000    511.6630      6.5119     54.9093
  1506.5000      0.0000    512.5111      6.4746     57.3682
  1506.7500      0.0000    515.9555      6.3932     58.9804
  1507.0000      0.0000    524.0607      6.2807     59.2969
  1507.2500      0.0000    538.4078      6.1602     59.2415
  1507.5000      0.0000    557.7551      6.0556     60.1493
  1507.7500      0.0000    576.8069      5.9842     62.4763
  1508.0000      0.0000    588.3489      5.9539     65.6928
  1508.2500      0.0000    587.5991      5.9630     69.1220
  1508.5000      0.0000    575.1752      5.9998     72.2613
  1508.7500      0.0000    556.4688      6.0403     74.3237
  1509.0000      0.0000    538.2247      6.0489     74.2666
  1509.2500      0.0000    525.0560      5.9914     71.8182
  1509.5000      0.0000    518.4124      5.8644     68.1826
  1509.7500      0.0000    518.1070      5.7220     65.3042
  1510.0000      0.0000    524.1772      5.6499     64.5458
  1510.2500      0.0000    537.0174      5.6832     66.0962
  1510.5000      0.0000    555.7579      5.7635     69.0454
  1510.7500      0.0000    576.8383      5.8063     71.5663
  1511.0000      0.0000    594.8005      5.7918     71.4433
  1511.2500      0.0000    605.0583      5.7571     67.2656
  1511.5000      0.0000    605.7805      5.7318     59.6612
  1511.7500      0.0000    597.4454      5.7166     51.3810
  1512.0000      2.0000    582.6633      5.7094     45.7732
  1512.2500      0.0000    567.2681      5.7247     44.6472
  1512.5000      0.0000    558.7234      5.7876     47.2537
  1512.7500      0.0000    560.5405      5.9079     51.1566
  1513.0000      0.0000    568.9996      6.0490     54.1559
  1513.2500      0.0000    576.8479      6.1423     55.6454
  1513.5000      0.0000    579.6476      6.1621     56.4535
  1513.7500      0.0000    577.7278      6.1649     57.7249
  1514.0000      0.0000    573.1365      6.2238     60.2223
  1514.2500      0.0000    566.3698      6.3435     64.4044
  1514.5000      0.0000    556.4413      6.4665     70.4357
  1514.7500      0.0000    543.4471      6.5397     77.8449
  1515.0000      0.0000    529.9094      6.5518     85.5075
  1515.2500      0.0000    518.9409      6.5207     92.1192
  1515.5000      0.0000    511.5701      6.4696     96.5638
  1515.7500      0.0000    506.2884      6.4150     98.0024
  1516.0000      0.0000    500.7993      6.3664     96.1576
  1516.2500      0.0000    493.9345      6.3332     91.7139
  1516.5000      0.0000    486.3884      6.3256     86.0263
  1516.7500      0.0000    480.0218      6.3486     80.1312
  1517.0000      0.0000    476.5871      6.3957     74.3067
  1517.2500      0.0000    476.9675      6.4512     68.6373
  1517.5000      0.0000    481.1459      6.5000     63.4407
  1517.7500      0.0000    488.1892      6.5334     58.9895
  1518.0000      0.0000    496.2500      6.5495     55.3901
  1518.2500      0.0000    503.2284      6.5502     52.9672
  1518.5000      0.0000    507.9970      6.5400     52.3842
  1518.7500      0.0000    511.2253      6.5243     54.1441
  1519.0000      0.0000    515.3041      6.5087     58.0675
  1519.2500      0.0000    523.3643      6.4977     63.2644
  1519.5000      0.0000    536.9915      6.4961     68.5306
  1519.7500      0.0000    553.3010      6.5084     72.8154
  1520.0000      0.0000    564.8154      6.5365     75.5112
  1520.2500      0.0000    564.6477      6.5764     76.5949
  1520.5000      0.0000    552.7515      6.6180     76.5810
  1520.7500      0.0000    535.9495      6.6504     76.1031
  1521.0000      0.0000    521.7710      6.6664     75.4283
  1521.2500      0.0000    513.3822      6.6649     74.4342
  1521.5000      0.0000    509.7975      6.6513     72.9813
  1521.7500      0.0000    508.7585      6.6350     71.1868
  1522.0000      0.0000    508.6474      6.6236     69.4122
  1522.2500      0.0000    508.8229      6.6188     68.1881
  1522.5000      0.0000    509.4331      6.6177     68.0782
  1522.7500      0.0000    511.3709      6.6178     69.2261
  1523.0000      0.0000    516.2321      6.6167     70.9081
  1523.2500      0.0000    525.7202      6.6110     71.8886
  1523.5000      0.0000    540.3975      6.5957     71.5340
  1523.7500      0.0000    558.6970      6.5673     70.3832
  1524.0000      0.0000    577.0302      6.5276     69.3841
  1524.2500      0.0000    590.7746      6.4846     68.8658
  1524.5000      0.0000    596.1714      6.4500     68.5307
  1524.7500      0.0000    593.2383      6.4332     68.1343
  1525.0000      0.0000    586.9637      6.4361     67.8854
  1525.2500      0.0000    583.5441      6.4544     68.3318
  1525.5000      0.0000    584.6014      6.4814     69.8815
  1525.7500      0.0000    586.0944      6.5090     72.1861
  1526.0000      0.0000    582.8718      6.5292     74.1145
  1526.2500      0.0000    573.8500      6.5372     74.6721
  1526.5000      0.0000    563.8647      6.5341     73.8612
  1526.7500      0.0000    560.7431      6.5244     72.4076
  1527.0000      0.0000    568.5969      6.5104     70.9710
  1527.2500      0.0000    582.9202      6.4920     69.8883
  1527.5000      0.0000    593.7761      6.4708     69.2810
  1527.7500      0.0000    595.0855      6.4529     68.9660
  1528.0000      0.0000    589.8509      6.4463     68.5554
  1528.2500      0.0000    585.4190      6.4557     67.9801
  1528.5000      0.0000    585.1277      6.4809     67.5695
  1528.7500      0.0000    585.8749      6.5173     67.4482
  1529.0000      0.0000    582.3891      6.5568     67.3789
  1529.2500      0.0000    572.0676      6.5903     67.2413
  1529.5000      0.0000    556.3635      6.6117     66.8981
  1529.7500      0.0000    539.3118      6.6215     65.3728
  1530.0000      0.0000    525.0079      6.6251     60.8802
  1530.2500      0.0000    515.5423      6.6260     52.1545
  1530.5000      0.0000    510.5924      6.6212     39.7752
  1530.7500      0.0000    508.5571      6.6048     26.2312
  1531.0000      0.0000    507.9021      6.5744     14.5845
  1531.2500      0.0000    507.7163      6.5353      6.6935
  1531.5000      0.0000    507.6108      6.4968      2.4945
  1531.7500      0.0000    507.4684      6.4658      0.7457
  1532.0000      0.0000    507.2903      6.4440      0.1767
  1532.2500      0.0000    507.1186      6.4295      0.0328
  1532.5000      0.0000    506.9963      6.4188      0.0044
  1532.7500      0.0000    506.9465      6.4081      0.0000
  1533.0000      0.0000    506.9732      6.3931   -999.2500
  1533.2500      0.0000    507.0660      6.3716   -999.2500
  1533.5000      0.0000    507.1968      6.3452   -999.2500
  1533.7500      0.0000    507.3228      6.3177   -999.2500
  1534.0000      0.0000    507.4110      6.2925   -999.2500
