~Version Information
VERS.                      2.0: CWLS Log ASCII Standard - VERSION 2.0
WRAP.                       NO: One line per depth step
~Well Information Block
STRT.FT                -5.7500: 
STOP.FT              2734.0000: 
STEP.FT                 0.2500: 
NULL.                -999.2500: 
COMP.          Pioneer Natural Resources: COMPANY
WELL.              Loews 41-32: WELL
FLD.           Purgatoire River: FIELD
LOC.           751' FNL & 128' FEL--: LOCATION
CNTY.               Las Animas: COUNTY
SRVC.                         : SERVICE COMPANY
DATE.          Sat Mar 04 08:20:59 2006: LOG DATE
UWI.           05 071 08693 00: UNIQUE WELL ID
STAT.                       CO: STATE
~Curve Information Block
DEPT.FT            0 000 00 00: Depth
GR.GAPI                       : Gamma Ray
CCL.                          : Casing Collar Locator
TT3.usec                      : CBL 3' Travel Time
AMP3.mV                       : CBL 3' Amplitude
~Parameter Information Block
~A  Depth        GR         CCL         TT3         AMP3    
# ...
  1970.7500    116.7260      0.0000    531.3569      4.4336
  1971.0000    116.2646      0.0000    578.7076      4.4668
  1971.2500    120.0724      0.0000    622.8445      4.4913
  1971.5000    126.3952      0.0000    652.8977      4.5014
  1971.7500    132.2021      0.0000    667.3275      4.5005
  1972.0000    135.5954      0.0000    670.5307      4.4976
  1972.2500    137.1171      0.0000    668.0300      4.5005
  1972.5000    138.6732      0.0000    664.0641      4.5106
  1972.7500    141.2681      0.0000    661.0290      4.5231
  1973.0000    143.8669      0.0000    659.6288      4.5298
  1973.2500    144.6045      0.0000    659.6204      4.5234
  1973.5000    143.1628      0.0000    660.8503      4.5013
  1973.7500    141.4905      0.0000    663.8123      4.4692
  1974.0000    141.8940      0.0000    669.2911      4.4404
  1974.2500    144.7956      0.0000    677.3671      4.4273
  1974.5000    148.5746      0.0000    686.6953      4.4291
  1974.7500    151.0356      0.0000    694.8991      4.4294
  1975.0000    150.6750      0.0000    699.5024      4.4106
  1975.2500    147.1522      0.0000    698.4732      4.3694
  1975.5000    141.5005      0.0000    690.8927      4.3200
  1975.7500    135.9094      0.0000    677.5761      4.2841
  1976.0000    132.4995      0.0000    659.4081      4.2769
  1976.2500    131.8484      0.0000    634.7371      4.2995
  1976.5000    132.9688      0.0000    602.5474      4.3398
  1976.7500    134.7852      0.0000    570.2459      4.3818
  1977.0000    137.2859      0.0000    552.8613      4.4150
  1977.2500    140.9986      0.0000    559.3047      4.4355
  1977.5000    145.6575      0.0000    581.7772      4.4416
  1977.7500    149.9846      0.0000    602.8126      4.4308
  1978.0000    152.9274      0.0000    611.8232      4.4032
  1978.2500    154.4190      0.0000    611.2037      4.3654
  1978.5000    154.5460      0.0000    607.3664      4.3293
  1978.7500    152.6669      0.0000    601.8541      4.3072
  1979.0000    148.0543      0.0000    593.8552      4.3053
  1979.2500    141.1107      0.0000    586.9097      4.3204
  1979.5000    133.4881      0.0000    588.2128      4.3406
  1979.7500    127.2183      0.0000    601.4846      4.3522
  1980.0000    123.9996      0.0000    622.5790      4.3478
  1980.2500    124.8351      0.0000    642.6755      4.3303
  1980.5000    129.5224      0.0000    655.5250      4.3088
  1980.7500    136.4383      0.0000    661.3958      4.2939
  1981.0000    143.6412      0.0000    664.7993      4.2911
  1981.2500    150.4748      0.0000    669.8121      4.2974
  1981.5000    157.5034      0.0000    677.5574      4.3042
  1981.7500    164.7425      0.0000    686.5330      4.3056
  1982.0000    170.7302      0.0000    694.4130      4.3026
  1982.2500    173.6649      0.0000    699.7344      4.2986
  1982.5000    173.0389      0.0000    702.4878      4.2939
  1982.7500    170.0369      0.0000    703.5233      4.2891
  1983.0000    166.6819      0.0000    703.7474      4.2886
  1983.2500    164.4875      0.0000    703.7466      4.3001
  1983.5000    163.3834      0.0000    703.7903      4.3271
  1983.7500    161.8150      0.0000    703.9350      4.3640
  1984.0000    158.2840      0.0000    704.0983      4.3970
  1984.2500    152.9974      0.0000    704.1368      4.4131
  1984.5000    147.8469      0.0000    703.9594      4.4088
  1984.7500    144.7242      0.0000    703.6210      4.3913
  1985.0000    143.9796      0.0000    703.2936      4.3734
  1985.2500    144.3549      0.0000    703.1344      4.3648
  1985.5000    144.1109      0.0000    703.1797      4.3656
  1985.7500    142.3689      0.0000    703.3509      4.3682
  1986.0000    139.7024      0.0000    703.5365      4.3644
  1986.2500    137.4517      0.0000    703.6597      4.3488
  1986.5000    136.5329      0.0000    703.6933      4.3188
  1986.7500    137.0593      0.0000    703.6479      4.2738
  1987.0000    138.7623      0.0000    703.5569      4.2192
  1987.2500    141.1623      0.0000    703.4607      4.1709
  1987.5000    143.4888      0.0000    703.3925      4.1515
  1987.7500    145.1535      0.0000    703.3782      4.1753
  1988.0000    146.3371      0.0000    703.4423      4.2352
  1988.2500    147.5912      0.0000    703.6003      4.3065
  1988.5000    149.0588      0.0000    703.8366      4.3648
  1988.7500    150.6434      0.0000    704.0935      4.4009
  1989.0000    152.6276      0.0000    704.2924      4.4221
  1989.2500    155.4944      0.0000    704.3712      4.4418
  1989.5000    159.2769      0.0000    704.2986      4.4635
  1989.7500    163.4924      0.0000    704.0343      4.4783
  1990.0000    167.5213      0.0000    703.4216      4.4792
  1990.2500    170.7957      0.0000    701.9996      4.4733
  1990.5000    172.6577      0.0000    698.8403      4.4735
  1990.7500    172.1233      0.0000    692.6518      4.4813
  1991.0000    168.1849      0.0000    682.2642      4.4833
  1991.2500    160.8608      0.0000    667.0258      4.4650
  1991.5000    151.8573      0.0000    646.9356      4.4257
  1991.7500    143.6954      0.0000    622.8947      4.3806
  1992.0000    138.0300      0.0000    596.6948      4.3504
  1992.2500    135.0196      0.0000    570.0091      4.3481
  1992.5000    134.1511      0.0000    543.9076      4.3746
  1992.7500    134.9508      0.0000    520.8637      4.4232
  1993.0000    136.6150      0.0000    506.0728      4.4848
  1993.2500    137.6638      0.0000    503.4719      4.5448
  1993.5000    136.7319      0.0000    510.3416      4.5850
  1993.7500    133.8549      0.0000    518.6982      4.5931
  1994.0000    130.7733      0.0000    522.3320      4.5728
  1994.2500    129.8008      0.0000    520.1934      4.5395
  1994.5000    132.1358      0.0000    514.5482      4.5062
  1994.7500    136.9210      0.0000    510.4310      4.4760
  1995.0000    141.7769      0.0000    515.5951      4.4466
  1995.2500    144.5292      0.0000    535.1389      4.4143
  1995.5000    144.7983      0.0000    565.4852      4.3681
  1995.7500    143.9325      0.0000    597.0414      4.2860
  1996.0000    143.4222      0.0000    622.5567      4.1519
  1996.2500    143.7283      0.0000    640.6635      3.9876
  1996.5000    144.6308      0.0000    653.0348      3.8595
  1996.7500    145.9630      0.0000    661.9378      3.8329
  1997.0000    147.5303      0.0000    670.3098      3.9176
  1997.2500    148.7418      0.0000    680.6293      4.0661
  1997.5000    148.6622      0.0000    691.9730      4.2195
  1997.7500    146.4802      0.0000    698.7916      4.3377
  1998.0000    142.1570      0.0000    693.1691      4.4005
  1998.2500    136.7392      2.0000    669.1735      4.4045
  1998.5000    131.7943      2.0000    628.5156      4.3658
  1998.7500    128.3804      0.0000    583.9172      4.3193
  1999.0000    126.4688      0.0000    553.2726      4.3114
  1999.2500    125.2099      0.0000    546.0696      4.3702
  1999.5000    123.6173      0.0000    555.8705      4.4662
  1999.7500    120.9385      0.0000    566.9228      4.5179
  2000.0000    116.6288      0.0000    565.8093      4.4677
  2000.2500    110.5496      0.0000    546.7375      4.3462
  2000.5000    103.3210      0.0000    511.2567      4.2417
  2000.7500     96.0769      0.0000    467.7581      4.2184
  2001.0000     89.7655      0.0000    429.2988      4.2804
  2001.2500     84.7861      0.0000    407.5393      4.3952
  2001.5000     80.9562      0.0000    406.7198      4.5281
  2001.7500     77.5666      0.0000    422.0416      4.6556
  2002.0000     73.8951      0.0000    442.3834      4.7581
  2002.2500     70.2269      0.0000    456.8419      4.8139
  2002.5000     68.2701      0.0000    462.9424      4.8066
  2002.7500     70.0249      0.0000    468.6329      4.7360
  2003.0000     75.8616      0.0000    484.1916      4.6166
  2003.2500     83.5919      0.0000    512.7679      4.4656
  2003.5000     89.4924      0.0000    549.2019      4.2957
  2003.7500     90.7010      0.0000    584.6716      4.1165
  2004.0000     87.1833      0.0000    611.2053      3.9385
