~Version Information
VERS.                      2.0: CWLS Log ASCII Standard - VERSION 2.0
WRAP.                       NO: One line per depth step
~Well Information Block
STRT.FT               575.0000: 
STOP.FT              1557.5000: 
STEP.FT                 0.1000: 
NULL.                -999.2500: 
COMP.          Pioneer Natural Resources: COMPANY
WELL.          McClaren 13-34 Tr: WELL
FLD.           Purgatoire River: FIELD
LOC.           1934' FSL & 826' FWL: LOCATION
PROV.                 Colorado: PROVINCE
CNTY.               Las Animas: COUNTRY
SRVC.                Patterson: SERVICE COMPANY
DATE.          Tue Jul 12 07:15:27 2005: LOG DATE
UWI.           05 071 08437 00: UNIQUE WELL ID
~Curve Information Block
DEPT.FT            0 000 00 00: Depth
DCAL.in                       : CDL Caliper
RHOB.g/cc                     : CDL Bulk Density
RHOC.g/cc                     : CDL Density Correction
DPOR.pu                       : CDL Density Porosity
GR.GAPI                       : Gamma Ray
NPOR.pu                       : Neutron Porosity
~Parameter Information Block
~A  Depth       DCAL        RHOB        RHOC        DPOR         GR         NPOR    
# ...
   834.2000      7.7543      2.4070      0.1812     14.7300    145.2006     27.4806
   834.3000      7.7666      2.4603      0.2233     11.4984    146.2565     27.7066
   834.4000      7.7666      2.5429      0.2622      6.4890    142.8701     27.8782
   834.5000      7.8035      2.6263      0.3750      1.4369    140.6384     27.9599
   834.6000      7.8035      2.6793      0.4210     -1.7763    143.2145     28.1890
   834.7000      7.8035      2.6855      0.4202     -2.1519    150.3959     28.6726
   834.8000      7.8351      2.6528      0.3450     -0.1670    155.4343     28.8451
   834.9000      7.8351      2.6096      0.2513      2.4501    152.8457     28.5115
   835.0000      7.8468      2.5824      0.1819      4.0992    144.3565     28.1324
   835.1000      7.8468      2.5701      0.1358      4.8423    136.0469     27.8975
   835.2000      7.8468      2.5631      0.0650      5.2672    133.7673     27.8272
   835.3000      7.8483      2.5681      0.0494      4.9626    137.8799     27.7753
   835.4000      7.8483      2.5818      0.0844      4.1342    143.4316     27.6214
   835.5000      7.8481      2.5843      0.0739      3.9796    146.4404     27.5753
   835.6000      7.8481      2.5751      0.0388      4.5391    147.6735     27.9774
   835.7000      7.8481      2.5661      0.0617      5.0828    149.7870     29.2211
   835.8000      7.8475      2.5575      0.0896      5.6078    151.5437     31.1417
   835.9000      7.8475      2.5446      0.0750      6.3854    150.1102     33.1657
   836.0000      7.8469      2.5282      0.0625      7.3818    148.3589     34.7466
   836.1000      7.8469      2.5185      0.0249      7.9682    150.3004     35.2450
   836.2000      7.8469      2.5346      0.0288      6.9935    153.8620     35.1011
   836.3000      7.8467      2.5880      0.0126      3.7558    154.3401     35.1943
   836.4000      7.8467      2.6641      0.0960     -0.8557    150.3393     35.0119
   836.5000      7.8463      2.7250      0.1135     -4.5472    146.6146     33.6567
   836.6000      7.8463      2.7471      0.1174     -5.8839    144.1340     31.6676
   836.7000      7.8463      2.7330      0.1306     -5.0302    138.5235     30.1512
   836.8000      7.8445      2.6988      0.0567     -2.9606    130.5785     29.3833
   836.9000      7.8445      2.6616      0.0211     -0.7037    122.7968     28.6707
   837.0000      7.8446      2.6270      0.0340      1.3909    114.2017     27.7460
   837.1000      7.8446      2.6035     -0.0644      2.8209    108.5947     27.3176
   837.2000      7.8446      2.5988     -0.0335      3.1012    112.8675     27.4264
   837.3000      7.8513      2.5979     -0.0376      3.1605    125.8495     27.0922
   837.4000      7.8513      2.5836     -0.0056      4.0244    137.4257     25.9153
   837.5000      7.8584      2.5596     -0.0100      5.4760    142.9277     24.6678
   837.6000      7.8584      2.5356      0.0210      6.9310    145.2699     24.0050
   837.7000      7.8584      2.5170      0.0064      8.0609    145.8293     23.7909
   837.8000      7.8611      2.5064     -0.0081      8.7029    145.0981     23.5020
   837.9000      7.8611      2.4959      0.0315      9.3382    143.9124     22.8085
   838.0000      7.8624      2.4704     -0.0047     10.8826    143.4597     22.2594
   838.1000      7.8624      2.4320     -0.0342     13.2117    144.3565     22.5876
   838.2000      7.8624      2.4026     -0.0335     14.9925    145.8963     23.6266
   838.3000      7.8630      2.3942      0.0078     15.5057    148.6780     24.6818
   838.4000      7.8630      2.4007      0.0110     15.1081    150.9593     25.5292
   838.5000      7.8621      2.4156      0.0415     14.2041    149.3439     26.1827
   838.6000      7.8621      2.4304      0.0641     13.3111    145.1121     26.7462
   838.7000      7.8621      2.4353      0.0876     13.0127    143.7034     27.2469
   838.8000      7.8610      2.4296      0.1035     13.3560    145.9993     27.4897
   838.9000      7.8610      2.4141      0.1000     14.2967    145.6752     27.9405
   839.0000      7.8605      2.3915      0.0352     15.6684    139.8586     29.1696
   839.1000      7.8605      2.3754      0.0662     16.6436    136.5867     30.6958
   839.2000      7.8605      2.3711      0.0835     16.9004    138.6921     31.7439
   839.3000      7.8589      2.3690      0.1085     17.0288    135.3173     32.2416
   839.4000      7.8589      2.3658      0.1163     17.2244    125.1055     32.4855
   839.5000      7.8546      2.3794      0.1325     16.4006    118.1021     32.5299
   839.6000      7.8546      2.4425      0.1462     12.5775    116.6560     32.3754
   839.7000      7.8546      2.5710      0.1946      4.7881    120.0115     31.9657
   839.8000      7.8517      2.7303      0.3219     -4.8663    128.0714     31.1230
   839.9000      7.8517      2.8577      0.3910    -12.5849    136.5032     30.4189
   840.0000      7.8574      2.9188      0.3831    -16.2884    140.2313     30.3653
   840.1000      7.8574      2.9169      0.3999    -16.1777    135.6386     30.5285
   840.2000      7.8574      2.8655      0.3419    -13.0617    126.1953     30.4560
   840.3000      7.8670      2.7870      0.1858     -8.3009    119.5182     30.2418
   840.4000      7.8670      2.7140      0.0252     -3.8794    118.5083     29.9878
   840.5000      7.8772      2.6635     -0.0472     -0.8154    119.1956     29.6306
   840.6000      7.8772      2.6322     -0.0551      1.0768    117.9287     29.1376
   840.7000      7.8772      2.6124      0.0379      2.2801    115.5945     28.8461
   840.8000      7.8962      2.5986      0.0301      3.1165    113.4521     28.9793
   840.9000      7.8962      2.5918      0.1233      3.5289    115.4913     28.2643
   841.0000      7.9210      2.5818      0.2272      4.1360    124.5988     26.0650
   841.1000      7.9210      2.5546      0.1042      5.7820    134.4915     24.1186
   841.2000      7.9210      2.5152      0.0677      8.1672    139.8344     23.5730
   841.3000      7.9339      2.4743      0.0508     10.6464    142.7930     23.9960
   841.4000      7.9339      2.4356      0.0134     12.9914    144.7008     24.6915
   841.5000      7.9355      2.3994      0.0371     15.1902    145.0274     25.0614
   841.6000      7.9355      2.3707      0.0093     16.9267    143.4187     25.0456
   841.7000      7.9355      2.3648      0.0016     17.2835    142.3920     25.2709
   841.8000      7.9368      2.3883      0.0267     15.8609    143.6595     26.3289
   841.9000      7.9368      2.4244      0.0876     13.6698    145.8762     27.6932
   842.0000      7.9403      2.4545      0.1117     11.8496    147.5323     28.2329
   842.1000      7.9403      2.4778      0.1144     10.4369    147.8199     27.8699
   842.2000      7.9403      2.4981      0.1276      9.2033    145.3194     27.3777
   842.3000      7.9431      2.5128      0.1690      8.3149    141.2469     27.1062
   842.4000      7.9431      2.5222      0.1538      7.7429    139.5821     26.6012
   842.5000      7.9442      2.5301      0.0892      7.2696    139.2571     25.4711
   842.6000      7.9442      2.5247      0.1021      7.5921    136.8254     23.8228
   842.7000      7.9442      2.4817      0.0813     10.1992    134.1153     21.6400
   842.8000      7.9444      2.3999     -0.0012     15.1551    134.1248     19.2231
   842.9000      7.9444      2.3068     -0.0264     20.8030    137.0351     17.4867
   843.0000      7.9443      2.2253     -0.0554     25.7421    142.2252     16.6002
   843.1000      7.9443      2.1598     -0.0593     29.7083    146.8074     16.1857
   843.2000      7.9443      2.0958     -0.0603     33.5898    145.2779     15.8696
   843.3000      7.9461      2.0190     -0.0635     38.2407    138.4853     15.5304
   843.4000      7.9461      1.9363     -0.0609     43.2532    133.5165     15.1827
   843.5000      7.9500      1.8644     -0.0532     47.6149    133.3928     14.9550
   843.6000      7.9500      1.8101      0.0685     50.9049    133.7841     15.3533
   843.7000      7.9500      1.7674      0.0964     53.4899    127.4490     16.6320
