~Version Information
VERS.                      2.0: CWLS Log ASCII Standard - VERSION 2.0
WRAP.                       NO: One line per depth step
~Well Information Block
STRT.FT               665.0000: 
STOP.FT              2193.5000: 
STEP.FT                 0.1000: 
NULL.                -999.2500: 
COMP.          Pioneer Natural Resources: COMPANY
WELL.          Bear Cub Federal 11-23: WELL
FLD.           Purgatoire River: FIELD
LOC.           1225' FNL & 1268' FWL--: LOCATION
CNTY.               Las Animas: COUNTY
SRVC.                Patterson: SERVICE COMPANY
DATE.          Tue Jun 20 09:14:02 2006: LOG DATE
UWI.           05 071 08509 00: UNIQUE WELL ID
STAT.                 Colorado: STATE
~Curve Information Block
DEPT.FT            0 000 00 00: Depth
DCAL.in                       : CDL Caliper
RHOB.g/cc                     : CDL Bulk Density
RHOC.g/cc                     : CDL Density Correction
DPOR.pu                       : CDL Density Porosity
NPOR.pu                       : Neutron Porosity
GR.GAPI                       : Gamma Ray
~Parameter Information Block
~A  Depth       DCAL        RHOB        RHOC        DPOR        NPOR         GR     
# ...
  2153.0000      7.8559      2.5211      0.0503      7.8151     22.0929     86.1977
  2153.1000      7.8559      2.5218      0.0424      7.7701     22.1999     86.5588
  2153.2000      7.8559      2.5281      0.0642      7.3866     22.7113     83.4834
  2153.3000      7.8891      2.5320      0.0545      7.1527     23.1106     79.7867
  2153.4000      7.8891      2.5325      0.0927      7.1212     23.0588     78.7688
  2153.5000      7.9108      2.5392      0.0405      6.7175     22.8800     75.6537
  2153.6000      7.9108      2.5563      0.0663      5.6783     23.0120     58.5798
  2153.7000      7.9108      2.5683      0.0895      4.9536     23.4890     30.7018
  2153.8000      7.9159      2.5685      0.0549      4.9380     23.9635      9.7908
  2153.9000      7.9159      2.5725      0.0544      4.6961     24.0950      1.7869
  2154.0000      7.9161      2.5843      0.1080      3.9820     23.7589      0.1799
  2154.1000      7.9161      2.5942      0.0851      3.3845     23.3782      0.0095
  2154.2000      7.9161      2.5988      0.1077      3.1047     23.4656      0.0000
  2154.3000      7.9151      2.5934      0.0906      3.4333     23.7507   -999.2500
  2154.4000      7.9151      2.5717      0.0789      4.7425     23.6936   -999.2500
  2154.5000      7.9140      2.5481      0.0236      6.1781     23.4776   -999.2500
  2154.6000      7.9140      2.5431      0.0422      6.4777     23.3261   -999.2500
  2154.7000      7.9140      2.5467      0.0767      6.2631     22.7209   -999.2500
  2154.8000      7.9140      2.5418      0.0326      6.5584     21.5188   -999.2500
  2154.9000      7.9140      2.5345      0.0721      6.9989     20.5472   -999.2500
  2155.0000      7.9176      2.5294      0.0665      7.3101     20.3323   -999.2500
  2155.1000      7.9176      2.5295      0.0453      7.3023     20.5717   -999.2500
  2155.2000      7.9176      2.5424      0.0383      6.5240     20.8278   -999.2500
  2155.3000      7.9201      2.5556      0.0903      5.7185     20.8813   -999.2500
  2155.4000      7.9201      2.5477      0.0846      6.1977     20.8451   -999.2500
  2155.5000      7.9206      2.5281      0.0056      7.3887     21.1853   -999.2500
  2155.6000      7.9206      2.5247      0.0510      7.5932     21.8770   -999.2500
  2155.7000      7.9206      2.5438      0.0244      6.4390     22.2894   -999.2500
  2155.8000      7.9217      2.5677      0.0889      4.9864     21.9327   -999.2500
  2155.9000      7.9217      2.5782      0.0640      4.3489     21.1255   -999.2500
  2156.0000      7.9249      2.5763      0.0748      4.4689     20.8001   -999.2500
  2156.1000      7.9249      2.5678      0.0977      4.9844     21.4993   -999.2500
  2156.2000      7.9249      2.5522      0.0697      5.9294     22.4973   -999.2500
  2156.3000      7.9280      2.5368      0.0660      6.8610     22.4641   -999.2500
  2156.4000      7.9280      2.5275      0.0926      7.4238     21.4833   -999.2500
  2156.5000      7.9320      2.5178      0.0540      8.0118     20.4881   -999.2500
  2156.6000      7.9320      2.5031      0.0677      8.9023     20.0284   -999.2500
  2156.7000      7.9320      2.4865      0.0448      9.9093     20.3715   -999.2500
  2156.8000      7.9356      2.4812      0.0242     10.2310     21.2720   -999.2500
  2156.9000      7.9356      2.4975      0.0410      9.2403     21.8153   -999.2500
  2157.0000      7.9337      2.5234      0.0706      7.6731     21.3730   -999.2500
  2157.1000      7.9337      2.5412      0.0719      6.5969     20.6552   -999.2500
  2157.2000      7.9337      2.5484      0.0761      6.1571     20.5618   -999.2500
  2157.3000      7.9300      2.5499      0.0635      6.0675     20.8889   -999.2500
  2157.4000      7.9300      2.5479      0.0781      6.1908     21.0677   -999.2500
  2157.5000      7.9297      2.5438      0.0885      6.4344     21.1214   -999.2500
  2157.6000      7.9297      2.5372      0.0927      6.8344     21.2248   -999.2500
  2157.7000      7.9297      2.5277      0.0674      7.4124     21.4790   -999.2500
  2157.8000      7.9295      2.5238      0.0512      7.6460     21.7937   -999.2500
  2157.9000      7.9295      2.5309      0.0589      7.2190     21.9324   -999.2500
  2158.0000      7.9326      2.5377      0.0761      6.8068     21.8588   -999.2500
  2158.1000      7.9326      2.5407      0.0428      6.6245     21.6107   -999.2500
  2158.2000      7.9326      2.5427      0.0819      6.5016     21.2217   -999.2500
  2158.3000      7.9417      2.5342      0.0700      7.0158     20.6505   -999.2500
  2158.4000      7.9417      2.5170      0.0415      8.0590     19.9584   -999.2500
  2158.5000      7.9468      2.5121      0.0450      8.3597     19.3152   -999.2500
  2158.6000      7.9468      2.5271      0.0814      7.4476     18.5983   -999.2500
  2158.7000      7.9468      2.5502      0.0526      6.0472     17.7701   -999.2500
  2158.8000      7.9205      2.5671      0.1136      5.0267     17.2601   -999.2500
  2158.9000      7.9205      2.5704      0.0632      4.8264     17.5797   -999.2500
  2159.0000      7.8679      2.5619      0.1009      5.3398     20.2836   -999.2500
  2159.1000      7.8679      2.5436      0.0778      6.4466     29.6925   -999.2500
  2159.2000      7.8679      2.5178      0.0509      8.0107     45.6694   -999.2500
  2159.3000      7.8358      2.4934      0.0608      9.4920     57.2192   -999.2500
  2159.4000      7.8358      2.4816      0.0280     10.2046     61.2112   -999.2500
  2159.5000      7.8288      2.4849      0.0453     10.0063     61.9736   -999.2500
  2159.6000      7.8288      2.4959      0.0247      9.3407     62.0538   -999.2500
  2159.7000      7.8288      2.5085      0.0589      8.5760     62.0584   -999.2500
  2159.8000      7.8286      2.5174      0.0876      8.0371   -999.2500   -999.2500
  2159.9000      7.8286      2.5225      0.0445      7.7290   -999.2500   -999.2500
  2160.0000      7.8284      2.5333      0.0491      7.0713   -999.2500   -999.2500
  2160.1000      7.8284      2.5479      0.0905      6.1892   -999.2500   -999.2500
  2160.2000      7.8284      2.5556      0.0862      5.7232   -999.2500   -999.2500
  2160.3000      7.8251      2.5616      0.0689      5.3582   -999.2500   -999.2500
  2160.4000      7.8251      2.5742      0.0741      4.5967   -999.2500   -999.2500
  2160.5000      7.8188      2.5870      0.1019      3.8164   -999.2500   -999.2500
  2160.6000      7.8188      2.5898      0.0837      3.6512   -999.2500   -999.2500
  2160.7000      7.8188      2.5867      0.0630      3.8391   -999.2500   -999.2500
  2160.8000      7.8159      2.5872      0.0777      3.8045   -999.2500   -999.2500
  2160.9000      7.8159      2.5890      0.0574      3.6967   -999.2500   -999.2500
  2161.0000      7.8166      2.5911      0.0634      3.5727   -999.2500   -999.2500
  2161.1000      7.8166      2.5983      0.0628      3.1350   -999.2500   -999.2500
  2161.2000      7.8166      2.6070      0.0690      2.6077   -999.2500   -999.2500
  2161.3000      7.8160      2.6114      0.0694      2.3407   -999.2500   -999.2500
  2161.4000      7.8160      2.6149      0.0835      2.1281   -999.2500   -999.2500
  2161.5000      7.8117      2.6105      0.1038      2.3969   -999.2500   -999.2500
  2161.6000      7.8117      2.5825      0.0661      4.0935   -999.2500   -999.2500
  2161.7000      7.8117      2.5356      0.0672      6.9336   -999.2500   -999.2500
  2161.8000      7.8055      2.4937      0.0219      9.4742   -999.2500   -999.2500
  2161.9000      7.8055      2.4814      0.0008     10.2162   -999.2500   -999.2500
  2162.0000      7.8018      2.5032      0.0457      8.8963   -999.2500   -999.2500
  2162.1000      7.8018      2.5360      0.0992      6.9083   -999.2500   -999.2500
  2162.2000      7.8018      2.5582      0.1038      5.5651   -999.2500   -999.2500
  2162.3000      7.8013      2.5710      0.1083      4.7855   -999.2500   -999.2500
  2162.4000      7.8013      2.5841      0.0664      3.9964   -999.2500   -999.2500
  2162.5000      7.8020      2.5974      0.1108      3.1892   -999.2500   -999.2500
