~Version Information
VERS.                      2.0: CWLS Log ASCII Standard - VERSION 2.0
WRAP.                       NO: One line per depth step
~Well Information Block
STRT.FT               330.0000: 
STOP.FT              1923.5000: 
STEP.FT                 0.1000: 
NULL.                -999.2500: 
COMP.          Pioneer Natural Resources: COMPANY
WELL.          State Wildlife 32-16 Tr: WELL
FLD.           Purgatoire River: FIELD
LOC.           1838' FNL & 1850' FEL: LOCATION
STAT.                 Colorado: State
CNTY.               Las Animas: COUNTY
CTRY. USA : Country
SECT. 16 : Section
TOWN. 32S : Township
RANG. 66W : Range
SRVC.                Patterson: SERVICE COMPANY
DATE.          Mon Nov 14 07:20:48 2005: LOG DATE
API.           05 071 08568 00: UNIQUE WELL ID
~Curve Information Block
DEPT.FT            0 000 00 00: Depth
DCAL.in                       : CDL Caliper
RHOB.g/cc                     : CDL Bulk Density
RHOC.g/cc                     : CDL Density Correction
DPOR.pu                       : CDL Density Porosity
GR.GAPI                       : Gamma Ray
NPOR.pu                       : Neutron Porosity
~Parameter Information Block
~A  Depth       DCAL        RHOB        RHOC        DPOR         GR         NPOR    
# ...
  1069.2000      8.0650      2.5168      0.1295      8.0755    144.1003     30.0809
  1069.3000      8.0661      2.4973      0.0645      9.2561    140.2455     30.5155
  1069.4000      8.0661      2.4686     -0.0664     10.9952    137.4301     30.7162
  1069.5000      8.0725      2.4594     -0.0098     11.5519    133.5628     30.8636
  1069.6000      8.0725      2.4675     -0.0149     11.0586    130.7513     30.8510
  1069.7000      8.0725      2.4874      0.0042      9.8523    129.7393     30.6136
  1069.8000      8.0724      2.5237      0.0884      7.6564    126.5487     30.1428
  1069.9000      8.0724      2.5678      0.1050      4.9836    123.3217     29.3564
  1070.0000      8.0451      2.6024      0.1527      2.8833    124.9622     28.3000
  1070.1000      8.0451      2.6257      0.1084      1.4733    131.9163     27.3801
  1070.2000      8.0451      2.6472      0.1744      0.1684    135.8386     27.2112
  1070.3000      8.0115      2.6629      0.2025     -0.7839    131.2957     27.6325
  1070.4000      8.0115      2.6624      0.1778     -0.7535    126.5077     27.6445
  1070.5000      7.9916      2.6410      0.1776      0.5459    127.3967     26.7229
  1070.6000      7.9916      2.5973      0.1348      3.1922    129.7321     25.6388
  1070.7000      7.9916      2.5431      0.1296      6.4796    130.7914     25.4351
  1070.8000      7.9938      2.5008      0.1061      9.0434    132.2294     26.0424
  1070.9000      7.9938      2.4904      0.0466      9.6725    132.8882     26.6979
  1071.0000      7.9956      2.5174      0.0707      8.0348    132.3691     27.0556
  1071.1000      7.9956      2.5735      0.0861      4.6373    135.3166     27.3146
  1071.2000      7.9956      2.6488      0.1481      0.0700    140.8176     27.4075
  1071.3000      7.9956      2.7386      0.1820     -5.3684    140.0056     27.0015
  1071.4000      7.9956      2.8282      0.2946    -10.7989    134.3122     26.4489
  1071.5000      8.0021      2.8860      0.3628    -14.3003    133.9798     26.5528
  1071.6000      8.0021      2.8909      0.3764    -14.6009    135.9802     27.0282
  1071.7000      8.0021      2.8525      0.2684    -12.2737    131.4063     26.8614
  1071.8000      7.9892      2.7922      0.1973     -8.6209    123.9241     25.9849
  1071.9000      7.9892      2.7248      0.1452     -4.5312    120.6840     25.1827
  1072.0000      7.9856      2.6640      0.0886     -0.8480    125.7431     25.0084
  1072.1000      7.9856      2.6241      0.0807      1.5722    136.3693     25.2901
  1072.2000      7.9856      2.6071      0.0513      2.6012    143.1885     25.5599
  1072.3000      7.9842      2.6001      0.0879      3.0216    142.2980     25.4506
  1072.4000      7.9842      2.5924      0.0523      3.4920    137.5769     25.1231
  1072.5000      7.9919      2.5862      0.1157      3.8642    132.5346     25.0428
  1072.6000      7.9919      2.5780      0.1064      4.3652    131.7089     25.0022
  1072.7000      7.9919      2.5761      0.0292      4.4774    137.9412     24.7201
  1072.8000      7.9890      2.6093      0.0652      2.4687    146.9171     24.8176
  1072.9000      7.9890      2.6630      0.1573     -0.7900    152.0383     25.8058
  1073.0000      7.9966      2.6860      0.1350     -2.1809    149.3855     27.2388
  1073.1000      7.9966      2.6783      0.0861     -1.7157    140.0705     28.2818
  1073.2000      7.9966      2.6911      0.0234     -2.4909    129.9330     28.8080
  1073.3000      8.0436      2.7384      0.1027     -5.3601    122.8995     29.1318
  1073.4000      8.0436      2.7811      0.1465     -7.9439    119.8958     29.2716
  1073.5000      8.0490      2.7947      0.0809     -8.7704    120.0405     29.3984
  1073.6000      8.0490      2.7851      0.1344     -8.1857    120.8922     29.6953
  1073.7000      8.0490      2.7590      0.0673     -6.6068    123.0720     29.9202
  1073.8000      8.0103      2.7368      0.0047     -5.2605    127.5508     29.6993
  1073.9000      8.0103      2.7406     -0.0070     -5.4936    131.4638     29.1464
  1074.0000      8.0003      2.7589     -0.0013     -6.6002    132.7933     28.9160
  1074.1000      8.0003      2.7646      0.0412     -6.9467    130.2309     29.0598
  1074.2000      8.0003      2.7547      0.0077     -6.3466    125.1787     29.0864
  1074.3000      8.0038      2.7355      0.0429     -5.1796    122.7877     29.0935
  1074.4000      8.0038      2.6942      0.1117     -2.6786    120.2606     29.1437
  1074.5000      8.0039      2.6278      0.0395      1.3477    113.0012     28.8763
  1074.6000      8.0039      2.5744     -0.0571      4.5843    105.6452     28.1936
  1074.7000      8.0039      2.5686     -0.0235      4.9346    102.8133     27.4022
  1074.8000      7.9809      2.5946      0.0113      3.3598    101.4031     26.9113
  1074.9000      7.9809      2.6179     -0.0148      1.9433     97.0267     26.6597
  1075.0000      7.9814      2.6240      0.0346      1.5728     93.6878     26.3716
  1075.1000      7.9814      2.6253      0.0202      1.4940     98.0496     25.9613
  1075.2000      7.9814      2.6390      0.0842      0.6654    105.3613     25.4460
  1075.3000      7.9832      2.6502      0.1742     -0.0124    108.0060     25.1160
  1075.4000      7.9832      2.6366      0.1838      0.8150    108.9833     25.1469
  1075.5000      7.9762      2.6057      0.1354      2.6858    112.5831     25.3017
  1075.6000      7.9762      2.5731      0.1378      4.6594    117.0344     25.6716
  1075.7000      7.9762      2.5454      0.1406      6.3377    119.8986     26.3660
  1075.8000      7.9728      2.5276      0.1507      7.4160    120.8558     26.6168
  1075.9000      7.9728      2.5199      0.1494      7.8837    119.6806     26.0474
  1076.0000      7.9664      2.5244      0.0767      7.6105    115.2318     25.3944
  1076.1000      7.9664      2.5497      0.0599      6.0763    110.8132     25.2036
  1076.2000      7.9664      2.5992      0.0962      3.0794    111.3120     25.1818
  1076.3000      7.9747      2.6551      0.1885     -0.3118    115.3741     24.8751
  1076.4000      7.9747      2.6846      0.2033     -2.0985    118.8541     24.4276
  1076.5000      7.9987      2.6769      0.1807     -1.6277    119.0663     24.4194
  1076.6000      7.9987      2.6498      0.1937      0.0101    113.9637     24.8657
  1076.7000      7.9987      2.6193      0.1462      1.8581    103.4129     24.9161
  1076.8000      7.9977      2.5891      0.0814      3.6884     94.9690     24.4248
  1076.9000      7.9977      2.5630      0.1044      5.2740     95.1594     23.9766
  1077.0000      7.9811      2.5512      0.0531      5.9876     98.8865     23.4634
  1077.1000      7.9811      2.5655      0.0973      5.1241     98.4503     22.7002
  1077.2000      7.9811      2.5958      0.1526      3.2827     93.9161     22.0912
  1077.3000      7.9791      2.6104      0.1979      2.3991     90.6006     21.9782
  1077.4000      7.9791      2.5963      0.1266      3.2567     92.4615     21.9693
  1077.5000      7.9609      2.5805      0.1221      4.2100     97.8790     21.7235
  1077.6000      7.9609      2.5842      0.1977      3.9870    101.9018     21.7200
  1077.7000      7.9609      2.5925      0.1717      3.4850    103.0749     21.9897
  1077.8000      7.9613      2.5934      0.1654      3.4315    101.7287     22.0114
  1077.9000      7.9613      2.5968      0.1230      3.2228     97.9876     21.7670
  1078.0000      7.9589      2.6010      0.2139      2.9691     97.7602     21.5940
  1078.1000      7.9589      2.5882      0.1509      3.7450    104.8955     21.6057
  1078.2000      7.9589      2.5628      0.0932      5.2853    109.8837     21.6669
  1078.3000      7.9593      2.5409      0.0822      6.6111    107.0534     21.6853
  1078.4000      7.9593      2.5234      0.0865      7.6728    100.8473     21.5153
  1078.5000      7.9631      2.5066      0.0688      8.6885     93.4414     21.1576
  1078.6000      7.9631      2.4944      0.0275      9.4312     83.8982     20.5693
  1078.7000      7.9631      2.4979     -0.0272      9.2207     75.3688     19.5971
