~Version Information
VERS.                      2.0: CWLS Log ASCII Standard - VERSION 2.0
WRAP.                       NO: One line per depth step
~Well Information Block
STRT.FT               245.0000: 
STOP.FT              1102.5000: 
STEP.FT                 0.1000: 
NULL.                -999.2500: 
COMP.          Pioneer Natural Resources: COMPANY
WELL.           Pavilion 44-25: WELL
FLD.           Purgatoire River: FIELD
LOC.           719' FSL & 650' FEL: LOCATION
PROV.                 Colorado: PROVINCE
CNTY.               Las Animas: COUNTRY
SRVC.                Patterson: SERVICE COMPANY
DATE.          Wed Dec 14 09:57:07 2005: LOG DATE
UWI.           05 071 08624 00: UNIQUE WELL ID
~Curve Information Block
DEPT.FT            0 000 00 00: Depth
DCAL.in                       : CDL Caliper
RHOB.g/cc                     : CDL Bulk Density
RHOC.g/cc                     : CDL Density Correction
DPOR.pu                       : CDL Density Porosity
GR.GAPI                       : Gamma Ray
NPOR.pu                       : Neutron Porosity
~Parameter Information Block
~A  Depth       DCAL        RHOB        RHOC        DPOR         GR         NPOR    
# ...
  1089.8000      7.6984      2.5262      0.0464      7.5050   -999.2500   -999.2500
  1089.9000      7.6984      2.5404      0.0040      6.6405   -999.2500   -999.2500
  1090.0000      7.6945      2.5593      0.0556      5.4996   -999.2500   -999.2500
  1090.1000      7.6945      2.5758      0.0887      4.4967   -999.2500   -999.2500
  1090.2000      7.6945      2.5811      0.0865      4.1784   -999.2500   -999.2500
  1090.3000      7.6925      2.5794      0.0790      4.2761   -999.2500   -999.2500
  1090.4000      7.6925      2.5775      0.0903      4.3954   -999.2500   -999.2500
  1090.5000      7.6926      2.5728      0.0855      4.6799   -999.2500   -999.2500
  1090.6000      7.6926      2.5636      0.0591      5.2335   -999.2500   -999.2500
  1090.7000      7.6926      2.5570      0.0542      5.6357   -999.2500   -999.2500
  1090.8000      7.6927      2.5588      0.0248      5.5255   -999.2500   -999.2500
  1090.9000      7.6927      2.5627      0.0490      5.2890   -999.2500   -999.2500
  1091.0000      7.6933      2.5605      0.0195      5.4221   -999.2500   -999.2500
  1091.1000      7.6933      2.5567      0.0846      5.6573   -999.2500   -999.2500
  1091.2000      7.6933      2.5549      0.0719      5.7622   -999.2500   -999.2500
  1091.3000      7.6941      2.5538      0.0496      5.8319   -999.2500   -999.2500
  1091.4000      7.6941      2.5498      0.0487      6.0729   -999.2500   -999.2500
  1091.5000      7.7006      2.5380      0.0381      6.7883   -999.2500   -999.2500
  1091.6000      7.7006      2.5241      0.0305      7.6333   -999.2500   -999.2500
  1091.7000      7.7006      2.5239      0.0216      7.6446   -999.2500   -999.2500
  1091.8000      7.7087      2.5393      0.0172      6.7065   -999.2500   -999.2500
  1091.9000      7.7087      2.5551      0.0444      5.7492   -999.2500   -999.2500
  1092.0000      7.7031      2.5643      0.0089      5.1931   -999.2500   -999.2500
  1092.1000      7.7031      2.5664      0.0510      5.0670   -999.2500   -999.2500
  1092.2000      7.7031      2.5527      0.0750      5.8945   -999.2500   -999.2500
  1092.3000      7.6983      2.5245      0.0284      7.6031   -999.2500   -999.2500
  1092.4000      7.6983      2.5001     -0.0044      9.0861   -999.2500   -999.2500
  1092.5000      7.6926      2.4903     -0.0017      9.6812   -999.2500   -999.2500
  1092.6000      7.6926      2.4921      0.0088      9.5690   -999.2500   -999.2500
  1092.7000      7.6926      2.4990      0.0253      9.1544   -999.2500   -999.2500
  1092.8000      7.6931      2.5062      0.0100      8.7146   -999.2500   -999.2500
  1092.9000      7.6931      2.5108      0.0361      8.4364   -999.2500   -999.2500
  1093.0000      7.6995      2.5104      0.0048      8.4620   -999.2500   -999.2500
  1093.1000      7.6995      2.5087     -0.0061      8.5638   -999.2500   -999.2500
  1093.2000      7.6995      2.5111      0.0224      8.4157   -999.2500   -999.2500
  1093.3000      7.6942      2.5166      0.0132      8.0829   -999.2500   -999.2500
  1093.4000      7.6942      2.5197      0.0412      7.8983   -999.2500   -999.2500
  1093.5000      7.6944      2.5151      0.0367      8.1760   -999.2500   -999.2500
  1093.6000      7.6944      2.5034      0.0336      8.8863   -999.2500   -999.2500
  1093.7000      7.6944      2.4893      0.0247      9.7381   -999.2500   -999.2500
  1093.8000      7.6877      2.4797      0.0125     10.3205   -999.2500   -999.2500
  1093.9000      7.6877      2.4829      0.0022     10.1260   -999.2500   -999.2500
  1094.0000      7.6926      2.4971      0.0357      9.2656   -999.2500   -999.2500
  1094.1000      7.6926      2.5117      0.0350      8.3799   -999.2500   -999.2500
  1094.2000      7.6926      2.5218      0.0547      7.7713   -999.2500   -999.2500
  1094.3000      7.6902      2.5288      0.0324      7.3461   -999.2500   -999.2500
  1094.4000      7.6902      2.5389      0.0551      6.7337   -999.2500   -999.2500
  1094.5000      7.6872      2.5498      0.0720      6.0735   -999.2500   -999.2500
  1094.6000      7.6872      2.5472      0.0797      6.2327   -999.2500   -999.2500
  1094.7000      7.6872      2.5300      0.0255      7.2716   -999.2500   -999.2500
  1094.8000      7.6865      2.5200      0.0089      7.8775   -999.2500   -999.2500
  1094.9000      7.6865      2.5297      0.0601      7.2927   -999.2500   -999.2500
  1095.0000      7.6897      2.5505      0.0648      6.0297   -999.2500   -999.2500
  1095.1000      7.6897      2.5742      0.0623      4.5951   -999.2500   -999.2500
  1095.2000      7.6897      2.5966      0.0364      3.2358   -999.2500   -999.2500
  1095.3000      7.7007      2.6101      0.1164      2.4203   -999.2500   -999.2500
  1095.4000      7.7007      2.6065      0.0816      2.6360   -999.2500   -999.2500
  1095.5000      7.6897      2.5913      0.0695      3.5601   -999.2500   -999.2500
  1095.6000      7.6897      2.5718      0.0692      4.7373   -999.2500   -999.2500
  1095.7000      7.6897      2.5534      0.0254      5.8535   -999.2500   -999.2500
  1095.8000      7.6917      2.5469      0.0380      6.2479   -999.2500   -999.2500
  1095.9000      7.6917      2.5509      0.0365      6.0031   -999.2500   -999.2500
  1096.0000      7.6900      2.5467      0.1121      6.2605   -999.2500   -999.2500
  1096.1000      7.6900      2.5324     -0.0166      7.1275   -999.2500   -999.2500
  1096.2000      7.6900      2.5304      0.0291      7.2464   -999.2500   -999.2500
  1096.3000      7.6912      2.5392      0.0674      6.7177   -999.2500   -999.2500
  1096.4000      7.6912      2.5393      0.0685      6.7071   -999.2500   -999.2500
  1096.5000      7.6886      2.5277      0.0632      7.4136   -999.2500   -999.2500
  1096.6000      7.6886      2.5106      0.0291      8.4488   -999.2500   -999.2500
  1096.7000      7.6886      2.4996      0.0358      9.1146   -999.2500   -999.2500
  1096.8000      7.6883      2.5046      0.0681      8.8103   -999.2500   -999.2500
  1096.9000      7.6883      2.5203      0.0834      7.8623   -999.2500   -999.2500
  1097.0000      7.6893      2.5351      0.0331      6.9640   -999.2500   -999.2500
  1097.1000      7.6893      2.5433      0.0138      6.4691   -999.2500   -999.2500
  1097.2000      7.6893      2.5425      0.0249      6.5132   -999.2500   -999.2500
  1097.3000      7.6918      2.5406      0.0229      6.6323   -999.2500   -999.2500
  1097.4000      7.6918      2.5478      0.0618      6.1916   -999.2500   -999.2500
  1097.5000      7.6896      2.5635      0.0268      5.2410   -999.2500   -999.2500
  1097.6000      7.6896      2.5752      0.1077      4.5320   -999.2500   -999.2500
  1097.7000      7.6896      2.5652      0.0995      5.1380   -999.2500   -999.2500
  1097.8000      7.6906      2.5388      0.0423      6.7377   -999.2500   -999.2500
  1097.9000      7.6906      2.5200      0.0162      7.8763   -999.2500   -999.2500
  1098.0000      7.6894      2.5114      0.0258      8.3998   -999.2500   -999.2500
  1098.1000      7.6894      2.5023      0.0058      8.9543   -999.2500   -999.2500
  1098.2000      7.6894      2.4965      0.0182      9.3055   -999.2500   -999.2500
  1098.3000      7.6900      2.5003      0.0382      9.0740   -999.2500   -999.2500
  1098.4000      7.6900      2.5072      0.0292      8.6560   -999.2500   -999.2500
  1098.5000      7.6982      2.5070      0.0501      8.6650   -999.2500   -999.2500
  1098.6000      7.6982      2.4987      0.0181      9.1672   -999.2500   -999.2500
  1098.7000      7.6982      2.4872      0.0443      9.8690   -999.2500   -999.2500
  1098.8000      7.6494      2.4775     -0.0318     10.4549   -999.2500   -999.2500
  1098.9000      7.6494      2.4767     -0.0087     10.5058   -999.2500   -999.2500
  1099.0000      7.6355      2.4849      0.0197     10.0075   -999.2500   -999.2500
  1099.1000      7.6355      2.4974      0.0508      9.2463   -999.2500   -999.2500
  1099.2000      7.6355      2.5141     -0.0059      8.2346   -999.2500   -999.2500
  1099.3000      7.6348      2.5337      0.0276      7.0502   -999.2500   -999.2500
