~Version Information
VERS.                      2.0: CWLS Log ASCII Standard - VERSION 2.0
WRAP.                       NO: One line per depth step
~Well Information Block
STRT.FT               710.0000: 
STOP.FT              1983.0000: 
STEP.FT                 0.1000: 
NULL.                -999.2500: 
COMP.          Petrogulf Corporation: COMPANY
WELL.           State 16-23R-X: WELL
FLD.           Purgatorie River: FIELD
LOC.           2381' FSL & 2072' FWL: LOCATION
PROV.                 Colorado: PROVINCE
CNTY.               Las Animas: COUNTRY
SRVC.                Patterson: SERVICE COMPANY
DATE.          Mon Aug 08 07:36:34 2005: LOG DATE
UWI.                          : UNIQUE WELL ID
~Curve Information Block
DEPT.FT            0 000 00 00: Depth
DCAL.in                       : CDL Caliper
RHOB.g/cc                     : CDL Bulk Density
RHOC.g/cc                     : CDL Density Correction
DPOR.pu                       : CDL Density Porosity
GR.GAPI                       : Gamma Ray
NPOR.pu                       : Neutron Porosity
~Parameter Information Block
~A  Depth       DCAL        RHOB        RHOC        DPOR         GR         NPOR    
# ...
  1449.2000      7.7426      2.5748      0.0873      4.5586     79.2977     22.7362
  1449.3000      7.7398      2.5667      0.0573      5.0480     79.0609     22.9057
  1449.4000      7.7398      2.5729      0.0358      4.6701     78.2812     23.0489
  1449.5000      7.7350      2.5881      0.0811      3.7541     77.4072     23.0314
  1449.6000      7.7350      2.5954      0.0693      3.3083     77.1625     22.9378
  1449.7000      7.7350      2.5932      0.0316      3.4440     77.9548     22.9387
  1449.8000      7.7271      2.5936      0.0503      3.4172     79.8119     23.0794
  1449.9000      7.7271      2.5996      0.0733      3.0574     80.7489     23.1850
  1450.0000      7.7119      2.6096      0.0561      2.4471     81.0820     23.2335
  1450.1000      7.7119      2.6176      0.0807      1.9607     83.2173     23.3334
  1450.2000      7.7119      2.6048      0.0750      2.7416     85.7699     23.3867
  1450.3000      7.7177      2.5727      0.0337      4.6829     85.8393     23.3378
  1450.4000      7.7177      2.5506      0.0037      6.0244     83.8986     23.3626
  1450.5000      7.7106      2.5496      0.0254      6.0826     83.8364     23.4959
  1450.6000      7.7106      2.5540      0.0383      5.8165     86.9575     23.5205
  1450.7000      7.7106      2.5564      0.0099      5.6697     89.9064     23.5371
  1450.8000      7.7181      2.5654      0.0131      5.1271     90.4185     23.9564
  1450.9000      7.7181      2.5806      0.0164      4.2075     90.2348     24.6853
  1451.0000      7.7365      2.5933      0.0399      3.4338     91.6421     25.1252
  1451.1000      7.7365      2.6049      0.0338      2.7314     93.2601     25.2002
  1451.2000      7.7365      2.6144      0.0709      2.1593     93.1757     25.4538
  1451.3000      7.7496      2.6115      0.0395      2.3361     92.8194     25.8138
  1451.4000      7.7496      2.6013      0.0270      2.9537     94.4135     25.6861
  1451.5000      7.7340      2.5953      0.0393      3.3163     99.0931     25.1450
  1451.6000      7.7340      2.5882      0.0660      3.7456    105.7399     24.7066
  1451.7000      7.7340      2.5756      0.0216      4.5077    110.5332     24.4824
  1451.8000      7.7196      2.5704      0.0401      4.8227    112.7916     24.3518
  1451.9000      7.7196      2.5765      0.0958      4.4564    116.0884     24.2715
  1452.0000      7.7135      2.5840      0.0555      3.9987    122.2870     24.3466
  1452.1000      7.7135      2.5929      0.0530      3.4581    128.0265     24.6327
  1452.2000      7.7135      2.6043      0.1197      2.7682    128.9272     24.9861
  1452.3000      7.7128      2.6157      0.0977      2.0795    126.4393     25.2999
  1452.4000      7.7128      2.6268      0.1381      1.4085    127.0329     25.5313
  1452.5000      7.7384      2.6280      0.1104      1.3330    133.8266     25.5845
  1452.6000      7.7384      2.6078      0.1068      2.5577    143.4774     25.3900
  1452.7000      7.7384      2.5712      0.0545      4.7777    150.5282     25.2358
  1452.8000      7.7319      2.5412      0.0226      6.5968    153.0959     25.4822
  1452.9000      7.7319      2.5325      0.0580      7.1204    153.7925     26.1016
  1453.0000      7.7332      2.5367      0.0573      6.8654    154.9698     26.8694
  1453.1000      7.7332      2.5390      0.0709      6.7250    156.0924     27.4358
  1453.2000      7.7332      2.5294      0.0741      7.3095    157.8102     27.5890
  1453.3000      7.7346      2.5091      0.0267      8.5401    161.8183     27.5072
  1453.4000      7.7346      2.4980     -0.0371      9.2133    166.0725     27.3957
  1453.5000      7.7424      2.5064      0.0303      8.7010    169.1624     27.3302
  1453.6000      7.7424      2.5131      0.0793      8.2973    170.8969     27.4000
  1453.7000      7.7424      2.5024      0.0736      8.9445    169.7556     27.6881
  1453.8000      7.7408      2.4850      0.0279      9.9992    168.0751     28.0903
  1453.9000      7.7408      2.4721      0.0574     10.7831    170.5535     28.3352
  1454.0000      7.7245      2.4614      0.0444     11.4331    177.1637     28.1811
  1454.1000      7.7245      2.4406      0.0367     12.6904    181.6955     27.5881
  1454.2000      7.7245      2.3929      0.0404     15.5840    179.6158     26.8466
  1454.3000      7.7418      2.3146      0.0301     20.3244    174.4297     26.2133
  1454.4000      7.7418      2.2337      0.0056     25.2290    171.0542     25.5999
  1454.5000      7.7023      2.1847      0.0172     28.1987    172.2190     24.9264
  1454.6000      7.7023      2.1782      0.0206     28.5946    176.8560     24.3026
  1454.7000      7.7023      2.2220     -0.0068     25.9412    178.7941     23.7751
  1454.8000      7.6645      2.3227      0.1490     19.8357    173.9251     23.3149
  1454.9000      7.6645      2.4479      0.3647     12.2468    166.7010     23.0991
  1455.0000      7.7891      2.5410      0.5508      6.6067    163.2985     23.1962
  1455.1000      7.7891      2.5727      0.5318      4.6868    165.1389     23.2929
  1455.2000      7.7891      2.5508      0.5008      6.0144    169.0951     23.2516
  1455.3000      8.0717      2.4999      0.3710      9.0979    170.5520     23.0919
  1455.4000      8.0717      2.4516      0.2421     12.0236    168.7442     22.9388
  1455.5000      8.1831      2.4293      0.1284     13.3762    167.1193     23.0784
  1455.6000      8.1831      2.4328      0.1453     13.1621    167.4430     23.5881
  1455.7000      8.1831      2.4486      0.1396     12.2082    167.4133     24.3519
  1455.8000      8.2117      2.4627      0.1914     11.3538    164.9933     25.2280
  1455.9000      8.2117      2.4611      0.1343     11.4507    163.1345     26.0300
  1456.0000      8.1638      2.4437      0.0776     12.5045    166.0447     26.6124
  1456.1000      8.1638      2.4282      0.0435     13.4417    172.5805     26.9795
  1456.2000      8.1638      2.4231      0.1003     13.7522    177.2557     27.3235
  1456.3000      7.9047      2.4259      0.0563     13.5845    177.9488     27.9136
  1456.4000      7.9047      2.4475      0.0002     12.2755    177.2189     28.6496
  1456.5000      7.8089      2.4875      0.0721      9.8482    177.0164     29.1131
  1456.6000      7.8089      2.5170      0.0859      8.0605    178.4902     29.2726
  1456.7000      7.8089      2.5228      0.0534      7.7099    181.8228     29.4778
  1456.8000      7.7614      2.5188      0.1123      7.9530    184.0863     29.6340
  1456.9000      7.7614      2.5172      0.0565      8.0512    182.9011     29.5529
  1457.0000      7.7680      2.5248      0.0426      7.5906    179.7079     29.4762
  1457.1000      7.7680      2.5410      0.0564      6.6075    176.4261     29.6419
  1457.2000      7.7680      2.5578      0.0502      5.5860    173.9897     30.0358
  1457.3000      7.7452      2.5685      0.0760      4.9410    173.8886     30.2752
  1457.4000      7.7452      2.5682      0.0617      4.9557    174.2353     29.8977
  1457.5000      7.7426      2.5613      0.0634      5.3759    171.7238     29.1618
  1457.6000      7.7426      2.5649      0.0160      5.1568    168.7914     28.7510
  1457.7000      7.7426      2.5837      0.1014      4.0191    169.3085     28.9350
  1457.8000      7.7485      2.5939      0.0923      3.3989    170.9323     29.3445
  1457.9000      7.7485      2.5811      0.0779      4.1751    170.6407     29.4194
  1458.0000      7.7554      2.5586      0.0543      5.5368    169.2561     29.1539
  1458.1000      7.7554      2.5425      0.0505      6.5125    168.5035     29.0001
  1458.2000      7.7554      2.5336      0.0495      7.0545    168.5054     28.9998
  1458.3000      7.7626      2.5236      0.0601      7.6634    168.5321     28.9110
  1458.4000      7.7626      2.5117      0.0052      8.3822    168.6928     28.7800
  1458.5000      7.7616      2.5080      0.0254      8.6068    167.6573     28.7886
  1458.6000      7.7616      2.5118      0.0305      8.3784    166.3075     29.0804
  1458.7000      7.7616      2.5115      0.0418      8.3957    166.6582     29.5154
