~Version Information
VERS.                      2.0: CWLS Log ASCII Standard - VERSION 2.0
WRAP.                       NO: One line per depth step
~Well Information Block
STRT.FT                -5.5000: 
STOP.FT              2262.7500: 
STEP.FT                 0.2500: 
NULL.                -999.2500: 
COMP.          Pioneer Natural Resources: COMPANY
WELL.             Baa Baa 34-1: WELL
FLD.           Purgatorie River: FIELD
LOC.           617' FSL & 2289' FEL------: LOCATION
STAT.                       CO: State
CNTY.               Las Animas: COUNTY
CTRY. USA : Country
SECT. 1 : Section
TOWN. 33S : Township
RANG. 67W : Range
SRVC.          Patterson Wireline: SERVICE COMPANY
DATE.          Mon Sep 12 14:08:52 2005: LOG DATE
API.           05 071 08502 00: UNIQUE WELL ID
~Curve Information Block
DEPT.FT            0 000 00 00: Depth
LTEN.lb                       : Surface Line Tension
CCL.                          : Casing Collar Locator
TT3.usec                      : CBL 3' Travel Time
AMP3.mV                       : CBL 3' Amplitude
GR.GAPI                       : Gamma Ray
~Parameter Information Block
~A  Depth       LTEN        CCL         TT3         AMP3         GR     
# ...
   302.5000  -4535.8604      0.0000    837.1751      8.3282     43.1647
   302.7500  -4535.8604      0.0000    839.2557      8.4535     44.0891
   303.0000  -4534.5283      0.0000    841.2253      8.5649     47.2308
   303.2500  -4531.8638      0.0000    840.2274      8.6605     51.3283
   303.5000  -4530.5317      0.0000    835.5423      8.7348     54.7561
   303.7500  -4539.8569      0.0000    829.1933      8.7832     56.9107
   304.0000  -4530.5317      0.0000    824.5970      8.8080     58.2726
   304.2500  -4535.8604      0.0000    824.3885      8.8207     59.4132
   304.5000  -4534.5283      0.0000    828.8470      8.8384     60.2903
   304.7500  -4531.8638      0.0000    835.8217      8.8727     60.5162
   305.0000  -4539.8569      0.0000    842.0820      8.9226     60.0623
   305.2500  -4535.8604      0.0000    845.0942      8.9769     59.4585
   305.5000  -4533.1958      0.0000    844.1638      9.0266     59.3358
   305.7500  -4534.5283      0.0000    840.5951      9.0704     59.8725
   306.0000  -4538.5244      0.0000    836.8008      9.1109     60.6999
   306.2500  -4534.5283      0.0000    834.5558      9.1463     61.2789
   306.5000  -4530.5317      0.0000    833.8300      9.1695     61.2863
   306.7500  -4534.5283      0.0000    833.7223      9.1731     60.6731
   307.0000  -4537.1924      0.0000    834.3136      9.1555     59.5162
   307.2500  -4538.5244      0.0000    836.6718      9.1230     57.9054
   307.5000  -4537.1924      0.0000    841.0602      9.0879     55.9907
   307.7500  -4534.5283      0.0000    846.1516      9.0614     54.1428
   308.0000  -4538.5244      0.0000    850.2531      9.0467     52.9006
   308.2500  -4535.8604      0.0000    852.6684      9.0380     52.5077
   308.5000  -4533.1958      0.0000    853.7320      9.0263     52.4588
   308.7500  -4537.1924      0.0000    854.0797      9.0068     51.6813
   309.0000  -4538.5244      0.0000    854.1511      8.9779     49.3445
   309.2500  -4535.8604      0.0000    854.1330      8.9363     45.5716
   309.5000  -4539.8569      0.0000    854.0478      8.8745     41.4687
   309.7500  -4534.5283      0.0000    853.7834      8.7866     38.5841
   310.0000  -4533.1958      0.0000    853.0619      8.6724     38.1874
   310.2500  -4535.8604      0.0000    851.5508      8.5368     40.5993
   310.5000  -4537.1924      0.0000    849.2847      8.3857     45.0742
   310.7500  -4533.1958      0.0000    847.0356      8.2257     50.6203
   311.0000  -4534.5283      0.0000    845.8478      8.0637     56.9681
   311.2500  -4534.5283      0.0000    845.7018      7.9049     64.4577
   311.5000  -4533.1958      0.0000    844.6904      7.7488     73.0811
   311.7500  -4541.1890      0.0000    839.9958      7.5885     81.9400
   312.0000  -4538.5244      0.0000    830.0901      7.4149     89.5967
   312.2500  -4533.1958      0.0000    816.2262      7.2220     94.9159
   312.5000  -4538.5244      0.0000    801.8212      7.0115     97.8201
   312.7500  -4538.5244      0.0000    790.2098      6.7965     99.3625
   313.0000  -4535.8604      0.0000    782.7739      6.6010    100.8039
   313.2500  -4535.8604      0.0000    778.9064      6.4493    102.3744
   313.5000  -4534.5283      0.0000    777.2421      6.3520    103.0582
   313.7500  -4537.1924      0.0000    776.6971      6.3009    101.8777
   314.0000  -4534.5283      0.0000    776.6972      6.2766     99.2047
   314.2500  -4537.1924      0.0000    776.9752      6.2580     96.3144
   314.5000  -4534.5283      0.0000    777.3819      6.2288     93.9221
   314.7500  -4534.5283      0.0000    777.8234      6.1812     92.0347
   315.0000  -4535.8604      0.0000    778.2389      6.1160     91.0817
   315.2500  -4534.5283      0.0000    778.5734      6.0400     91.9852
   315.5000  -4533.1958      0.0000    778.7848      5.9604     94.6712
   315.7500  -4538.5244      0.0000    778.8873      5.8810     97.4212
   316.0000  -4534.5283      0.0000    778.9492      5.8054     98.5142
   316.2500  -4533.1958      0.0000    779.0215      5.7422     98.0871
   316.5000  -4533.1958      0.0000    779.0797      5.7086     97.5340
   316.7500  -4533.1958      0.0000    779.0518      5.7254     97.3792
   317.0000  -4530.5317      0.0000    778.8981      5.8064     96.6618
   317.2500  -4537.1924      0.0000    778.7464      5.9476     94.3218
   317.5000  -4538.5244      0.0000    779.0735      6.1262     90.4437
   317.7500  -4527.8677      0.0000    780.8162      6.3098     86.1086
   318.0000  -4529.1997      0.0000    784.9304      6.4717     82.4265
   318.2500  -4537.1924      0.0000    791.0342      6.6003     79.7456
   318.5000  -4535.8604      0.0000    796.2755      6.7018     77.7568
   318.7500  -4537.1924      0.0000    796.7676      6.7959     76.3163
   319.0000  -4538.5244      0.0000    791.3538      6.9062     75.8406
   319.2500  -4529.1997      0.0000    783.2734      7.0516     76.8125
   319.5000  -4533.1958      0.0000    777.1010      7.2432     79.3067
   319.7500  -4531.8638      0.0000    774.7360      7.4802     83.0314
   320.0000  -4534.5283      0.0000    775.0002      7.7402     87.1312
   320.2500  -4531.8638      0.0000    775.9783      7.9751     89.9957
   320.5000  -4537.1924      0.0000    776.7034      8.1266     90.1936
   320.7500  -4533.1958      0.0000    777.2879      8.1601     87.8366
   321.0000  -4531.8638      0.0000    778.6743      8.0852     84.3921
   321.2500  -4538.5244      0.0000    782.7141      7.9484     81.1370
   321.5000  -4537.1924      0.0000    791.8298      7.8057     78.3869
   321.7500  -4534.5283      0.0000    807.0211      7.6982     76.2142
   322.0000  -4534.5283      0.0000    824.9828      7.6381     75.2069
   322.2500  -4533.1958      0.0000    838.1672      7.6063     76.0944
   322.5000  -4535.8604      0.0000    839.9273      7.5651     78.8709
   322.7500  -4534.5283      0.0000    830.0526      7.4829     82.5728
   323.0000  -4533.1958      0.0000    814.3469      7.3548     85.8824
   323.2500  -4530.5317      0.0000    799.3455      7.2028     87.9737
   323.5000  -4535.8604      0.0000    788.4124      7.0576     88.9546
   323.7500  -4535.8604      0.0000    781.6489      6.9345     89.5330
   324.0000  -4531.8638      0.0000    777.3196      6.8181     90.1035
   324.2500  -4530.5317      0.0000    772.7799      6.6655     90.3177
   324.5000  -4537.1924      0.0000    765.1082      6.4411     89.7771
   324.7500  -4531.8638      0.0000    753.0162      6.1628     88.9739
   325.0000  -4535.8604      0.0000    740.3107      5.8989     89.0205
   325.2500  -4533.1958      0.0000    737.8887      5.6877     90.2002
   325.5000  -4531.8638      0.0000    759.8000      5.4830     91.2109
   325.7500  -4537.1924      0.0000    813.7436      5.2247     90.4960
   326.0000  -4531.8638      0.0000    893.0608      4.9401     88.1510
   326.2500  -4535.8604      0.0000    978.0524      4.7239     85.8097
   326.5000  -4533.1958      0.0000   1047.1903      4.6321     84.8392
   326.7500  -4533.1958     -2.0000   1088.9036      4.6396     85.4252
   327.0000  -4531.8638      0.0000   1103.0724      4.6902     87.1117
   327.2500  -4539.8569      0.0000   1093.1089      4.7695     89.2950
   327.5000  -4534.5283      0.0000   1061.5490      4.9378     91.1604
   327.7500  -4531.8638      0.0000   1015.2502      5.2827     91.8044
   328.0000  -4534.5283      0.0000    969.4859      5.8016     90.6788
   328.2500  -4537.1924      0.0000    939.4459      6.3499     87.8999
   328.5000  -4533.1958      0.0000    927.0233      6.7563     84.1869
   328.7500  -4534.5283      0.0000    920.2474      6.9735     80.5084
   329.0000  -4535.8604      0.0000    906.3048      7.0720     77.5920
   329.2500  -4535.8604      0.0000    882.5702      7.1252     75.6941
   329.5000  -4531.8638      0.0000    855.2726      7.1548     74.9061
   329.7500  -4537.1924      0.0000    831.1866      7.1577     75.5388
   330.0000  -4530.5317      0.0000    813.1666      7.1355     77.8157
   330.2500  -4533.1958      0.0000    801.7913      7.0965     81.0719
