~Version Information
VERS.                      2.0: CWLS Log ASCII Standard - VERSION 2.0
WRAP.                       NO: One line per depth step
~Well Information Block
STRT.FT               650.0000: 
STOP.FT              2127.7000: 
STEP.FT                 0.1000: 
NULL.                -999.2500: 
COMP.          Pioneer Natural Resources: COMPANY
WELL.          Kennington 41-26: WELL
FLD.           Purgatoire River: FIELD
LOC.           940' FNL & 1008' FEL--: LOCATION
CNTY.               Las Animas: COUNTY
SRVC.                Patterson: SERVICE COMPANY
DATE.          Wed Mar 29 11:30:50 2006: LOG DATE
UWI.           05 071 08679 00: UNIQUE WELL ID
STAT.                 Colorado: STATE
~Curve Information Block
DEPT.FT            0 000 00 00: Depth
DCAL.in                       : CDL Caliper
RHOB.g/cc                     : CDL Bulk Density
RHOC.g/cc                     : CDL Density Correction
DPOR.pu                       : CDL Density Porosity
NPOR.pu                       : Neutron Porosity
GR.GAPI                       : Gamma Ray
~Parameter Information Block
~A  Depth       DCAL        RHOB        RHOC        DPOR        NPOR         GR     
# ...
  1715.6000      8.0034      2.3958     -0.0395     15.4066     16.0127     63.3865
  1715.7000      8.0034      2.4048     -0.0555     14.8580     15.5757     60.5570
  1715.8000      8.0138      2.4327      0.0534     13.1671     15.0546     58.8740
  1715.9000      8.0138      2.4455      0.0590     12.3945     14.5088     60.2724
  1716.0000      8.0205      2.4277      0.0107     13.4709     14.0860     63.2734
  1716.1000      8.0205      2.4012      0.0283     15.0790     13.7624     61.7639
  1716.2000      8.0205      2.3846      0.0258     16.0819     13.3437     53.7697
  1716.3000      8.0211      2.3801      0.0144     16.3570     12.8096     45.8740
  1716.4000      8.0211      2.3807      0.0224     16.3212     12.4409     42.8294
  1716.5000      8.0197      2.3729      0.0316     16.7935     12.3191     43.0482
  1716.6000      8.0197      2.3556      0.0326     17.8398     12.1457     43.7733
  1716.7000      8.0197      2.3455      0.0191     18.4549     11.6878     42.9795
  1716.8000      8.0196      2.3502      0.0257     18.1727     11.0344     40.1653
  1716.9000      8.0196      2.3611      0.0320     17.5077     10.5739     36.7266
  1717.0000      8.0195      2.3694      0.0665     17.0085     10.5950     33.7110
  1717.1000      8.0195      2.3709      0.0800     16.9177     10.8752     31.4709
  1717.2000      8.0195      2.3636      0.0688     17.3579     10.9415     30.3426
  1717.3000      8.0195      2.3509      0.0134     18.1248     10.5900     30.1210
  1717.4000      8.0195      2.3429      0.0547     18.6114     10.1884     30.7081
  1717.5000      8.0216      2.3407      0.0433     18.7455     10.2040     32.1993
  1717.6000      8.0216      2.3362      0.0338     19.0159     10.5129     33.0489
  1717.7000      8.0216      2.3270      0.0162     19.5782     10.6037     31.8588
  1717.8000      8.0244      2.3197      0.0234     20.0188     10.3728     30.2251
  1717.9000      8.0244      2.3244      0.0380     19.7348     10.1516     30.0175
  1718.0000      8.0247      2.3393      0.0744     18.8274     10.0892     30.8051
  1718.1000      8.0247      2.3423      0.1075     18.6515     10.0760     31.7985
  1718.2000      8.0247      2.3228      0.0400     19.8294     10.0041     32.1559
  1718.3000      8.0220      2.3047     -0.0156     20.9261      9.9334     30.9119
  1718.4000      8.0220      2.3044      0.0404     20.9473      9.9311     29.9800
  1718.5000      8.0195      2.3126      0.0312     20.4482     10.0282     31.3745
  1718.6000      8.0195      2.3229      0.0161     19.8255     10.1950     32.9094
  1718.7000      8.0195      2.3317      0.0474     19.2889     10.2614     33.1861
  1718.8000      8.0198      2.3300      0.0298     19.3935     10.0572     34.4754
  1718.9000      8.0198      2.3192      0.0349     20.0494      9.6733     36.7371
  1719.0000      8.0208      2.3148     -0.0080     20.3151      9.4032     36.3000
  1719.1000      8.0208      2.3279      0.0186     19.5192      9.4186     33.2938
  1719.2000      8.0208      2.3488      0.0869     18.2544      9.6463     31.4803
  1719.3000      8.0214      2.3552      0.1186     17.8689      9.7821     32.0113
  1719.4000      8.0214      2.3464      0.0108     18.3984      9.6417     32.2127
  1719.5000      8.0230      2.3423      0.0337     18.6480      9.3690     30.5340
  1719.6000      8.0230      2.3453      0.0411     18.4688      9.1235     28.7322
  1719.7000      8.0230      2.3477      0.0389     18.3201      8.9441     27.6036
  1719.8000      8.0236      2.3529      0.0290     18.0032      8.7866     26.8051
  1719.9000      8.0236      2.3595      0.0646     17.6090      8.7097     25.7400
  1720.0000      8.0215      2.3591      0.0786     17.6281      8.7509     24.2460
  1720.1000      8.0215      2.3581      0.0365     17.6894      8.7689     35.4647
  1720.2000      8.0215      2.3664      0.0521     17.1862      8.6765     36.9262
  1720.3000      8.0190      2.3738      0.0897     16.7368      8.5702     38.2272
  1720.4000      8.0190      2.3713      0.0529     16.8914      8.6433     36.8090
  1720.5000      8.0194      2.3668      0.0651     17.1626      8.9489     33.9636
  1720.6000      8.0194      2.3619      0.0697     17.4578      9.2830     32.0721
  1720.7000      8.0194      2.3544      0.0312     17.9146      9.3779     30.8879
  1720.8000      8.0210      2.3511      0.0437     18.1166      9.1084     29.8433
  1720.9000      8.0210      2.3561      0.0013     17.8125      8.6631     28.8898
  1721.0000      8.0218      2.3609      0.0913     17.5217      8.4365     28.5384
  1721.1000      8.0218      2.3555      0.0248     17.8492      8.5270     29.2983
  1721.2000      8.0218      2.3503      0.0181     18.1635      8.8013     30.2316
  1721.3000      8.0232      2.3560      0.0146     17.8181      9.1445     30.7531
  1721.4000      8.0232      2.3675      0.0268     17.1238      9.4058     31.2832
  1721.5000      8.0234      2.3835      0.0169     16.1537      9.6118     31.7876
  1721.6000      8.0234      2.4037      0.0474     14.9295      9.8082     33.2472
  1721.7000      8.0234      2.4110      0.0746     14.4824      9.8803     37.9338
  1721.8000      8.0220      2.3966      0.0351     15.3584      9.8562     44.2341
  1721.9000      8.0220      2.3794      0.0389     16.3977     10.0307     47.2663
  1722.0000      8.0216      2.3847      0.0006     16.0760     10.4372     46.5001
  1722.1000      8.0216      2.4153      0.0561     14.2232     10.6796     44.0933
  1722.2000      8.0216      2.4417      0.1144     12.6257     10.5946     39.6532
  1722.3000      8.0230      2.4413      0.0613     12.6469     10.3587     35.0737
  1722.4000      8.0230      2.4290      0.0575     13.3970     10.1977     34.0483
  1722.5000      8.0247      2.4288      0.0516     13.4038     10.2734     36.0207
  1722.6000      8.0247      2.4470      0.0799     12.3011     10.4188     39.2419
  1722.7000      8.0247      2.4690      0.0852     10.9717     10.3729     45.6355
  1722.8000      8.0256      2.4766      0.0734     10.5070     10.3328     55.3710
  1722.9000      8.0256      2.4676      0.0644     11.0536     10.5751     61.6182
  1723.0000      8.0245      2.4595      0.0246     11.5434     10.8629     59.5074
  1723.1000      8.0245      2.4667      0.0370     11.1091     10.8850     53.9867
  1723.2000      8.0245      2.4763      0.0576     10.5267     10.7741     51.7889
  1723.3000      8.0220      2.4736      0.0409     10.6881     10.8392     53.0055
  1723.4000      8.0220      2.4614      0.0558     11.4279     11.0985     54.2457
  1723.5000      8.0201      2.4418      0.0462     12.6201     11.3012     53.6633
  1723.6000      8.0201      2.4194      0.0311     13.9772     11.3020     52.1639
  1723.7000      8.0201      2.4031      0.0456     14.9649     11.2746     50.3153
  1723.8000      8.0197      2.3867      0.0537     15.9591     11.4506     48.1216
  1723.9000      8.0197      2.3593      0.0402     17.6180     11.8742     48.2545
  1724.0000      8.0206      2.3300     -0.0103     19.3919     12.2111     50.9789
  1724.1000      8.0206      2.3179      0.0136     20.1288     12.0895     52.2772
  1724.2000      8.0206      2.3270      0.0218     19.5772     11.7561     50.3830
  1724.3000      8.0201      2.3451      0.0542     18.4809     11.5148     47.9583
  1724.4000      8.0201      2.3603      0.0462     17.5584     11.2882     47.4911
  1724.5000      8.0188      2.3733      0.0374     16.7700     11.0726     48.5484
  1724.6000      8.0188      2.3826      0.0687     16.2065     11.1008     49.9518
  1724.7000      8.0188      2.3833      0.0864     16.1608     11.4991     53.8262
  1724.8000      8.0151      2.3901      0.0488     15.7494     11.8668     61.3430
  1724.9000      8.0151      2.4136      0.1071     14.3279     11.7512     66.9016
  1725.0000      8.0071      2.4331      0.1315     13.1461     11.3580     67.2688
  1725.1000      8.0071      2.4359      0.0644     12.9764     11.0720     64.4841
