~Version Information
VERS.                      2.0: CWLS Log ASCII Standard - VERSION 2.0
WRAP.                       NO: One line per depth step
~Well Information Block
STRT.FT               370.0000: 
STOP.FT              1282.5000: 
STEP.FT                 0.1000: 
NULL.                -999.2500: 
COMP.          Pioneer Natural Resources: COMPANY
WELL.          Irish Eyes 33-21: WELL
FLD.           Purgatoire River: FIELD
LOC.           1379' FSL & 2544' FEL: LOCATION
PROV.                 Colorado: PROVINCE
CNTY.               Las Animas: COUNTRY
SRVC.                Patterson: SERVICE COMPANY
DATE.          Mon Jan 16 13:31:01 2006: LOG DATE
UWI.           05 071 08658 00: UNIQUE WELL ID
~Curve Information Block
DEPT.FT            0 000 00 00: Depth
DCAL.in                       : CDL Caliper
RHOB.g/cc                     : CDL Bulk Density
RHOC.g/cc                     : CDL Density Correction
DPOR.pu                       : CDL Density Porosity
GR.GAPI                       : Gamma Ray
NPOR.pu                       : Neutron Porosity
~Parameter Information Block
~A  Depth       DCAL        RHOB        RHOC        DPOR         GR         NPOR    
# ...
  1032.4000      7.8870      2.5814      0.1130      4.1556     54.8311     20.9835
  1032.5000      7.8972      2.5753      0.0897      4.5277     57.9310     20.7657
  1032.6000      7.8972      2.5577      0.0477      5.5954     61.1608     20.3822
  1032.7000      7.8972      2.5494      0.0501      6.0993     61.8270     20.1652
  1032.8000      7.8932      2.5523      0.0571      5.9182     58.2682     20.1327
  1032.9000      7.8932      2.5565      0.0444      5.6644     54.6786     20.2201
  1033.0000      7.8866      2.5608      0.0506      5.4060     53.8181     20.7963
  1033.1000      7.8866      2.5651      0.0584      5.1433     53.8178     21.8669
  1033.2000      7.8866      2.5685      0.1002      4.9409     53.4497     22.3812
  1033.3000      7.8774      2.5757      0.0790      4.5002     53.7707     21.8457
  1033.4000      7.8774      2.5803      0.1123      4.2238     55.6610     21.0976
  1033.5000      7.8723      2.5677      0.0431      4.9884     56.2887     20.9300
  1033.6000      7.8723      2.5496      0.0332      6.0844     52.6533     21.4632
  1033.7000      7.8723      2.5465      0.0313      6.2738     47.6547     22.2110
  1033.8000      7.8773      2.5585      0.0653      5.5472     48.2610     22.4924
  1033.9000      7.8773      2.5793      0.0089      4.2837     55.9830     22.0303
  1034.0000      7.8935      2.6031      0.0800      2.8454     63.2821     21.1461
  1034.1000      7.8935      2.6122      0.0989      2.2885     63.1453     20.3946
  1034.2000      7.8935      2.6007      0.0787      2.9897     59.3104     20.1677
  1034.3000      7.9029      2.5837      0.0998      4.0208     57.7091     20.5036
  1034.4000      7.9029      2.5742      0.0496      4.5945     55.7983     20.8179
  1034.5000      7.8946      2.5713      0.0568      4.7670     52.0360     20.5579
  1034.6000      7.8946      2.5691      0.0725      4.9049     50.1473     20.0771
  1034.7000      7.8946      2.5669      0.0486      5.0375     51.1204     19.7794
  1034.8000      7.8812      2.5639      0.1049      5.2161     52.5477     19.6681
  1034.9000      7.8812      2.5559      0.0871      5.7044     54.3612     19.9199
  1035.0000      7.8903      2.5528      0.0634      5.8920     58.6245     20.5904
  1035.1000      7.8903      2.5719      0.0843      4.7338     63.7266     21.3588
  1035.2000      7.8903      2.6033      0.1674      2.8299     65.4994     21.6619
  1035.3000      7.8708      2.6231      0.1149      1.6305     62.4778     21.3071
  1035.4000      7.8708      2.6287      0.0992      1.2897     56.8127     20.8888
  1035.5000      7.8581      2.6258      0.1062      1.4689     53.0937     20.8541
  1035.6000      7.8581      2.6226      0.0307      1.6614     55.2028     21.2020
  1035.7000      7.8581      2.6258      0.1177      1.4672     61.6541     21.9303
  1035.8000      7.8632      2.6150      0.1190      2.1195     69.0969     22.7154
  1035.9000      7.8632      2.5821      0.0952      4.1179     76.2015     22.8456
  1036.0000      7.8805      2.5559      0.0777      5.7058     80.0818     22.4963
  1036.1000      7.8805      2.5507      0.0884      6.0163     77.6139     22.5397
  1036.2000      7.8805      2.5503      0.0705      6.0452     72.2830     23.1715
  1036.3000      7.8632      2.5459      0.0575      6.3090     67.9364     23.7513
  1036.4000      7.8632      2.5478      0.0622      6.1950     63.0859     23.8878
  1036.5000      7.8651      2.5557      0.0568      5.7148     59.7852     23.6987
  1036.6000      7.8651      2.5556      0.0728      5.7226     62.0333     23.1633
  1036.7000      7.8651      2.5491      0.0174      6.1149     68.1288     22.4836
  1036.8000      7.9022      2.5503      0.0720      6.0422     70.3628     22.3273
  1036.9000      7.9022      2.5595      0.0987      5.4870     66.6428     22.9434
  1037.0000      7.9071      2.5720      0.0773      4.7244     65.5761     23.4558
  1037.1000      7.9071      2.5787      0.1197      4.3234     72.9393     23.2352
  1037.2000      7.9071      2.5641      0.1132      5.2069     81.6723     22.9570
  1037.3000      7.8812      2.5378      0.0811      6.7979     81.9025     23.0361
  1037.4000      7.8812      2.5241      0.0752      7.6325     75.2498     23.2039
  1037.5000      7.8762      2.5212      0.0896      7.8068     70.8577     23.6100
  1037.6000      7.8762      2.5187     -0.0145      7.9591     72.0894     24.1165
  1037.7000      7.8762      2.5201      0.0475      7.8700     74.5160     23.8571
  1037.8000      7.8618      2.5235      0.0496      7.6696     74.3749     23.1634
  1037.9000      7.8618      2.5300      0.0245      7.2705     72.0223     23.1000
  1038.0000      7.9039      2.5443      0.0640      6.4036     69.0526     23.4771
  1038.1000      7.9039      2.5554      0.0668      5.7330     65.5953     23.4228
  1038.2000      7.9039      2.5534      0.0738      5.8562     59.9652     23.1168
  1038.3000      7.9241      2.5381      0.0598      6.7822     52.7651     23.1637
  1038.4000      7.9241      2.5172      0.0278      8.0464     48.9328     23.0360
  1038.5000      7.9311      2.5072      0.0173      8.6535     51.8284     22.2100
  1038.6000      7.9311      2.5214      0.0020      7.7955     58.4801     21.3923
  1038.7000      7.9311      2.5563      0.0369      5.6785     61.3068     21.0107
  1038.8000      7.9546      2.5893      0.0913      3.6788     57.6789     20.7178
  1038.9000      7.9546      2.5981      0.1116      3.1431     53.7315     20.4342
  1039.0000      7.9252      2.5867      0.0871      3.8337     52.1654     20.2944
  1039.1000      7.9252      2.5716      0.0865      4.7529     51.1326     19.9745
  1039.2000      7.9252      2.5576      0.0773      5.6004     49.9698     19.3230
  1039.3000      7.8981      2.5500      0.0514      6.0634     48.2612     18.6942
  1039.4000      7.8981      2.5548      0.0543      5.7726     48.0240     18.2984
  1039.5000      7.8894      2.5545      0.1326      5.7886     51.7098     18.1838
  1039.6000      7.8894      2.5353     -0.0055      6.9520     54.8871     18.4910
  1039.7000      7.8894      2.5206      0.0099      7.8446     52.7580     19.2428
  1039.8000      7.8931      2.5319      0.0329      7.1562     48.3100     19.7829
  1039.9000      7.8931      2.5677      0.0751      4.9876     47.5513     19.5308
  1040.0000      7.8788      2.6148      0.1005      2.1345     51.5157     19.0683
  1040.1000      7.8788      2.6531      0.1220     -0.1891     56.8033     19.1391
  1040.2000      7.8788      2.6733      0.0852     -1.4128     59.7955     19.6425
  1040.3000      7.8731      2.6777      0.1634     -1.6809     58.5374     17.0342
  1040.4000      7.8731      2.6663      0.1252     -0.9897     54.0845     17.0113
  1040.5000      7.8817      2.6474      0.0556      0.1575     48.5684     16.7163
  1040.6000      7.8817      2.6335      0.0425      0.9981     44.4443     16.6491
  1040.7000      7.8817      2.6257      0.0594      1.4747     44.4151     17.0087
  1040.8000      7.8858      2.6116      0.0652      2.3259     48.1780     17.4032
  1040.9000      7.8858      2.5834      0.0139      4.0340     53.3505     17.7894
  1041.0000      7.8868      2.5545     -0.0124      5.7871     57.3572     18.4720
  1041.1000      7.8868      2.5471     -0.0514      6.2381     58.5085     18.5841
  1041.2000      7.8868      2.5641      0.0278      5.2041     57.5143     17.6765
  1041.3000      7.8759      2.5819      0.0794      4.1264     56.6971     17.1162
  1041.4000      7.8759      2.5893      0.0336      3.6765     56.3117     17.5117
  1041.5000      7.8562      2.5953      0.0647      3.3140     55.4109     18.3788
  1041.6000      7.8562      2.6021      0.1014      2.9018     54.8797     19.1292
  1041.7000      7.8562      2.6031      0.1510      2.8428     55.8469     19.5025
  1041.8000      7.8583      2.5969      0.0962      3.2187     57.6509     19.5739
  1041.9000      7.8583      2.5947      0.1208      3.3514     61.0131     19.8505
