~Version Information
VERS.                      2.0: CWLS Log ASCII Standard - VERSION 2.0
WRAP.                       NO: One line per depth step
~Well Information Block
STRT.FT               260.0000: 
STOP.FT               713.2500: 
STEP.FT                 0.2500: 
NULL.                -999.2500: 
COMP.          Pioneer Natural Resources: COMPANY
WELL.           Quintessa 23-7: WELL
FLD.           Purgatoire River: FIELD
LOC.           1964' FSL & 2589' FWL--: LOCATION
PROV.                 Colorado: PROVINCE
CNTY.               Las Animas: COUNTRY
SRVC.                Patterson: SERVICE COMPANY
DATE.          Fri Nov 18 16:07:34 2005: LOG DATE
UWI.           05 071 08558 00: UNIQUE WELL ID
~Curve Information Block
DEPT.FT            0 000 00 00: Depth
SN.Ohm-m                      : IEL Short Normal
SP.mV                         : IEL Spontaneous Potential
DIR.Ohm-m                     : IEL Induction Resistivity
GR.GAPI                       : Gamma Ray
~Parameter Information Block
~A  Depth        SN          SP         DIR          GR     
# ...
   595.0000     24.8937    105.5597     20.8624     88.0080
   595.2500     24.7242    105.6420     20.8889     87.1008
   595.5000     24.6095    105.6749     20.9492     84.2787
   595.7500     24.5470    105.6791     21.0275     81.9140
   596.0000     24.5441    105.6772     21.1081     78.5603
   596.2500     24.6125    105.6916     21.1844     77.0936
   596.5000     24.7529    105.7427     21.2621     76.8541
   596.7500     24.9399    105.8475     21.3492     77.9407
   597.0000     25.1220    106.0195     21.4392     80.5364
   597.2500     25.2384    106.2686     21.5007     82.3761
   597.5000     25.2454    106.6016     21.4854     85.0145
   597.7500     25.1329    107.0232     21.3532     86.8688
   598.0000     24.9203    107.5368     21.0965     90.0847
   598.2500     24.6415    108.1443     20.7477     92.3233
   598.5000     24.3303    108.8467     20.3630     94.8135
   598.7500     24.0147    109.6431     19.9956     95.4238
   599.0000     23.7130    110.5299     19.6758     95.1313
   599.2500     23.4233    111.5000     19.4058     94.8912
   599.5000     23.1124    112.5415     19.1665     95.4632
   599.7500     22.7188    113.6380     18.9267     96.4025
   600.0000     22.1771    114.7682     18.6492     97.7551
   600.2500     21.4515    115.9072     18.2958     98.2022
   600.5000     20.5595    117.0273     17.8349     98.4266
   600.7500     19.5720    118.1001     17.2504     98.9658
   601.0000     18.5901    119.0973     16.5497    101.8494
   601.2500     17.7059    119.9921     15.7655    105.7065
   601.5000     16.9682    120.7602     14.9490    114.0567
   601.7500     16.3719    121.3800     14.1571    120.4617
   602.0000     15.8789    121.8330     13.4389    129.8190
   602.2500     15.4533    122.1038     12.8262    135.5421
   602.5000     15.0840    122.1811     12.3330    143.4373
   602.7500     14.7850    122.0579     11.9608    148.0865
   603.0000     14.5810    121.7324     11.7085    152.8886
   603.2500     14.4913    121.2097     11.5786    153.6323
   603.5000     14.5202    120.5027     11.5782    150.0858
   603.7500     14.6593    119.6326     11.7129    144.8074
   604.0000     14.9022    118.6290     11.9809    133.5374
   604.2500     15.2632    117.5292     12.3720    124.4205
   604.5000     15.7860    116.3757     12.8729    109.8326
   604.7500     16.5266    115.2134     13.4729    100.8643
   605.0000     17.5132    114.0857     14.1626     90.9076
   605.2500     18.7029    113.0303     14.9230     87.1495
   605.5000     19.9672    112.0760     15.7114     84.8447
   605.7500     21.1285    111.2402     16.4603     84.4389
   606.0000     22.0350    110.5277     17.0973     84.3297
   606.2500     22.6253    109.9316     17.5784     84.6138
   606.5000     22.9355    109.4350     17.9076     86.2168
   606.7500     23.0509    109.0145     18.1271     88.1130
   607.0000     23.0490    108.6435     18.2876     90.8280
   607.2500     22.9778    108.2962     18.4270     91.2034
   607.5000     22.8692    107.9507     18.5652     88.2168
   607.7500     22.7636    107.5910     18.7117     84.2451
   608.0000     22.7173    107.2085     18.8756     77.3487
   608.2500     22.7870    106.8018     19.0720     73.2835
   608.5000     23.0030    106.3758     19.3209     69.3289
   608.7500     23.3543    105.9400     19.6389     68.6219
   609.0000     23.7949    105.5070     20.0297     70.7169
   609.2500     24.2633    105.0904     20.4788     73.7408
   609.5000     24.7013    104.7033     20.9549     78.8526
   609.7500     25.0685    104.3573     21.4182     81.4738
   610.0000     25.3526    104.0616     21.8327     83.3173
   610.2500     25.5705    103.8231     22.1817     83.5675
   610.5000     25.7531    103.6460     22.4735     84.2453
   610.7500     25.9204    103.5326     22.7298     85.7324
   611.0000     26.0646    103.4834     22.9632     89.2432
   611.2500     26.1551    103.4974     23.1638     91.3918
   611.5000     26.1624    103.5731     23.3046     92.7591
   611.7500     26.0813    103.7081     23.3603     92.4926
   612.0000     25.9376    103.8995     23.3229     91.8426
   612.2500     25.7745    104.1439     23.2036     92.0022
   612.5000     25.6304    104.4369     23.0259     92.7884
   612.7500     25.5198    104.7732     22.8156     92.7581
   613.0000     25.4266    105.1463     22.5941     90.9279
   613.2500     25.3140    105.5483     22.3738     88.9554
   613.5000     25.1453    105.9702     22.1557     86.5358
   613.7500     24.9012    106.4026     21.9318     85.9379
   614.0000     24.5849    106.8365     21.6930     86.6275
   614.2500     24.2182    107.2642     21.4394     87.8522
   614.5000     23.8328    107.6800     21.1845     90.0551
   614.7500     23.4607    108.0809     20.9486     91.0964
   615.0000     23.1284    108.4669     20.7479     90.7649
   615.2500     22.8547    108.8400     20.5867     88.7893
   615.5000     22.6520    109.2045     20.4598     83.1697
   615.7500     22.5216    109.5647     20.3609     78.2741
   616.0000     22.4475    109.9247     20.2881     71.3020
   616.2500     22.3953    110.2868     20.2391     68.2395
   616.5000     22.3220    110.6513     20.2008     67.2556
   616.7500     22.1912    111.0159     20.1455     68.8362
   617.0000     21.9868    111.3765     20.0443     73.2708
   617.2500     21.7205    111.7273     19.8896     76.7703
   617.5000     21.4267    112.0621     19.7069     81.9907
   617.7500     21.1456    112.3753     19.5412     85.3522
   618.0000     20.9022    112.6626     19.4285     90.0124
   618.2500     20.6987    112.9217     19.3749     92.3270
   618.5000     20.5229    113.1524     19.3558     93.4040
   618.7500     20.3637    113.3570     19.3352     92.3147
   619.0000     20.2205    113.5396     19.2880     88.6686
   619.2500     20.1037    113.7055     19.2118     85.3992
   619.5000     20.0261    113.8609     19.1217     79.8574
   619.7500     19.9908    114.0119     19.0375     76.3041
   620.0000     19.9853    114.1636     18.9741     72.6860
   620.2500     19.9880    114.3199     18.9365     72.0651
   620.5000     19.9777    114.4833     18.9205     73.5721
   620.7500     19.9394    114.6543     18.9140     75.3374
   621.0000     19.8638    114.8320     18.9009     77.3497
   621.2500     19.7476    115.0142     18.8651     77.6238
   621.5000     19.5966    115.1980     18.7952     76.6807
   621.7500     19.4249    115.3803     18.6889     76.0045
   622.0000     19.2500    115.5576     18.5526     76.4327
   622.2500     19.0866    115.7272     18.3984     77.8896
   622.5000     18.9416    115.8866     18.2393     80.9175
   622.7500     18.8137    116.0337     18.0849     82.7524
   623.0000     18.6986    116.1669     17.9408     84.7252
   623.2500     18.5952    116.2848     17.8084     85.9739
   623.5000     18.5072    116.3862     17.6866     89.2864
   623.7500     18.4376    116.4705     17.5746     92.9811
   624.0000     18.3837    116.5370     17.4752     99.7648
   624.2500     18.3388    116.5857     17.3971    103.6593
   624.5000     18.2973    116.6171     17.3518    106.2939
   624.7500     18.2565    116.6325     17.3479    105.4534
   625.0000     18.2172    116.6339     17.3854    101.1693
   625.2500     18.1846    116.6236     17.4533     97.4491
   625.5000     18.1689    116.6045     17.5352     92.8592
   625.7500     18.1807    116.5794     17.6179     91.4235
   626.0000     18.2215    116.5510     17.6993     91.7673
   626.2500     18.2788    116.5214     17.7841     92.7110
   626.5000     18.3307    116.4921     17.8719     93.1478
   626.7500     18.3586    116.4640     17.9491     92.3551
   627.0000     18.3590    116.4373     17.9961     90.7352
   627.2500     18.3442    116.4119     18.0043     90.4859
   627.5000     18.3309    116.3874     17.9855     92.0868
   627.7500     18.3275    116.3632     17.9655     93.8189
   628.0000     18.3312    116.3392     17.9674     95.3875
   628.2500     18.3353    116.3150     18.0008     94.9406
