~Version Information
 VERS.                                  2.0 : CWLS LAS VERSION
 WRAP.                                   NO : WRAPING MODE
 SWARE .                 MController 2.5.0E : SOFTWARE VERSION
~Well Information
 WELL.                      Black Cat 13-23 : WELL
 COMP.     Pioneer Natural Resources USA Inc: COMPANY
 FLD.                      Purgatorie River : FIELD
 LOC.                 NW/SW Sec32 T32S R67W : LOCATION
 DATE.                           7/30-31/05 : DATE(S) LOGGED
 SRVC.       Blanco Geological Services LLC : SERVICE COMPANY
 STAT.                                   CO : STATE
 CNTY.                           Las Animas : COUNTY
 CTRY.                                  USA : COUNTRY
 API.                       05-071-08450-00 : API NUMBER
 STRT.FT                             327.00 : START DEPTH
 STOP.FT                            2850.00 : STOP DEPTH
 STEP.FT                               1.00 : DEPTH INCREMENT
 NULL.                                -9999 : NULL VALUE
~Curve information
 DEPTH.FT                                   :
 ROP.MIN/FT                                 :
 GAS.UNITS                                  :
~ASCII Log data
# ...
      2527.0         0.47        141.4 
      2528.0         0.47         53.8 
      2529.0         0.47         16.6 
      2530.0         0.50          4.7 
      2531.0         0.47          2.0 
      2532.0         0.48          2.6 
      2533.0         0.57          2.3 
      2534.0         0.63          2.2 
      2535.0         0.77          2.7 
      2536.0         0.67          7.2 
      2537.0         0.78         14.8 
      2538.0         0.60         14.9 
      2539.0         0.53         11.8 
      2540.0         0.57          7.3 
      2541.0         0.53          4.6 
      2542.0         0.27          4.5 
      2543.0         0.17          3.4 
      2544.0         0.28          2.5 
      2545.0         0.37          1.8 
      2546.0         0.37          1.5 
      2547.0         0.37          2.0 
      2548.0         0.23          1.4 
      2549.0         0.27          1.9 
      2550.0         0.60          2.4 
      2551.0        12.00         34.6 
      2552.0         0.47          0.8 
      2553.0         0.43          1.2 
      2554.0         0.63          0.9 
      2555.0         1.08          3.3 
      2556.0         0.37          3.0 
      2557.0         0.30          3.2 
      2558.0         0.37          5.5 
      2559.0         0.43          4.9 
      2560.0         0.53          3.7 
      2561.0         0.57          4.4 
      2562.0         0.68          4.4 
      2563.0         0.63          4.7 
      2564.0         0.77          5.2 
      2565.0         0.73          6.4 
      2566.0         0.67         15.7 
      2567.0         0.65         18.1 
      2568.0         0.53         18.0 
      2569.0         0.53         16.6 
      2570.0         0.53         15.4 
      2571.0         0.53         11.5 
      2572.0         0.20          7.0 
      2573.0         0.40          5.7 
      2574.0         0.45          3.6 
      2575.0         0.47          2.7 
      2576.0         0.43          2.9 
      2577.0         0.40          2.7 
      2578.0         0.37          3.2 
      2579.0         0.37          4.9 
      2580.0         0.50          6.1 
      2581.0         8.98         40.8 
      2582.0         0.63          9.4 
      2583.0         0.73          9.7 
      2584.0         0.62          5.7 
      2585.0         0.47          2.5 
      2586.0         0.50          1.6 
      2587.0         0.43          2.5 
      2588.0         0.47          2.4 
      2589.0         0.43          3.2 
      2590.0         0.47          2.7 
      2591.0         0.48          2.3 
      2592.0         0.30          2.7 
      2593.0         0.37          5.3 
      2594.0         0.40         14.8 
      2595.0         0.50         29.9 
      2596.0         0.47         33.4 
      2597.0         0.40         30.9 
      2598.0         0.40         25.1 
      2599.0         0.58         22.0 
      2600.0         0.53         22.0 
      2601.0         0.40         22.9 
      2602.0         0.40         23.8 
      2603.0         0.40         25.6 
      2604.0         0.20         26.5 
      2605.0         0.27         26.8 
      2606.0         0.30         26.4 
      2607.0         0.40         23.5 
      2608.0         0.48         16.0 
      2609.0         0.47          7.8 
      2610.0         0.47          4.5 
      2611.0         6.33         11.3 
      2612.0         0.40         12.9 
      2613.0         0.77         18.8 
      2614.0         0.50         14.4 
      2615.0         0.50          6.1 
      2616.0         0.55          3.4 
      2617.0         0.43          3.1 
      2618.0         0.43          2.7 
      2619.0         0.43          2.8 
      2620.0         0.47          4.1 
      2621.0         0.33         10.5 
      2622.0         0.83         45.8 
      2623.0         1.22         61.0 
      2624.0         0.87         56.9 
      2625.0         0.33         39.6 
      2626.0         0.30         29.5 
      2627.0         0.33         22.8 
      2628.0         0.27         16.2 
      2629.0         0.28         14.5 
      2630.0         0.40         12.0 
      2631.0         0.43          6.8 
      2632.0         0.33          5.6 
      2633.0         0.27          4.9 
      2634.0         0.27          6.1 
      2635.0         0.33          9.9 
      2636.0         0.37         12.2 
      2637.0         0.33         13.2 
      2638.0         0.33         13.1 
      2639.0         0.32         12.9 
      2640.0         0.30         11.6 
      2641.0        10.02         19.2 
      2642.0         0.70         24.6 
      2643.0         0.60         18.5 
      2644.0         0.53          5.4 
      2645.0         0.50          3.2 
      2646.0         0.50          3.2 
      2647.0         0.55          3.1 
      2648.0         0.57          3.0 
      2649.0         0.53          4.1 
      2650.0         0.70          4.3 
      2651.0         0.63          4.2 
      2652.0         0.88          6.6 
      2653.0         0.80         38.7 
      2654.0         1.03         53.7 
      2655.0         0.60         51.6 
      2656.0         0.52         35.4 
      2657.0         0.30         22.5 
      2658.0         0.37         18.8 
      2659.0         0.33         15.6 
      2660.0         0.27         13.3 
      2661.0         0.30          9.2 
      2662.0         0.27          7.3 
      2663.0         0.30          5.1 
      2664.0         0.47          4.3 
      2665.0         0.50          3.2 
      2666.0         0.55          3.7 
      2667.0         0.53          4.2 
      2668.0         0.40          6.2 
      2669.0         0.40          7.2 
      2670.0         0.30          8.5 
      2671.0        11.57         27.7 
      2672.0         0.53         26.3 
      2673.0         0.27         26.8 
      2674.0         0.33         27.3 
      2675.0         0.47         39.1 
      2676.0         0.50         70.3 
      2677.0         0.40         96.4 
      2678.0         0.33        107.5 
      2679.0         0.38        106.3 
      2680.0         0.37         77.4 
      2681.0         0.40         41.8 
      2682.0         0.37         19.3 
      2683.0         0.63         10.2 
      2684.0         0.70          3.9 
      2685.0         0.73          9.9 
      2686.0         0.75         18.3 
      2687.0         0.73         18.3 
      2688.0         0.70         11.5 
      2689.0         0.47          6.1 
      2690.0         0.33          4.6 
      2691.0         0.52          4.4 
      2692.0         0.50          3.7 
      2693.0         0.50          4.3 
      2694.0         0.60          4.0 
      2695.0         1.07          4.7 
      2696.0         0.72          5.0 
      2697.0         0.50          4.4 
      2698.0         0.47          4.7 
      2699.0         0.47          5.6 
      2700.0         0.33          5.7 
      2701.0        12.07         46.2 
      2702.0         0.70          7.9 
      2703.0         0.63          3.1 
      2704.0         0.63          3.2 
      2705.0         0.60          2.9 
      2706.0         0.62          3.1 
      2707.0         0.60          4.0 
      2708.0         0.63          3.9 
      2709.0         0.70          3.6 
      2710.0         0.67          4.1 
      2711.0         0.68          5.1 
      2712.0         0.73          7.7 
      2713.0         0.73         10.0 
      2714.0         0.60          9.5 
      2715.0         0.67          8.3 
      2716.0         0.42          6.5 
      2717.0         0.47          4.7 
      2718.0         0.43          3.4 
      2719.0         0.50          3.2 
      2720.0         0.50          4.1 
      2721.0         0.50          4.1 
      2722.0         0.50          4.0 
      2723.0         0.52          5.9 
      2724.0         0.47          7.8 
      2725.0         0.43          8.9 
      2726.0         0.50         10.9 
