~Version Information
 VERS.                                  2.0 : CWLS LAS VERSION
 WRAP.                                   NO : WRAPING MODE
 SWARE .                 MController 2.5.0N : SOFTWARE VERSION
~Well Information
 WELL.                    Hanginstone 21-27 : WELL
 COMP.   Pioneer Natural Resources USA, Inc : COMPANY
 FLD.                      Purgatoire River : FIELD
 LOC.                NE/NW Sec 27 T32S R67W : LOCATION
 DATE.                         1/05-07/2006 : DATE(S) LOGGED
 SRVC.       BLANCO Geological Services LLC : SERVICE COMPANY
 STAT.                                   CO : STATE
 CNTY.                           Las Animas : COUNTY
 CTRY.                                  USA : COUNTRY
 API.                       05-071-08632-00 : API NUMBER
 STRT.FT                             907.00 : START DEPTH
 STOP.FT                            2970.00 : STOP DEPTH
 STEP.FT                               1.00 : DEPTH INCREMENT
 NULL.                                -9999 : NULL VALUE
~Curve information
 DEPTH.FT                                   :
 ROP.MIN/FT                                 :
 GAS.UNITS                                  :
~ASCII Log data
       907.0     -9999.00         24.5 
       908.0         0.10         24.5 
       909.0         0.17         17.2 
       910.0         0.50         24.2 
       911.0         0.37         14.6 
       912.0         0.40         25.8 
       913.0         0.40         14.6 
       914.0         0.52         19.4 
       915.0         0.47         10.4 
       916.0         0.43         10.3 
       917.0         0.40         10.2 
       918.0         0.37          9.3 
       919.0         0.37          9.5 
       920.0         0.17          9.6 
       921.0         0.17          9.5 
       922.0         0.17          9.5 
       923.0         0.27          9.4 
       924.0         0.30          9.7 
       925.0         0.25          9.0 
       926.0         0.27          9.2 
       927.0         0.20          9.2 
       928.0         0.27          8.7 
       929.0         0.27          8.7 
       930.0         0.27          8.7 
       931.0         6.30          9.2 
       932.0         0.30          7.9 
       933.0         0.37          7.9 
       934.0         0.37          7.9 
       935.0         0.33          7.9 
       936.0         0.43          8.1 
       937.0         0.37          7.7 
       938.0         0.35          7.5 
       939.0         0.37          7.4 
       940.0         0.30          7.6 
       941.0         0.37          8.1 
       942.0         0.37          7.2 
       943.0         0.33          7.5 
       944.0         0.33          7.4 
       945.0         0.33          7.5 
       946.0         0.30          7.2 
       947.0         0.30          7.2 
       948.0         0.42          7.3 
       949.0         0.27          7.0 
       950.0         0.40          7.1 
       951.0         0.33          7.2 
       952.0         0.33          7.1 
       953.0         0.33          7.1 
       954.0         0.40          7.1 
       955.0         0.37          6.9 
       956.0         0.27          7.0 
       957.0         0.23          6.9 
       958.0         0.32          7.6 
       959.0         0.33          6.9 
       960.0         0.53          7.1 
       961.0         6.10          7.3 
       962.0         0.43          6.5 
       963.0         0.40          6.3 
       964.0         0.40          6.3 
       965.0         0.43          6.5 
       966.0         0.37          6.1 
       967.0         0.47          6.2 
       968.0         0.40          6.3 
       969.0         0.38          6.1 
       970.0         0.37          6.3 
       971.0         0.23          6.2 
       972.0         0.20          6.1 
       973.0         0.27          5.8 
       974.0         0.33          6.2 
       975.0         0.27          5.9 
       976.0         0.23          5.9 
       977.0         0.33          5.9 
       978.0         0.37          6.2 
       979.0         0.37          5.8 
       980.0         0.42          5.9 
       981.0         0.37          5.7 
       982.0         0.40          5.8 
       983.0         0.40          5.8 
       984.0         0.37          5.7 
       985.0         0.37          5.4 
       986.0         0.40          5.4 
       987.0         0.40          5.2 
       988.0         0.42          5.2 
       989.0         0.43          5.6 
       990.0         0.37          5.5 
       991.0         5.70          6.2 
       992.0         0.53          6.1 
       993.0         0.53          6.5 
       994.0         0.53          6.6 
       995.0         0.53          6.3 
       996.0         0.53          6.3 
       997.0         0.53          6.2 
       998.0         0.55          6.1 
       999.0         0.50          6.1 
      1000.0         0.53          5.9 
      1001.0         0.53          5.9 
      1002.0         0.27          5.8 
      1003.0         0.53          5.8 
      1004.0         0.37          5.8 
      1005.0         0.42          5.7 
      1006.0         0.50          5.8 
      1007.0         0.40          5.7 
      1008.0         0.23          5.6 
      1009.0         0.33          5.5 
      1010.0         0.33          5.5 
      1011.0         0.23          5.7 
      1012.0         0.23          5.6 
      1013.0         0.23          5.9 
      1014.0         0.27          5.6 
      1015.0         0.48          5.7 
      1016.0         0.60          5.7 
      1017.0         0.53          5.5 
      1018.0         0.57          5.6 
      1019.0         0.47          5.8 
      1020.0         0.40          5.3 
      1021.0         5.60          6.0 
      1022.0         0.40          5.6 
      1023.0         0.37          5.8 
      1024.0         0.23          5.7 
      1025.0         0.27          5.7 
      1026.0         0.20          5.7 
      1027.0         0.32          5.4 
      1028.0         0.43          5.8 
      1029.0         0.47          6.0 
      1030.0         0.37          5.7 
      1031.0         0.37          5.9 
      1032.0         0.30          5.7 
      1033.0         0.27          5.7 
      1034.0         0.30          5.8 
      1035.0         0.33          5.9 
      1036.0         0.38          5.7 
      1037.0         0.37          5.5 
      1038.0         0.40          5.4 
      1039.0         0.37          5.9 
      1040.0         0.37          5.5 
      1041.0         0.33          6.1 
      1042.0         0.27          5.5 
      1043.0         0.40          5.6 
      1044.0         0.20          5.6 
      1045.0         0.27          5.9 
      1046.0         0.45          5.7 
      1047.0         0.33          5.7 
      1048.0         0.27          5.5 
      1049.0         0.27          5.7 
      1050.0         0.27          5.5 
      1051.0         5.57          6.2 
      1052.0         0.37          5.7 
      1053.0         0.47          6.0 
      1054.0         0.40          6.0 
      1055.0         0.40          5.8 
      1056.0         0.43          5.7 
      1057.0         0.57          6.0 
      1058.0         0.58          5.7 
      1059.0         0.57          5.8 
      1060.0         0.50          6.0 
      1061.0         0.43          6.0 
      1062.0         0.40          5.8 
      1063.0         0.50          5.7 
      1064.0         0.43          5.8 
      1065.0         0.37          5.9 
      1066.0         0.48          5.8 
      1067.0         0.43          5.6 
      1068.0         0.53          5.7 
      1069.0         0.37          5.7 
      1070.0         0.43          5.7 
      1071.0         0.40          6.0 
      1072.0         0.30          5.6 
      1073.0         0.27          5.7 
      1074.0         0.25          5.4 
      1075.0         0.57          5.8 
      1076.0         0.43          5.3 
      1077.0         0.47          5.7 
      1078.0         0.43          5.7 
      1079.0         0.53          5.6 
      1080.0         0.50          5.7 
      1081.0         3.83          6.0 
      1082.0         0.93          6.1 
      1083.0         0.47          5.9 
      1084.0         0.40          5.7 
      1085.0         0.60          5.6 
      1086.0         0.53          5.8 
      1087.0         0.55          5.6 
      1088.0         0.53          5.6 
      1089.0         0.60          5.7 
      1090.0         0.47          5.7 
      1091.0         0.33          5.3 
      1092.0         0.53          5.6 
      1093.0         0.62          5.9 
      1094.0         0.53          5.7 
      1095.0         0.47          5.7 
      1096.0         0.47          5.9 
      1097.0         0.40          5.6 
      1098.0         0.20          5.7 
      1099.0         0.37          5.8 
      1100.0         0.37          5.5 
      1101.0         0.40          5.5 
      1102.0         0.35          5.6 
      1103.0         0.20          5.7 
      1104.0         0.30          5.5 
      1105.0         0.23          5.5 
      1106.0         0.23          5.5 
