~Version Information
VERS.                      2.0: CWLS Log ASCII Standard - VERSION 2.0
WRAP.                       NO: One line per depth step
~Well Information Block
STRT.FT               240.0000: 
STOP.FT               713.7500: 
STEP.FT                 0.2500: 
NULL.                -999.2500: 
COMP.          Pioneer Natural Resources: COMPANY
WELL.           Belvedere 14-7: WELL
FLD.           Purgatorie River: FIELD
LOC.           786' FSL & 1283' FWL: LOCATION
PROV.                 Colorado: PROVINCE
CNTY.               Las Animas: COUNTRY
SRVC.                Patterson: SERVICE COMPANY
DATE.          Sun Nov 27 03:38:28 2005: LOG DATE
UWI.           05-071-08557               : UNIQUE WELL ID
~Curve Information Block
DEPT.FT            0 000 00 00: Depth
DIR.Ohm-m                     : IEL Induction Resistivity
GR.GAPI                       : Gamma Ray
~Parameter Information Block
~A  Depth       DIR          GR     
# ...
   407.2500     42.0360    103.2172
   407.5000     42.0176    109.7472
   407.7500     41.9901    111.0150
   408.0000     42.0502    107.7995
   408.2500     42.2870    102.5374
   408.5000     42.7565     91.6873
   408.7500     43.4650     83.9725
   409.0000     44.3680     74.0313
   409.2500     45.3840     69.2209
   409.5000     46.4216     64.4967
   409.7500     47.4011     62.1868
   410.0000     48.2608     58.3976
   410.2500     48.9519     55.2216
   410.5000     49.4436     49.9928
   410.7500     49.7433     46.9645
   411.0000     49.9074     44.4047
   411.2500     50.0222     44.3761
   411.5000     50.1588     46.3616
   411.7500     50.3358     48.2505
   412.0000     50.5188     50.5365
   412.2500     50.6551     51.1644
   412.5000     50.7142     50.2853
   412.7500     50.6942     48.4879
   413.0000     50.5948     44.9395
   413.2500     50.3939     43.1169
   413.5000     50.0549     42.9379
   413.7500     49.5515     44.6590
   414.0000     48.8793     48.3133
   414.2500     48.0439     50.0160
   414.5000     47.0434     50.1627
   414.7500     45.8672     49.0650
   415.0000     44.5174     47.3120
   415.2500     43.0405     46.6810
   415.5000     41.5451     46.2562
   415.7500     40.1817     45.7850
   416.0000     39.0930     44.4665
   416.2500     38.3678     43.6655
   416.5000     38.0258     44.1531
   416.7500     38.0306     46.4053
   417.0000     38.3103     53.1002
   417.2500     38.7678     59.4126
   417.5000     39.2845     70.3317
   417.7500     39.7336     77.5585
   418.0000     40.0106     86.1662
   418.2500     40.0635     88.9931
   418.5000     39.8973     87.0655
   418.7500     39.5507     81.7141
   419.0000     39.0616     69.8377
   419.2500     38.4376     61.2147
   419.5000     37.6448     49.5442
   419.7500     36.6222     43.0198
   420.0000     35.3211     34.8077
   420.2500     33.7462     30.2796
   420.5000     31.9674     25.5164
   420.7500     30.0978     24.2345
   421.0000     28.2533     25.4980
   421.2500     26.5174     28.2320
   421.5000     24.9260     34.5464
   421.7500     23.4713     39.9872
   422.0000     22.1193     49.7731
   422.2500     20.8299     57.2823
   422.5000     19.5743     69.6917
   422.7500     18.3458     78.2782
   423.0000     17.1634     90.1206
   423.2500     16.0630     96.1027
   423.5000     15.0832    100.4993
   423.7500     14.2520    100.2218
   424.0000     13.5819     96.0715
   424.2500     13.0724     91.5754
   424.5000     12.7142     83.3659
   424.7500     12.4908     77.9346
   425.0000     12.3772     72.4694
   425.2500     12.3372     71.8091
   425.5000     12.3243     74.9145
   425.7500     12.2896     78.1485
   426.0000     12.1956     82.1673
   426.2500     12.0298     84.0135
   426.5000     11.8082     86.5877
   426.7500     11.5656     88.4149
   427.0000     11.3399     90.0592
   427.2500     11.1605     89.4097
   427.5000     11.0452     85.4208
   427.7500     11.0010     81.5158
   428.0000     11.0264     75.6878
   428.2500     11.1119     72.6822
   428.5000     11.2386     70.6730
   428.7500     11.3796     71.7832
   429.0000     11.5054     77.9457
   429.2500     11.5928     84.4692
   429.5000     11.6351     95.0208
   429.7500     11.6445    100.8486
   430.0000     11.6468    106.6684
   430.2500     11.6723    108.9702
   430.5000     11.7460    110.8262
   430.7500     11.8825    111.0920
   431.0000     12.0833    110.5112
   431.2500     12.3390    110.3296
   431.5000     12.6329    111.7728
   431.7500     12.9476    113.7706
   432.0000     13.2704    116.3492
   432.2500     13.5966    116.4600
   432.5000     13.9299    113.5771
   432.7500     14.2808    110.4993
   433.0000     14.6629    106.2510
   433.2500     15.0892    104.2053
   433.5000     15.5660    102.0311
   433.7500     16.0894    101.0966
   434.0000     16.6423    101.1703
   434.2500     17.1952    102.6311
   434.5000     17.7119    106.5141
   434.7500     18.1605    109.2279
   435.0000     18.5280    111.6035
   435.2500     18.8305    111.6576
   435.5000     19.1153    110.2737
   435.7500     19.4519    109.1588
   436.0000     19.9163    107.9013
   436.2500     20.5729    107.1940
   436.5000     21.4608    105.4353
   436.7500     22.5824    103.3483
   437.0000     23.8985     99.2137
   437.2500     25.3303     96.5973
   437.5000     26.7709     93.5035
   437.7500     28.1076     91.1886
   438.0000     29.2500     85.2060
   438.2500     30.1561     79.1435
   438.5000     30.8417     68.1450
   438.7500     31.3604     60.5412
   439.0000     31.7585     49.8805
   439.2500     32.0261     43.6917
   439.5000     32.0775     36.3455
   439.7500     31.7803     32.9011
   440.0000     31.0277     29.8444
   440.2500     29.8064     29.0187
   440.5000     28.2120     29.0650
   440.7500     26.4035     29.6244
   441.0000     24.5418     30.9939
   441.2500     22.7501     32.3433
   441.5000     21.1035     35.4823
   441.7500     19.6345     38.7706
   442.0000     18.3477     46.4941
   442.2500     17.2334     53.7832
   442.5000     16.2787     66.7696
   442.7500     15.4727     75.1915
   443.0000     14.8084     84.9406
   443.2500     14.2808     89.2154
   443.5000     13.8864     93.6140
   443.7500     13.6217     95.9991
   444.0000     13.4831     98.6554
   444.2500     13.4665     99.0457
   444.5000     13.5662     96.5812
   444.7500     13.7742     93.3546
   445.0000     14.0786     88.6847
   445.2500     14.4647     87.2222
   445.5000     14.9167     88.3360
   445.7500     15.4209     90.6738
   446.0000     15.9682     94.9715
   446.2500     16.5538     97.6500
   446.5000     17.1748    100.6696
   446.7500     17.8278    101.8619
   447.0000     18.5061    102.5853
   447.2500     19.2024    102.5842
   447.5000     19.9122    102.1261
   447.7500     20.6364    101.6680
   448.0000     21.3795    101.4650
   448.2500     22.1413    102.1980
   448.5000     22.9095    104.6352
   448.7500     23.6571    106.4103
   449.0000     24.3509    107.9878
   449.2500     24.9673    108.2365
   449.5000     25.5053    107.9771
   449.7500     25.9876    107.4578
   450.0000     26.4516    105.9586
   450.2500     26.9389    104.7323
   450.5000     27.4899    103.3723
   450.7500     28.1391    102.6128
   451.0000     28.9084    100.0775
   451.2500     29.8007     96.8770
   451.5000     30.7950     91.0970
   451.7500     31.8492     88.1326
   452.0000     32.9053     86.9154
   452.2500     33.8978     88.4773
   452.5000     34.7619     93.6049
   452.7500     35.4484     97.9507
   453.0000     35.9456    103.8605
   453.2500     36.2998    106.4882
   453.5000     36.6174    108.0213
   453.7500     37.0361    107.6190
   454.0000     37.6781    105.1235
   454.2500     38.6090    102.2406
   454.5000     39.8177     96.5140
   454.7500     41.2179     92.4622
   455.0000     42.6666     87.7205
   455.2500     43.9940     86.1499
   455.5000     45.0434     85.9049
   455.7500     45.7167     86.1628
   456.0000     46.0060     85.1696
   456.2500     45.9933     82.7814
   456.5000     45.8118     76.1305
   456.7500     45.5911     69.8400
   457.0000     45.4167     58.7353
   457.2500     45.3244     51.2480
   457.5000     45.3271     41.7265
   457.7500     45.4451     37.2769
   458.0000     45.7077     34.0387
   458.2500     46.1230     34.2747
   458.5000     46.6495     38.1228
   458.7500     47.2093     42.5674
   459.0000     47.7400     50.3640
   459.2500     48.2354     55.2451
   459.5000     48.7267     61.2737
   459.7500     49.2200     64.5246
   460.0000     49.6479     68.4043
   460.2500     49.8794     70.2255
   460.5000     49.7809     71.8990
   460.7500     49.2736     72.7063
   461.0000     48.3446     74.1395
   461.2500     47.0223     75.2669
   461.5000     45.3586     76.9077
   461.7500     43.4352     78.1606
   462.0000     41.3662     81.5852
   462.2500     39.2767     85.5460
   462.5000     37.2696     93.2946
   462.7500     35.4090     98.2312
