~Version Information
VERS.                      2.0: CWLS Log ASCII Standard - VERSION 2.0
WRAP.                       NO: One line per depth step
~Well Information Block
STRT.FT               460.0000: 
STOP.FT              1498.0000: 
STEP.FT                 0.1000: 
NULL.                -999.2500: 
COMP.          Pioneer Natural Resources: COMPANY
WELL.           Amore 32-09 Tr: WELL
FLD.           Purgatoire River: FIELD
LOC.           1941' FNL & 2297' FEL: LOCATION
PROV.                 Colorado: PROVINCE
CNTY.               Las Animas: COUNTRY
SRVC.                Patterson: SERVICE COMPANY
DATE.          Mon Nov 14 13:24:57 2005: LOG DATE
UWI.           05 071 08584 00: UNIQUE WELL ID
~Curve Information Block
DEPT.FT            0 000 00 00: Depth
DCAL.in                       : CDL Caliper
RHOB.g/cc                     : CDL Bulk Density
RHOC.g/cc                     : CDL Density Correction
DPOR.pu                       : CDL Density Porosity
GR.GAPI                       : Gamma Ray
NPOR.pu                       : Neutron Porosity
~Parameter Information Block
~A  Depth       DCAL        RHOB        RHOC        DPOR         GR         NPOR    
# ...
  1285.6000      8.0248      2.5989      0.0967      3.0970    131.1328     24.9322
  1285.7000      8.0248      2.5899      0.0699      3.6403    133.7914     25.2852
  1285.8000      8.0120      2.5719      0.0816      4.7350    139.0235     25.3896
  1285.9000      8.0120      2.5596      0.0523      5.4776    147.1563     24.9259
  1286.0000      8.0041      2.5493      0.1102      6.1043    153.7707     24.5676
  1286.1000      8.0041      2.5253      0.0935      7.5582    153.2171     25.0464
  1286.2000      8.0041      2.4949      0.0312      9.3974    142.4687     25.9840
  1286.3000      8.0086      2.4797      0.0507     10.3222    128.0401     26.6730
  1286.4000      8.0086      2.4742      0.0642     10.6569    121.6343     27.2114
  1286.5000      8.0213      2.4524      0.0675     11.9741    127.6040     27.4901
  1286.6000      8.0213      2.4102      0.0158     14.5328    140.0807     27.1686
  1286.7000      8.0213      2.3734     -0.0143     16.7650    148.5257     26.6921
  1286.8000      8.0298      2.3553      0.0344     17.8631    147.9148     26.8939
  1286.9000      8.0298      2.3453      0.0346     18.4686    139.9256     27.8202
  1287.0000      8.0344      2.3421      0.0307     18.6588    134.0615     29.2245
  1287.1000      8.0344      2.3491      0.0842     18.2341    138.4061     30.9725
  1287.2000      8.0344      2.3532      0.1141     17.9851    144.7926     31.7840
  1287.3000      8.0361      2.3507     -0.0013     18.1389    139.2625     30.7674
  1287.4000      8.0361      2.3567      0.0188     17.7748    126.2540     29.2153
  1287.5000      8.0330      2.3625      0.1065     17.4232    119.0523     28.6338
  1287.6000      8.0330      2.3413      0.0810     18.7102    118.6481     29.0599
  1287.7000      8.0330      2.3026      0.0040     21.0528    120.2788     29.5036
  1287.8000      8.0321      2.2771      0.0504     22.6025    124.0147     29.1439
  1287.9000      8.0321      2.2703      0.0433     23.0114    128.3314     27.9752
  1288.0000      8.0259      2.2760      0.0544     22.6696    128.9589     26.8332
  1288.1000      8.0259      2.2857      0.0970     22.0796    125.1374     26.6734
  1288.2000      8.0259      2.2898      0.1057     21.8319    118.8523     27.5436
  1288.3000      8.0223      2.3019      0.0661     21.0992    114.0822     28.6635
  1288.4000      8.0223      2.3419      0.1702     18.6717    116.5960     29.0758
  1288.5000      8.0225      2.3947      0.2260     15.4697    125.7001     28.9259
  1288.6000      8.0225      2.4297      0.2210     13.3511    135.5604     28.8632
  1288.7000      8.0225      2.4436      0.1511     12.5101    139.2521     28.7526
  1288.8000      8.0184      2.4582      0.1410     11.6265    133.1592     28.1583
  1288.9000      8.0184      2.4836      0.1478     10.0837    124.0210     27.2647
  1289.0000      8.0232      2.5129      0.1324      8.3065    122.7126     26.8221
  1289.1000      8.0232      2.5429      0.1006      6.4884    132.7251     26.9604
  1289.2000      8.0232      2.5679      0.1283      4.9755    145.8958     27.3306
  1289.3000      8.0365      2.5732      0.1070      4.6518    151.0848     27.8448
  1289.4000      8.0365      2.5596      0.0950      5.4792    148.5216     27.7432
  1289.5000      8.0382      2.5502      0.0487      6.0478    142.4561     26.5262
  1289.6000      8.0382      2.5624      0.0673      5.3106    131.9339     25.0247
  1289.7000      8.0382      2.5841      0.1140      3.9909    118.8308     23.8872
  1289.8000      8.0299      2.5938      0.0928      3.4072    109.3087     23.0061
  1289.9000      8.0299      2.5832      0.0697      4.0456    107.5300     22.4942
  1290.0000      8.0205      2.5628      0.0096      5.2875    111.4204     22.5297
  1290.1000      8.0205      2.5519      0.0145      5.9438    115.6702     22.9088
  1290.2000      8.0205      2.5531      0.0479      5.8755    120.0600     23.5817
  1290.3000      8.0167      2.5506      0.0397      6.0234    125.0112     24.3863
  1290.4000      8.0167      2.5378      0.0224      6.8001    127.1862     24.8138
  1290.5000      8.0172      2.5209      0.0301      7.8245    126.9675     24.6312
  1290.6000      8.0172      2.5005      0.0220      9.0623    127.0745     24.2844
  1290.7000      8.0172      2.4735      0.0102     10.6946    127.9367     24.4889
  1290.8000      8.0141      2.4486     -0.0113     12.2043    130.8045     24.8961
  1290.9000      8.0141      2.4341      0.0132     13.0844    134.4792     24.9447
  1291.0000      8.0116      2.4289      0.0196     13.4021    135.7883     25.3705
  1291.1000      8.0116      2.4326      0.0245     13.1772    133.0457     26.7267
  1291.2000      8.0116      2.4421      0.0579     12.5979    124.6196     27.7711
  1291.3000      8.0103      2.4461      0.0661     12.3599    112.1620     27.1444
  1291.4000      8.0103      2.4415      0.0482     12.6349    104.6502     25.5014
  1291.5000      8.0049      2.4432      0.0361     12.5344    106.6134     24.2205
  1291.6000      8.0049      2.4592      0.0414     11.5631    109.9076     23.7077
  1291.7000      8.0049      2.4784      0.0906     10.4010    107.3501     23.8149
  1291.8000      7.9979      2.4913      0.1006      9.6152    100.1175     24.4069
  1291.9000      7.9979      2.5032      0.1137      8.8994     90.7224     24.5957
  1292.0000      7.9984      2.5197      0.0477      7.8954     81.8894     23.8124
  1292.1000      7.9984      2.5322      0.0632      7.1398     79.7804     22.8853
  1292.2000      7.9984      2.5290      0.0467      7.3323     84.7680     22.3611
  1292.3000      8.0066      2.5230      0.0125      7.6991     88.0240     22.1860
  1292.4000      8.0066      2.5321      0.0373      7.1432     83.3269     21.9917
  1292.5000      8.0096      2.5541      0.0264      5.8145     75.3753     21.7267
  1292.6000      8.0096      2.5817      0.0495      4.1424     71.7713     21.6716
  1292.7000      8.0096      2.6065      0.1219      2.6369     72.4569     21.7811
  1292.8000      8.0038      2.6186      0.0915      1.9020     74.9479     21.9485
  1292.9000      8.0038      2.6216      0.0855      1.7222     77.5695     22.1527
  1293.0000      7.9975      2.6280      0.0931      1.3313     79.2713     22.1512
  1293.1000      7.9975      2.6422      0.0915      0.4753     81.0302     21.3693
  1293.2000      7.9975      2.6506      0.1431     -0.0335     82.3751     20.1129
  1293.3000      7.9957      2.6416      0.0962      0.5113     81.4126     19.4820
  1293.4000      7.9957      2.6254      0.0617      1.4935     80.0498     19.5092
  1293.5000      7.9989      2.6198      0.0181      1.8313     80.9166     19.6755
  1293.6000      7.9989      2.6325      0.0656      1.0613     84.5440     19.7878
  1293.7000      7.9989      2.6507      0.0883     -0.0445     90.9837     19.7517
  1293.8000      8.0051      2.6532      0.1320     -0.1917     97.3621     19.5431
  1293.9000      8.0051      2.6422      0.0183      0.4714     96.0364     19.3130
  1294.0000      8.0105      2.6358      0.0882      0.8608     85.5558     19.5197
  1294.1000      8.0105      2.6336      0.0561      0.9929     78.1326     20.1202
  1294.2000      8.0105      2.6296      0.0774      1.2381     80.3428     20.4970
  1294.3000      8.0138      2.6218      0.0597      1.7066     83.6004     20.4879
  1294.4000      8.0138      2.6082      0.0659      2.5354     82.4682     20.3166
  1294.5000      8.0179      2.5912      0.0118      3.5639     83.4129     20.2140
  1294.6000      8.0179      2.5795      0.0275      4.2710     92.2807     19.9678
  1294.7000      8.0179      2.5779      0.0003      4.3710    104.6594     19.7796
  1294.8000      8.0227      2.5825      0.0372      4.0903    112.2299     20.2854
  1294.9000      8.0227      2.5857      0.0587      3.8963    113.7293     21.2080
  1295.0000      8.0232      2.5877      0.0515      3.7754    110.9284     21.9161
  1295.1000      8.0232      2.5938      0.0601      3.4067    104.9817     22.5146
