~Version Information
VERS.                      2.0: CWLS Log ASCII Standard - VERSION 2.0
WRAP.                       NO: One line per depth step
~Well Information Block
STRT.FT               233.8000: 
STOP.FT              1692.5000: 
STEP.FT                 0.1000: 
NULL.                -999.2500: 
COMP.          Pioneer Natural Resources: COMPANY
WELL.            Relay 12-7 Tr: WELL
FLD.           Purgatoire River: FIELD
LOC.           2025' FNL & 790' FWL: LOCATION
PROV.                 Colorado: PROVINCE
CNTY.               Las Animas: COUNTRY
SRVC.                Patterson: SERVICE COMPANY
DATE.          Mon Jan 16 13:23:17 2006: LOG DATE
UWI.           05 071 08603 00: UNIQUE WELL ID
~Curve Information Block
DEPT.FT            0 000 00 00: Depth
DCAL.in                       : CDL Caliper
RHOB.g/cc                     : CDL Bulk Density
RHOC.g/cc                     : CDL Density Correction
DPOR.pu                       : CDL Density Porosity
GR.GAPI                       : Gamma Ray
~Parameter Information Block
~A  Depth       DCAL        RHOB        RHOC        DPOR         GR     
# ...
   536.2000      8.2955      2.4951      0.0218      9.3872    108.6862
   536.3000      8.2824      2.4841      0.0375     10.0549    101.5760
   536.4000      8.2824      2.4663     -0.0144     11.1335     98.0379
   536.5000      8.2856      2.4496      0.0358     12.1469     98.0673
   536.6000      8.2856      2.4396     -0.0194     12.7500     97.9857
   536.7000      8.2856      2.4446     -0.0375     12.4507     97.0246
   536.8000      8.2363      2.4638     -0.0033     11.2872     98.9064
   536.9000      8.2363      2.4882      0.0204      9.8087    103.9801
   537.0000      8.0481      2.5167      0.0231      8.0781    107.3200
   537.1000      8.0481      2.5438      0.1470      6.4383    106.4230
   537.2000      8.0481      2.5483      0.1412      6.1659    106.0874
   537.3000      7.9485      2.5276      0.0657      7.4203    109.8489
   537.4000      7.9485      2.5068      0.0719      8.6817    116.1505
   537.5000      7.8539      2.5018      0.0866      8.9791    124.1919
   537.6000      7.8539      2.5082      0.0721      8.5959    133.0122
   537.7000      7.8539      2.5203      0.0504      7.8626    137.7059
   537.8000      7.8430      2.5376      0.0941      6.8142    135.8637
   537.9000      7.8430      2.5598      0.1120      5.4685    131.1489
   538.0000      7.9100      2.5843      0.1273      3.9809    129.0198
   538.1000      7.9100      2.5977      0.1128      3.1693    133.5642
   538.2000      7.9100      2.5853      0.1108      3.9239    139.8625
   538.3000      7.9735      2.5546      0.0348      5.7836    138.1375
   538.4000      7.9735      2.5255      0.0770      7.5444    128.8880
   538.5000      8.0055      2.5053      0.0372      8.7714    118.4905
   538.6000      8.0055      2.4930      0.0432      9.5149    111.3816
   538.7000      8.0055      2.4797      0.0713     10.3212    108.9605
   538.8000      8.0130      2.4571      0.0367     11.6893    109.7476
   538.9000      8.0130      2.4317      0.0239     13.2313    112.0337
   539.0000      8.0090      2.4106      0.0381     14.5089    114.5622
   539.1000      8.0090      2.3940     -0.0065     15.5121    116.9348
   539.2000      8.0090      2.3859     -0.0017     16.0058    119.4425
   539.3000      7.9980      2.3978     -0.0097     15.2839    121.7239
   539.4000      7.9980      2.4380      0.0905     12.8511    123.0211
   539.5000      7.9658      2.4932      0.1401      9.5004    123.3952
   539.6000      7.9658      2.5418      0.1470      6.5548    123.6381
   539.7000      7.9658      2.5719      0.1997      4.7322    124.7947
   539.8000      7.9318      2.5831      0.1832      4.0547    124.2112
   539.9000      7.9318      2.5815      0.2026      4.1498    117.7319
   540.0000      7.8674      2.5776      0.1511      4.3893    106.2343
   540.1000      7.8674      2.5802      0.1630      4.2320     96.1961
   540.2000      7.8674      2.5785      0.1813      4.3312     96.6836
   540.3000      7.8210      2.5556      0.1258      5.7202    107.0728
   540.4000      7.8210      2.5212      0.0286      7.8058    113.8377
   540.5000      7.9101      2.4979      0.0421      9.2194    110.2386
   540.6000      7.9101      2.4999     -0.0128      9.0958    102.9432
   540.7000      7.9101      2.5303      0.0167      7.2536    100.4131
   540.8000      7.9317      2.5681      0.0745      4.9650    103.3206
   540.9000      7.9317      2.5873      0.1095      3.7984    106.4594
   541.0000      7.9476      2.5757      0.1239      4.5020    106.7384
   541.1000      7.9476      2.5365      0.0710      6.8777    105.2385
   541.2000      7.9476      2.4997     -0.0066      9.1063    101.8146
   541.3000      7.9503      2.4915      0.0189      9.6043     97.8809
   541.4000      7.9503      2.4962      0.0729      9.3230     98.6308
   541.5000      7.9401      2.4981      0.0255      9.2072    104.8451
   541.6000      7.9401      2.5072      0.0602      8.6564    113.3464
   541.7000      7.9401      2.5175      0.0913      8.0298    120.1765
   541.8000      7.9327      2.5167      0.1028      8.0806    121.1201
   541.9000      7.9327      2.5069      0.1248      8.6734    116.6109
   542.0000      7.9350      2.4932      0.1044      9.5051    112.2434
   542.1000      7.9350      2.4798      0.0985     10.3159    111.9802
   542.2000      7.9350      2.4685      0.1120     11.0004    114.1822
   542.3000      7.9288      2.4674      0.0985     11.0660    114.6925
   542.4000      7.9288      2.4892      0.1345      9.7466    110.8975
   542.5000      7.9384      2.5293      0.1389      7.3178    106.5288
   542.6000      7.9384      2.5601      0.2148      5.4494    107.7953
   542.7000      7.9384      2.5612      0.1146      5.3793    110.1629
   542.8000      7.9489      2.5480      0.1134      6.1835    106.7429
   542.9000      7.9489      2.5358      0.1392      6.9204    100.8848
   543.0000      7.9549      2.5167      0.1217      8.0776     98.0687
   543.1000      7.9549      2.4870      0.0789      9.8788     98.2951
   543.2000      7.9549      2.4590      0.0786     11.5770     98.9809
   543.3000      7.9554      2.4481      0.0561     12.2391    100.3750
   543.4000      7.9554      2.4629      0.0796     11.3372    103.9701
   543.5000      7.9460      2.4921      0.1681      9.5692    109.0586
   543.6000      7.9460      2.5161      0.1069      8.1175    112.7015
   543.7000      7.9460      2.5399      0.1146      6.6700    113.8410
   543.8000      7.9390      2.5722      0.2049      4.7172    113.2248
   543.9000      7.9390      2.6000      0.2313      3.0278    112.1270
   544.0000      7.9709      2.6072      0.2368      2.5918    112.5479
   544.1000      7.9709      2.5930      0.1684      3.4525    115.1896
   544.2000      7.9709      2.5751      0.1630      4.5394    118.2936
   544.3000      7.9720      2.5663      0.1673      5.0698    120.4442
   544.4000      7.9720      2.5629      0.1401      5.2795    120.6485
   544.5000      7.9759      2.5512      0.1701      5.9880    120.1208
   544.6000      7.9759      2.5279      0.1155      7.3998    120.8135
   544.7000      7.9759      2.5079      0.1134      8.6148    120.2507
   544.8000      7.9948      2.4963      0.1024      9.3136    119.3676
   544.9000      7.9948      2.4942      0.0096      9.4439    122.1197
   545.0000      7.9990      2.5080      0.0722      8.6037    126.2066
   545.1000      7.9990      2.5310      0.1143      7.2130    129.1354
   545.2000      7.9990      2.5535      0.1396      5.8483    131.0095
   545.3000      8.0111      2.5717      0.1594      4.7463    131.5778
   545.4000      8.0111      2.5774      0.1837      4.3984    133.7099
   545.5000      8.0410      2.5769      0.0734      4.4290    139.8241
   545.6000      8.0410      2.5863      0.1649      3.8626    143.8161
   545.7000      8.0410      2.5949      0.1684      3.3381    142.3341
   545.8000      8.0688      2.5837      0.1387      4.0205    140.7333
   545.9000      8.0688      2.5548      0.1171      5.7673    141.1615
   546.0000      8.0966      2.5271      0.1118      7.4506    140.9279
   546.1000      8.0966      2.5105      0.1133      8.4529    137.8246
   546.2000      8.0966      2.5008      0.0607      9.0437    132.6503
   546.3000      8.1484      2.4895      0.0794      9.7262    128.3022
   546.4000      8.1484      2.4731      0.0119     10.7225    127.1274
   546.5000      8.1548      2.4618      0.0139     11.4050    129.6165
   546.6000      8.1548      2.4616      0.0137     11.4205    135.3860
   546.7000      8.1548      2.4608      0.0609     11.4676    141.7422
   546.8000      8.1623      2.4488      0.0827     12.1953    145.8164
   546.9000      8.1623      2.4288      0.0613     13.4083    146.9400
   547.0000      8.1598      2.4122      0.0721     14.4142    144.0600
   547.1000      8.1598      2.4100      0.0607     14.5463    139.3232
   547.2000      8.1598      2.4285      0.0269     13.4225    137.8988
   547.3000      8.1578      2.4607      0.0540     11.4704    142.2565
