~Version Information
VERS.                      2.0: CWLS Log ASCII Standard - VERSION 2.0
WRAP.                       NO: One line per depth step
~Well Information Block
STRT.FT                 0.0000: 
STOP.FT              2473.5000: 
STEP.FT                 0.2500: 
NULL.                -999.2500: 
COMP.          Petrogulf Corporation: COMPANY
WELL.          Montoya 18-11V-B: WELL
FLD.           Purgatorie River: FIELD
LOC.           848' FNL & 619' FWL: LOCATION
PROV.                 Colorado: PROVINCE
CNTY.               Las Animas: COUNTRY
SRVC.                Patterson: SERVICE COMPANY
DATE.          Wed Nov 09 10:15:13 2005: LOG DATE
UWI.                          : UNIQUE WELL ID
~Curve Information Block
DEPT.FT            0 000 00 00: Depth
CCL.                          : Casing Collar Locator
TT3.usec                      : CBL 3' Travel Time
AMP3.mV                       : CBL 3' Amplitude
GR.GAPI                       : Gamma Ray
~Parameter Information Block
~A  Depth       CCL         TT3         AMP3         GR     
# ...
  2278.0000      0.0000    729.9575      2.9419     61.4363
  2278.2500      0.0000    739.4662      3.1502     60.2137
  2278.5000      0.0000    745.3322      3.2883     57.9998
  2278.7500      0.0000    751.4431      3.3734     54.8441
  2279.0000      0.0000    762.7807      3.5171     51.5596
  2279.2500      0.0000    773.9705      3.8773     49.2668
  2279.5000      0.0000    770.8665      4.5303     48.5930
  2279.7500      0.0000    750.2986      5.4252     49.4912
  2280.0000      0.0000    727.2609      6.4577     51.5938
  2280.2500      0.0000    712.5769      7.5114     54.2531
  2280.5000      0.0000    700.9581      8.4470     56.3106
  2280.7500      0.0000    688.2131      9.1612     56.5138
  2281.0000      0.0000    679.9106      9.6664     54.6187
  2281.2500      0.0000    682.2293     10.0319     51.9128
  2281.5000      0.0000    694.8557     10.2596     50.3067
  2281.7500      0.0000    707.9816     10.2846     50.8811
  2282.0000      0.0000    707.1471     10.0740     53.3809
  2282.2500      0.0000    693.2850      9.6777     56.9025
  2282.5000      0.0000    688.7429      9.1857     60.6991
  2282.7500      0.0000    708.2380      8.6180     64.2250
  2283.0000      0.0000    738.3036      7.8644     66.7691
  2283.2500      0.0000    755.7211      6.8059     67.6182
  2283.5000      0.0000    752.9615      5.5443     66.7990
  2283.7500      0.0000    738.2413      4.4608     65.3461
  2284.0000      0.0000    720.5641      3.8704     64.4067
  2284.2500      0.0000    705.4341      3.6076     64.0901
  2284.5000      0.0000    699.9122      3.2840     63.5227
  2284.7500      0.0000    709.7651      2.8584     62.0713
  2285.0000      0.0000    732.3043      2.5316     60.1170
  2285.2500      0.0000    756.2873      2.3554     58.4051
  2285.5000      2.0000    771.6992      2.2442     57.0295
  2285.7500      0.0000    780.2444      2.1429     55.4723
  2286.0000      0.0000    789.7186      2.0596     53.4828
  2286.2500      0.0000    796.0735      2.0341     51.5514
  2286.5000      0.0000    781.2139      2.1292     50.4833
  2286.7500      0.0000    740.9518      2.3631     50.6716
  2287.0000      0.0000    700.4467      2.6061     51.8103
  2287.2500      0.0000    686.1495      2.7181     53.2166
  2287.5000      0.0000    700.9297      2.7525     54.3344
  2287.7500      0.0000    728.7768      2.8403     55.0419
  2288.0000      0.0000    750.8923      3.0271     55.7513
  2288.2500      0.0000    761.3809      3.3077     57.1371
  2288.5000      0.0000    768.5698      3.6562     59.3615
  2288.7500      0.0000    779.7099      4.0393     61.5600
  2289.0000      0.0000    790.7562      4.5072     62.4289
  2289.2500      0.0000    794.1296      5.2076     61.4112
  2289.5000      0.0000    789.7959      6.2454     59.2299
  2289.7500      0.0000    785.0758      7.5320     57.2402
  2290.0000      0.0000    785.1620      8.7790     56.2247
  2290.2500      0.0000    786.3911      9.6836     55.8832
  2290.5000      0.0000    781.9211     10.1312     55.4488
  2290.7500      0.0000    769.5603     10.1917     54.5183
  2291.0000      0.0000    753.0593      9.9224     53.2554
  2291.2500      0.0000    740.5624      9.2853     52.2763
  2291.5000      0.0000    739.4184      8.3422     52.4308
  2291.7500      0.0000    748.8028      7.3410     54.1519
  2292.0000      0.0000    759.9529      6.4976     56.7743
  2292.2500      0.0000    764.2347      5.8622     58.8611
  2292.5000      0.0000    760.2405      5.4134     59.4801
  2292.7500      0.0000    752.7079      5.1173     59.0521
  2293.0000      0.0000    747.0382      4.9053     58.8537
  2293.2500      0.0000    752.8430      4.6964     59.7532
  2293.5000      0.0000    784.3640      4.4535     61.4945
  2293.7500      0.0000    832.9178      4.2050     63.0715
  2294.0000      0.0000    853.9089      3.9750     63.6799
  2294.2500      0.0000    820.4452      3.7221     63.3813
  2294.5000      0.0000    764.0313      3.4131     62.9256
  2294.7500      0.0000    727.8596      3.1000     63.0596
  2295.0000      0.0000    721.0708      2.8705     64.1267
  2295.2500      0.0000    733.3630      2.7559     66.0719
  2295.5000      0.0000    755.8890      2.7271     68.2557
  2295.7500      0.0000    779.7502      2.7534     69.3538
  2296.0000      0.0000    794.9778      2.8104     68.3020
  2296.2500      0.0000    796.8340      2.8717     65.6290
  2296.5000      0.0000    786.9197      2.9401     63.1837
  2296.7500      0.0000    770.2169      3.0410     62.2222
  2297.0000      0.0000    752.6987      3.1812     62.2682
  2297.2500      0.0000    741.5259      3.3584     61.9590
  2297.5000      0.0000    743.1325      3.5866     60.4345
  2297.7500      0.0000    753.8711      3.8624     57.7535
  2298.0000      0.0000    761.7296      4.1235     54.5853
  2298.2500      0.0000    762.1486      4.2798     51.8712
  2298.5000      0.0000    756.9768      4.2924     50.4846
  2298.7500      0.0000    744.3591      4.2101     50.7997
  2299.0000      0.0000    724.6448      4.1108     52.3594
  2299.2500      0.0000    705.0719      4.0274     53.9624
  2299.5000      0.0000    694.0140      3.9387     54.2751
  2299.7500      0.0000    695.2835      3.7958     52.6367
  2300.0000      0.0000    702.6217      3.5711     49.5178
  2300.2500      0.0000    706.7438      3.2943     46.3311
  2300.5000      0.0000    708.8650      3.0140     44.7744
  2300.7500      0.0000    712.9786      2.7559     46.1718
  2301.0000      0.0000    717.7111      2.5361     51.1638
  2301.2500      0.0000    725.4258      2.3676     59.6134
  2301.5000      0.0000    740.6362      2.2424     70.4620
  2301.7500      0.0000    758.8652      2.1464     81.6478
  2302.0000      0.0000    769.5296      2.0693     90.6502
  2302.2500      0.0000    766.7932      1.9875     95.7741
  2302.5000      0.0000    751.7739      1.8928     97.1912
  2302.7500      0.0000    731.6505      1.8194     96.5184
  2303.0000      0.0000    720.6855      1.7812     95.2492
  2303.2500      0.0000    729.8127      1.7278     93.7112
  2303.5000      0.0000    754.0278      1.6211     91.4256
  2303.7500      0.0000    773.3770      1.4923     88.0126
  2304.0000      0.0000    769.2442      1.3827     83.5484
  2304.2500      0.0000    745.5991      1.3027     78.4043
  2304.5000      0.0000    724.4738      1.2562     73.2156
  2304.7500      0.0000    717.3307      1.2337     68.9790
  2305.0000      0.0000    714.9311      1.2123     66.6673
  2305.2500      0.0000    706.2229      1.1940     66.3833
  2305.5000      0.0000    694.2859      1.1865     66.9429
  2305.7500      0.0000    689.3549      1.1727     66.5164
  2306.0000      0.0000    693.5968      1.1414     63.9146
  2306.2500      0.0000    697.8348      1.1053     59.4341
  2306.5000      0.0000    694.0382      1.0778     54.5670
  2306.7500      0.0000    688.3914      1.0633     50.9446
  2307.0000      0.0000    695.7302      1.0636     49.4405
  2307.2500      0.0000    719.8459      1.0759     49.9381
  2307.5000      0.0000    744.1226      1.1026     51.7146
  2307.7500      0.0000    746.3170      1.1525     53.9732
  2308.0000      0.0000    724.7335      1.2229     56.0069
  2308.2500      0.0000    701.4908      1.2975     57.1535
  2308.5000      0.0000    696.9893      1.3595     57.0848
  2308.7500      0.0000    712.5078      1.4087     56.1631
  2309.0000      0.0000    735.2418      1.4635     55.1809
  2309.2500      0.0000    752.0173      1.5313     54.7472
  2309.5000      0.0000    756.2048      1.5982     55.0561
  2309.7500      0.0000    746.0257      1.6576     56.0465
  2310.0000      0.0000    726.2591      1.7150     57.4530
  2310.2500      0.0000    707.4664      1.7674     58.7258
  2310.5000      0.0000    697.4065      1.8095     59.1393
  2310.7500      0.0000    697.8817      1.8402     58.2130
  2311.0000      0.0000    705.7569      1.8519     56.1320
  2311.2500      0.0000    713.0247      1.8244     53.6628
