~Version Information
VERS.                      2.0: CWLS Log ASCII Standard - VERSION 2.0
WRAP.                       NO: One line per depth step
~Well Information Block
STRT.FT               525.0000: 
STOP.FT              2377.2000: 
STEP.FT                 0.1000: 
NULL.                -999.2500: 
COMP.          Pioneer Natural Resources: COMPANY
WELL.          Sparrowhawk 22-12: WELL
FLD.           Purgatoire River: FIELD
LOC.           2049' FNL & 2060' FWL--: LOCATION
CNTY.               Las Animas: COUNTY
SRVC.                Patterson: SERVICE COMPANY
DATE.          Thu Mar 23 13:24:48 2006: LOG DATE
UWI.           05 071 08484 00: UNIQUE WELL ID
STAT.                 Colorado: STATE
~Curve Information Block
DEPT.FT            0 000 00 00: Depth
DCAL.in                       : CDL Caliper
RHOB.g/cc                     : CDL Bulk Density
RHOC.g/cc                     : CDL Density Correction
DPOR.pu                       : CDL Density Porosity
NPOR.pu                       : Neutron Porosity
GR.GAPI                       : Gamma Ray
~Parameter Information Block
~A  Depth       DCAL        RHOB        RHOC        DPOR        NPOR         GR     
# ...
   649.8000      8.0752      2.5334      0.1100      7.0663     22.1841    110.5234
   649.9000      8.0752      2.5380      0.0747      6.7883     21.8312    114.5314
   650.0000      8.0750      2.5358      0.0813      6.9227     21.7687    119.0931
   650.1000      8.0750      2.5407      0.0329      6.6213     22.2909    120.2860
   650.2000      8.0750      2.5575      0.0750      5.6031     22.9324    121.3738
   650.3000      8.0727      2.5680      0.0918      4.9676     23.0391    121.8797
   650.4000      8.0727      2.5706      0.0603      4.8129     22.6513    115.8130
   650.5000      8.0649      2.5812      0.0789      4.1716     22.4023    108.0950
   650.6000      8.0649      2.5958      0.0605      3.2861     22.5334    105.9460
   650.7000      8.0649      2.6029      0.0611      2.8539     22.8072    106.0500
   650.8000      8.0541      2.6079      0.0401      2.5493     23.1835    106.7465
   650.9000      8.0541      2.6141      0.0839      2.1742     23.5740    109.9281
   651.0000      8.0478      2.6058      0.0631      2.6781     23.7952    111.0493
   651.1000      8.0478      2.5788      0.0449      4.3146     23.9177    105.8452
   651.2000      8.0478      2.5586      0.0010      5.5413     24.0171     98.4382
   651.3000      8.0474      2.5637      0.0617      5.2288     24.0210     93.2214
   651.4000      8.0474      2.5818      0.0591      4.1309     23.9631     90.6274
   651.5000      8.0521      2.5900      0.0561      3.6337     23.9197     91.9484
   651.6000      8.0521      2.5726      0.0779      4.6906     23.9821     94.1268
   651.7000      8.0521      2.5358      0.0346      6.9241     24.1201     92.2689
   651.8000      8.0573      2.5097     -0.0117      8.5057     24.1102     90.7736
   651.9000      8.0573      2.5128      0.0169      8.3147     24.0081     94.3320
   652.0000      8.0582      2.5376      0.0202      6.8136     24.1526     98.9459
   652.1000      8.0582      2.5673      0.0542      5.0141     24.5668    100.1120
   652.2000      8.0582      2.5879      0.0520      3.7621     24.7101     99.7635
   652.3000      8.0606      2.5966      0.0514      3.2365     24.2963    100.3995
   652.4000      8.0606      2.6007      0.0700      2.9849     23.7009    101.7040
   652.5000      8.0670      2.6095      0.0714      2.4527     23.2413    102.8552
   652.6000      8.0670      2.6217      0.0747      1.7169     22.8197    101.9026
   652.7000      8.0670      2.6244      0.1167      1.5509     22.4582     98.5214
   652.8000      8.0718      2.6141      0.0847      2.1772     22.3770     94.4585
   652.9000      8.0718      2.5973      0.1178      3.1915     22.5299     90.2855
   653.0000      8.0725      2.5780      0.0713      4.3609     22.5814     86.7215
   653.1000      8.0725      2.5566      0.0975      5.6614     22.3164     83.4175
   653.2000      8.0725      2.5299      0.0807      7.2804     22.0536     79.4370
   653.3000      8.0689      2.5054      0.0567      8.7650     22.1213     77.0219
   653.4000      8.0689      2.4989      0.0535      9.1562     22.2920     77.4004
   653.5000      8.0616      2.5102      0.0589      8.4700     22.0779     77.2361
   653.6000      8.0616      2.5202      0.0617      7.8669     21.3771     76.0782
   653.7000      8.0616      2.5101      0.0383      8.4816     20.8050     76.8845
   653.8000      8.0551      2.4837      0.0124     10.0789     20.8536     79.1819
   653.9000      8.0551      2.4624      0.0337     11.3688     21.1799     80.2064
   654.0000      8.0505      2.4598      0.0266     11.5268     21.1484     77.5717
   654.1000      8.0505      2.4741      0.0492     10.6609     20.7272     72.5514
   654.2000      8.0505      2.4909      0.0535      9.6406     20.4161     69.7909
   654.3000      8.0488      2.4958      0.0624      9.3448     20.4158     71.8836
   654.4000      8.0488      2.4846      0.0435     10.0269     20.3464     77.4496
   654.5000      8.0494      2.4631      0.0502     11.3257     20.0678     82.2698
   654.6000      8.0494      2.4496     -0.0011     12.1445     20.0283     82.8694
   654.7000      8.0494      2.4626      0.0231     11.3551     20.3120     80.8631
   654.8000      8.0525      2.4922      0.0626      9.5664     20.6882     80.3341
   654.9000      8.0525      2.5073      0.0421      8.6512     21.1159     81.6162
   655.0000      8.0590      2.5004      0.0465      9.0674     21.3473     81.6468
   655.1000      8.0590      2.4934      0.0144      9.4911     21.1431     81.2722
   655.2000      8.0590      2.5053      0.0180      8.7684     20.8328     82.6183
   655.3000      8.0679      2.5342      0.0614      7.0211     20.8251     83.8182
   655.4000      8.0679      2.5593      0.0941      5.4951     20.9854     83.8620
   655.5000      8.0749      2.5634      0.0894      5.2513     21.1187     83.8550
   655.6000      8.0749      2.5513      0.1051      5.9828     21.2802     83.7641
   655.7000      8.0749      2.5369      0.0831      6.8574     21.3854     83.4986
   655.8000      8.0776      2.5281      0.0395      7.3893     21.4453     85.2212
   655.9000      8.0776      2.5262      0.0210      7.5033     21.5238     88.3399
   656.0000      8.0785      2.5245      0.0802      7.6081     21.3746     90.1481
   656.1000      8.0785      2.5237      0.0222      7.6551     20.8177     90.7796
   656.2000      8.0785      2.5338      0.0339      7.0405     20.1757     90.3843
   656.3000      8.0791      2.5418      0.0822      6.5577     19.7242     86.5633
   656.4000      8.0791      2.5325      0.0140      7.1201     19.4728     80.9603
   656.5000      8.0787      2.5231      0.0318      7.6881     19.3463     77.8177
   656.6000      8.0787      2.5272      0.0607      7.4422     19.2557     77.0855
   656.7000      8.0787      2.5359      0.0543      6.9121     19.3024     75.9455
   656.8000      8.0779      2.5466      0.0295      6.2681     19.5688     73.1229
   656.9000      8.0779      2.5537      0.0908      5.8369     19.9010     68.9700
   657.0000      8.0796      2.5405      0.0493      6.6336     20.2648     65.3749
   657.1000      8.0796      2.5126      0.0349      8.3289     20.4861     64.8000
   657.2000      8.0796      2.4900      0.0439      9.6955     20.2824     65.1719
   657.3000      8.0863      2.4816      0.0062     10.2080     19.6921     62.9395
   657.4000      8.0863      2.4840      0.0258     10.0598     19.1228     60.7739
   657.5000      8.0953      2.4877      0.0150      9.8391     19.2243     61.9986
   657.6000      8.0953      2.4928     -0.0020      9.5282     20.0266     64.5974
   657.7000      8.0953      2.5101      0.0197      8.4783     20.7981     66.8422
   657.8000      8.0986      2.5364      0.0401      6.8847     21.1274     68.4629
   657.9000      8.0986      2.5477      0.0765      6.1999     21.3302     68.7826
   658.0000      8.0965      2.5312      0.0367      7.2011     21.5882     67.1365
   658.1000      8.0965      2.5058     -0.0507      8.7402     21.5779     62.6941
   658.2000      8.0965      2.4929     -0.0242      9.5208     21.1972     58.2812
   658.3000      8.0956      2.4898      0.0060      9.7079     20.7384     56.7410
   658.4000      8.0956      2.4817      0.0186     10.2003     20.4019     55.7637
   658.5000      8.0976      2.4649     -0.0013     11.2174     20.2412     53.7143
   658.6000      8.0976      2.4517     -0.0262     12.0153     20.2609     51.8897
   658.7000      8.0976      2.4434      0.0307     12.5194     20.2853     51.3196
   658.8000      8.0998      2.4256     -0.0085     13.5996     20.0819     50.4178
   658.9000      8.0998      2.4060     -0.0310     14.7871     19.7315     47.5686
   659.0000      8.0995      2.4045     -0.0011     14.8802     19.3656     46.8101
   659.1000      8.0995      2.4141      0.0844     14.2958     18.9461     51.8405
   659.2000      8.0995      2.4193      0.0328     13.9847     18.5719     59.1060
   659.3000      8.0974      2.4220      0.0574     13.8197     18.3470     62.0864
