~Version Information
VERS.                      2.0: CWLS Log ASCII Standard - VERSION 2.0
WRAP.                       NO: One line per depth step
~Well Information Block
STRT.FT               245.0000: 
STOP.FT              1006.0000: 
STEP.FT                 0.1000: 
NULL.                -999.2500: 
COMP.          Pioneer Natural Resources: COMPANY
WELL.              Atlas 32-18: WELL
FLD.           Purgatoire River: FIELD
LOC.           1892' FNL & 1456' FEL: LOCATION
PROV.                 Colorado: PROVINCE
CNTY.               Las Animas: COUNTRY
SRVC.                Patterson: SERVICE COMPANY
DATE.          Mon Nov 21 08:58:56 2005: LOG DATE
UWI.           05 071 08556 00: UNIQUE WELL ID
~Curve Information Block
DEPT.FT            0 000 00 00: Depth
DCAL.in                       : CDL Caliper
RHOB.g/cc                     : CDL Bulk Density
RHOC.g/cc                     : CDL Density Correction
DPOR.pu                       : CDL Density Porosity
GR.GAPI                       : Gamma Ray
NPOR.pu                       : Neutron Porosity
~Parameter Information Block
~A  Depth       DCAL        RHOB        RHOC        DPOR         GR         NPOR    
# ...
   993.8000      7.7955      2.5411     -0.0042      6.6001   -999.2500   -999.2500
   993.9000      7.7955      2.5298      0.0254      7.2875   -999.2500   -999.2500
   994.0000      7.7806      2.5462      0.0171      6.2937   -999.2500   -999.2500
   994.1000      7.7806      2.5874      0.0397      3.7912   -999.2500   -999.2500
   994.2000      7.7806      2.6280      0.0762      1.3350   -999.2500   -999.2500
   994.3000      7.7968      2.6328      0.0553      1.0403   -999.2500   -999.2500
   994.4000      7.7968      2.6093      0.0576      2.4640   -999.2500   -999.2500
   994.5000      7.7907      2.5972      0.0208      3.2029   -999.2500   -999.2500
   994.6000      7.7907      2.6106      0.0992      2.3905   -999.2500   -999.2500
   994.7000      7.7907      2.6253      0.1013      1.4947   -999.2500   -999.2500
   994.8000      7.8015      2.6259      0.0690      1.4600   -999.2500   -999.2500
   994.9000      7.8015      2.6241      0.0243      1.5692   -999.2500   -999.2500
   995.0000      7.8043      2.6188      0.0759      1.8892   -999.2500   -999.2500
   995.1000      7.8043      2.5869      0.0515      3.8219   -999.2500   -999.2500
   995.2000      7.8043      2.5377     -0.0500      6.8035   -999.2500   -999.2500
   995.3000      7.7964      2.5169     -0.0567      8.0655   -999.2500   -999.2500
   995.4000      7.7964      2.5348      0.0213      6.9822   -999.2500   -999.2500
   995.5000      7.7955      2.5580      0.0483      5.5773   -999.2500   -999.2500
   995.6000      7.7955      2.5667      0.0291      5.0502   -999.2500   -999.2500
   995.7000      7.7955      2.5647      0.0516      5.1680   -999.2500   -999.2500
   995.8000      7.7823      2.5592      0.0435      5.5017   -999.2500   -999.2500
   995.9000      7.7823      2.5549      0.0266      5.7650   -999.2500   -999.2500
   996.0000      7.7963      2.5498      0.0548      6.0736   -999.2500   -999.2500
   996.1000      7.7963      2.5428      0.0156      6.4943   -999.2500   -999.2500
   996.2000      7.7963      2.5409      0.0296      6.6121   -999.2500   -999.2500
   996.3000      7.7951      2.5507     -0.0050      6.0182   -999.2500   -999.2500
   996.4000      7.7951      2.5702      0.0538      4.8343   -999.2500   -999.2500
   996.5000      7.8021      2.5866      0.0512      3.8411   -999.2500   -999.2500
   996.6000      7.8021      2.5959      0.0542      3.2810   -999.2500   -999.2500
   996.7000      7.8021      2.6039      0.0441      2.7920   -999.2500   -999.2500
   996.8000      7.8147      2.6067      0.0923      2.6260   -999.2500   -999.2500
   996.9000      7.8147      2.6003      0.0409      3.0127   -999.2500   -999.2500
   997.0000      7.8014      2.5923      0.0771      3.4994   -999.2500   -999.2500
   997.1000      7.8014      2.5841      0.0534      3.9957   -999.2500   -999.2500
   997.2000      7.8014      2.5753      0.0284      4.5270   -999.2500   -999.2500
   997.3000      7.7948      2.5700      0.0042      4.8504   -999.2500   -999.2500
   997.4000      7.7948      2.5687     -0.0116      4.9300   -999.2500   -999.2500
   997.5000      7.8090      2.5645      0.0051      5.1808   -999.2500   -999.2500
   997.6000      7.8090      2.5569     -0.0124      5.6419   -999.2500   -999.2500
   997.7000      7.8090      2.5559      0.0374      5.7046   -999.2500   -999.2500
   997.8000      7.8134      2.5598      0.0318      5.4666   -999.2500   -999.2500
   997.9000      7.8134      2.5561      0.0768      5.6930   -999.2500   -999.2500
   998.0000      7.8062      2.5511      0.0253      5.9937   -999.2500   -999.2500
   998.1000      7.8062      2.5701      0.0836      4.8450   -999.2500   -999.2500
   998.2000      7.8062      2.6078      0.0901      2.5602   -999.2500   -999.2500
   998.3000      7.7752      2.6284      0.0786      1.3097   -999.2500   -999.2500
   998.4000      7.7752      2.6116      0.0852      2.3263   -999.2500   -999.2500
   998.5000      7.7483      2.5770      0.0050      4.4243   -999.2500   -999.2500
   998.6000      7.7483      2.5631      0.0171      5.2653   -999.2500   -999.2500
   998.7000      7.7483      2.5803      0.0556      4.2258   -999.2500   -999.2500
   998.8000      7.7370      2.6033      0.0697      2.8294   -999.2500   -999.2500
   998.9000      7.7370      2.6117      0.0070      2.3203   -999.2500   -999.2500
   999.0000      7.7938      2.6056      0.0310      2.6909   -999.2500   -999.2500
   999.1000      7.7938      2.5950      0.0277      3.3342   -999.2500   -999.2500
   999.2000      7.7938      2.5953      0.0581      3.3148   -999.2500   -999.2500
   999.3000      7.7882      2.6100      0.0748      2.4256   -999.2500   -999.2500
   999.4000      7.7882      2.6213      0.1148      1.7374   -999.2500   -999.2500
   999.5000      7.7826      2.6146      0.0695      2.1450   -999.2500   -999.2500
   999.6000      7.7826      2.6011      0.0376      2.9635   -999.2500   -999.2500
   999.7000      7.7826      2.5950      0.0868      3.3358   -999.2500   -999.2500
   999.8000      7.7593      2.5857      0.0969      3.8947   -999.2500   -999.2500
   999.9000      7.7593      2.5700      0.0210      4.8475   -999.2500   -999.2500
  1000.0000      7.7668      2.5643      0.0545      5.1916   -999.2500   -999.2500
  1000.1000      7.7668      2.5690      0.0549      4.9113   -999.2500   -999.2500
  1000.2000      7.7668      2.5720      0.0528      4.7263   -999.2500   -999.2500
  1000.3000      7.7927      2.5678      0.0308      4.9820   -999.2500   -999.2500
  1000.4000      7.7927      2.5569      0.0532      5.6436   -999.2500   -999.2500
  1000.5000      7.8063      2.5534      0.0351      5.8560   -999.2500   -999.2500
  1000.6000      7.8063      2.5679      0.0808      4.9734   -999.2500   -999.2500
  1000.7000      7.8063      2.5879      0.0419      3.7664   -999.2500   -999.2500
  1000.8000      7.8250      2.5972      0.0781      3.1987   -999.2500   -999.2500
  1000.9000      7.8250      2.5921      0.0915      3.5105   -999.2500   -999.2500
  1001.0000      7.8062      2.5767      0.0883      4.4423   -999.2500   -999.2500
  1001.1000      7.8062      2.5537      0.0813      5.8371   -999.2500   -999.2500
  1001.2000      7.8062      2.5278      0.0576      7.4085   -999.2500   -999.2500
  1001.3000      7.7658      2.5156      0.0617      8.1435   -999.2500   -999.2500
  1001.4000      7.7658      2.5272      0.0641      7.4419   -999.2500   -999.2500
  1001.5000      7.7154      2.5556      0.1200      5.7199   -999.2500   -999.2500
  1001.6000      7.7154      2.5854      0.1129      3.9131   -999.2500   -999.2500
  1001.7000      7.7154      2.6003      0.0975      3.0124   -999.2500   -999.2500
  1001.8000      7.7119      2.5954      0.0711      3.3081   -999.2500   -999.2500
  1001.9000      7.7119      2.5807      0.0763      4.2023   -999.2500   -999.2500
  1002.0000      7.7490      2.5696      0.0745      4.8712   -999.2500   -999.2500
  1002.1000      7.7490      2.5695      0.0759      4.8805   -999.2500   -999.2500
  1002.2000      7.7490      2.5854      0.0272      3.9127   -999.2500   -999.2500
  1002.3000      7.7542      2.6339      0.0582      0.9733   -999.2500   -999.2500
  1002.4000      7.7542      2.7351      0.0825     -5.1570   -999.2500   -999.2500
  1002.5000      7.7684      2.7637      0.1019     -6.8929   -999.2500   -999.2500
  1002.6000      7.7684      2.3065      0.5867     20.8177   -999.2500   -999.2500
  1002.7000      7.7684      1.3079      0.0100     81.3398   -999.2500   -999.2500
  1002.8000      7.7860      0.4432      0.0100    133.7426   -999.2500   -999.2500
  1002.9000      7.7860      0.0842   -999.2500    155.5060   -999.2500   -999.2500
  1003.0000      7.4180      0.0087   -999.2500    160.0804   -999.2500   -999.2500
  1003.1000      7.4180      0.0005   -999.2500    160.5775   -999.2500   -999.2500
  1003.2000      7.4180      0.0000   -999.2500    160.6061   -999.2500   -999.2500
  1003.3000      5.1504      0.0000   -999.2500    160.6061   -999.2500   -999.2500
