~Version Information
VERS.                      2.0: CWLS Log ASCII Standard - VERSION 2.0
WRAP.                       NO: One line per depth step
~Well Information Block
STRT.FT                -6.7500: 
STOP.FT              1544.5000: 
STEP.FT                 0.2500: 
NULL.                -999.2500: 
COMP.          Pioneer Natural Resources: COMPANY
WELL.          Lorencito 10-36-33-67: WELL
FLD.           Purgatorie River: FIELD
LOC.           2130' FSL & 2362' FEL--: LOCATION
STAT.                       CO: State
CNTY.               Las Animas: COUNTY
CTRY. USA : Country
SECT. 36 : Section
TOWN. 33S : Township
RANG. 67W : Range
SRVC.          Patterson Wireline: SERVICE COMPANY
DATE.          Fri Sep 02 09:21:42 2005: LOG DATE
API.           05 071 08501 00: UNIQUE WELL ID
~Curve Information Block
DEPT.FT            0 000 00 00: Depth
CCL.                          : Casing Collar Locator
TT3.usec                      : CBL 3' Travel Time
AMP3.mV                       : CBL 3' Amplitude
GR.GAPI                       : Gamma Ray
~Parameter Information Block
~A  Depth       CCL         TT3         AMP3         GR     
# ...
  1299.7500      0.0000    646.9918      6.8780     63.8013
  1300.0000      0.0000    656.8447      6.8609     66.2424
  1300.2500      0.0000    656.5076      6.8258     68.4314
  1300.5000      0.0000    641.9692      6.7809     70.0753
  1300.7500      0.0000    615.7296      6.7325     71.5756
  1301.0000      0.0000    587.2501      6.6849     73.1244
  1301.2500      0.0000    568.3265      6.6473     74.3015
  1301.5000      0.0000    566.6839      6.6387     74.4946
  1301.7500      0.0000    581.9346      6.6748     73.4559
  1302.0000      0.0000    606.3467      6.7466     71.6157
  1302.2500      0.0000    629.7839      6.8202     70.0570
  1302.5000      0.0000    645.1241      6.8628     69.9508
  1302.7500      0.0000    650.4248      6.8645     71.7476
  1303.0000      0.0000    647.9537      6.8349     74.9480
  1303.2500      0.0000    642.7402      6.7904     78.7250
  1303.5000      0.0000    640.8096      6.7490     82.6798
  1303.7500      0.0000    645.7095      6.7292     86.8709
  1304.0000      0.0000    655.5616      6.7434     91.0704
  1304.2500      0.0000    664.9175      6.7926     94.1994
  1304.5000      0.0000    670.2183      6.8658     94.9109
  1304.7500      0.0000    672.6299      6.9452     92.9426
  1305.0000      0.0000    675.7057      7.0120     89.7075
  1305.2500      0.0000    681.4460      7.0513     87.4420
  1305.5000      0.0000    688.7496      7.0570     87.7187
  1305.7500      0.0000    694.6016      7.0334     90.4155
  1306.0000      0.0000    696.2237      6.9928     93.6523
  1306.2500      0.0000    692.6205      6.9472     94.8318
  1306.5000      0.0000    684.7243      6.8997     92.3832
  1306.7500      0.0000    673.8780      6.8461     86.9087
  1307.0000      0.0000    659.9924      6.7848     80.6062
  1307.2500      0.0000    642.3412      6.7226     75.5193
  1307.5000      0.0000    623.2992      6.6669     72.3588
  1307.7500      0.0000    609.9018      6.6096     70.8204
  1308.0000      0.0000    609.3015      6.5188     70.6420
  1308.2500      0.0000    622.6205      6.3479     72.1147
  1308.5000      0.0000    644.4996      6.0696     75.5448
  1308.7500      0.0000    667.8293      5.7105     80.4026
  1309.0000      0.0000    687.4329      5.3514     85.2295
  1309.2500      0.0000    700.1087      5.0834     88.4906
  1309.5000      0.0000    703.4406      4.9628     89.4913
  1309.7500      0.0000    696.9935      4.9924     88.6047
  1310.0000      0.0000    686.9588      5.1226     86.7894
  1310.2500      0.0000    687.4734      5.2738     84.8648
  1310.5000      0.0000    710.1363      5.3763     83.0594
  1310.7500     -2.0000    749.2509      5.4007     81.2025
  1311.0000      0.0000    783.0389      5.3621     79.2058
  1311.2500      0.0000    793.5863      5.3102     77.1510
  1311.5000      0.0000    782.4603      5.3068     75.1085
  1311.7500      0.0000    764.2541      5.3907     73.3008
  1312.0000      0.0000    748.8027      5.5550     72.3551
  1312.2500      0.0000    733.4177      5.7616     72.9511
  1312.5000      0.0000    709.8750      5.9712     74.9829
  1312.7500      0.0000    674.5396      6.1557     77.2685
  1313.0000      0.0000    631.7455      6.2978     78.4096
  1313.2500      0.0000    590.3352      6.3915     78.0879
  1313.5000      0.0000    558.0229      6.4443     77.4334
  1313.7500      0.0000    537.6863      6.4708     77.9681
  1314.0000      0.0000    527.4312      6.4856     79.9707
  1314.2500      0.0000    523.3474      6.4989     81.9478
  1314.5000      0.0000    522.1295      6.5168     82.1280
  1314.7500      0.0000    521.9150      6.5423     80.5704
  1315.0000      0.0000    521.8759      6.5772     79.3320
  1315.2500      0.0000    521.6688      6.6203     80.3970
  1315.5000      0.0000    521.2039      6.6655     83.7199
  1315.7500      0.0000    520.5394      6.7037     87.3362
  1316.0000      0.0000    519.7678      6.7249     89.0880
  1316.2500      0.0000    518.9968      6.7215     88.2191
  1316.5000      0.0000    518.5765      6.6932     85.5907
  1316.7500      0.0000    519.5483      6.6524     82.7444
  1317.0000      0.0000    523.9968      6.6239     80.8382
  1317.2500      0.0000    534.7446      6.6342     79.9979
  1317.5000      0.0000    554.0004      6.6973     79.2109
  1317.7500      0.0000    581.4481      6.8034     77.0425
  1318.0000      0.0000    613.2269      6.9181     72.8057
  1318.2500      0.0000    643.1410      7.0013     67.0866
  1318.5000      0.0000    665.7496      7.0322     61.2209
  1318.7500      0.0000    678.8834      7.0195     56.4010
  1319.0000      0.0000    683.5265      6.9867     53.1161
  1319.2500      0.0000    682.0728      6.9536     51.1666
  1319.5000      0.0000    677.2078      6.9287     50.0896
  1319.7500      0.0000    671.5206      6.9150     49.4290
  1320.0000      0.0000    666.9627      6.9144     48.7083
  1320.2500      0.0000    664.4437      6.9230     47.6570
  1320.5000      0.0000    663.9644      6.9287     46.6525
  1320.7500      0.0000    664.8653      6.9159     46.6314
  1321.0000      0.0000    666.0784      6.8781     48.3746
  1321.2500      0.0000    666.8695      6.8266     51.8985
  1321.5000      0.0000    667.4895      6.7855     56.4379
  1321.7500      0.0000    668.5981      6.7764     60.9542
  1322.0000      0.0000    670.0117      6.8026     64.7786
  1322.2500      0.0000    670.5759      6.8495     67.8625
  1322.5000      0.0000    669.3887      6.8976     70.3375
  1322.7500      0.0000    666.6639      6.9341     71.9794
  1323.0000      0.0000    663.1487      6.9526     72.4444
  1323.2500      0.0000    659.2884      6.9463     72.0550
  1323.5000      0.0000    655.4318      6.9094     71.9923
  1323.7500      0.0000    652.1962      6.8464     73.5851
  1324.0000      0.0000    649.3050      6.7763     77.5148
  1324.2500      0.0000    643.9964      6.7209     83.3897
  1324.5000      0.0000    632.5340      6.6894     89.5961
  1324.7500      0.0000    615.0862      6.6771     93.8959
  1325.0000      0.0000    598.4059      6.6749     94.9922
  1325.2500      0.0000    591.7686      6.6772     93.6444
  1325.5000      0.0000    599.6511      6.6838     91.8318
  1325.7500      0.0000    618.7012      6.6969     90.8199
  1326.0000      0.0000    641.1891      6.7168     90.3084
  1326.2500      0.0000    660.4371      6.7371     89.3244
  1326.5000      0.0000    673.7275      6.7501     87.5245
  1326.7500      0.0000    681.8104      6.7548     85.5506
  1327.0000      0.0000    686.4024      6.7580     84.3573
  1327.2500      0.0000    688.3595      6.7659     84.3651
  1327.5000      0.0000    688.2596      6.7766     85.1470
  1327.7500      0.0000    687.7101      6.7828     85.7815
  1328.0000      0.0000    688.6620      6.7799     85.5445
  1328.2500      0.0000    691.4279      6.7708     84.4291
  1328.5000      0.0000    694.2947      6.7632     83.0281
  1328.7500      0.0000    695.3558      6.7614     81.8840
  1329.0000      0.0000    694.1432      6.7612     80.9908
  1329.2500      0.0000    691.2023      6.7515     79.9137
  1329.5000      0.0000    686.4942      6.7241     78.1964
  1329.7500      0.0000    678.9246      6.6808     75.5481
  1330.0000      0.0000    667.5313      6.6340     72.0210
  1330.2500      0.0000    652.5662      6.5979     68.3345
  1330.5000      0.0000    635.4314      6.5815     65.6696
  1330.7500      0.0000    618.6589      6.5875     64.7137
  1331.0000      0.0000    606.4565      6.6131     64.9272
  1331.2500      0.0000    603.8699      6.6506     64.8955
  1331.5000      0.0000    613.5114      6.6902     63.4487
  1331.7500      0.0000    632.7787      6.7245     60.5401
  1332.0000      0.0000    654.9216      6.7518     57.2098
  1332.2500      0.0000    672.9997      6.7720     54.8723
  1332.5000      0.0000    682.9939      6.7814     54.5569
  1332.7500      0.0000    684.0707      6.7729     56.4589
  1333.0000      0.0000    677.0780      6.7409     59.8712
