~Version Information
VERS.                      2.0: CWLS Log ASCII Standard - VERSION 2.0
WRAP.                       NO: One line per depth step
~Well Information Block
STRT.FT               240.0000: 
STOP.FT              1159.2000: 
STEP.FT                 0.1000: 
NULL.                -999.2500: 
COMP.          Pioneer Natural Resources: COMPANY
WELL.               Ryan 41-17: WELL
FLD.           Purgatoire River: FIELD
LOC.           822' FNL & 532' FEL--: LOCATION
CNTY.               Las Animas: COUNTY
SRVC.                Patterson: SERVICE COMPANY
DATE.          Fri Mar 17 07:19:36 2006: LOG DATE
UWI.           05 071 08719 00: UNIQUE WELL ID
STAT.                 Colorado: STATE
~Curve Information Block
DEPT.FT            0 000 00 00: Depth
DCAL.in                       : CDL Caliper
RHOB.g/cc                     : CDL Bulk Density
RHOC.g/cc                     : CDL Density Correction
DPOR.pu                       : CDL Density Porosity
NPOR.pu                       : Neutron Porosity
GR.GAPI                       : Gamma Ray
~Parameter Information Block
~A  Depth       DCAL        RHOB        RHOC        DPOR        NPOR         GR     
# ...
   297.6000      8.0273      2.3023     -0.0578     21.0745     18.1819    116.1474
   297.7000      8.0273      2.3280     -0.0007     19.5159     17.4268    105.4287
   297.8000      8.0351      2.3507     -0.0202     18.1416     16.7513     96.2200
   297.9000      8.0351      2.3621      0.0084     17.4498     16.0329     88.8202
   298.0000      8.0282      2.3677      0.0510     17.1108     15.4121     81.6152
   298.1000      8.0282      2.3786      0.0578     16.4474     15.1167     73.1209
   298.2000      8.0282      2.4151      0.0646     14.2387     15.0714     64.0510
   298.3000      7.9878      2.4816      0.1777     10.2082     15.3240     57.5178
   298.4000      7.9878      2.5412      0.2735      6.5957     15.9073     54.9173
   298.5000      7.9365      2.5598      0.1556      5.4682     16.4578     55.2436
   298.6000      7.9365      2.5480      0.1234      6.1805     16.8622     57.9137
   298.7000      7.9365      2.5274      0.0928      7.4295     17.4520     61.6606
   298.8000      7.9349      2.5118      0.0275      8.3753     18.3168     66.0465
   298.9000      7.9349      2.5165      0.0283      8.0901     19.0958     71.2408
   299.0000      7.9578      2.5371      0.1167      6.8398     19.8023     77.7068
   299.1000      7.9578      2.5498      0.1013      6.0756     20.5776     84.5753
   299.2000      7.9578      2.5394      0.1035      6.7014     21.1652     88.1217
   299.3000      7.9702      2.5127      0.0595      8.3208     21.3586     85.9594
   299.4000      7.9702      2.4999     -0.0183      9.0952     21.1337     81.7011
   299.5000      7.9852      2.5175      0.0468      8.0317     20.5547     81.3278
   299.6000      7.9852      2.5494      0.0163      6.0992     19.8944     83.3277
   299.7000      7.9852      2.5769      0.0912      4.4285     19.6157     84.0205
   299.8000      8.0105      2.5838      0.0666      4.0142     19.9030     85.6209
   299.9000      8.0105      2.5663      0.0483      5.0728     20.4094     89.5233
   300.0000      8.0208      2.5390      0.0191      6.7260     20.7909     94.2334
   300.1000      8.0208      2.5163      0.0760      8.1057     20.9493     97.3344
   300.2000      8.0208      2.5088      0.0209      8.5598     20.9874     96.6647
   300.3000      8.0056      2.5316      0.0474      7.1751     21.1500     95.5778
   300.4000      8.0056      2.5850      0.0916      3.9412     21.2363     97.4682
   300.5000      7.9942      2.6389      0.1449      0.6737     21.0176    100.0260
   300.6000      7.9942      2.6569      0.1163     -0.4207     20.7969    102.9067
   300.7000      7.9942      2.6427      0.0189      0.4402     20.8964    106.7215
   300.8000      7.9974      2.6331      0.0149      1.0219     21.2579    107.1428
   300.9000      7.9974      2.6386      0.0435      0.6898     21.5936     99.8512
   301.0000      8.0007      2.6370      0.1151      0.7891     21.8022     89.4764
   301.1000      8.0007      2.6244     -0.0127      1.5528     21.8297     85.8078
   301.2000      8.0007      2.6230      0.0404      1.6349     21.6279     89.9879
   301.3000      8.0058      2.6339      0.0298      0.9749     21.3901     93.3646
   301.4000      8.0058      2.6316      0.0493      1.1181     21.4702     92.3033
   301.5000      8.0149      2.6092     -0.0027      2.4749     21.8119     90.0231
   301.6000      8.0149      2.5946     -0.0281      3.3561     21.9355     85.9885
   301.7000      8.0149      2.6005      0.0568      2.9995     21.6045     78.2268
   301.8000      8.0221      2.6140      0.0045      2.1829     21.1582     71.3281
   301.9000      8.0221      2.6292      0.0303      1.2603     21.0404     70.3550
   302.0000      8.0255      2.6475     -0.0235      0.1540     21.4224     72.2031
   302.1000      8.0255      2.6727      0.0439     -1.3727     21.9047     73.5264
   302.2000      8.0255      2.6997      0.0789     -3.0118     21.7607     73.7953
   302.3000      8.0198      2.7173      0.0671     -4.0813     21.1541     70.3822
   302.4000      8.0198      2.7238      0.0484     -4.4715     20.9362     65.5606
   302.5000      8.0057      2.7238      0.0417     -4.4731     21.4330     63.9701
   302.6000      8.0057      2.7190      0.0100     -4.1825     22.2857     62.3335
   302.7000      8.0057      2.7085      0.0262     -3.5425     23.1015     59.3650
   302.8000      8.0009      2.6973      0.0160     -2.8657     24.0008     60.3903
   302.9000      8.0009      2.7039     -0.0156     -3.2675     25.0803     64.5452
   303.0000      8.0176      2.7335      0.0559     -5.0595     26.0160     66.2000
   303.1000      8.0176      2.7562      0.0835     -6.4368     26.7640     63.5193
   303.2000      8.0176      2.7522      0.0078     -6.1953     27.4420     58.3788
   303.3000      8.0474      2.7386     -0.0062     -5.3718     27.9432     53.8288
   303.4000      8.0474      2.7337     -0.0284     -5.0730     28.2561     52.5861
   303.5000      8.0747      2.7353      0.0052     -5.1703     28.4444     55.1768
   303.6000      8.0747      2.7371      0.0238     -5.2808     28.6106     58.6307
   303.7000      8.0747      2.7486     -0.0088     -5.9732     28.7620     60.6410
   303.8000      8.0875      2.7650      0.0958     -6.9705     28.6046     65.4643
   303.9000      8.0875      2.7500      0.0551     -6.0621     28.0191     74.8154
   304.0000      8.0890      2.6948      0.0161     -2.7173     27.3077     81.3847
   304.1000      8.0890      2.6346     -0.0990      0.9327     26.7105     83.0332
   304.2000      8.0890      2.5947     -0.0083      3.3501     26.3292     86.8072
   304.3000      8.0891      2.5650     -0.0344      5.1528     25.9565     95.1924
   304.4000      8.0891      2.5337     -0.0152      7.0508     25.2423    103.1280
   304.5000      8.0981      2.5083     -0.0437      8.5859     24.2230    106.9616
   304.6000      8.0981      2.4978     -0.0135      9.2268     23.2064    107.1639
   304.7000      8.0981      2.4933      0.0348      9.4961     22.3677    107.1640
   304.8000      8.1221      2.4848     -0.0384     10.0150     21.8059    109.7046
   304.9000      8.1221      2.4803     -0.0496     10.2837     21.6023    114.3657
   305.0000      8.1484      2.4901     -0.0145      9.6915     21.6237    120.0809
   305.1000      8.1484      2.5098      0.0432      8.4947     21.6418    124.1446
   305.2000      8.1484      2.5258      0.0386      7.5273     21.4603    126.0035
   305.3000      8.1615      2.5261      0.0525      7.5063     21.0907    129.1826
   305.4000      8.1615      2.5134      0.0275      8.2792     20.7692    131.6081
   305.5000      8.1648      2.5035      0.0143      8.8794     20.5451    128.0316
   305.6000      8.1648      2.5068      0.0240      8.6807     20.4533    119.4870
   305.7000      8.1648      2.5177      0.0594      8.0188     20.6922    111.4727
   305.8000      8.1638      2.5264      0.0230      7.4902     21.3296    107.2726
   305.9000      8.1638      2.5243      0.0681      7.6179     22.1230    104.5711
   306.0000      8.1599      2.5072      0.0032      8.6553     22.6840    102.4133
   306.1000      8.1599      2.4951     -0.0154      9.3852     22.7032    105.2804
   306.2000      8.1599      2.5071      0.0417      8.6579     22.4532    113.6545
   306.3000      8.1569      2.5303      0.0411      7.2530     22.5375    119.8814
   306.4000      8.1569      2.5443      0.0579      6.4046     22.9020    119.0059
   306.5000      8.1578      2.5451      0.0906      6.3597     22.9853    115.5866
   306.6000      8.1578      2.5519      0.0035      5.9430     22.5137    114.9720
   306.7000      8.1578      2.5914      0.0766      3.5542     21.7594    117.0098
   306.8000      8.1659      2.6548      0.1172     -0.2896     21.1251    120.5893
   306.9000      8.1659      2.7039      0.1751     -3.2665     20.7664    124.0907
   307.0000      8.1787      2.7142      0.1249     -3.8903     20.6298    123.7851
   307.1000      8.1787      2.6991      0.0877     -2.9728     20.5911    121.6060
