~Version Information
VERS.                      2.0: CWLS Log ASCII Standard - VERSION 2.0
WRAP.                       NO: One line per depth step
~Well Information Block
STRT.FT                -7.2500: 
STOP.FT              1334.7500: 
STEP.FT                 0.2500: 
NULL.                -999.2500: 
COMP.          Pioneer Natural Resources: COMPANY
WELL.          Buffet 41-36 Tr: WELL
FLD.           Purgatorie River: FIELD
LOC.           119' FNL & 271' FEL--: LOCATION
PROV.                       CO: PROVINCE
CNTY.               Las Animas: COUNTRY
SRVC.          Patterson Wireline: SERVICE COMPANY
DATE.          Tue Jan 03 09:43:31 2006: LOG DATE
UWI.           05 071 08627 00: UNIQUE WELL ID
~Curve Information Block
DEPT.FT            0 000 00 00: Depth
CCL.                          : Casing Collar Locator
TT3.usec                      : CBL 3' Travel Time
AMP3.mV                       : CBL 3' Amplitude
GR.GAPI                       : Gamma Ray
~Parameter Information Block
~A  Depth       CCL         TT3         AMP3         GR     
# ...
  1031.2500      0.0000    791.0600      6.1771    149.2457
  1031.5000      0.0000    795.1280      6.2456    152.2331
  1031.7500      0.0000    798.1412      6.3217    156.6558
  1032.0000      0.0000    798.9774      6.3965    161.9411
  1032.2500      0.0000    797.1605      6.4567    165.6830
  1032.5000      0.0000    792.9965      6.5037    165.4020
  1032.7500      0.0000    788.0325      6.5527    161.0519
  1033.0000      0.0000    784.6652      6.6127    154.8682
  1033.2500      0.0000    783.9518      6.6729    148.8354
  1033.5000      0.0000    783.5284      6.7091    143.3903
  1033.7500      0.0000    778.9318      6.7033    138.4824
  1034.0000      0.0000    767.8206      6.6600    134.5186
  1034.2500      0.0000    752.4973      6.6044    131.8885
  1034.5000      0.0000    738.0184      6.5637    130.3378
  1034.7500      0.0000    728.2966      6.5469    129.0202
  1035.0000      0.0000    724.0512      6.5407    126.7498
  1035.2500      0.0000    723.7917      6.5252    122.5778
  1035.5000      0.0000    726.0194      6.4893    116.8166
  1035.7500      0.0000    730.1075      6.4339    111.3216
  1036.0000      0.0000    735.4387      6.3657    108.2361
  1036.2500      0.0000    740.8089      6.2930    108.3907
  1036.5000      0.0000    745.2621      6.2235    110.7603
  1036.7500      0.0000    749.2241      6.1620    113.0382
  1037.0000      0.0000    754.4009      6.1084    112.8995
  1037.2500      0.0000    762.4832      6.0561    109.3675
  1037.5000      0.0000    773.8406      5.9964    103.2278
  1037.7500      0.0000    787.2419      5.9268     95.9723
  1038.0000      0.0000    800.2256      5.8540     88.4307
  1038.2500      0.0000    808.8395      5.7865     80.6644
  1038.5000      0.0000    807.4052      5.7265     72.9282
  1038.7500      0.0000    790.8987      5.6718     66.1972
  1039.0000      0.0000    759.7602      5.6246     61.4758
  1039.2500      0.0000    722.2941      5.5978     58.7173
  1039.5000      0.0000    690.6700      5.6135     56.8044
  1039.7500      0.0000    673.2234      5.6895     54.9124
  1040.0000      0.0000    670.1487      5.8199     53.8057
  1040.2500      0.0000    676.0671      5.9662     55.5668
  1040.5000      0.0000    686.1570      6.0738     61.8950
  1040.7500      0.0000    699.5771      6.1067     72.5949
  1041.0000      0.0000    717.0352      6.0687     85.6525
  1041.2500      0.0000    736.0793      5.9929     98.6288
  1041.5000      0.0000    750.7939      5.9141    109.8345
  1041.7500      0.0000    757.1189      5.8546    118.3542
  1042.0000      0.0000    757.3493      5.8256    123.6355
  1042.2500      0.0000    757.9984      5.8312    125.7096
  1042.5000      0.0000    763.7007      5.8682    125.6237
  1042.7500      0.0000    773.8230      5.9231    124.9286
  1043.0000      0.0000    783.7597      5.9717    124.4258
  1043.2500      0.0000    788.2292      5.9865    123.5850
  1043.5000      0.0000    784.0125      5.9544    121.3901
  1043.7500      0.0000    771.1482      5.8871    117.7741
  1044.0000      0.0000    752.5406      5.8139    114.0599
  1044.2500      0.0000    732.5187      5.7593    111.8912
  1044.5000      0.0000    715.2738      5.7314    111.8351
  1044.7500      0.0000    703.9521      5.7257    113.0223
  1045.0000      0.0000    700.1318      5.7346    114.0267
  1045.2500      0.0000    703.0710      5.7526    114.1142
  1045.5000      0.0000    709.6594      5.7770    113.6538
  1045.7500      0.0000    716.4264      5.8080    113.3576
  1046.0000      0.0000    722.1769      5.8458    113.3407
  1046.2500      0.0000    728.2067      5.8889    113.1797
  1046.5000      0.0000    735.9038      5.9344    112.6512
  1046.7500      0.0000    745.0020      5.9782    111.9453
  1047.0000      0.0000    754.3680      6.0148    111.3552
  1047.2500      0.0000    763.1527      6.0398    111.2443
  1047.5000      0.0000    770.0755      6.0552    112.2170
  1047.7500      0.0000    772.5620      6.0683    114.7410
  1048.0000      0.0000    768.5677      6.0836    118.3670
  1048.2500      0.0000    759.5816      6.0983    121.6360
  1048.5000      0.0000    750.2443      6.1067    123.1460
  1048.7500      0.0000    744.3201      6.1071    122.7253
  1049.0000      0.0000    741.9832      6.1011    121.3749
  1049.2500      0.0000    741.0974      6.0869    120.1626
  1049.5000      0.0000    739.5023      6.0569    119.5274
  1049.7500      0.0000    735.8000      6.0057    119.6264
  1050.0000      0.0000    729.7576      5.9359    120.7286
  1050.2500      0.0000    722.8030      5.8586    122.9602
  1050.5000      0.0000    717.1932      5.7865    125.9174
  1050.7500      0.0000    714.5250      5.7263    128.6406
  1051.0000      0.0000    715.6391      5.6748    130.1511
  1051.2500      0.0000    721.6071      5.6237    130.3276
  1051.5000      0.0000    733.5228      5.5720    130.1708
  1051.7500      0.0000    750.2811      5.5286    130.8717
  1052.0000      0.0000    767.0128      5.5023    132.7775
  1052.2500      0.0000    777.3542      5.4905    135.4312
  1052.5000      0.0000    778.2933      5.4838    138.2253
  1052.7500      0.0000    772.1370      5.4781    140.5786
  1053.0000      0.0000    763.2686      5.4807    141.6815
  1053.2500      0.0000    754.0118      5.5047    140.5930
  1053.5000      0.0000    744.2491      5.5575    136.9064
  1053.7500      0.0000    733.9106      5.6355    131.4524
  1054.0000      0.0000    724.4637      5.7247    126.0120
  1054.2500      0.0000    717.9477      5.8071    121.8260
  1054.5000      0.0000    715.4845      5.8677    118.4073
  1054.7500      0.0000    716.9241      5.8990    114.2049
  1055.0000      0.0000    720.9682      5.8994    108.5433
  1055.2500      0.0000    725.0514      5.8721    102.6704
  1055.5000      0.0000    726.1769      5.8281     98.6591
  1055.7500      0.0000    723.3298      5.7866     97.2994
  1056.0000      0.0000    718.9565      5.7689     97.4631
  1056.2500      0.0000    716.8945      5.7896     97.8074
  1056.5000      0.0000    718.6262      5.8498     98.6911
  1056.7500      0.0000    722.1486      5.9357    101.8468
  1057.0000      0.0000    724.7833      6.0207    108.3958
  1057.2500      0.0000    726.7914      6.0759    117.6286
  1057.5000      0.0000    731.7658      6.0801    127.2491
  1057.7500      0.0000    742.9963      6.0272    134.3466
  1058.0000      0.0000    759.5439      5.9282    136.8378
  1058.2500      0.0000    776.5672      5.8071    134.9662
  1058.5000      0.0000    789.4421      5.6908    131.4305
  1058.7500      0.0000    796.6976      5.5916    129.5406
  1059.0000      0.0000    799.1694      5.4974    130.8355
  1059.2500      0.0000    797.5804      5.3784    134.2591
  1059.5000      0.0000    791.8506      5.2159    137.5399
  1059.7500      0.0000    783.5173      5.0313    139.2462
  1060.0000      0.0000    779.5346      4.8717    139.4209
  1060.2500      0.0000    792.0961      4.7488    138.7110
  1060.5000      0.0000    830.0637      4.6099    137.4141
  1060.7500      0.0000    888.1006      4.3996    135.1269
  1061.0000      0.0000    947.0814      4.1367    130.9357
  1061.2500      0.0000    988.6360      3.8937    124.1870
  1061.5000      0.0000   1009.0832      3.7189    115.1652
  1061.7500      0.0000   1018.7339      3.6126    104.8995
  1062.0000      2.0000   1029.1212      3.5691     94.5460
  1062.2500      0.0000   1041.0372      3.6092     85.1465
  1062.5000      0.0000   1044.1730      3.7597     77.6735
  1062.7500      0.0000   1029.1390      4.0070     73.0241
  1063.0000      0.0000    999.0435      4.2811     71.8786
  1063.2500      0.0000    965.7531      4.5029     74.3906
  1063.5000      0.0000    934.7975      4.6568     79.9886
  1063.7500      0.0000    899.6913      4.7999     87.7581
  1064.0000      0.0000    853.7219      4.9900     97.0374
  1064.2500      0.0000    801.9988      5.2256    107.2278
  1064.5000      0.0000    758.0840      5.4651    116.9066
