~Version Information
VERS.                      2.0: CWLS Log ASCII Standard - VERSION 2.0
WRAP.                       NO: One line per depth step
~Well Information Block
STRT.FT               460.0000: 
STOP.FT              3058.5000: 
STEP.FT                 0.1000: 
NULL.                -999.2500: 
COMP.          Pioneer Natural Resources: COMPANY
WELL.            Cleaver 24-12: WELL
FLD.           Purgatoire River: FIELD
LOC.           204' FSL & 2351' FWL: LOCATION
PROV.                 Colorado: PROVINCE
CNTY.               Las Animas: COUNTRY
SRVC.                Patterson: SERVICE COMPANY
DATE.          Mon Jan 09 13:49:27 2006: LOG DATE
UWI.           05 071 08634 00: UNIQUE WELL ID
~Curve Information Block
DEPT.FT            0 000 00 00: Depth
DCAL.in                       : CDL Caliper
RHOB.g/cc                     : CDL Bulk Density
RHOC.g/cc                     : CDL Density Correction
DPOR.pu                       : CDL Density Porosity
GR.GAPI                       : Gamma Ray
NPOR.pu                       : Neutron Porosity
~Parameter Information Block
~A  Depth       DCAL        RHOB        RHOC        DPOR         GR         NPOR    
# ...
  1324.0000      8.0183      2.4976     -0.0039      9.2342     86.5379     18.6067
  1324.1000      8.0183      2.4824     -0.0128     10.1553     85.2468     18.7400
  1324.2000      8.0183      2.4656     -0.0173     11.1751     85.0428     18.9106
  1324.3000      8.0395      2.4505     -0.0443     12.0936     85.5918     19.0912
  1324.4000      8.0395      2.4460      0.0074     12.3609     85.3553     19.4038
  1324.5000      8.0252      2.4531      0.0196     11.9351     82.2125     19.8970
  1324.6000      8.0252      2.4644      0.0460     11.2493     80.2413     20.6232
  1324.7000      8.0252      2.4754      0.0661     10.5835     86.1110     21.4814
  1324.8000      7.9375      2.4882      0.0961      9.8043     99.2579     22.5138
  1324.9000      7.9375      2.5023      0.1191      8.9522    112.1916     23.8461
  1325.0000      7.9063      2.5140      0.1060      8.2430    118.8657     24.8706
  1325.1000      7.9063      2.5241      0.1258      7.6316    119.9518     25.1791
  1325.2000      7.9063      2.5381      0.0792      6.7790    120.0233     25.4030
  1325.3000      7.8939      2.5609      0.0725      5.3977    120.2723     25.6839
  1325.4000      7.8939      2.5807      0.1188      4.2024    118.6477     25.7901
  1325.5000      7.9161      2.5886      0.0355      3.7213    120.5414     25.6976
  1325.6000      7.9161      2.6011      0.0492      2.9629    128.9962     25.2844
  1325.7000      7.9161      2.6159      0.1292      2.0677    133.2757     24.4824
  1325.8000      7.9386      2.6091      0.1031      2.4781    127.9583     23.4821
  1325.9000      7.9386      2.5891     -0.0071      3.6906    123.2699     22.5441
  1326.0000      7.9347      2.5878      0.0004      3.7724    125.0028     21.9331
  1326.1000      7.9347      2.6126      0.0648      2.2637    128.4210     21.7062
  1326.2000      7.9347      2.6392      0.0862      0.6576    128.3976     21.6255
  1326.3000      7.9359      2.6468      0.0365      0.1938    123.9157     21.4968
  1326.4000      7.9359      2.6480      0.0322      0.1224    119.6957     21.1459
  1326.5000      7.9146      2.6607      0.0143     -0.6478    117.1181     20.5083
  1326.6000      7.9146      2.6706      0.1153     -1.2467    113.4040     19.7312
  1326.7000      7.9146      2.6516      0.0609     -0.0971    109.9849     19.2788
  1326.8000      7.9157      2.6184      0.0263      1.9155    108.4138     19.3191
  1326.9000      7.9157      2.6071     -0.0243      2.6016    106.9507     19.4140
  1327.0000      7.9239      2.6228      0.0430      1.6464    105.2363     19.3254
  1327.1000      7.9239      2.6439     -0.0280      0.3689    102.6386     19.2400
  1327.2000      7.9239      2.6619      0.0144     -0.7222     96.8128     19.2608
  1327.3000      7.9239      2.6796      0.0090     -1.7958     89.4807     19.3920
  1327.4000      7.9239      2.6889      0.0928     -2.3556     84.7120     19.6120
  1327.5000      7.9257      2.6742      0.0657     -1.4696     85.2170     19.6925
  1327.6000      7.9257      2.6401      0.0238      0.6009     90.7429     19.6487
  1327.7000      7.9257      2.6085      0.0282      2.5166     95.3136     19.6741
  1327.8000      7.9268      2.5906     -0.0245      3.5981     95.1175     19.6254
  1327.9000      7.9268      2.5811      0.0327      4.1739     95.5352     19.2508
  1328.0000      7.9235      2.5739     -0.0286      4.6108    100.5361     18.6705
  1328.1000      7.9235      2.5738     -0.0508      4.6198    104.2099     18.2883
  1328.2000      7.9235      2.5812      0.0516      4.1697    102.4439     18.3440
  1328.3000      7.9451      2.5917     -0.0104      3.5348    100.0058     18.5411
  1328.4000      7.9451      2.6084      0.0402      2.5198     98.6666     18.4344
  1328.5000      7.9494      2.6272      0.0495      1.3843     95.9913     18.3096
  1328.6000      7.9494      2.6383      0.0649      0.7082     92.8352     18.5021
  1328.7000      7.9494      2.6312      0.0721      1.1394     91.8577     18.8034
  1328.8000      7.9507      2.6005      0.0478      2.9996     93.5890     19.1895
  1328.9000      7.9507      2.5700     -0.0207      4.8513     96.3917     19.8644
  1329.0000      7.9148      2.5645      0.0661      5.1834     97.9786     20.7479
  1329.1000      7.9148      2.5743      0.0280      4.5858     96.4293     21.4660
  1329.2000      7.9148      2.5815      0.0575      4.1529     92.5206     21.8606
  1329.3000      7.9053      2.5800      0.0444      4.2409     90.9574     22.1191
  1329.4000      7.9053      2.5694      0.0680      4.8834     94.5559     22.3994
  1329.5000      7.9058      2.5564      0.0223      5.6710     99.1374     22.9024
  1329.6000      7.9058      2.5560      0.0844      5.6998    100.2865     23.6818
  1329.7000      7.9058      2.5709      0.1138      4.7936     99.8942     24.5283
  1329.8000      7.9046      2.5974      0.0656      3.1878    101.2006     25.0778
  1329.9000      7.9046      2.6351      0.0643      0.9029    102.4713     25.1816
  1330.0000      7.9049      2.6725      0.0921     -1.3658    102.8162     25.4446
  1330.1000      7.9049      2.6957      0.0794     -2.7705    106.0897     26.2943
  1330.2000      7.9049      2.7046      0.0909     -3.3083    112.6178     27.2041
  1330.3000      7.9079      2.7046      0.0564     -3.3113    117.9658     27.7095
  1330.4000      7.9079      2.6912      0.0907     -2.4972    122.2804     27.8048
  1330.5000      7.9074      2.6576      0.0656     -0.4603    129.4006     27.2661
  1330.6000      7.9074      2.6207      0.0483      1.7764    136.3991     26.3727
  1330.7000      7.9074      2.6039      0.0612      2.7928    136.3389     25.8381
  1330.8000      7.9015      2.5989      0.1099      3.0953    130.2625     25.6553
  1330.9000      7.9015      2.5824      0.0704      4.0998    126.2140     25.4395
  1331.0000      7.9096      2.5609      0.0246      5.4006    125.9378     25.2867
  1331.1000      7.9096      2.5575      0.0515      5.6038    126.8516     25.3782
  1331.2000      7.9096      2.5750      0.0667      4.5453    130.2298     25.5480
  1331.3000      7.9188      2.5971      0.1021      3.2052    135.9870     25.4363
  1331.4000      7.9188      2.6044      0.0874      2.7636    141.5426     25.0448
  1331.5000      7.9407      2.5963      0.0816      3.2559    143.4628     24.8878
  1331.6000      7.9407      2.5928      0.0547      3.4646    140.9695     25.0257
  1331.7000      7.9407      2.5916      0.1185      3.5417    138.8711     25.2244
  1331.8000      7.9485      2.5718      0.0627      4.7389    139.3983     25.6862
  1331.9000      7.9485      2.5465     -0.0240      6.2710    137.6036     26.2625
  1332.0000      7.9562      2.5388      0.0428      6.7401    131.1926     26.1321
  1332.1000      7.9562      2.5429      0.0489      6.4938    125.5898     25.2044
  1332.2000      7.9562      2.5426      0.0905      6.5069    125.1099     24.3300
  1332.3000      7.9250      2.5354      0.0826      6.9448    126.0753     23.9768
  1332.4000      7.9250      2.5405      0.0262      6.6362    126.2795     24.2861
  1332.5000      7.8879      2.5725      0.0805      4.6947    129.9917     25.0481
  1332.6000      7.8879      2.6101      0.1321      2.4199    138.5886     25.6063
  1332.7000      7.8879      2.6235      0.1300      1.6088    148.1019     25.6664
  1332.8000      7.9081      2.6073      0.1537      2.5865    153.8027     25.4492
  1332.9000      7.9081      2.5800      0.0791      4.2410    152.0310     25.2662
  1333.0000      7.8989      2.5672      0.0744      5.0174    143.7037     25.3404
  1333.1000      7.8989      2.5710      0.0655      4.7889    136.1083     25.5751
  1333.2000      7.8989      2.5683      0.1107      4.9509    134.2678     25.4610
  1333.3000      7.8976      2.5501      0.0779      6.0576    133.8508     24.5600
  1333.4000      7.8976      2.5374     -0.0157      6.8261    130.1255     23.2554
  1333.5000      7.9267      2.5438      0.0760      6.4385    125.9007     22.4420
