~Version Information
VERS.                      2.0: CWLS Log ASCII Standard - VERSION 2.0
WRAP.                       NO: One line per depth step
~Well Information Block
STRT.FT                -8.0000: 
STOP.FT              1472.2500: 
STEP.FT                 0.2500: 
NULL.                -999.2500: 
COMP.          Pioneer Natural Resources: COMPANY
WELL.           Amore 32-09 Tr: WELL
FLD.           Purgatoire River: FIELD
LOC.           1941' FNL & 2297' FEL--: LOCATION
PROV.                       CO: PROVINCE
CNTY.               Las Animas: COUNTRY
SRVC.          Patterson Wireline: SERVICE COMPANY
DATE.          Tue Nov 22 11:37:00 2005: LOG DATE
UWI.           05 071 08584 00: UNIQUE WELL ID
~Curve Information Block
DEPT.FT            0 000 00 00: Depth
CCL.                          : Casing Collar Locator
TT3.usec                      : CBL 3' Travel Time
AMP3.mV                       : CBL 3' Amplitude
GR.GAPI                       : Gamma Ray
~Parameter Information Block
~A  Depth       CCL         TT3         AMP3         GR     
    -8.0000   -999.2500   -999.2500   -999.2500     96.0118
    -7.7500   -999.2500   -999.2500   -999.2500     94.6058
    -7.5000   -999.2500   -999.2500   -999.2500     91.5818
    -7.2500   -999.2500   -999.2500   -999.2500     87.2499
    -7.0000   -999.2500   -999.2500   -999.2500     82.7983
    -6.7500   -999.2500   -999.2500   -999.2500     79.3143
    -6.5000   -999.2500   -999.2500   -999.2500     77.3261
    -6.2500   -999.2500   -999.2500   -999.2500     77.0111
    -6.0000   -999.2500   -999.2500   -999.2500     78.4505
    -5.7500   -999.2500   -999.2500   -999.2500     81.5982
    -5.5000   -999.2500   -999.2500   -999.2500     85.9710
    -5.2500   -999.2500   -999.2500   -999.2500     90.3095
    -5.0000   -999.2500   -999.2500   -999.2500     92.6978
    -4.7500   -999.2500   -999.2500   -999.2500     91.5873
    -4.5000   -999.2500   -999.2500   -999.2500     87.2996
    -4.2500   -999.2500   -999.2500   -999.2500     82.3626
    -4.0000   -999.2500   -999.2500   -999.2500     79.6758
    -3.7500   -999.2500   -999.2500   -999.2500     80.2132
    -3.5000   -999.2500   -999.2500   -999.2500     82.7220
    -3.2500   -999.2500   1158.0000     -0.3718     85.3035
    -3.0000   -999.2500   1158.0000     -0.3726     87.0232
    -2.7500   -999.2500   1158.0000     -0.3709     88.4189
    -2.5000   -999.2500   1158.0000     -0.3697     90.6156
    -2.2500   -999.2500   1158.0000     -0.3720     93.6726
    -2.0000   -999.2500   1158.0000     -0.3768     96.0452
    -1.7500   -999.2500   1158.0000     -0.3799     96.1133
    -1.5000   -999.2500   1158.0000     -0.3791     93.7802
    -1.2500   -999.2500   1158.0000     -0.3763     89.9761
    -1.0000   -999.2500   1158.0000     -0.3743     85.1140
    -0.7500   -999.2500   1158.0000     -0.3734     78.8692
    -0.5000   -999.2500   1158.0000     -0.3707     71.2435
    -0.2500   -999.2500   1158.0000     -0.3644     63.1846
     0.0000   -999.2500   1158.0000     -0.3505     51.2439
     0.2500   -999.2500   1158.0000     -0.3494     48.8085
     0.5000   -999.2500   1158.0000     -0.3516     48.3834
     0.7500   -999.2500   1158.0000     -0.3540     48.9502
     1.0000   -999.2500   1158.0000     -0.3543     49.1352
     1.2500   -999.2500   1158.0000     -0.3529     47.7901
     1.5000   -999.2500   1158.0000     -0.3521     44.9088
     1.7500   -999.2500   1158.0000     -0.3547     41.8508
     2.0000      0.0000   1158.0000     -0.3609     40.3976
     2.2500      0.0000   1158.0000     -0.3679     41.6386
     2.5000      0.0000   1158.0000     -0.3730     45.6648
     2.7500      0.0000   1158.0000     -0.3757     51.7302
     3.0000      0.0000   1158.0000     -0.3768     58.3206
     3.2500      0.0000   1158.0000     -0.3756     63.5241
     3.5000      0.0000   1158.0000     -0.3708     66.1434
     3.7500      0.0000   1158.0000     -0.3619     66.6350
     4.0000      0.0000   1158.0000     -0.3496     66.5393
     4.2500      0.0000   1158.0000     -0.3362     66.7834
     4.5000      0.0000   1158.0000     -0.3251     66.8003
     4.7500      0.0000   1158.0000     -0.3204     65.4514
     5.0000      0.0000   1157.9760     -0.3229     62.5944
     5.2500      0.0000   1157.7843     -0.3204     59.4517
     5.5000      0.0000   1156.7612     -0.2704     57.4899
     5.7500      0.0000   1152.4622     -0.0227     57.1568
     6.0000      0.0000   1138.2192      0.8661     57.6995
     6.2500      0.0000   1100.9705      3.4006     57.9414
     6.5000      0.0000   1023.9865      9.1713     57.0617
     6.7500      0.0000    898.1611     19.5832     54.8713
     7.0000      0.0000    735.4814     34.3749     51.8024
     7.2500      0.0000    569.1385     50.8477     48.7573
     7.5000      0.0000    434.7102     65.1805     46.6622
     7.7500      0.0000    348.9386     74.8732     45.9250
     8.0000      0.0000    305.7847     79.8438     46.2714
     8.2500      0.0000    288.6812     81.4265     46.9960
     8.5000      0.0000    283.3420     80.8336     47.3399
     8.7500      0.0000    282.0535     78.5434     47.0107
     9.0000      0.0000    281.9594     74.6007     46.6532
     9.2500      0.0000    282.4930     69.1020     47.5724
     9.5000      0.0000    283.9964     62.4001     50.6408
     9.7500      0.0000    287.1934     55.0335     55.3775
    10.0000      0.0000    292.7656     47.5688     60.1213
    10.2500      0.0000    300.8921     40.4902     63.3178
    10.5000      0.0000    311.4300     34.1322     64.8910
    10.7500      0.0000    325.0638     28.6519     66.2411
    11.0000      0.0000    344.1190     24.0542     68.6396
    11.2500      0.0000    371.0237     20.2567     71.7763
    11.5000      0.0000    404.9179     17.1523     74.1874
    11.7500      0.0000    440.1960     14.6504     75.0244
    12.0000      0.0000    469.7031     12.6963     74.9474
    12.2500      0.0000    489.9264     11.2588     75.0976
    12.5000      0.0000    503.2133     10.2933     75.6709
    12.7500      0.0000    515.8266      9.7168     76.0480
    13.0000      0.0000    534.8204      9.4151     76.0691
    13.2500      0.0000    567.0845      9.2591     76.4797
    13.5000      0.0000    620.1027      9.1217     78.0134
    13.7500      0.0000    699.4474      8.9200     80.5104
    14.0000      0.0000    800.0554      8.6676     83.0193
    14.2500      0.0000    901.0766      8.4599     84.4425
    14.5000      0.0000    977.6572      8.3751     83.9535
    14.7500      0.0000   1021.8784      8.4041     81.1568
    15.0000      0.0000   1047.3665      8.4808     76.3249
    15.2500      0.0000   1070.7972      8.5414     70.6303
    15.5000      2.0000   1093.3372      8.5420     65.9640
    15.7500      0.0000   1101.4099      8.4728     64.1951
    16.0000      0.0000   1079.7279      8.4136     66.0929
    16.2500      0.0000   1021.9303      8.5655     70.5668
    16.5000      0.0000    934.9594      9.1433     75.1551
    16.7500      0.0000    837.4476     10.1450     77.8779
    17.0000      0.0000    751.3237     11.2341     78.7893
    17.2500      0.0000    691.3431     11.9340     79.3854
    17.5000      0.0000    660.4348     11.9864     80.5755
    17.7500      0.0000    652.3264     11.5078     81.6437
    18.0000      0.0000    656.9713     10.8238     81.1892
    18.2500      0.0000    665.7335     10.2067     78.7762
    18.5000      0.0000    674.4371      9.7623     75.5185
    18.7500      0.0000    682.6818      9.4812     73.0696
    19.0000      0.0000    690.5200      9.3247     72.1722
    19.2500      0.0000    696.2267      9.2594     72.4972
    19.5000      0.0000    697.5235      9.2557     73.7925
    19.7500      0.0000    694.5455      9.2882     76.4468
    20.0000      0.0000    690.6189      9.3450     80.5361
    20.2500      0.0000    689.7006      9.4308     84.9808
    20.5000      0.0000    693.1698      9.5536     88.1789
    20.7500      0.0000    698.9897      9.7053     89.0785
    21.0000      0.0000    703.4143      9.8568     87.4551
    21.2500      0.0000    703.5441      9.9734     83.9449
    21.5000      0.0000    698.9866     10.0390     80.2171
    21.7500      0.0000    691.8303     10.0669     78.2209
    22.0000      0.0000    685.1995     10.0869     78.5309
    22.2500      0.0000    681.5713     10.1190     79.7487
    22.5000      0.0000    681.9164     10.1600     79.8862
    22.7500      0.0000    685.6398     10.1951     78.1105
    23.0000      0.0000    690.9874     10.2206     75.1679
    23.2500      0.0000    696.2958     10.2488     72.5888
    23.5000      0.0000    701.6805     10.2927     71.6872
    23.7500      0.0000    709.0190     10.3509     72.9551
    24.0000      0.0000    719.5884     10.4089     75.9448
    24.2500      0.0000    732.3411     10.4516     79.5395
    24.5000      0.0000    745.1109     10.4737     82.3082
    24.7500      0.0000    756.6995     10.4800     82.8781
    25.0000      0.0000    766.9412     10.4802     80.6131
    25.2500      0.0000    775.2726     10.4791     76.2555
