~Version Information
VERS.                      2.0: CWLS Log ASCII Standard - VERSION 2.0
WRAP.                       NO: One line per depth step
~Well Information Block
STRT.FT               555.0000: 
STOP.FT              1159.0000: 
STEP.FT                 0.2500: 
NULL.                -999.2500: 
COMP.          Pioneer Natural Resources: COMPANY
WELL.              Draco 31-21: WELL
FLD.           Purgatoire River: FIELD
LOC.           491' FNL & 2446' FEL: LOCATION
CNTY.               Las Animas: COUNTY
SRVC.                Patterson: SERVICE COMPANY
DATE.          Tue Jan 31 17:48:38 2006: LOG DATE
UWI.           05 071 08672 00: UNIQUE WELL ID
STAT.                 Colorado: STATE
~Curve Information Block
DEPT.FT            0 000 00 00: Depth
SN.Ohm-m                      : IEL Short Normal
SP.mV                         : IEL Spontaneous Potential
DIR.Ohm-m                     : IEL Induction Resistivity
GR.GAPI                       : Gamma Ray
~Parameter Information Block
~A  Depth        SN          SP         DIR          GR     
# ...
   622.0000   2000.0000   2000.0000     12.7390    151.2044
   622.2500   2000.0000   2000.0000     13.5079    146.5054
   622.5000   2000.0000   2000.0000     14.3192    135.7651
   622.7500   2000.0000   2000.0000     15.1453    127.1316
   623.0000   2000.0000   2000.0000     15.9493    114.4546
   623.2500   2000.0000   2000.0000     16.7004    107.2691
   623.5000   2000.0000   2000.0000     17.3958     98.7873
   623.7500   2000.0000   2000.0000     18.0657     94.2574
   624.0000   2000.0000   2000.0000     18.7515     88.2717
   624.2500   2000.0000   2000.0000     19.4721     84.5457
   624.5000   2000.0000   2000.0000     20.2000     79.5075
   624.7500   2000.0000   2000.0000     20.8628     76.9168
   625.0000   2000.0000   2000.0000     21.3730     75.0623
   625.2500   2000.0000   2000.0000     21.6737     75.5846
   625.5000   2000.0000   2000.0000     21.7648     79.1635
   625.7500   2000.0000   2000.0000     21.6802     83.0836
   626.0000   2000.0000   2000.0000     21.4448     90.2398
   626.2500   2000.0000   2000.0000     21.0515     95.3405
   626.5000   2000.0000   2000.0000     20.4761    102.9972
   626.7500   2000.0000   2000.0000     19.7049    107.7584
   627.0000   2000.0000   2000.0000     18.7538    113.1760
   627.2500   2000.0000   2000.0000     17.6752    114.8936
   627.5000   2000.0000   2000.0000     16.5479    114.5242
   627.7500   2000.0000   2000.0000     15.4534    113.1024
   628.0000   2000.0000   2000.0000     14.4493    110.8672
   628.2500   2000.0000   2000.0000     13.5617    109.7691
   628.5000   2000.0000   2000.0000     12.7935    108.6568
   628.7500   2000.0000   2000.0000     12.1371    108.2171
   629.0000   2000.0000   2000.0000     11.5808    108.3636
   629.2500   2000.0000   2000.0000     11.1093    109.3321
   629.5000   2000.0000   2000.0000     10.7049    112.4739
   629.7500   2000.0000   2000.0000     10.3497    115.6643
   630.0000   2000.0000   2000.0000     10.0295    121.4605
   630.2500   2000.0000   2000.0000      9.7361    125.3320
   630.5000   2000.0000   2000.0000      9.4673    129.9422
   630.7500   2000.0000   2000.0000      9.2243    131.8097
   631.0000   2000.0000   2000.0000      9.0098    132.8954
   631.2500   2000.0000   2000.0000      8.8270    132.8410
   631.5000   2000.0000   2000.0000      8.6793    132.2782
   631.7500   2000.0000   2000.0000      8.5677    131.9005
   632.0000   2000.0000   2000.0000      8.4882    131.7762
   632.2500   2000.0000   2000.0000      8.4309    132.1158
   632.5000   2000.0000   2000.0000      8.3847    132.8889
   632.7500   2000.0000   2000.0000      8.3453    133.1081
   633.0000   2000.0000   2000.0000      8.3184    132.7278
   633.2500   2000.0000   2000.0000      8.3168    132.5114
   633.5000   2000.0000   2000.0000      8.3535    133.3626
   633.7500   2000.0000   2000.0000      8.4379    134.7463
   634.0000   2000.0000   2000.0000      8.5759    136.9978
   634.2500   2000.0000   2000.0000      8.7728    137.9406
   634.5000   2000.0000   2000.0000      9.0333    137.7740
   634.7500   2000.0000   2000.0000      9.3599    136.2801
   635.0000   2000.0000   2000.0000      9.7486    131.5311
   635.2500   2000.0000   2000.0000     10.1858    126.6512
   635.5000   2000.0000   2000.0000     10.6503    117.1286
   635.7500   2000.0000   2000.0000     11.1216    109.7556
   636.0000   2000.0000   2000.0000     11.5882     98.2940
   636.2500   2000.0000   2000.0000     12.0507     91.1278
   636.5000   2000.0000   2000.0000     12.5150     81.9353
   636.7500   2000.0000   2000.0000     12.9844     76.8911
   637.0000   2000.0000   2000.0000     13.4553     70.6423
   637.2500   2000.0000   2000.0000     13.9190     67.3980
   637.5000   2000.0000   2000.0000     14.3657     64.6948
   637.7500   2000.0000   2000.0000     14.7869     64.8813
   638.0000   2000.0000   2000.0000     15.1730     68.4404
   638.2500   2000.0000   2000.0000     15.5095     72.7863
   638.5000   2000.0000   2000.0000     15.7770     81.8179
   638.7500   2000.0000   2000.0000     15.9579     89.2786
   639.0000   2000.0000   2000.0000     16.0428    101.6346
   639.2500   2000.0000   2000.0000     16.0325    109.5117
   639.5000   2000.0000   2000.0000     15.9358    118.6563
   639.7500   2000.0000   2000.0000     15.7685    122.3788
   640.0000   2000.0000   2000.0000     15.5571    125.0253
   640.2500   2000.0000   2000.0000     15.3391    125.5634
   640.5000   2000.0000   2000.0000     15.1574    124.8817
   640.7500   2000.0000   2000.0000     15.0508    123.0380
   641.0000   2000.0000   2000.0000     15.0447    117.7655
   641.2500   2000.0000   2000.0000     15.1463    112.9569
   641.5000   2000.0000   2000.0000     15.3461    105.0417
   641.7500   2000.0000   2000.0000     15.6270     99.8413
   642.0000   2000.0000   2000.0000     15.9770     92.5023
   642.2500   2000.0000   2000.0000     16.3983     87.9873
   642.5000   2000.0000   2000.0000     16.9068     81.9216
   642.7500   2000.0000   2000.0000     17.5234     78.3089
   643.0000   2000.0000   2000.0000     18.2623     73.0585
   643.2500   2000.0000   2000.0000     19.1165     69.3466
   643.5000   2000.0000   2000.0000     20.0453     63.3586
   643.7500   2000.0000   2000.0000     20.9686     59.3437
   644.0000   2000.0000   2000.0000     21.7856     53.9622
   644.2500   2000.0000   2000.0000     22.4147     51.1299
   644.5000   2000.0000   2000.0000     22.8321     48.1920
   644.7500   2000.0000   2000.0000     23.0797     46.9481
   645.0000   2000.0000   2000.0000     23.2400     45.6864
   645.2500   2000.0000   2000.0000     23.3983     45.0853
   645.5000   2000.0000   2000.0000     23.6133     44.5968
   645.7500   2000.0000   2000.0000     23.9026     44.6363
   646.0000   2000.0000   2000.0000     24.2474     45.1720
   646.2500   2000.0000   2000.0000     24.6109     45.6350
   646.5000   2000.0000   2000.0000     24.9607     46.0473
   646.7500   2000.0000   2000.0000     25.2803     45.9968
   647.0000   2000.0000   2000.0000     25.5671     45.5141
   647.2500   2000.0000   2000.0000     25.8201     45.0751
   647.5000   2000.0000   2000.0000     26.0285     44.4854
   647.7500   2000.0000   2000.0000     26.1723     44.2291
   648.0000   2000.0000   2000.0000     26.2396     44.0584
   648.2500   2000.0000   2000.0000     26.2466     43.9627
   648.5000   2000.0000   2000.0000     26.2394     43.4693
   648.7500   2000.0000   2000.0000     26.2692     42.7193
   649.0000   2000.0000   2000.0000     26.3626     40.9720
   649.2500   2000.0000   2000.0000     26.5120     39.6938
   649.5000   2000.0000   2000.0000     26.6878     38.5044
   649.7500   2000.0000   2000.0000     26.8554     38.6266
   650.0000   2000.0000   2000.0000     26.9825     40.1082
   650.2500   2000.0000   2000.0000     27.0405     41.4050
   650.5000   2000.0000   2000.0000     27.0123     42.6616
   650.7500   2000.0000   2000.0000     26.9105     46.9774
   651.0000   2000.0000   2000.0000     26.7916     46.0471
   651.2500   2000.0000   2000.0000     26.7465     45.2052
   651.5000   2000.0000   2000.0000     26.8630     44.0603
   651.7500   2000.0000   2000.0000     27.1829     47.2019
   652.0000   2000.0000   2000.0000     27.6802     45.4517
   652.2500   2000.0000   2000.0000     28.2743     44.0619
   652.5000   2000.0000   2000.0000     28.8671     42.4547
   652.7500   2000.0000   2000.0000     29.3766     42.2022
   653.0000   2000.0000   2000.0000     29.7501     43.3325
   653.2500   2000.0000   2000.0000     29.9610     44.8612
   653.5000   2000.0000   2000.0000     30.0099     47.4448
   653.7500   2000.0000   2000.0000     29.9306     48.8130
   654.0000   2000.0000   2000.0000     29.7852     49.8783
   654.2500   2000.0000   2000.0000     29.6395     50.0207
   654.5000     27.3399    -62.2536     29.5311     49.7704
   654.7500     27.4044    -61.3073     29.4580     49.5045
   655.0000     27.7523    -60.8467     29.3894     49.2519
   655.2500     27.9990    -60.6722     29.2879     49.2584
