~Version Information
VERS.                      2.0: CWLS Log ASCII Standard - VERSION 2.0
WRAP.                       NO: One line per depth step
~Well Information Block
STRT.FT               -12.2500: 
STOP.FT              1442.2500: 
STEP.FT                 0.2500: 
NULL.                -999.2500: 
COMP.          Pioneer Natural Resources: COMPANY
WELL.              Lucky 21-36: WELL
FLD.           Purgatorie River: FIELD
LOC.           799' FNL & 1578' FWL--: LOCATION
CDN. :
PROV. :
UWI. :
STAT. :
CNTY. :
CTRY. :
API. :
COMP. :
WELL. :
FLD. :
LOC. :
DATE. :
SRVC. :
CNTY.               Las Animas: COUNTY
SRVC.          Superior Well Services: SERVICE COMPANY
DATE.          Mon Jul 21 12-16-21 2008: LOG DATE
UWI.           05 071 08456 00: UNIQUE WELL ID
STAT.                       CO: STATE
~Curve Information Block
DEPT.FT            0 000 00 00: Depth
CCL.                          : Casing Collar Locator
TT3.usec                      : CBL 3' Travel Time
AMP3.mV                       : CBL 3' Amplitude
GR.GAPI                       : Gamma Ray
~Parameter Information Block
~A  Depth       CCL         TT3         AMP3         GR     
# ...
  1294.2500      0.0000    637.0405     11.4553     63.9537
  1294.5000      0.0000    677.7336     11.5759     70.5460
  1294.7500      0.0000    720.5967     11.7240     76.3877
  1295.0000      0.0000    748.1021     11.8901     80.6100
  1295.2500      0.0000    749.7744     12.0667     82.6525
  1295.5000      0.0000    723.2532     12.2441     82.7388
  1295.7500      0.0000    672.9716     12.4074     81.6990
  1296.0000      0.0000    612.0118     12.5274     80.1805
  1296.2500      0.0000    562.6902     12.5400     78.0841
  1296.5000      0.0000    547.9401     12.3433     74.8232
  1296.7500      0.0000    576.0826     11.8397     70.1661
  1297.0000      0.0000    633.1324     11.0036     64.8319
  1297.2500      0.0000    692.2087      9.9123     60.1313
  1297.5000      0.0000    732.1303      8.7092     56.9167
  1297.7500      0.0000    748.0992      7.5374     54.9695
  1298.0000      0.0000    747.7217      6.4977     53.3981
  1298.2500      0.0000    740.7435      5.6426     51.5849
  1298.5000      0.0000    733.0869      4.9845     49.8459
  1298.7500      0.0000    726.9857      4.5003     49.2247
  1299.0000      0.0000    722.9300      4.1395     50.6410
  1299.2500      0.0000    720.5718      3.8469     54.3535
  1299.5000      0.0000    719.3195      3.5896     60.1186
  1299.7500      0.0000    719.0368      3.3646     67.3998
  1300.0000      0.0000    719.8543      3.1834     75.0892
  1300.2500      0.0000    721.5422      3.0525     81.1421
  1300.5000      0.0000    724.3382      2.9681     83.0823
  1300.7500      0.0000    730.3916      2.9210     79.7126
  1301.0000      0.0000    742.1790      2.9013     72.5738
  1301.2500      0.0000    757.8031      2.9008     65.2029
  1301.5000      0.0000    769.1940      2.9151     60.6491
  1301.7500      0.0000    768.0145      2.9463     59.7656
  1302.0000      0.0000    754.1267      3.0000     61.5415
  1302.2500      0.0000    736.1540      3.0805     64.4301
  1302.5000      0.0000    723.0526      3.1916     67.2469
  1302.7500      0.0000    715.9946      3.3413     69.3874
  1303.0000      0.0000    707.4007      3.5366     70.6838
  1303.2500      0.0000    686.8910      3.7717     71.0600
  1303.5000      0.0000    651.0696      4.0261     70.3162
  1303.7500      0.0000    609.7810      4.2808     68.4680
  1304.0000      0.0000    579.5892      4.5344     66.2552
  1304.2500      0.0000    567.7828      4.7987     64.8939
  1304.5000      0.0000    564.7941      5.0802     65.0759
  1304.7500      0.0000    554.7720      5.3728     66.2528
  1305.0000      0.0000    531.4031      5.6644     66.9410
  1305.2500      0.0000    501.2510      5.9433     65.8664
  1305.5000      0.0000    474.7301      6.1975     63.0671
  1305.7500      0.0000    457.8795      6.4138     59.9335
  1306.0000      0.0000    451.4309      6.5804     58.1383
  1306.2500      0.0000    453.1049      6.6933     58.5044
  1306.5000      0.0000    459.1699      6.7600     60.6139
  1306.7500      0.0000    465.4816      6.7982     63.2043
  1307.0000      0.0000    468.7905      6.8289     65.0567
  1307.2500      0.0000    467.6471      6.8667     65.7549
  1307.5000      0.0000    462.6696      6.9153     65.7033
  1307.7500      0.0000    456.8007      6.9643     65.6860
  1308.0000      0.0000    455.4285      6.9932     66.5716
  1308.2500      0.0000    464.4980      6.9825     68.9951
  1308.5000      0.0000    485.5111      6.9223     72.7567
  1308.7500      0.0000    511.4855      6.8067     76.5949
  1309.0000      0.0000    530.2556      6.6338     78.9852
  1309.2500      0.0000    533.5955      6.4246     79.3505
  1309.5000      0.0000    522.4854      6.2279     78.4457
  1309.7500      0.0000    504.2523      6.0862     77.6359
  1310.0000     -2.0000    487.5596      6.0060     78.0077
  1310.2500      2.0000    480.7414      5.9727     80.1131
  1310.5000      0.0000    491.6929      5.9849     84.0409
  1310.7500      0.0000    525.7286      6.0654     89.3401
  1311.0000      0.0000    581.5717      6.2346     95.0261
  1311.2500      0.0000    649.1789      6.4593     99.8916
  1311.5000      0.0000    713.2202      6.6344    102.8759
  1311.7500      0.0000    761.1895      6.6481    103.3592
  1312.0000      0.0000    789.4037      6.4874    101.4039
  1312.2500      0.0000    801.5260      6.2552     97.7329
  1312.5000      0.0000    802.5392      6.0746     93.2386
  1312.7500      0.0000    795.4733      5.9966     88.3637
  1313.0000      0.0000    783.0799      5.9969     83.0989
  1313.2500      0.0000    769.8673      6.0270     77.7020
  1313.5000      0.0000    760.7358      6.0525     73.0483
  1313.7500      0.0000    758.0323      6.0608     69.9130
  1314.0000      0.0000    760.4228      6.0520     68.2025
  1314.2500      0.0000    763.9670      6.0320     67.2426
  1314.5000      0.0000    763.9307      6.0094     66.4354
  1314.7500      0.0000    757.2650      5.9966     65.3325
  1315.0000      0.0000    745.3817      6.0054     63.5313
  1315.2500      0.0000    734.2463      6.0376     60.9947
  1315.5000      0.0000    730.1466      6.0805     58.2475
  1315.7500      0.0000    734.8037      6.1150     55.9261
  1316.0000      0.0000    744.7678      6.1311     54.2992
  1316.2500      0.0000    755.0980      6.1358     53.3647
  1316.5000      0.0000    763.3765      6.1465     53.1431
  1316.7500      0.0000    770.9266      6.1761     53.7513
  1317.0000      0.0000    780.8220      6.2188     55.3911
  1317.2500      0.0000    794.3323      6.2492     58.1445
  1317.5000      0.0000    809.0168      6.2372     61.4512
  1317.7500      0.0000    820.7952      6.1686     64.0086
  1318.0000      0.0000    827.5733      6.0558     64.6203
  1318.2500      0.0000    829.4581      5.9289     63.0960
  1318.5000      0.0000    825.8127      5.8143     60.2178
  1318.7500      0.0000    814.5727      5.7158     57.1555
  1319.0000      0.0000    795.1511      5.6148     54.9392
  1319.2500      0.0000    770.3801      5.4873     54.0686
  1319.5000      0.0000    745.1320      5.3226     54.4568
  1319.7500      0.0000    724.1837      5.1309     55.8681
  1320.0000      0.0000    711.8448      4.9370     58.2606
  1320.2500      0.0000    712.0944      4.7689     61.6211
  1320.5000      0.0000    726.2551      4.6453     65.7559
  1320.7500      0.0000    748.8991      4.5673     70.3175
  1321.0000      0.0000    768.0539      4.5189     74.6822
  1321.2500      0.0000    773.2217      4.4777     77.7893
  1321.5000      0.0000    764.3414      4.4307     78.5942
  1321.7500      0.0000    751.3311      4.3839     76.9007
  1322.0000      0.0000    744.5012      4.3593     73.4998
  1322.2500      0.0000    746.6420      4.3829     69.5504
  1322.5000      0.0000    753.9156      4.4716     66.0930
  1322.7500      0.0000    761.5796      4.6228     63.8409
  1323.0000      0.0000    767.0271      4.8115     62.9022
  1323.2500      0.0000    769.1236      5.0005     62.7547
  1323.5000      0.0000    767.9933      5.1642     62.8132
  1323.7500      0.0000    765.6052      5.3059     63.0653
  1324.0000      0.0000    764.2311      5.4501     63.9664
  1324.2500      0.0000    763.6754      5.6124     65.6860
  1324.5000      0.0000    761.0938      5.7756     67.7742
  1324.7500      0.0000    754.1508      5.8988     69.7859
  1325.0000      0.0000    744.0380      5.9487     71.8242
  1325.2500      0.0000    734.7917      5.9234     74.0086
  1325.5000      0.0000    729.8148      5.8497     75.7015
  1325.7500      0.0000    729.5674      5.7610     75.8744
  1326.0000      0.0000    732.2541      5.6783     74.2488
  1326.2500      0.0000    735.7218      5.6091     71.7621
  1326.5000      0.0000    738.5771      5.5553     69.8022
  1326.7500      0.0000    740.5882      5.5148     69.0600
  1327.0000      0.0000    742.9582      5.4798     69.2224
  1327.2500      0.0000    747.4006      5.4426     69.6594
  1327.5000      0.0000    753.4580      5.4053     70.1063
