~Version Information
VERS.                      2.0: CWLS Log ASCII Standard - VERSION 2.0
WRAP.                       NO: One line per depth step
~Well Information Block
STRT.FT                -9.5000: 
STOP.FT              1401.5000: 
STEP.FT                 0.2500: 
NULL.                -999.2500: 
COMP.          Pioneer Natural Resources: COMPANY
WELL.             John K 12-28: WELL
FLD.           Purgatorie River: FIELD
LOC.           1476' FNL & 465' FWL--: LOCATION
CNTY.               Las Animas: COUNTY
SRVC.          Patterson Wireline: SERVICE COMPANY
DATE.          Fri Apr 28 08:36:46 2006: LOG DATE
UWI.           05 071 08723 00: UNIQUE WELL ID
STAT.                       CO: STATE
~Curve Information Block
DEPT.FT            0 000 00 00: Depth
CCL.                          : Casing Collar Locator
TT3.usec                      : CBL 3' Travel Time
AMP3.mV                       : CBL 3' Amplitude
GR.GAPI                       : Gamma Ray
~Parameter Information Block
~A  Depth       CCL         TT3         AMP3         GR     
# ...
  1263.5000      0.0000    680.5318      4.8941     60.0996
  1263.7500      0.0000    694.3920      4.9059     60.0392
  1264.0000      0.0000    696.9664      4.8856     59.3726
  1264.2500      0.0000    691.0416      4.8510     58.9879
  1264.5000      0.0000    679.7917      4.8192     59.5210
  1264.7500      0.0000    666.0427      4.7983     60.6055
  1265.0000      0.0000    651.6856      4.7898     61.3456
  1265.2500      0.0000    636.0349      4.7929     61.3147
  1265.5000      0.0000    616.7137      4.8078     60.9478
  1265.7500      0.0000    593.7029      4.8327     61.1351
  1266.0000      0.0000    570.7540      4.8620     62.5167
  1266.2500      0.0000    551.5620      4.8875     64.9411
  1266.5000      0.0000    535.9605      4.9011     67.4878
  1266.7500      0.0000    520.6879      4.8975     69.2198
  1267.0000      0.0000    502.7600      4.8750     70.1425
  1267.2500      0.0000    481.7720      4.8375     71.3003
  1267.5000      0.0000    460.2588      4.7947     73.5885
  1267.7500      0.0000    442.8646      4.7564     76.4288
  1268.0000      0.0000    434.6768      4.7271     78.0438
  1268.2500      0.0000    439.0308      4.7038     77.2490
  1268.5000      0.0000    455.4871      4.6792     74.6523
  1268.7500      0.0000    479.2251      4.6487     71.9772
  1269.0000      0.0000    503.0371      4.6135     70.6042
  1269.2500      0.0000    521.0237      4.5779     70.7662
  1269.5000      0.0000    530.8842      4.5440     71.6387
  1269.7500      0.0000    532.9158      4.5100     72.0657
  1270.0000      0.0000    527.4388      4.4742     71.4798
  1270.2500      0.0000    513.8499      4.4376     70.1472
  1270.5000      0.0000    492.3589      4.4023     68.4510
  1270.7500      0.0000    466.1593      4.3687     66.2315
  1271.0000      0.0000    440.9297      4.3361     63.2096
  1271.2500      0.0000    421.6164      4.3064     59.9469
  1271.5000      0.0000    409.7682      4.2860     57.8239
  1271.7500      0.0000    403.8128      4.2810     57.7124
  1272.0000      0.0000    401.1690      4.2919     58.8435
  1272.2500      0.0000    399.8885      4.3148     59.3208
  1272.5000      0.0000    399.0490      4.3455     57.8223
  1272.7500      0.0000    398.4542      4.3821     54.7094
  1273.0000      0.0000    398.2411      4.4208     51.5161
  1273.2500      0.0000    398.6300      4.4547     49.6288
  1273.5000      0.0000    399.9117      4.4796     49.5020
  1273.7500      0.0000    402.5611      4.4974     50.5967
  1274.0000      0.0000    407.0541      4.5142     51.6427
  1274.2500      0.0000    413.1519      4.5349     51.3966
  1274.5000      0.0000    419.2675      4.5612     49.7499
  1274.7500      0.0000    422.9160      4.5918     47.8629
  1275.0000      0.0000    422.2477      4.6215     46.9095
  1275.2500      0.0000    417.6653      4.6408     47.0612
  1275.5000      0.0000    412.6068      4.6379     47.7308
  1275.7500      0.0000    413.3231      4.6022     48.1713
  1276.0000      0.0000    427.4079      4.5243     47.7208
  1276.2500      0.0000    460.1548      4.3998     46.0674
  1276.5000      0.0000    509.3928      4.2414     43.5773
  1276.7500      0.0000    563.7717      4.0866     41.1137
  1277.0000      0.0000    608.9330      3.9814     39.3548
  1277.2500      0.0000    637.0051      3.9501     38.4108
  1277.5000      0.0000    649.9128      3.9806     38.0913
  1277.7500      0.0000    654.9001      4.0407     38.3306
  1278.0000      0.0000    658.7765      4.1035     39.3228
  1278.2500      0.0000    665.2431      4.1616     41.4974
  1278.5000      0.0000    674.8826      4.2214     45.3387
  1278.7500      0.0000    686.6603      4.2871     50.6532
  1279.0000      0.0000    699.7673      4.3438     55.8139
  1279.2500      0.0000    714.0236      4.3606     58.4972
  1279.5000      0.0000    728.4354      4.3151     57.8281
  1279.7500      0.0000    740.3840      4.2181     55.5169
  1280.0000      0.0000    747.3845      4.1099     54.5612
  1280.2500      0.0000    749.2573      4.0294     57.1409
  1280.5000      0.0000    747.4940      3.9860     63.6263
  1280.7500      0.0000    743.0389      3.9597     72.6871
  1281.0000      0.0000    735.8464      3.9284     81.8518
  1281.2500      0.0000    725.9951      3.8955     88.5956
  1281.5000      0.0000    714.0836      3.8885     91.6461
  1281.7500      0.0000    700.8989      3.9257     91.3955
  1282.0000      0.0000    687.6180      3.9863     89.2175
  1282.2500      0.0000    676.2108      4.0273     86.6891
  1282.5000      0.0000    668.8599      4.0302     85.1438
  1282.7500      0.0000    666.5245      4.0202     85.2021
  1283.0000      0.0000    668.3867      4.0335     86.7076
  1283.2500      0.0000    672.8311      4.0755     89.5124
  1283.5000      0.0000    678.1697      4.1175     93.9818
  1283.7500     -2.0000    681.5427      4.1274    100.0603
  1284.0000      0.0000    678.3961      4.0965    106.2326
  1284.2500      0.0000    665.9743      4.0452    110.4093
  1284.5000      0.0000    647.7906      4.0076    111.8346
  1284.7500      0.0000    631.2406      4.0054    111.4676
  1285.0000      0.0000    618.5524      4.0277    110.6636
  1285.2500      0.0000    602.8710      4.0387    110.3006
  1285.5000      0.0000    576.7049      4.0106    110.9660
  1285.7500      0.0000    543.0355      3.9488    112.8690
  1286.0000      0.0000    514.3958      3.8817    115.3164
  1286.2500      0.0000    500.2827      3.8370    117.1213
  1286.5000      0.0000    497.4919      3.8288    117.9457
  1286.7500      0.0000    493.8809      3.8576    118.7852
  1287.0000      0.0000    480.8313      3.9129    120.8857
  1287.2500      0.0000    460.6356      3.9783    124.3782
  1287.5000      0.0000    442.1801      4.0369    127.9876
  1287.7500      0.0000    431.7695      4.0739    129.6883
  1288.0000      0.0000    428.7179      4.0777    127.5980
  1288.2500      0.0000    427.3047      4.0421    120.9999
  1288.5000      0.0000    421.5358      3.9719    111.1297
  1288.7500      0.0000    409.4938      3.8860    100.5760
  1289.0000      0.0000    394.6101      3.8145     91.4267
  1289.2500      0.0000    382.6322      3.7862     84.2813
  1289.5000      0.0000    376.9984      3.8131     79.0353
  1289.7500      0.0000    376.9548      3.8806     75.7132
  1290.0000      0.0000    379.1979      3.9555     74.0570
  1290.2500      0.0000    380.5551      4.0054     73.0362
  1290.5000      0.0000    379.4969      4.0149     71.5969
  1290.7500      0.0000    376.4190      3.9903     69.7134
  1291.0000      0.0000    373.2783      3.9531     68.1845
  1291.2500      0.0000    372.4948      3.9263     67.5724
  1291.5000      0.0000    375.3075      3.9202     67.7580
  1291.7500      0.0000    380.8411      3.9298     68.2885
  1292.0000      0.0000    386.8617      3.9448     68.6588
  1292.2500      0.0000    391.3766      3.9580     68.4183
  1292.5000      0.0000    393.4063      3.9648     67.4547
  1292.7500      0.0000    392.6006      3.9608     66.1536
  1293.0000      0.0000    388.8139      3.9435     65.0817
  1293.2500      0.0000    382.4259      3.9163     64.5906
  1293.5000      0.0000    374.7928      3.8855     64.6381
  1293.7500      0.0000    367.8199      3.8564     64.7699
  1294.0000      0.0000    362.8475      3.8320     64.3918
  1294.2500      0.0000    360.0322      3.8148     63.3066
  1294.5000      0.0000    358.7072      3.8058     61.9531
  1294.7500      0.0000    358.0955      3.8040     61.0376
  1295.0000      0.0000    357.7054      3.8058     60.9740
  1295.2500      0.0000    357.3513      3.8074     61.6326
  1295.5000      0.0000    357.0156      3.8072     62.4199
  1295.7500      0.0000    356.7011      3.8070     62.5049
  1296.0000      0.0000    356.3582      3.8092     61.1639
  1296.2500      0.0000    355.9178      3.8137     58.2225
  1296.5000      0.0000    355.3658      3.8172     54.3144
  1296.7500      0.0000    354.7693      3.8151     50.6054
