~Version Information
VERS.                      2.0: CWLS Log ASCII Standard - VERSION 2.0
WRAP.                       NO: One line per depth step
~Well Information Block
STRT.FT               240.0000: 
STOP.FT              1456.0000: 
STEP.FT                 0.1000: 
NULL.                -999.2500: 
COMP.          Pioneer Natural Resources: COMPANY
WELL.              Darren 11-7: WELL
FLD.           Purgatoire River: FIELD
LOC.           230' FNL & 596' FWL: LOCATION
CNTY.               Las Animas: COUNTY
SRVC.                Patterson: SERVICE COMPANY
DATE.          Mon Mar 20 07:16:06 2006: LOG DATE
UWI.           05 071 08720 00: UNIQUE WELL ID
STAT.                 Colorado: STATE
~Curve Information Block
DEPT.FT            0 000 00 00: Depth
DCAL.in                       : CDL Caliper
RHOB.g/cc                     : CDL Bulk Density
RHOC.g/cc                     : CDL Density Correction
DPOR.pu                       : CDL Density Porosity
GR.GAPI                       : Gamma Ray
NPOR.pu                       : Neutron Porosity
~Parameter Information Block
~A  Depth       DCAL        RHOB        RHOC        DPOR         GR         NPOR    
# ...
  1200.0000      7.9048      2.4526      0.0112     11.9650     61.7993     21.3557
  1200.1000      7.9048      2.4647      0.0676     11.2301     63.2832     21.7179
  1200.2000      7.9048      2.4703      0.1054     10.8929     67.0314     22.0541
  1200.3000      7.9032      2.4646      0.0387     11.2359     73.4930     22.2762
  1200.4000      7.9032      2.4743      0.0944     10.6477     78.3745     22.3169
  1200.5000      7.8674      2.5080      0.1543      8.6087     77.6586     22.2333
  1200.6000      7.8674      2.5444      0.1251      6.3987     70.8759     22.1257
  1200.7000      7.8674      2.5717      0.1274      4.7449     62.8003     21.7949
  1200.8000      7.8463      2.5940      0.1283      3.3921     59.9403     21.1756
  1200.9000      7.8463      2.6107      0.1637      2.3793     61.4507     20.5367
  1201.0000      7.8493      2.6115      0.1577      2.3343     63.4595     20.0928
  1201.1000      7.8493      2.5928      0.1101      3.4670     67.6774     19.9503
  1201.2000      7.8493      2.5638      0.0613      5.2259     75.2719     20.1103
  1201.3000      7.8721      2.5334      0.0868      7.0681     82.4783     20.4695
  1201.4000      7.8721      2.5030      0.0613      8.9093     82.5152     20.8757
  1201.5000      7.8749      2.4824      0.0032     10.1550     74.0017     21.2374
  1201.6000      7.8749      2.4798      0.0750     10.3163     64.7397     21.4003
  1201.7000      7.8749      2.4801      0.0802     10.2951     59.3980     21.0591
  1201.8000      7.9006      2.4706      0.0252     10.8729     56.7011     20.3970
  1201.9000      7.9006      2.4548      0.0037     11.8301     55.4556     19.9831
  1202.0000      7.9015      2.4424      0.0154     12.5821     55.3184     20.0179
  1202.1000      7.9015      2.4459      0.0068     12.3727     55.2748     20.1612
  1202.2000      7.9015      2.4674      0.0271     11.0666     54.8221     20.1512
  1202.3000      7.9183      2.4885      0.0905      9.7876     54.8700     20.1517
  1202.4000      7.9183      2.4952      0.0806      9.3796     55.7820     20.1808
  1202.5000      7.8858      2.4959      0.0930      9.3379     55.4713     19.9905
  1202.6000      7.8858      2.4993      0.0681      9.1315     53.9951     19.6298
  1202.7000      7.8858      2.4994      0.0905      9.1253     52.9900     19.4241
  1202.8000      7.8689      2.4899      0.0470      9.7035     52.3559     19.5707
  1202.9000      7.8689      2.4774      0.0708     10.4625     53.4128     19.7034
  1203.0000      7.8786      2.4703      0.0233     10.8931     55.3551     19.3506
  1203.1000      7.8786      2.4677      0.0790     11.0487     53.3929     18.6841
  1203.2000      7.8786      2.4609      0.0636     11.4625     47.9351     17.9385
  1203.3000      7.8889      2.4515      0.0237     12.0302     46.6504     16.9252
  1203.4000      7.8889      2.4406      0.0399     12.6916     51.0806     15.6242
  1203.5000      7.8816      2.4022      0.0523     15.0154     55.6302     14.5103
  1203.6000      7.8816      2.3107      0.0580     20.5629     59.0145     13.7523
  1203.7000      7.8816      2.1784     -0.0126     28.5839     62.5487     13.0422
  1203.8000      7.8842      2.0434     -0.0711     36.7616     65.0229     12.3152
  1203.9000      7.8842      1.9244     -0.0524     43.9759     63.4925     11.6541
  1204.0000      7.9062      1.8160     -0.0987     50.5481     59.5606     11.1492
  1204.1000      7.9062      1.7191     -0.1116     56.4176     57.3381     10.9234
  1204.2000      7.9062      1.6352     -0.0440     61.5019     56.4049     10.8532
  1204.3000      7.9162      1.5619     -0.0660     65.9438     55.1971     10.7063
  1204.4000      7.9162      1.5065      0.0091     69.3041     53.6158     10.4544
  1204.5000      7.9286      1.4683      0.1193     71.6197     50.7893     10.3034
  1204.6000      7.9286      1.4345      0.1344     73.6657     47.5209     10.4610
  1204.7000      7.9286      1.4034      0.1106     75.5533     46.9476     10.9408
  1204.8000      7.9180      1.3822      0.1060     76.8382     46.4164     11.6970
  1204.9000      7.9180      1.3723      0.0768     77.4333     40.8014     12.5618
  1205.0000      7.9292      1.3674      0.1232     77.7319     33.6949     13.2386
  1205.1000      7.9292      1.3586      0.0873     78.2670     30.4110     13.8585
  1205.2000      7.9292      1.3464      0.0493     79.0072     28.6279     14.5553
  1205.3000      8.0839      1.3369      0.0563     79.5788     26.0772     15.0918
  1205.4000      8.0839      1.3301      0.0817     79.9940     25.4261     15.5297
  1205.5000      8.3281      1.3285      0.0315     80.0911     28.7093     16.1252
  1205.6000      8.3281      1.3466      0.0529     78.9927     34.1031     16.8259
  1205.7000      8.3281      1.3942      0.0367     76.1099     37.9162     17.6056
  1205.8000      8.2746      1.4644      0.0781     71.8569     37.8015     18.5869
  1205.9000      8.2746      1.5411      0.1130     67.2031     36.1777     19.6355
  1206.0000      8.0414      1.6112      0.1698     62.9593     37.6751     20.5373
  1206.1000      8.0414      1.6704      0.1815     59.3723     44.0041     21.3637
  1206.2000      8.0414      1.7302      0.1804     55.7472     54.0546     22.1060
  1206.3000      8.0069      1.8027      0.2175     51.3528     66.0484     22.7301
  1206.4000      8.0069      1.8785      0.2235     46.7571     75.4355     23.6117
  1206.5000      8.1967      1.9491      0.1713     42.4801     79.7107     24.9692
  1206.6000      8.1967      2.0268      0.1376     37.7690     84.7886     26.4449
  1206.7000      8.1967      2.1182      0.1234     32.2332     92.2631     27.6435
  1206.8000      8.2598      2.2127      0.1451     26.5041     99.8483     28.4531
  1206.9000      8.2598      2.3047      0.1531     20.9270    109.6330     28.9008
  1207.0000      8.2775      2.3920      0.1589     15.6361    120.1034     29.0776
  1207.1000      8.2775      2.4594      0.1553     11.5505    127.9801     29.0624
  1207.2000      8.2775      2.4952      0.1476      9.3829    134.8335     28.9458
  1207.3000      8.1326      2.5056      0.1272      8.7508    140.5168     28.7036
  1207.4000      8.1326      2.5038      0.0810      8.8602    142.9458     28.1737
  1207.5000      8.0174      2.4990      0.1006      9.1523    144.4665     27.4894
  1207.6000      8.0174      2.4946      0.0711      9.4196    146.7758     27.0751
  1207.7000      8.0174      2.4922      0.0627      9.5665    144.9740     27.1325
  1207.8000      7.9035      2.4889      0.0329      9.7624    137.0987     27.4539
  1207.9000      7.9035      2.4766      0.0857     10.5116    129.9504     27.6404
  1208.0000      7.9035      2.4483      0.0487     12.2253    128.1971     27.5466
  1208.1000      7.9035      2.4164      0.0047     14.1601    128.7900     27.3918
  1208.2000      7.9035      2.4074     -0.0240     14.7049    129.0841     27.4707
  1208.3000      7.9243      2.4280      0.0136     13.4569    130.6408     27.8235
  1208.4000      7.9243      2.4530      0.1250     11.9405    131.4192     28.2152
  1208.5000      7.9952      2.4683      0.0543     11.0111    129.1707     28.3636
  1208.6000      7.9952      2.4893      0.1126      9.7366    131.3732     28.0501
  1208.7000      7.9952      2.5194      0.1366      7.9134    143.5672     27.4000
  1208.8000      7.9724      2.5379      0.1525      6.7925    154.0939     26.8681
  1208.9000      7.9724      2.5284      0.1199      7.3720    152.8295     26.7391
  1209.0000      7.9128      2.5037      0.0458      8.8675    147.4500     26.8654
  1209.1000      7.9128      2.4863      0.0854      9.9226    142.5136     27.0506
  1209.2000      7.9128      2.4747      0.0621     10.6237    137.2497     27.3546
  1209.3000      7.8989      2.4678      0.0009     11.0434    133.9813     27.5666
  1209.4000      7.8989      2.4775      0.0627     10.4550    134.6691     27.3632
  1209.5000      7.9031      2.4998      0.0863      9.1053    139.2773     26.9589
