~Version Information
VERS.                      2.0: CWLS Log ASCII Standard - VERSION 2.0
WRAP.                       NO: One line per depth step
~Well Information Block
STRT.FT               485.0000: 
STOP.FT              1030.5000: 
STEP.FT                 0.1000: 
NULL.                -999.2500: 
COMP.          Pioneer Natural Resources: COMPANY
WELL.          Red Raider 22-15: WELL
FLD.           Purgatoire River: FIELD
LOC.           1809' FNL & 2107' FWL: LOCATION
CNTY.               Las Animas: COUNTY
SRVC.                Patterson: SERVICE COMPANY
DATE.          Tue Apr 11 10:06:17 2006: LOG DATE
UWI.           05 071 08718 00: UNIQUE WELL ID
STAT.                 Colorado: STATE
~Curve Information Block
DEPT.FT            0 000 00 00: Depth
DCAL.in                       : CDL Caliper
RHOB.g/cc                     : CDL Bulk Density
RHOC.g/cc                     : CDL Density Correction
DPOR.pu                       : CDL Density Porosity
GR.GAPI                       : Gamma Ray
NPOR.pu                       : Neutron Porosity
~Parameter Information Block
~A  Depth       DCAL        RHOB        RHOC        DPOR         GR         NPOR    
# ...
   523.4000      8.2176      2.5688      0.0647      4.9185    118.3984     28.7564
   523.5000      8.2165      2.5471     -0.0498      6.2375    115.9834     28.1046
   523.6000      8.2165      2.5317      0.0276      7.1727    113.7461     26.9817
   523.7000      8.2165      2.5263     -0.0171      7.4980    113.3154     26.4500
   523.8000      8.2157      2.5311     -0.0173      7.2045    113.8833     26.8514
   523.9000      8.2157      2.5440      0.0292      6.4220    113.5341     27.0098
   524.0000      8.2136      2.5516      0.0052      5.9663    113.0088     26.3979
   524.1000      8.2136      2.5527     -0.0135      5.8979    116.7532     25.9346
   524.2000      8.2136      2.5577     -0.0123      5.5923    124.2358     26.2230
   524.3000      8.2115      2.5674      0.0102      5.0053    126.7338     26.9836
   524.4000      8.2115      2.5764     -0.0076      4.4607    124.1733     27.6681
   524.5000      8.2139      2.5776      0.0184      4.3905    124.4265     27.9114
   524.6000      8.2139      2.5672     -0.0040      5.0159    126.6813     27.5549
   524.7000      8.2139      2.5496      0.0092      6.0842    124.7043     26.4817
   524.8000      8.2164      2.5321     -0.0191      7.1448    121.6010     25.0454
   524.9000      8.2164      2.5202      0.0208      7.8693    124.3058     23.7649
   525.0000      8.2173      2.5088      0.0436      8.5581    129.7598     22.5934
   525.1000      8.2173      2.4956     -0.0197      9.3582    133.7547     21.2463
   525.2000      8.2173      2.4827      0.0082     10.1400    137.1475     19.7397
   525.3000      8.2208      2.4532     -0.0120     11.9244    139.6633     18.5307
   525.4000      8.2208      2.3935     -0.0209     15.5454    142.1055     18.1567
   525.5000      8.2288      2.3142     -0.0545     20.3503    142.5755     18.5789
   525.6000      8.2288      2.2217     -0.0295     25.9582    138.7088     19.2185
   525.7000      8.2288      2.1103     -0.0941     32.7068    135.0108     19.6175
   525.8000      8.2385      1.9923     -0.1444     39.8580    133.4752     19.8524
   525.9000      8.2385      1.8910     -0.1333     46.0001    130.5740     20.1681
   526.0000      8.2454      1.8153     -0.0903     50.5870    123.1177     20.4899
   526.1000      8.2454      1.7732     -0.1128     53.1420    112.7278     21.0015
   526.2000      8.2454      1.7810     -0.0752     52.6679    104.6777     22.2341
   526.3000      8.2481      1.8356     -0.0161     49.3568    102.8340     24.1221
   526.4000      8.2481      1.9124      0.0610     44.7003    105.3954     26.1496
   526.5000      8.2376      1.9986      0.0695     39.4817    105.7103     27.5779
   526.6000      8.2376      2.1036      0.1398     33.1125    103.9011     27.9693
   526.7000      8.2376      2.2276      0.2423     25.5982    107.1930     27.5958
   526.8000      8.1827      2.3346      0.3204     19.1161    114.5301     26.8071
   526.9000      8.1827      2.3900      0.2000     15.7606    118.0292     25.9133
   527.0000      8.0899      2.4070      0.1087     14.7254    117.7258     25.2796
   527.1000      8.0899      2.4182      0.0271     14.0468    117.0077     25.0747
   527.2000      8.0899      2.4324      0.0291     13.1853    117.3875     25.2371
   527.3000      8.0338      2.4410      0.0137     12.6652    119.8546     25.5920
   527.4000      8.0338      2.4421      0.0152     12.6023    123.7503     26.0342
   527.5000      8.0214      2.4457      0.0145     12.3847    129.3678     26.3527
   527.6000      8.0214      2.4550      0.0797     11.8152    134.3357     26.0537
   527.7000      8.0214      2.4588      0.1063     11.5875    135.9044     25.1861
   527.8000      8.0208      2.4580      0.0635     11.6371    139.2467     24.9591
   527.9000      8.0208      2.4661      0.1420     11.1431    150.3174     26.1438
   528.0000      8.0229      2.4731      0.1658     10.7190    163.3806     27.8402
   528.1000      8.0229      2.4653      0.0818     11.1937    166.5301     28.8763
   528.2000      8.0229      2.4618      0.0246     11.4075    158.3434     29.3054
   528.3000      8.0249      2.4843      0.0541     10.0409    148.1630     29.6043
   528.4000      8.0249      2.5199      0.1352      7.8842    142.8484     29.9878
   528.5000      8.0211      2.5429      0.1498      6.4893    144.7539     30.4471
   528.6000      8.0211      2.5504      0.1250      6.0369    149.3556     30.9232
   528.7000      8.0211      2.5580      0.1410      5.5770    147.3909     31.3854
   528.8000      8.0105      2.5795      0.1212      4.2702    136.9520     31.4683
   528.9000      8.0105      2.6080      0.1434      2.5469    124.3932     31.0761
   529.0000      8.0016      2.6272      0.1206      1.3802    115.0446     30.8364
   529.1000      8.0016      2.6418      0.1052      0.4983    107.0375     31.0144
   529.2000      8.0016      2.6610      0.0851     -0.6693     97.2742     30.7521
   529.3000      7.9971      2.6725      0.1243     -1.3646     89.1285     29.5237
   529.4000      7.9971      2.6553      0.1137     -0.3207     86.9939     28.3690
   529.5000      7.9959      2.6156      0.0325      2.0842     88.6909     27.8875
   529.6000      7.9959      2.5763      0.0489      4.4649     90.2826     27.1627
   529.7000      7.9959      2.5397      0.0446      6.6856     92.3663     25.6200
   529.8000      7.9966      2.5006      0.0141      9.0518     96.7229     24.1703
   529.9000      7.9966      2.4616      0.0101     11.4156    103.6951     23.6187
   530.0000      7.9969      2.4286     -0.0154     13.4177    113.7458     23.7424
   530.1000      7.9969      2.4109     -0.0415     14.4896    125.0619     23.9690
   530.2000      7.9969      2.4097      0.0284     14.5628    132.4754     23.7661
   530.3000      7.9983      2.4226      0.0156     13.7792    135.0350     23.3724
   530.4000      7.9983      2.4561      0.0897     11.7541    138.6841     23.5570
   530.5000      7.9999      2.5082      0.1074      8.5940    146.9299     24.0543
   530.6000      7.9999      2.5574      0.2269      5.6101    155.3618     24.4181
   530.7000      7.9999      2.5817      0.2658      4.1391    157.5579     24.9197
   530.8000      8.0011      2.5802      0.2817      4.2290    153.6787     25.5173
   530.9000      8.0011      2.5637      0.2584      5.2294    148.2062     25.8567
   531.0000      8.0019      2.5433      0.1895      6.4667    143.4012     26.1077
   531.1000      8.0019      2.5319      0.1350      7.1550    140.9774     26.9897
   531.2000      8.0019      2.5384      0.1178      6.7666    139.7245     28.4443
   531.3000      8.0018      2.5545      0.1301      5.7858    134.3528     29.4046
   531.4000      8.0018      2.5643      0.0792      5.1963    126.6612     29.4214
   531.5000      8.0009      2.5696      0.1118      4.8702    123.3541     29.0858
   531.6000      8.0009      2.5874      0.1375      3.7931    124.8638     28.8536
   531.7000      8.0009      2.6245      0.1481      1.5451    126.0769     28.5871
   531.8000      7.9999      2.6659      0.2005     -0.9617    123.2961     28.4494
   531.9000      7.9999      2.6869      0.1694     -2.2381    117.5631     28.7317
   532.0000      7.9993      2.6768      0.1474     -1.6248    113.1893     28.9896
   532.1000      7.9993      2.6475      0.0724      0.1529    111.7427     28.9183
   532.2000      7.9993      2.6214      0.0662      1.7330    112.3092     28.6040
   532.3000      7.9987      2.6051      0.0362      2.7213    113.2377     28.1223
   532.4000      7.9987      2.5988     -0.0001      3.1020    110.9332     27.6785
   532.5000      7.9973      2.6043      0.0061      2.7669    105.3869     27.3973
   532.6000      7.9973      2.6080      0.0046      2.5476     98.4928     27.3344
   532.7000      7.9973      2.5945      0.0269      3.3635     91.8783     27.3367
   532.8000      7.9953      2.5699      0.0041      4.8575     88.8389     27.1653
   532.9000      7.9953      2.5522      0.0164      5.9257     88.2738     26.8384
