~Version Information
VERS.                      2.0: CWLS Log ASCII Standard - VERSION 2.0
WRAP.                       NO: One line per depth step
~Well Information Block
STRT.FT                -6.7500: 
STOP.FT              2027.0000: 
STEP.FT                 0.2500: 
NULL.                -999.2500: 
COMP.          Pioneer Natural Resources: COMPANY
WELL.             Fleming 11-2: WELL
FLD.           Purgatorie River: FIELD
LOC.           534' FNL & 160' FWL--: LOCATION
CNTY.               Las Animas: COUNTY
SRVC.          Patterson Wireline: SERVICE COMPANY
DATE.          Thu Jul 13 10:28:00 2006: LOG DATE
UWI.           05 071 08491 00: UNIQUE WELL ID
STAT.                       CO: STATE
~Curve Information Block
DEPT.FT            0 000 00 00: Depth
CCL.                          : Casing Collar Locator
TT3.usec                      : CBL 3' Travel Time
AMP3.mV                       : CBL 3' Amplitude
GR.GAPI                       : Gamma Ray
~Parameter Information Block
~A  Depth       CCL         TT3         AMP3         GR     
# ...
  1869.2500      0.0000    441.3546      6.9272     92.1238
  1869.5000      0.0000    434.1252      6.9588     93.5331
  1869.7500      0.0000    432.2084      6.9639     96.4457
  1870.0000      0.0000    432.9543      6.9492     99.7390
  1870.2500      0.0000    435.5515      6.9179    102.7674
  1870.5000      0.0000    439.9009      6.8761    106.1218
  1870.7500      0.0000    445.1077      6.8331    110.5583
  1871.0000      0.0000    449.0696      6.7898    115.5340
  1871.2500      0.0000    450.2201      6.7277    119.5436
  1871.5000      0.0000    450.0781      6.6084    121.6361
  1871.7500      0.0000    453.9797      6.3937    121.8862
  1872.0000      0.0000    468.7413      6.0773    120.7438
  1872.2500      0.0000    497.9758      5.7073    118.5837
  1872.5000      0.0000    537.2865      5.3727    115.5689
  1872.7500      0.0000    573.7412      5.1451    111.5786
  1873.0000      0.0000    593.4725      5.0208    106.4571
  1873.2500      0.0000    592.6068      4.9319    100.2758
  1873.5000      0.0000    579.5112      4.8319     93.1284
  1873.7500      0.0000    565.2249      4.7496     85.2237
  1874.0000      0.0000    554.7066      4.7343     77.5890
  1874.2500      2.0000    548.4015      4.7750     72.0682
  1874.5000      0.0000    546.2963      4.8093     70.0502
  1874.7500      0.0000    546.7963      4.7940     71.3745
  1875.0000      0.0000    546.9798      4.7393     74.6129
  1875.2500      0.0000    547.4782      4.6805     78.1636
  1875.5000      0.0000    552.1144      4.6305     81.1089
  1875.7500      0.0000    560.0582      4.5641     83.3011
  1876.0000      0.0000    564.0521      4.4501     84.8832
  1876.2500      0.0000    560.4551      4.2960     86.0285
  1876.5000      0.0000    557.0388      4.1419     87.2319
  1876.7500      0.0000    566.0167      4.0154     89.3039
  1877.0000      0.0000    590.5419      3.9142     92.4010
  1877.2500      0.0000    621.1921      3.8340     95.0953
  1877.5000      0.0000    645.1720      3.7871     94.9196
  1877.7500      0.0000    656.7901      3.7896     90.1788
  1878.0000      0.0000    659.8208      3.8449     81.3529
  1878.2500      0.0000    662.5047      3.9459     70.9479
  1878.5000      0.0000    671.1463      4.0847     62.0209
  1878.7500      0.0000    686.6703      4.2517     56.5378
  1879.0000      0.0000    705.1631      4.4290     54.6858
  1879.2500      0.0000    721.3158      4.5892     55.4600
  1879.5000      0.0000    732.0253      4.7114     57.9195
  1879.7500      0.0000    737.3412      4.7991     61.9197
  1880.0000      0.0000    738.7212      4.8775     67.6326
  1880.2500      0.0000    736.6123      4.9685     74.6285
  1880.5000      0.0000    729.1829      5.0713     81.6550
  1880.7500      0.0000    712.5743      5.1696     87.0453
  1881.0000      0.0000    682.7700      5.2511     89.4247
  1881.2500      0.0000    638.9111      5.3179     88.7510
  1881.5000      0.0000    586.7643      5.3792     86.7816
  1881.7500      0.0000    538.4437      5.4412     85.7841
  1882.0000      0.0000    505.0859      5.5047     86.5235
  1882.2500      0.0000    487.4365      5.5660     87.8680
  1882.5000      0.0000    475.7121      5.6121     88.2734
  1882.7500      0.0000    460.7642      5.6207     87.1633
  1883.0000      0.0000    443.7031      5.5704     84.9331
  1883.2500      0.0000    434.1530      5.4580     82.2617
  1883.5000      0.0000    442.3493      5.3062     79.7167
  1883.7500      0.0000    473.3564      5.1589     77.5959
  1884.0000      0.0000    524.0786      5.0666     75.7681
  1884.2500      0.0000    582.8792      5.0690     73.9543
  1884.5000      0.0000    634.6065      5.1769     72.4707
  1884.7500      0.0000    668.7773      5.3623     72.4073
  1885.0000      0.0000    683.2384      5.5654     74.6176
  1885.2500      0.0000    681.3809      5.7234     78.5978
  1885.5000      0.0000    669.1917      5.8058     82.6817
  1885.7500      0.0000    655.2493      5.8307     85.4030
  1886.0000      0.0000    649.0564      5.8447     86.5616
  1886.2500      0.0000    655.1857      5.8851     86.9312
  1886.5000      0.0000    669.7330      5.9588     87.1006
  1886.7500      0.0000    684.6014      6.0457     86.9992
  1887.0000      0.0000    694.5176      6.1173     86.6038
  1887.2500      0.0000    699.2076      6.1476     86.4151
  1887.5000      0.0000    700.8342      6.1127     86.7849
  1887.7500      0.0000    701.3111      5.9891     87.2046
  1888.0000      0.0000    701.5344      5.7653     86.7189
  1888.2500      0.0000    701.7239      5.4641     84.8793
  1888.5000      0.0000    701.8721      5.1507     82.1133
  1888.7500      0.0000    702.0217      4.9115     79.4203
  1889.0000      0.0000    702.2813      4.8080     77.9030
  1889.2500      0.0000    702.7345      4.8400     78.3594
  1889.5000      0.0000    703.3530      4.9481     80.8199
  1889.7500      0.0000    704.0106      5.0505     84.2710
  1890.0000      0.0000    704.6021      5.0850     87.0963
  1890.2500      0.0000    705.2268      5.0297     88.1825
  1890.5000      0.0000    706.3461      4.9007     87.6921
  1890.7500      0.0000    708.6927      4.7356     86.6755
  1891.0000      0.0000    712.6683      4.5755     86.0805
  1891.2500      0.0000    717.4442      4.4512     86.3097
  1891.5000      0.0000    720.8449      4.3801     87.5035
  1891.7500      0.0000    720.8058      4.3661     89.7008
  1892.0000      0.0000    717.2189      4.3975     92.5795
  1892.2500      0.0000    712.0162      4.4483     95.3990
  1892.5000      0.0000    707.4122      4.4893     97.5342
  1892.7500      0.0000    704.3915      4.5040     98.9608
  1893.0000      0.0000    702.7162      4.4967     99.9578
  1893.2500      0.0000    701.7575      4.4880    100.3013
  1893.5000      0.0000    701.0880      4.5009     99.0503
  1893.7500      0.0000    700.5792      4.5476     95.4510
  1894.0000      0.0000    700.2548      4.6215     90.0920
  1894.2500      0.0000    700.1333      4.6997     84.9626
  1894.5000      0.0000    700.1714      4.7596     82.0832
  1894.7500      0.0000    700.2980      4.7955     81.9313
  1895.0000      0.0000    700.4591      4.8164     83.2678
  1895.2500      0.0000    700.6196      4.8292     84.3864
  1895.5000      0.0000    700.7307      4.8299     84.4336
  1895.7500      0.0000    700.7115      4.8119     83.7885
  1896.0000      0.0000    700.4470      4.7758     83.5384
  1896.2500      0.0000    699.7482      4.7274     84.4729
  1896.5000      0.0000    698.1905      4.6711     86.3364
  1896.7500      0.0000    694.9135      4.6070     88.0305
  1897.0000      0.0000    688.8208      4.5336     88.6606
  1897.2500      0.0000    679.6270      4.4513     88.4106
  1897.5000      0.0000    669.0906      4.3640     88.3208
  1897.7500      0.0000    660.6115      4.2788     89.2220
  1898.0000      0.0000    656.7316      4.2030     91.1068
  1898.2500      0.0000    656.8656      4.1421     93.3568
  1898.5000      0.0000    657.4478      4.0986     95.1307
  1898.7500      0.0000    653.3435      4.0690     95.7589
  1899.0000      0.0000    638.9509      4.0427     95.3541
  1899.2500      0.0000    610.2700      4.0082     94.9699
  1899.5000      0.0000    568.5305      3.9654     95.6872
  1899.7500      0.0000    521.5369      3.9294     97.4617
  1900.0000      0.0000    479.3162      3.9223     99.1503
  1900.2500      0.0000    447.6272      3.9553     99.6177
  1900.5000      0.0000    426.0826      4.0179     98.4359
  1900.7500      0.0000    411.7173      4.0815     95.6795
  1901.0000      0.0000    402.8055      4.1150     91.8197
  1901.2500      0.0000    399.4880      4.0990     87.8759
  1901.5000      0.0000    402.0650      4.0300     84.8235
  1901.7500      0.0000    408.8210      3.9150     82.6201
  1902.0000      0.0000    415.0273      3.7688     80.4490
  1902.2500      0.0000    414.8889      3.6152     77.9327
  1902.5000      0.0000    405.8258      3.4857     75.5414
