~Version Information
VERS.                      2.0: CWLS Log ASCII Standard - VERSION 2.0
WRAP.                       NO: One line per depth step
~Well Information Block
STRT.FT               555.0000: 
STOP.FT              2322.2500: 
STEP.FT                 0.2500: 
NULL.                -999.2500: 
COMP.          Pioneer Natural Resources: COMPANY
WELL.          Fittipaldi 21-12: WELL
FLD.           Purgatoire River: FIELD
LOC.           207' FNL & 2110' FWL--: LOCATION
CNTY.               Las Animas: COUNTY
SRVC.                Patterson: SERVICE COMPANY
DATE.          Tue Mar 21 10:27:48 2006: LOG DATE
UWI.           05 071 08492 00: UNIQUE WELL ID
STAT.                 Colorado: STATE
~Curve Information Block
DEPT.FT            0 000 00 00: Depth
SN.Ohm-m                      : IEL Short Normal
SP.mV                         : IEL Spontaneous Potential
DIR.Ohm-m                     : IEL Induction Resistivity
GR.GAPI                       : Gamma Ray
~Parameter Information Block
~A  Depth        SN          SP         DIR          GR     
# ...
  1727.5000     42.0592     47.5899     37.6976     72.4227
  1727.7500     41.5632     47.6549     37.6612     70.4379
  1728.0000     40.9604     47.7150     37.5030     68.0082
  1728.2500     40.3520     47.7678     37.2199     67.8883
  1728.5000     39.8100     47.8103     36.8127     70.8356
  1728.7500     39.3267     47.8382     36.2648     74.6125
  1729.0000     38.8006     47.8465     35.5392     81.6446
  1729.2500     38.0715     47.8307     34.5950     86.4564
  1729.5000     36.9939     47.7877     33.4084     93.1373
  1729.7500     35.5158     47.7163     31.9901     97.1406
  1730.0000     33.7112     47.6173     30.3934    102.6850
  1730.2500     31.7415     47.4936     28.7074    106.4769
  1730.5000     29.7769     47.3492     27.0335    113.3122
  1730.7500     27.9328     47.1893     25.4583    118.8790
  1731.0000     26.2531     47.0203     24.0366    127.5890
  1731.2500     24.7344     46.8492     22.7894    132.2807
  1731.5000     23.3623     46.6843     21.7094    136.0630
  1731.7500     22.1332     46.5343     20.7696    136.7158
  1732.0000     21.0507     46.4076     19.9319    136.8011
  1732.2500     20.1105     46.3109     19.1560    137.0775
  1732.5000     19.2918     46.2492     18.4065    137.7253
  1732.7500     18.5615     46.2255     17.6599    137.9324
  1733.0000     17.8867     46.2413     16.9096    138.1244
  1733.2500     17.2489     46.2973     16.1673    138.9131
  1733.5000     16.6479     46.3944     15.4557    142.2723
  1733.7500     16.0896     46.5337     14.7976    145.9508
  1734.0000     15.5681     46.7157     14.2054    152.2471
  1734.2500     15.0634     46.9400     13.6774    155.9520
  1734.5000     14.5585     47.2037     13.2020    159.8729
  1734.7500     14.0574     47.5016     12.7647    161.4400
  1735.0000     13.5872     47.8259     12.3558    162.4291
  1735.2500     13.1818     48.1670     11.9736    162.0957
  1735.5000     12.8612     48.5146     11.6244    160.0673
  1735.7500     12.6222     48.8585     11.3187    158.0723
  1736.0000     12.4467     49.1899     11.0678    155.1457
  1736.2500     12.3191     49.5022     10.8813    153.5913
  1736.5000     12.2367     49.7918     10.7667    151.7648
  1736.7500     12.2065     50.0580     10.7279    150.7384
  1737.0000     12.2309     50.3026     10.7648    149.6528
  1737.2500     12.3005     50.5294     10.8729    149.4641
  1737.5000     12.4018     50.7425     11.0446    150.0182
  1737.7500     12.5355     50.9453     11.2724    150.6181
  1738.0000     12.7322     51.1395     11.5545    151.0242
  1738.2500     13.0546     51.3249     11.8989    150.5938
  1738.5000     13.5830     51.4996     12.3233    148.8223
  1738.7500     14.3850     51.6609     12.8488    147.0681
  1739.0000     15.4752     51.8064     13.4916    143.5983
  1739.2500     16.7863     51.9352     14.2553    140.4723
  1739.5000     18.1842     52.0482     15.1291    134.3582
  1739.7500     19.5310     52.1479     16.0894    129.5980
  1740.0000     20.7503     52.2380     17.1055    122.0665
  1740.2500     21.8387     52.3229     18.1460    116.9630
  1740.5000     22.8273     52.4062     19.1851    109.4841
  1740.7500     23.7438     52.4912     20.2076    105.0473
  1741.0000     24.6076     52.5796     21.2097    100.0986
  1741.2500     25.4438     52.6723     22.1972     98.1237
  1741.5000     26.2829     52.7688     23.1800     96.6248
  1741.7500     27.1389     52.8679     24.1665     96.0621
  1742.0000     27.9812     52.9674     25.1560     95.1424
  1742.2500     28.7327     53.0648     26.1291     94.2992
  1742.5000     29.3016     53.1577     27.0407     92.8220
  1742.7500     29.6278     53.2436     27.8194     91.9967
  1743.0000     29.7078     53.3208     28.3854     91.6701
  1743.2500     29.5844     53.3875     28.6816     92.3937
  1743.5000     29.3123     53.4422     28.7020     95.3191
  1743.7500     28.9267     53.4834     28.4914     98.5964
  1744.0000     28.4311     53.5098     28.1133    104.8414
  1744.2500     27.8049     53.5208     27.6079    108.8328
  1744.5000     27.0219     53.5166     26.9721    112.5430
  1744.7500     26.0728     53.4989     26.1757    113.1605
  1745.0000     24.9868     53.4699     25.1996    112.9536
  1745.2500     23.8388     53.4326     24.0668    113.7237
  1745.5000     22.7267     53.3892     22.8443    118.2580
  1745.7500     21.7275     53.3410     21.6190    123.4500
  1746.0000     20.8603     53.2876     20.4685    132.2795
  1746.2500     20.0864     53.2271     19.4421    137.2018
  1746.5000     19.3453     53.1559     18.5563    141.4766
  1746.7500     18.5963     53.0699     17.8018    142.3151
  1747.0000     17.8365     52.9649     17.1553    141.7555
  1747.2500     17.0937     52.8373     16.5922    141.0519
  1747.5000     16.4117     52.6851     16.0924    140.8095
  1747.7500     15.8331     52.5088     15.6421    141.5542
  1748.0000     15.3820     52.3113     15.2319    143.6488
  1748.2500     15.0518     52.0977     14.8536    145.1151
  1748.5000     14.8063     51.8754     14.4994    146.6475
  1748.7500     14.5970     51.6528     14.1626    147.1243
  1749.0000     14.3861     51.4400     13.8401    147.4115
  1749.2500     14.1580     51.2490     13.5330    147.8140
  1749.5000     13.9133     51.0944     13.2437    149.5338
  1749.7500     13.6565     50.9931     12.9700    151.3398
  1750.0000     13.3897     50.9623     12.7034    153.6325
  1750.2500     13.1163     51.0159     12.4322    153.9092
  1750.5000     12.8443     51.1595     12.1502    152.0196
  1750.7500     12.5850     51.3869     11.8618    149.9692
  1751.0000     12.3489     51.6794     11.5798    147.8272
  1751.2500     12.1418     52.0085     11.3168    148.0032
  1751.5000     11.9642     52.3431     11.0777    150.9836
  1751.7500     11.8107     52.6559     10.8587    154.1665
  1752.0000     11.6711     52.9304     10.6528    159.0471
  1752.2500     11.5351     53.1626     10.4554    161.4564
  1752.5000     11.3969     53.3594     10.2661    162.8389
  1752.7500     11.2566     53.5346     10.0861    162.2122
  1753.0000     11.1194     53.7037      9.9149    159.8825
  1753.2500     10.9932     53.8802      9.7505    158.4083
  1753.5000     10.8851     54.0730      9.5914    157.8021
  1753.7500     10.8003     54.2870      9.4388    158.5930
  1754.0000     10.7412     54.5237      9.2960    160.4309
  1754.2500     10.7065     54.7827      9.1670    161.2256
  1754.5000     10.6928     55.0619      9.0555    161.1473
  1754.7500     10.6961     55.3583      8.9657    160.5862
  1755.0000     10.7153     55.6674      8.9037    160.1724
  1755.2500     10.7539     55.9823      8.8778    160.6767
  1755.5000     10.8200     56.2943      8.8987    162.3232
  1755.7500     10.9293     56.5923      8.9796    163.2166
  1756.0000     11.1092     56.8640      9.1362    162.7249
  1756.2500     11.3958     57.0974      9.3864    160.8209
  1756.5000     11.8193     57.2819      9.7483    155.9522
  1756.7500     12.3825     57.4104     10.2378    151.4564
  1757.0000     13.0588     57.4806     10.8660    141.9898
  1757.2500     13.8234     57.4956     11.6381    133.3203
  1757.5000     14.7007     57.4638     12.5539    117.3576
  1757.7500     15.7905     57.3975     13.6111    106.0243
  1758.0000     17.2449     57.3110     14.8088     90.6236
  1758.2500     19.1917     57.2181     16.1503     82.7070
  1758.5000     21.6378     57.1297     17.6376     75.8793
  1758.7500     24.4229     57.0521     19.2604     75.0719
  1759.0000     27.2728     56.9864     20.9829     79.0283
  1759.2500     29.9104     56.9292     22.7350     84.2885
  1759.5000     32.1356     56.8744     24.4131     93.9994
  1759.7500     33.8360     56.8156     25.8949     99.9669
  1760.0000     34.9661     56.7476     27.0729    104.6577
  1760.2500     35.5284     56.6680     27.8936    103.5068
  1760.5000     35.5570     56.5776     28.3728     96.0336
  1760.7500     35.1045     56.4797     28.5688     89.4530
