~Version Information
VERS.                      2.0: CWLS Log ASCII Standard - VERSION 2.0
WRAP.                       NO: One line per depth step
~Well Information Block
STRT.FT               575.0000: 
STOP.FT              1558.5000: 
STEP.FT                 0.2500: 
NULL.                -999.2500: 
COMP.          Pioneer Natural Resources: COMPANY
WELL.          McClaren 13-34 Tr: WELL
FLD.           Purgatoire River: FIELD
LOC.           1934' FSL & 826' FWL: LOCATION
PROV.                 Colorado: PROVINCE
CNTY.               Las Animas: COUNTRY
SRVC.                Patterson: SERVICE COMPANY
DATE.          Mon Jul 11 20:01:13 2005: LOG DATE
UWI.           05 071 08437 00: UNIQUE WELL ID
~Curve Information Block
DEPT.FT            0 000 00 00: Depth
SN.Ohm-m                      : IEL Short Normal
SP.mV                         : IEL Spontaneous Potential
DIR.Ohm-m                     : IEL Induction Resistivity
GR.GAPI                       : Gamma Ray
~Parameter Information Block
~A  Depth        SN          SP         DIR          GR     
# ...
  1077.5000     31.9555    181.5032     28.2593    108.3781
  1077.7500     30.5721    180.7815     27.7536    114.5056
  1078.0000     29.1909    179.9462     27.1509    122.4215
  1078.2500     27.8993    178.9638     26.4643    126.3150
  1078.5000     26.6601    177.8080     25.7206    129.4233
  1078.7500     25.4834    176.5148     24.9478    129.5448
  1079.0000     24.4868    175.1915     24.1731    127.6953
  1079.2500     23.7442    174.0051     23.4274    126.3609
  1079.5000     23.2205    173.1524     22.7500    126.3248
  1079.7500     22.8972    172.7966     22.1834    127.8969
  1080.0000     22.8117    172.9696     21.7626    131.3221
  1080.2500     22.8731    173.4973     21.5062    133.2300
  1080.5000     22.8358    174.0345     21.4167    134.3761
  1080.7500     22.6287    174.2294     21.4874    133.8896
  1081.0000     22.4972    173.9102     21.7100    131.8002
  1081.2500     22.6651    173.1593     22.0784    129.8993
  1081.5000     23.0920    172.2464     22.5871    126.4022
  1081.7500     23.6670    171.4991     23.2285    123.3264
  1082.0000     24.4023    171.1920     23.9898    117.3590
  1082.2500     25.3663    171.4757     24.8464    112.9555
  1082.5000     26.5705    172.3441     25.7583    107.0538
  1082.7500     27.9640    173.6504     26.6747    104.0052
  1083.0000     29.4771    175.1725     27.5508    100.4637
  1083.2500     31.0446    176.7019     28.3656     98.4280
  1083.5000     32.6379    178.1011     29.1324     95.6772
  1083.7500     34.2906    179.2996     29.9008     94.1784
  1084.0000     36.0458    180.2504     30.7504     92.5048
  1084.2500     37.8891    180.8987     31.7712     91.5454
  1084.5000     39.7577    181.1899     33.0276     89.7699
  1084.7500     41.5786    181.0959     34.5187     88.2266
  1085.0000     43.2666    180.6272     36.1537     85.7177
  1085.2500     44.8058    179.8252     37.7647     84.2192
  1085.5000     46.3672    178.7451     39.1752     82.2191
  1085.7500     48.1074    177.4448     40.2913     80.5989
  1086.0000     49.9396    175.9870     41.1399     76.7655
  1086.2500     51.7229    174.4554     41.8203     73.1017
  1086.5000     53.4078    172.9650     42.4314     66.7719
  1086.7500     54.9273    171.6426     43.0402     62.8935
  1087.0000     56.1881    170.5702     43.6928     58.8791
  1087.2500     57.1012    169.7235     44.4250     57.7213
  1087.5000     57.5842    168.9655     45.2539     58.2342
  1087.7500     57.6369    168.1257     46.1544     59.8952
  1088.0000     57.3689    167.1104     47.0380     63.6482
  1088.2500     56.9408    165.9550     47.7585     66.2610
  1088.5000     56.5127    164.7962     48.1701     69.0243
  1088.7500     56.1799    163.8079     48.2233     69.6662
  1089.0000     55.9074    163.1329     48.0093     68.8943
  1089.2500     55.6012    162.8200     47.6916     67.6158
  1089.5000     55.2370    162.7937     47.3902     65.6159
  1089.7500     54.8773    162.8957     47.1369     64.8721
  1090.0000     54.6089    162.9837     46.9282     65.1481
  1090.2500     54.4664    163.0163     46.7998     66.0041
  1090.5000     54.3587    163.0620     46.8288     67.3096
  1090.7500     54.0946    163.2381     47.0534     67.6912
  1091.0000     53.5772    163.6401     47.3875     67.1819
  1091.2500     52.9289    164.3056     47.6181     66.2089
  1091.5000     52.3222    165.2161     47.5069     64.3550
  1091.7500     51.7838    166.3179     46.9224     63.3055
  1092.0000     51.2448    167.5475     45.8959     62.5091
  1092.2500     50.6512    168.8502     44.5731     62.4173
  1092.5000     49.9860    170.1858     43.1306     62.4409
  1092.7500     49.2053    171.5211     41.7229     62.5136
  1093.0000     48.1745    172.8187     40.4622     63.6579
  1093.2500     46.7732    174.0423     39.4035     66.1273
  1093.5000     45.0205    175.1851     38.5349     73.7803
  1093.7500     43.0205    176.2969     37.7903     81.4402
  1094.0000     40.9169    177.4814     37.0915     94.7890
  1094.2500     38.9367    178.8599     36.3997    103.1346
  1094.5000     37.3437    180.5243     35.7310    112.0394
  1094.7500     36.2757    182.4988     35.1189    114.7315
  1095.0000     35.6051    184.7220     34.5579    114.1406
  1095.2500     35.0782    187.0491     33.9826    111.5069
  1095.5000     34.6569    189.2750     33.3061    106.0716
  1095.7500     34.5252    191.1895     32.4918    102.4239
  1096.0000     34.7697    192.6591     31.5951     97.8474
  1096.2500     35.2674    193.6896     30.7339     95.4993
  1096.5000     35.7852    194.4087     30.0120     93.1222
  1096.7500     36.0494    194.9778     29.4562     92.7344
  1097.0000     35.8500    195.5068     29.0050     95.2713
  1097.2500     35.1625    196.0296     28.5461     99.5203
  1097.5000     34.1550    196.5337     27.9773    108.8663
  1097.7500     33.0331    197.0027     27.2571    115.6882
  1098.0000     31.8690    197.4455     26.4194    124.4150
  1098.2500     30.6522    197.8970     25.5446    128.5931
  1098.5000     29.4582    198.3979     24.7103    132.7426
  1098.7500     28.4412    198.9720     23.9534    134.6227
  1099.0000     27.6487    199.6248     23.2682    136.5617
  1099.2500     26.9525    200.3600     22.6337    137.1318
  1099.5000     26.2328    201.1920     22.0458    136.5427
  1099.7500     25.5296    202.1349     21.5285    135.2271
  1100.0000     24.9556    203.1817     21.1176    132.5356
  1100.2500     24.5530    204.2970     20.8348    130.8979
  1100.5000     24.2580    205.4356     20.6700    129.7024
  1100.7500     23.9946    206.5684     20.5763    129.8770
  1101.0000     23.7849    207.6933     20.4810    130.6231
  1101.2500     23.6783    208.8247     20.3092    130.5211
  1101.5000     23.6300    209.9713     20.0120    128.3738
  1101.7500     23.5238    211.1182     19.5854    125.5047
  1102.0000     23.2524    212.2248     19.0693    119.6043
  1102.2500     22.7957    213.2386     18.5314    115.2957
  1102.5000     22.2268    214.1096     18.0429    109.9561
  1102.7500     21.6268    214.7944     17.6534    108.0795
  1103.0000     21.0052    215.2600     17.3745    108.4101
  1103.2500     20.2851    215.4946     17.1795    110.3583
  1103.5000     19.4244    215.5181     17.0223    114.6570
  1103.7500     18.5281    215.3751     16.8620    117.9220
  1104.0000     17.8182    215.1141     16.6761    123.1046
  1104.2500     17.5209    214.7731     16.4592    126.5358
  1104.5000     17.6569    214.3767     16.2154    130.5752
  1104.7500     17.9330    213.9462     15.9549    131.7600
  1105.0000     18.0064    213.5113     15.6952    130.9364
  1105.2500     17.8238    213.1096     15.4593    129.1926
  1105.5000     17.5665    212.7724     15.2672    125.9058
  1105.7500     17.3701    212.5135     15.1255    123.4998
  1106.0000     17.2705    212.3364     15.0237    119.5365
  1106.2500     17.3069    212.2535     14.9390    116.8858
  1106.5000     17.4615    212.2975     14.8499    113.9657
  1106.7500     17.5857    212.5093     14.7485    113.3301
  1107.0000     17.5252    212.9132     14.6432    114.3974
  1107.2500     17.2320    213.4947     14.5512    115.9023
  1107.5000     16.7486    214.1947     14.4850    118.3347
  1107.7500     16.1863    214.9222     14.4442    119.7721
  1108.0000     15.6866    215.5764     14.4148    121.3868
  1108.2500     15.3075    216.0703     14.3755    122.0672
  1108.5000     15.0084    216.3492     14.3064    123.2031
  1108.7500     14.7896    216.4026     14.1955    124.8543
  1109.0000     14.7286    216.2675     14.0390    129.4198
  1109.2500     14.8422    216.0096     13.8408    133.2815
  1109.5000     14.9917    215.6889     13.6133    138.1789
  1109.7500     14.9981    215.3328     13.3784    139.9873
  1110.0000     14.8399    214.9373     13.1645    140.9062
  1110.2500     14.6383    214.4908     12.9991    141.2288
  1110.5000     14.4890    213.9949     12.9019    142.0735
  1110.7500     14.4088    213.4646     12.8811    142.3765
