~Version Information
VERS.                      2.0: CWLS Log ASCII Standard - VERSION 2.0
WRAP.                       NO: One line per depth step
~Well Information Block
STRT.FT               240.0000: 
STOP.FT               940.5000: 
STEP.FT                 0.1000: 
NULL.                -999.2500: 
COMP.          Pioneer Natural Resources: COMPANY
WELL.               Ernie 31-6: WELL
FLD.           Purgatoire River: FIELD
LOC.           681' FNL & 2138' FEL: LOCATION
CNTY.               Las Animas: COUNTY
SRVC.                Patterson: SERVICE COMPANY
DATE.          Tue May 30 07:05:10 2006: LOG DATE
UWI.           05 071 08716 00: UNIQUE WELL ID
STAT.                 Colorado: STATE
~Curve Information Block
DEPT.FT            0 000 00 00: Depth
DCAL.in                       : CDL Caliper
RHOB.g/cc                     : CDL Bulk Density
RHOC.g/cc                     : CDL Density Correction
DPOR.pu                       : CDL Density Porosity
GR.GAPI                       : Gamma Ray
NPOR.pu                       : Neutron Porosity
~Parameter Information Block
~A  Depth       DCAL        RHOB        RHOC        DPOR         GR         NPOR    
# ...
   604.8000      8.0033      2.5260      0.0255      7.5132     47.4828     18.1097
   604.9000      8.0033      2.5204      0.0298      7.8531     46.2478     18.1185
   605.0000      7.9983      2.5190      0.0535      7.9380     44.1321     17.9031
   605.1000      7.9983      2.5155      0.0278      8.1530     44.2693     17.0612
   605.2000      7.9983      2.5147      0.0269      8.1999     46.3637     15.8724
   605.3000      8.0020      2.5228      0.0493      7.7120     46.3376     15.1321
   605.4000      8.0020      2.5365      0.0504      6.8795     45.6839     15.2360
   605.5000      8.0031      2.5474      0.0574      6.2212     48.5082     15.7706
   605.6000      8.0031      2.5500      0.0436      6.0618     54.1693     16.0973
   605.7000      8.0031      2.5472      0.0434      6.2325     59.3908     16.1494
   605.8000      8.0016      2.5452      0.0444      6.3510     61.2321     16.2178
   605.9000      8.0016      2.5444      0.0829      6.3979     58.2748     16.4854
   606.0000      8.0011      2.5388      0.0415      6.7388     52.8422     16.6345
   606.1000      8.0011      2.5279      0.0349      7.4009     49.4811     16.4063
   606.2000      8.0011      2.5212      0.0130      7.8060     51.5025     16.0142
   606.3000      8.0059      2.5256      0.0347      7.5424     56.8758     15.6376
   606.4000      8.0059      2.5306      0.0530      7.2354     58.8316     15.5166
   606.5000      8.0024      2.5245      0.0469      7.6032     55.3825     15.8477
   606.6000      8.0024      2.5096      0.0452      8.5068     51.8091     16.3709
   606.7000      8.0024      2.4980      0.0260      9.2137     50.6062     16.7154
   606.8000      7.9982      2.5012      0.0530      9.0186     50.4070     16.7195
   606.9000      7.9982      2.5174      0.0435      8.0364     52.9429     16.4666
   607.0000      7.9981      2.5366      0.0701      6.8756     59.6676     16.1800
   607.1000      7.9981      2.5537      0.1001      5.8369     65.2518     16.0003
   607.2000      7.9981      2.5644      0.1201      5.1902     63.0519     16.1694
   607.3000      7.9850      2.5649      0.0979      5.1559     56.4571     16.6081
   607.4000      7.9850      2.5590      0.1008      5.5162     53.5805     16.9147
   607.5000      7.9808      2.5492      0.1074      6.1077     56.3842     16.9966
   607.6000      7.9808      2.5380      0.0568      6.7902     62.5525     17.0310
   607.7000      7.9808      2.5267      0.0802      7.4751     70.4746     17.2487
   607.8000      7.9957      2.5109      0.0901      8.4297     77.6623     17.6582
   607.9000      7.9957      2.5014      0.0579      9.0090     78.8865     17.8651
   608.0000      8.0034      2.5136      0.0895      8.2654     75.8415     17.2019
   608.1000      8.0034      2.5346      0.1061      6.9953     77.2900     15.9292
   608.2000      8.0034      2.5460      0.0989      6.3017     83.5755     15.0733
   608.3000      8.0060      2.5480      0.1434      6.1797     87.0938     14.9821
   608.4000      8.0060      2.5443      0.1455      6.4059     81.6440     15.3673
   608.5000      8.0035      2.5422      0.1193      6.5346     71.5706     15.8955
   608.6000      8.0035      2.5541      0.0908      5.8144     68.3058     16.3740
   608.7000      8.0035      2.5797      0.1424      4.2633     72.1457     16.8090
   608.8000      8.0035      2.6044      0.1244      2.7619     73.5303     17.2874
   608.9000      8.0035      2.6198      0.1517      1.8280     68.7122     17.4721
   609.0000      8.0018      2.6257      0.1630      1.4751     63.8393     17.2918
   609.1000      8.0018      2.6185      0.1552      1.9104     65.0389     17.2267
   609.2000      8.0018      2.5960      0.1425      3.2715     67.8912     17.1751
   609.3000      8.0013      2.5692      0.1100      4.8952     64.0665     16.5878
   609.4000      8.0013      2.5563      0.0709      5.6763     57.2442     16.0268
   609.5000      8.0024      2.5627      0.0472      5.2934     56.2605     16.5428
   609.6000      8.0024      2.5684      0.1013      4.9428     60.8115     17.8126
   609.7000      8.0024      2.5548      0.0503      5.7726     67.1194     18.6609
   609.8000      8.0029      2.5372      0.0105      6.8355     72.0211     18.6169
   609.9000      8.0029      2.5339      0.0639      7.0351     72.3456     18.1844
   610.0000      8.0034      2.5342      0.0636      7.0193     71.2624     17.8798
   610.1000      8.0034      2.5275      0.0648      7.4215     73.2087     17.8650
   610.2000      8.0034      2.5188      0.0071      7.9520     75.1868     18.3429
   610.3000      8.0060      2.5170      0.0190      8.0628     75.2349     19.2330
   610.4000      8.0060      2.5286      0.0312      7.3604     76.4508     19.8742
   610.5000      8.0017      2.5492      0.0453      6.1099     76.9796     19.8490
   610.6000      8.0017      2.5658      0.0704      5.1038     72.0143     19.6876
   610.7000      8.0017      2.5662      0.1068      5.0818     66.0090     20.0966
   610.8000      8.0033      2.5510      0.0166      5.9979     62.6524     20.6246
   610.9000      8.0033      2.5352      0.0157      6.9585     58.1158     20.4026
   611.0000      8.0018      2.5203      0.0459      7.8592     53.5835     19.9230
   611.1000      8.0018      2.5042     -0.0002      8.8386     53.3398     20.0455
   611.2000      8.0018      2.5004      0.0422      9.0652     57.5158     20.2597
   611.3000      8.0016      2.5143      0.0174      8.2258     62.3158     19.8128
   611.4000      8.0016      2.5359      0.0210      6.9162     63.1223     19.1002
   611.5000      7.9997      2.5616      0.0466      5.3576     58.5320     18.7012
   611.6000      7.9997      2.5957      0.0699      3.2917     53.5769     18.4401
   611.7000      7.9997      2.6284      0.1516      1.3095     53.0572     18.0778
   611.8000      7.9851      2.6420      0.1389      0.4855     52.1689     17.5496
   611.9000      7.9851      2.6371      0.1577      0.7839     48.2953     16.9026
   612.0000      7.9760      2.6218      0.1413      1.7119     47.6027     16.7105
   612.1000      7.9760      2.5945      0.1489      3.3632     50.0764     16.9354
   612.2000      7.9760      2.5577      0.1054      5.5966     50.0176     16.8758
   612.3000      7.9787      2.5299      0.0502      7.2766     49.0589     16.6109
   612.4000      7.9787      2.5244      0.0716      7.6106     51.1075     16.6805
   612.5000      7.9888      2.5345      0.0845      6.9985     53.8624     17.1354
   612.6000      7.9888      2.5503      0.1179      6.0417     54.8052     17.7462
   612.7000      7.9888      2.5644      0.0930      5.1867     56.3463     18.0755
   612.8000      8.0149      2.5741      0.1337      4.6016     60.4106     17.6441
   612.9000      8.0149      2.5867      0.0848      3.8350     62.4213     16.6731
   613.0000      8.0181      2.6069      0.1317      2.6144     58.4919     16.0658
   613.1000      8.0181      2.6171      0.1591      1.9945     54.7083     16.1114
   613.2000      8.0181      2.6024      0.1584      2.8850     56.8132     16.1780
   613.3000      8.0195      2.5813      0.0681      4.1615     61.7685     16.2601
   613.4000      8.0195      2.5741      0.1240      4.5990     64.1863     16.8452
   613.5000      8.0225      2.5692      0.0796      4.8946     62.7609     17.5404
   613.6000      8.0225      2.5573      0.0442      5.6177     60.0566     17.7544
   613.7000      8.0225      2.5453      0.0583      6.3456     58.2294     17.4225
   613.8000      8.0256      2.5364      0.0494      6.8836     57.7457     16.6045
   613.9000      8.0256      2.5301      0.0419      7.2662     56.8650     15.7007
   614.0000      8.0295      2.5198      0.0512      7.8929     53.8127     15.0138
   614.1000      8.0295      2.5009      0.0362      9.0374     50.5823     14.6284
   614.2000      8.0295      2.4836      0.0251     10.0872     49.0117     14.6519
   614.3000      8.0263      2.4765      0.0306     10.5128     46.5907     15.0219
