~Version Information
VERS.                      2.0: CWLS Log ASCII Standard - VERSION 2.0
WRAP.                       NO: One line per depth step
~Well Information Block
STRT.FT               625.0000: 
STOP.FT              2053.7500: 
STEP.FT                 0.2500: 
NULL.                -999.2500: 
COMP.          Pioneer Natural Resources: COMPANY
WELL.            Zink 44-10 Tr: WELL
FLD.           Purgatoire River: FIELD
LOC.           486' FSL & 554' FEL--: LOCATION
PROV.                 Colorado: PROVINCE
CNTY.               Las Animas: COUNTRY
SRVC.                Patterson: SERVICE COMPANY
DATE.          Sun Jul 24 06:18:01 2005: LOG DATE
UWI.           05 071 08446 00: UNIQUE WELL ID
~Curve Information Block
DEPT.FT            0 000 00 00: Depth
SN.Ohm-m                      : IEL Short Normal
SP.mV                         : IEL Spontaneous Potential
DIR.Ohm-m                     : IEL Induction Resistivity
GR.GAPI                       : Gamma Ray
~Parameter Information Block
~A  Depth        SN          SP         DIR          GR     
# ...
  1563.0000     23.8642     27.7959     24.8017    105.3430
  1563.2500     24.3634     27.7016     25.5711    104.6299
  1563.5000     24.6836     27.6401     26.2329    104.9676
  1563.7500     24.8319     27.6127     26.7133    106.1313
  1564.0000     24.8461     27.6164     26.9461    108.5299
  1564.2500     24.7721     27.6454     26.8793    109.8042
  1564.5000     24.6438     27.6916     26.4645    110.3964
  1564.7500     24.4748     27.7463     25.6496    110.0926
  1565.0000     24.2655     27.8012     24.3924    109.6746
  1565.2500     24.0161     27.8488     22.7037    109.9780
  1565.5000     23.7335     27.8838     20.6937    111.3988
  1565.7500     23.4274     27.9028     18.5758    112.5123
  1566.0000     23.1053     27.9044     16.6046    113.4409
  1566.2500     22.7702     27.8894     15.0055    113.4887
  1566.5000     22.4220     27.8593     13.9687    113.7694
  1566.7500     22.0611     27.8153     13.7495    114.8325
  1567.0000     21.6897     27.7577     14.9866    117.8458
  1567.2500     21.3109     27.6841     20.1566    120.1529
  1567.5000     20.9294     27.5900     53.8932    122.8445
  1567.7500     20.5554     27.4683 100000.0000    123.8133
  1568.0000     20.2044     27.3105 100000.0000    124.1684
  1568.2500     19.8919     27.1077 100000.0000    124.0017
  1568.5000     19.6307     26.8518 100000.0000    123.9680
  1568.7500     19.4308     26.5361 100000.0000    124.5360
  1569.0000     19.2974     26.1556 100000.0000    126.3040
  1569.2500     19.2236     25.7056 100000.0000    127.5255
  1569.5000     19.1893     25.1806 100000.0000    128.1982
  1569.7500     19.1691     24.5718 100000.0000    127.5796
  1570.0000     19.1435     23.8647     80.7889    125.3674
  1570.2500     19.1046     23.0367     20.8595    123.3142
  1570.5000     19.0564     22.0554     12.6672    119.6970
  1570.7500     19.0118     20.8772      8.8710    117.2920
  1571.0000     18.9855     19.4470      6.3985    115.0327
  1571.2500     18.9814     17.6977      4.7490    115.3891
  1571.5000     18.9802     15.5507      3.7692    119.5854
  1571.7500     18.9380     12.9177      3.3583    124.4153
  1572.0000     18.8009      9.7015      3.5660    132.6477
  1572.2500     18.5210      5.7978      5.0582    137.4225
  1572.5000     18.0604      1.0954     16.1177    142.0273
  1572.7500     17.3808     -4.5251 100000.0000    143.2671
  1573.0000     16.4286    -11.1937 100000.0000    143.2395
  1573.2500     15.1364    -19.0523 100000.0000    142.7898
  1573.5000     13.4607    -28.2518 100000.0000    142.5626
  1573.7500     11.4430    -38.9396      9.4829    142.7901
  1574.0000      9.2448    -51.2339      1.0865    143.1413
  1574.2500      7.1050    -65.1837      0.3490    143.0618
  1574.5000      5.2371    -80.7200      0.1189    142.0233
  1574.7500      3.7433    -97.6059      0.0440    140.3086
  1575.0000      2.6101   -115.3991      0.0226    135.4703
  1575.2500      1.7704   -133.4423      0.0181    130.7041
  1575.5000      1.1641   -150.8885      0.0231    122.3671
  1575.7500      0.7526   -166.7661      0.0462    117.2262
  1576.0000      0.5028   -180.0781      0.1267    111.9103
  1576.2500      0.3730   -189.9228      0.3766    109.8727
  1576.5000      0.3176   -195.6152      1.2571    106.6840
  1576.7500      0.3045   -196.7912    190.2640    102.9361
  1577.0000      0.3341   -193.4684 100000.0000     94.5511
  1577.2500      0.4607   -186.0528 100000.0000     88.4045
  1577.5000      0.8288   -175.2844 100000.0000     81.1431
  1577.7500      1.7205   -162.1313 100000.0000     78.5269
  1578.0000      3.5561   -147.6526 100000.0000     77.8264
  1578.2500      6.7747   -132.8585 100000.0000     78.8282
  1578.5000     11.6118   -118.5958 100000.0000     81.2274
  1578.7500     17.9381   -105.4770 100000.0000     82.8733
  1579.0000     25.3267    -93.8611 100000.0000     84.8678
  1579.2500     33.3068    -83.8747 100000.0000     85.6695
  1579.5000     41.5830    -75.4647 100000.0000     85.7739
  1579.7500     50.0656    -68.4605 100000.0000     85.0622
  1580.0000     58.7464    -62.6344 100000.0000     83.1584
  1580.2500     67.5578    -57.7523 100000.0000     81.7503
  1580.5000     76.3141    -53.6069 100000.0000     80.3564
  1580.7500     84.7386    -50.0388 100000.0000     80.3809
  1581.0000     92.5330    -46.9425 100000.0000     81.9677
  1581.2500     99.4605    -44.2660 100000.0000     83.6015
  1581.5000    105.4018    -42.0031 100000.0000     85.9381
  1581.7500    110.3411    -40.1801 100000.0000     87.1744
  1582.0000    114.2988    -38.8400 100000.0000     88.5650
  1582.2500    117.2791    -38.0225 100000.0000     89.1458
  1582.5000    119.2642    -37.7453 100000.0000     89.3404
  1582.7500    120.2287    -37.9926 100000.0000     89.0752
  1583.0000    120.1506    -38.7151 100000.0000     88.4339
  1583.2500    119.0261    -39.8438 100000.0000     87.9770
  1583.5000    116.8877    -41.3121 100000.0000     87.1485
  1583.7500    113.7989    -43.0773 100000.0000     86.4435
  1584.0000    109.8099    -45.1317 100000.0000     85.5089
  1584.2500    104.9092    -47.4978 100000.0000     85.2970
  1584.5000     99.0223    -50.2090 100000.0000     85.5376
  1584.7500     92.0621    -53.2844 100000.0000     85.5207
  1585.0000     83.9935    -56.7102 100000.0000     84.1728
  1585.2500     74.8820    -60.4350 100000.0000     82.2570
  1585.5000     64.9262    -64.3845 100000.0000     78.7499
  1585.7500     54.4645    -68.4861 100000.0000     76.8236
  1586.0000     43.9548    -72.6964 100000.0000     75.4300
  1586.2500     33.9340    -77.0167 100000.0000     75.3922
  1586.5000     24.9516    -81.4875      4.3550     75.9839
  1586.7500     17.4610    -86.1563      1.1730     76.6253
  1587.0000     11.6920    -91.0223      0.5013     78.3186
  1587.2500      7.5791    -95.9741      0.2402     80.4270
  1587.5000      4.8122   -100.7390      0.1208     86.1516
  1587.7500      2.9918   -104.8685      0.0673     92.1840
  1588.0000      1.7870   -107.7758      0.0438    104.1669
  1588.2500      1.0053   -108.8249      0.0335    112.7976
  1588.5000      0.5756   -107.4542      0.0297    123.3744
  1588.7500      0.5152   -103.3043      0.0303    127.2312
  1589.0000      0.9285    -96.3117      0.0362    127.3081
  1589.2500      2.0022    -86.7428      0.0519    124.1666
  1589.5000      3.9299    -75.1543      0.0898    117.0165
  1589.7500      6.7683    -62.2978      0.1802    112.1777
  1590.0000     10.3245    -48.9935      0.3859    106.5850
  1590.2500     14.1850    -36.0058      0.8901    104.1435
  1590.5000     17.8851    -23.9492      2.8645    101.7910
  1590.7500     21.1025    -13.2377 100000.0000    100.8041
  1591.0000     23.7453     -4.0760 100000.0000    100.0757
  1591.2500     25.9051      3.5146 100000.0000     99.8415
  1591.5000     27.7373      9.6495 100000.0000     98.8658
  1591.7500     29.3648     14.5270 100000.0000     97.4336
  1592.0000     30.8473     18.3773 100000.0000     94.6765
  1592.2500     32.1996     21.4235 100000.0000     93.0832
  1592.5000     33.4227     23.8592     63.5205     91.5205
  1592.7500     34.5215     25.8404     23.4040     90.8142
  1593.0000     35.5071     27.4909     26.3963     89.7190
  1593.2500     36.3946     28.9129    127.4977     88.8472
  1593.5000     37.1989     30.1959 100000.0000     87.6693
  1593.7500     37.9282     31.4210 100000.0000     87.4450
  1594.0000     38.5765     32.6555 100000.0000     88.6404
  1594.2500     39.1204     33.9430 100000.0000     90.3370
  1594.5000     39.5236     35.2927 100000.0000     93.0778
  1594.7500     39.7511     36.6749 100000.0000     94.3141
  1595.0000     39.7863     38.0257 100000.0000     94.9464
  1595.2500     39.6425     39.2608 100000.0000     95.0654
  1595.5000     39.3582     40.2976 100000.0000     96.4632
  1595.7500     38.9753     41.0749 100000.0000     98.9932
  1596.0000     38.5165     41.5691 100000.0000    104.7919
  1596.2500     37.9830     41.7981 100000.0000    108.7190
