~Version Information
VERS.                      2.0: CWLS Log ASCII Standard - VERSION 2.0
WRAP.                       NO: One line per depth step
~Well Information Block
STRT.FT               655.0000: 
STOP.FT              2623.7500: 
STEP.FT                 0.2500: 
NULL.                -999.2500: 
COMP.          Pioneer Natural Resources: COMPANY
WELL.             Aviator 12-4: WELL
FLD.           Purgatoire River: FIELD
LOC.           1969' FNL & 732' FWL--: LOCATION
CNTY.               Las Animas: COUNTY
SRVC.                Patterson: SERVICE COMPANY
DATE.          Sun Apr 09 14:25:03 2006: LOG DATE
UWI.           05 071 08714 00: UNIQUE WELL ID
STAT.                 Colorado: STATE
~Curve Information Block
DEPT.FT            0 000 00 00: Depth
SN.Ohm-m                      : IEL Short Normal
SP.mV                         : IEL Spontaneous Potential
DIR.Ohm-m                     : IEL Induction Resistivity
GR.GAPI                       : Gamma Ray
~Parameter Information Block
~A  Depth        SN          SP         DIR          GR     
# ...
  2330.0000      9.0827    112.6503      7.5079    123.2655
  2330.2500      8.9669    113.0319      7.3759    121.1505
  2330.5000      8.8833    113.3853      7.2600    118.5817
  2330.7500      8.8189    113.7049      7.1569    117.3682
  2331.0000      8.7661    113.9853      7.0673    116.0361
  2331.2500      8.7248    114.2198      6.9946    115.2749
  2331.5000      8.6967    114.3998      6.9427    114.5683
  2331.7500      8.6774    114.5150      6.9130    114.9437
  2332.0000      8.6541    114.5552      6.9046    117.9741
  2332.2500      8.6181    114.5142      6.9157    122.1104
  2332.5000      8.5809    114.3941      6.9464    131.3882
  2332.7500      8.5672    114.2091      6.9996    138.8625
  2333.0000      8.5997    113.9869      7.0813    149.5771
  2333.2500      8.6982    113.7663      7.1981    154.6665
  2333.5000      8.8726    113.5919      7.3559    156.8708
  2333.7500      9.1102    113.5070      7.5587    154.2413
  2334.0000      9.3868    113.5457      7.8077    145.1210
  2334.2500      9.6807    113.7272      8.1010    136.8933
  2334.5000      9.9657    114.0527      8.4316    123.8456
  2334.7500     10.2080    114.5052      8.7856    115.7361
  2335.0000     10.3736    115.0512      9.1409    105.0861
  2335.2500     10.4453    115.6451      9.4688     99.0170
  2335.5000     10.4461    116.2346      9.7415     91.9570
  2335.7500     10.4375    116.7679      9.9396     89.1785
  2336.0000     10.4807    117.2016     10.0558     88.2589
  2336.2500     10.5940    117.5078     10.0930     89.3074
  2336.5000     10.7450    117.6789     10.0593     91.9746
  2336.7500     10.8727    117.7275      9.9662     93.9223
  2337.0000     10.9254    117.6822      9.8282     96.7922
  2337.2500     10.8861    117.5799      9.6621     98.5774
  2337.5000     10.7749    117.4574      9.4860    100.7099
  2337.7500     10.6280    117.3441      9.3172    101.6405
  2338.0000     10.4733    117.2584      9.1714    102.7765
  2338.2500     10.3334    117.2080      9.0623    104.0225
  2338.5000     10.2380    117.1919      8.9994    107.4873
  2338.7500     10.2138    117.2047      8.9856    110.6718
  2339.0000     10.2693    117.2404      9.0155    115.3946
  2339.2500     10.3856    117.2950      9.0739    117.8234
  2339.5000     10.5174    117.3669      9.1372    120.4371
  2339.7500     10.6144    117.4573      9.1772    121.9640
  2340.0000     10.6483    117.5678      9.1677    124.0723
  2340.2500     10.6219    117.6996      9.0941    124.8261
  2340.5000     10.5607    117.8511      8.9611    124.2499
  2340.7500     10.4990    118.0173      8.7970    122.9481
  2341.0000     10.4663    118.1896      8.6506    120.4217
  2341.2500     10.4754    118.3558      8.5855    118.4989
  2341.5000     10.5189    118.5014      8.6782    115.2675
  2341.7500     10.5709    118.6105      9.0245    113.2218
  2342.0000     10.6091    118.6672      9.7611    111.2294
  2342.2500     10.6443    118.6566     11.1174    110.8630
  2342.5000     10.7099    118.5663     13.5542    111.4689
  2342.7500     10.8278    118.3869     18.2326    112.2310
  2343.0000     11.0029    118.1135     29.2836    112.9571
  2343.2500     11.2315    117.7449     79.4358    112.6671
  2343.5000     11.5005    117.2828 100000.0000    111.2866
  2343.7500     11.7769    116.7288 100000.0000    110.6637
  2344.0000     11.9942    116.0808 100000.0000    111.6855
  2344.2500     12.0621    115.3285 100000.0000    113.4699
  2344.5000     11.9066    114.4489 100000.0000    115.7578
  2344.7500     11.5182    113.4025 100000.0000    116.0333
  2345.0000     10.9731    112.1311 100000.0000    114.6803
  2345.2500     10.4075    110.5566     86.7022    113.3016
  2345.5000      9.9705    108.5810     17.6447    111.3539
  2345.7500      9.7718    106.0881      9.4801    110.2035
  2346.0000      9.8451    102.9460      6.6531    108.6664
  2346.2500     10.1514     99.0127      5.4289    107.8847
  2346.5000     10.5892     94.1424      4.9501    107.3931
  2346.7500     11.0202     88.1952      4.9837    107.6427
  2347.0000     11.3351     81.0422      5.5737    108.9486
  2347.2500     11.4829     72.5685      7.0785    110.3367
  2347.5000     11.4380     62.6679     10.5552    112.5232
  2347.7500     11.1702     51.2297     18.3138    113.3985
  2348.0000     10.6430     38.1221     24.7436    112.8130
  2348.2500      9.8319     23.1835     13.2134    110.9143
  2348.5000      8.7593      6.2324      5.2389    106.0643
  2348.7500      7.5362    -12.8904      2.3680    101.8781
  2349.0000      6.3383    -34.2474      1.2391     94.9694
  2349.2500      5.3014    -57.7129      0.7199     90.5069
  2349.5000      4.4573    -82.8935      0.4447     85.0984
  2349.7500      3.7659   -109.0942      0.2824     82.7933
  2350.0000      3.1853   -135.3558      0.1823     81.2446
  2350.2500      2.7150   -160.5692      0.1218     81.0298
  2350.5000      2.3806   -183.6445      0.0877     80.9776
  2350.7500      2.1874   -203.6902      0.0712     80.7402
  2351.0000      2.0932   -220.1550      0.0679     79.8887
  2351.2500      2.0385   -232.8946      0.0783     79.0998
  2351.5000      2.0009   -242.1519      0.1098     78.0006
  2351.7500      2.0004   -248.4631      0.1824     77.6224
  2352.0000      2.0500   -252.5227      0.3371     78.0103
  2352.2500      2.1251   -255.0450      0.6732     78.9572
  2352.5000      2.1835   -256.6517      1.6049     81.0048
  2352.7500      2.1902   -257.8060      6.9557     82.3505
  2353.0000      2.1285   -258.7946 100000.0000     83.7848
  2353.2500      2.0097   -259.7498 100000.0000     84.4661
  2353.5000      1.8756   -260.6949      6.0675     85.9448
  2353.7500      1.7695   -261.5957      1.2807     87.6347
  2354.0000      1.7048   -262.4034      0.4792     90.8286
  2354.2500      1.6737   -263.0819      0.1974     92.6644
  2354.5000      1.6658   -263.6185      0.0825     93.9014
  2354.7500      1.6688   -264.0221      0.0399     93.4935
  2355.0000      1.6727   -264.3152      0.0253     90.9582
  2355.2500      1.6721   -264.5203      0.0221     87.8391
  2355.5000      1.6620   -264.6563      0.0270     80.6965
  2355.7500      1.6437   -264.7285      0.0458     74.3895
  2356.0000      1.6320   -264.7198      0.1026     63.7643
  2356.2500      1.6462   -264.5772      0.2613     57.0930
  2356.5000      1.6991   -264.1926      0.6929     49.7548
  2356.7500      1.7843   -263.3740      2.7608     47.3177
  2357.0000      1.8616   -261.8163 100000.0000     47.3872
  2357.2500      1.8770   -259.0762 100000.0000     49.5401
  2357.5000      1.8218   -254.5664 100000.0000     55.1131
  2357.7500      1.7424   -247.5872 100000.0000     60.0301
  2358.0000      1.6860   -237.4045 100000.0000     69.0587
  2358.2500      1.6660   -223.3745 100000.0000     76.2675
  2358.5000      1.6817   -205.0936 100000.0000     88.6035
  2358.7500      1.7610   -182.5365 100000.0000     97.0895
  2359.0000      1.9926   -156.1387      3.0296    108.1409
  2359.2500      2.5132   -126.7897      1.1509    113.4333
  2359.5000      3.4057    -95.7280      0.6586    118.2269
  2359.7500      4.5664    -64.3618      0.4825    120.0453
  2360.0000      5.7280    -34.0599      0.4509    121.7506
  2360.2500      6.6520     -5.9704      0.5450    122.3396
  2360.5000      7.2557     19.0982      0.8623    122.5056
  2360.7500      7.5751     40.7148      2.0478    122.4584
  2361.0000      7.6913     58.7940 100000.0000    122.6459
  2361.2500      7.6977     73.5215 100000.0000    122.8995
  2361.5000      7.6849     85.2595 100000.0000    123.4628
  2361.7500      7.7165     94.4571 100000.0000    124.4657
  2362.0000      7.8156    101.5750 100000.0000    127.9584
  2362.2500      7.9793    107.0306 100000.0000    131.3948
  2362.5000      8.1982    111.1641 100000.0000    136.0613
  2362.7500      8.4575    114.2270 100000.0000    137.3636
  2363.0000      8.7286    116.3922     15.5886    135.2873
  2363.2500      8.9810    117.7797      7.7798    131.4421
