~Version Information
VERS.                      2.0: CWLS Log ASCII Standard - VERSION 2.0
WRAP.                       NO: One line per depth step
~Well Information Block
STRT.FT                -6.5000: 
STOP.FT              1467.0000: 
STEP.FT                 0.2500: 
NULL.                -999.2500: 
COMP.          Pioneer Natural Resources: COMPANY
WELL.          Surtees 23-34 Tr: WELL
FLD.           Purgatorie River: FIELD
LOC.           1559' FSL & 1997' FWL--: LOCATION
PROV.                       CO: PROVINCE
CNTY.               Las Animas: COUNTRY
SRVC.          Patterson Wireline: SERVICE COMPANY
DATE.          Tue Aug 02 13:04:45 2005: LOG DATE
UWI.           05 071 08449 00: UNIQUE WELL ID
~Curve Information Block
DEPT.FT            0 000 00 00: Depth
CCL.                          : Casing Collar Locator
TT3.usec                      : CBL 3' Travel Time
AMP3.mV                       : CBL 3' Amplitude
GR.GAPI                       : Gamma Ray
~Parameter Information Block
~A  Depth       CCL         TT3         AMP3         GR     
    -6.5000   -999.2500   -999.2500   -999.2500     76.7258
    -6.2500   -999.2500   -999.2500   -999.2500     74.5704
    -6.0000   -999.2500   -999.2500   -999.2500     73.6018
    -5.7500   -999.2500   -999.2500   -999.2500     74.0229
    -5.5000   -999.2500   -999.2500   -999.2500     75.3005
    -5.2500   -999.2500   -999.2500   -999.2500     76.5074
    -5.0000   -999.2500   -999.2500   -999.2500     76.9195
    -4.7500   -999.2500   -999.2500   -999.2500     76.3683
    -4.5000   -999.2500   -999.2500   -999.2500     75.0715
    -4.2500   -999.2500   -999.2500   -999.2500     73.4736
    -4.0000   -999.2500   -999.2500   -999.2500     72.2205
    -3.7500   -999.2500   -999.2500   -999.2500     71.6924
    -3.5000   -999.2500   -999.2500   -999.2500     71.3948
    -3.2500   -999.2500   -999.2500   -999.2500     70.3120
    -3.0000   -999.2500   -999.2500   -999.2500     68.1289
    -2.7500   -999.2500   -999.2500   -999.2500     65.8163
    -2.5000   -999.2500   -999.2500   -999.2500     64.7703
    -2.2500   -999.2500   -999.2500   -999.2500     65.4057
    -2.0000   -999.2500   -999.2500   -999.2500     66.8413
    -1.7500   -999.2500   1149.0000      1.8914     68.0736
    -1.5000   -999.2500   1149.0000      1.9005     69.0312
    -1.2500   -999.2500   1149.0000      1.9143     70.0594
    -1.0000   -999.2500   1149.0000      1.9297     70.8499
    -0.7500   -999.2500   1149.0000      1.9420     70.6339
    -0.5000   -999.2500   1149.0000      1.9495     69.1588
    -0.2500   -999.2500   1149.0000      1.9541     66.7820
     0.0000   -999.2500   1149.0000      1.9581     63.7886
     0.2500   -999.2500   1149.0000      1.9580     56.0048
     0.5000   -999.2500   1149.0000      1.9497     51.8148
     0.7500   -999.2500   1149.0000      1.9391     48.1834
     1.0000   -999.2500   1149.0000      1.9306     45.2134
     1.2500   -999.2500   1149.0000      1.9254     42.4209
     1.5000   -999.2500   1149.0000      1.9221     39.3910
     1.7500   -999.2500   1149.0000      1.9197     36.4358
     2.0000   -999.2500   1149.0000      1.9186     34.3627
     2.2500   -999.2500   1149.0000      1.9194     33.6837
     2.5000   -999.2500   1149.0000      1.9221     34.2831
     2.7500   -999.2500   1149.0000      1.9270     35.7553
     3.0000   -999.2500   1149.0000      1.9346     37.7147
     3.2500   -999.2500   1149.0000      1.9430     39.7781
     3.5000      0.0000   1149.0000      1.9479     41.6753
     3.7500      0.0000   1149.0000      1.9456     43.5860
     4.0000      0.0000   1149.0000      1.9372     46.0243
     4.2500      0.0000   1149.0000      1.9292     49.0999
     4.5000      0.0000   1149.0000      1.9297     52.0205
     4.7500      0.0000   1149.0000      1.9413     53.5423
     5.0000      0.0000   1149.0000      1.9589     52.8943
     5.2500      0.0000   1149.0000      1.9733     50.3437
     5.5000      0.0000   1149.0000      1.9768     47.1070
     5.7500      0.0000   1149.0000      1.9681     44.7405
     6.0000      0.0000   1148.9805      1.9520     44.3441
     6.2500      0.0000   1148.8135      1.9392     46.0593
     6.5000      0.0000   1147.9077      1.9529     49.0517
     6.7500      0.0000   1144.0322      2.0792     51.9435
     7.0000      0.0000   1130.9369      2.5956     53.6813
     7.2500      0.0000   1095.9558      4.1667     54.2885
     7.5000      0.0000   1022.0479      7.8839     54.5875
     7.7500      0.0000    898.5347     14.7478     55.1196
     8.0000      0.0000    735.3369     24.6283     55.5856
     8.2500      0.0000    564.9952     35.6998     55.3018
     8.5000      0.0000    424.7093     45.3441     53.9117
     8.7500      0.0000    333.6808     51.8667     51.6597
     9.0000      0.0000    287.2131     55.2899     49.1287
     9.2500      0.0000    268.5800     56.6918     46.7810
     9.5000      0.0000    262.7173     57.1605     44.8498
     9.7500      0.0000    261.2686     57.3212     43.7081
    10.0000      0.0000    260.9831     57.4094     43.9731
    10.2500      0.0000    260.9355     57.4758     45.9657
    10.5000      0.0000    260.9286     57.5146     49.2368
    10.7500      0.0000    260.9252     57.5172     52.8347
    11.0000      0.0000    260.9267     57.4852     55.9669
    11.2500      0.0000    260.9366     57.4257     58.2847
    11.5000      0.0000    260.9702     57.3230     59.6370
    11.7500      0.0000    261.0934     57.0926     59.8138
    12.0000      0.0000    261.5066     56.5442     58.6526
    12.2500      0.0000    262.6607     55.3963     56.1994
    12.5000      0.0000    265.2623     53.3755     52.6392
    12.7500      0.0000    269.9398     50.3604     48.2178
    13.0000      0.0000    276.6375     46.4651     43.4273
    13.2500      0.0000    284.3873     41.9970     39.1664
    13.5000      0.0000    292.2512     37.3347     36.4584
    13.7500      0.0000    301.3300     32.8095     35.9328
    14.0000      0.0000    316.7358     28.6376     37.5480
    14.2500      0.0000    347.7118     24.9018     40.6676
    14.5000      0.0000    403.6989     21.5874     44.4359
    14.7500      0.0000    486.5459     18.6565     48.2755
    15.0000      0.0000    585.0016     16.1046     51.9783
    15.2500      0.0000    679.0729     13.9565     55.1898
    15.5000      0.0000    752.2057     12.2253     57.0828
    15.7500      0.0000    799.6865     10.8930     56.8964
    16.0000      0.0000    826.5776      9.9266     54.7607
    16.2500      0.0000    840.5357      9.2877     51.7728
    16.5000      0.0000    847.3149      8.9207     49.2020
    16.7500      0.0000    850.3087      8.7480     47.6363
    17.0000      0.0000    851.4100      8.6888     46.8176
    17.2500      0.0000    851.5151      8.6815     46.0286
    17.5000      0.0000    850.7003      8.6913     44.5682
    17.7500      0.0000    848.4222      8.7031     42.1932
    18.0000      0.0000    844.0303      8.7131     39.3836
    18.2500      0.0000    837.5856      8.7226     37.0785
    18.5000      0.0000    830.3843      8.7345     36.0343
    18.7500      0.0000    824.5198      8.7510     36.4402
    19.0000      0.0000    821.7349      8.7715     38.0315
    19.2500      0.0000    822.5655      8.7936     40.3734
    19.5000      0.0000    826.3405      8.8144     43.0272
    19.7500      0.0000    831.8101      8.8316     45.5144
    20.0000      0.0000    837.8381      8.8444     47.2124
    20.2500      0.0000    843.7159      8.8532     47.5932
    20.5000      0.0000    849.3134      8.8582     46.7981
    20.7500      0.0000    855.6878      8.8596     45.8470
    21.0000      0.0000    866.0330      8.8589     46.0287
    21.2500      0.0000    885.6567      8.8604     47.9837
    21.5000      0.0000    919.5076      8.8679     51.3517
    21.7500      0.0000    967.7592      8.8840     55.1485
    22.0000      0.0000   1023.1887      8.9086     58.4046
    22.2500      0.0000   1074.1685      8.9373     60.5944
    22.5000      0.0000   1111.6149      8.9619     61.6665
    22.7500      0.0000   1133.5491      8.9734     61.7897
    23.0000      0.0000   1143.7791      8.9678     61.0958
    23.2500      0.0000   1147.5715      8.9497     59.6347
    23.5000      0.0000   1148.6871      8.9294     57.5878
    23.7500      0.0000   1148.9469      8.9135     55.5587
    24.0000      0.0000   1148.9944      8.8992     54.4630
    24.2500      0.0000   1149.0000      8.8786     54.8448
    24.5000      0.0000   1149.0000      8.8473     56.2821
    24.7500      0.0000   1149.0000      8.8082     57.6950
    25.0000      0.0000   1149.0000      8.7685     58.3364
    25.2500      0.0000   1149.0000      8.7364     58.4272
    25.5000      0.0000   1149.0000      8.7175     58.7771
    25.7500      0.0000   1149.0000      8.7131     59.8553
    26.0000      0.0000   1149.0000      8.7206     61.4119
    26.2500      0.0000   1148.9805      8.7360     63.0196
    26.5000      0.0000   1148.8531      8.7552     64.6470
    26.7500      0.0000   1148.2059      8.7751     66.3108
