~Version Information
VERS.                      2.0: CWLS Log ASCII Standard - VERSION 2.0
WRAP.                       NO: One line per depth step
~Well Information Block
STRT.FT               745.0000: 
STOP.FT              1985.0000: 
STEP.FT                 0.1000: 
NULL.                -999.2500: 
COMP.          Pioneer Natural Resources: COMPANY
WELL.          Lorencito 15-36-33-67: WELL
FLD.           Purgatoire River: FIELD
LOC.           38' FSL & 1446' FEL: LOCATION
STAT.                 Colorado: State
CNTY.               Las Animas: COUNTY
CTRY. USA : Country
SECT. 36 : Section
TOWN. 33S : Township
RANG. 67W : Range
SRVC.                Patterson: SERVICE COMPANY
DATE.          Thu Oct 13 10:16:17 2005: LOG DATE
API.           05 071 08515 00: UNIQUE WELL ID
~Curve Information Block
DEPT.FT            0 000 00 00: Depth
DCAL.in                       : CDL Caliper
RHOB.g/cc                     : CDL Bulk Density
RHOC.g/cc                     : CDL Density Correction
DPOR.pu                       : CDL Density Porosity
GR.GAPI                       : Gamma Ray
NPOR.pu                       : Neutron Porosity
~Parameter Information Block
~A  Depth       DCAL        RHOB        RHOC        DPOR         GR         NPOR    
# ...
  1887.4000      7.9194      2.4959     -0.0030      9.3380     50.2612     18.4040
  1887.5000      7.9157      2.5088      0.0173      8.5554     57.9765     17.6711
  1887.6000      7.9157      2.5451      0.0301      6.3579     65.8659     17.4779
  1887.7000      7.9157      2.5858      0.0661      3.8885     69.3875     18.0668
  1887.8000      7.9175      2.6107      0.0805      2.3810     64.4983     18.7157
  1887.9000      7.9175      2.6110      0.0688      2.3646     56.8722     19.0304
  1888.0000      7.9176      2.5957      0.0414      3.2894     51.8128     18.8333
  1888.1000      7.9176      2.5819      0.0203      4.1244     50.8747     17.6748
  1888.2000      7.9176      2.5765      0.0523      4.4565     55.0227     16.2760
  1888.3000      7.9210      2.5716      0.0222      4.7542     60.2212     15.7594
  1888.4000      7.9210      2.5671      0.0038      5.0253     61.9134     16.1678
  1888.5000      7.9409      2.5719      0.0098      4.7357     62.7269     16.8918
  1888.6000      7.9409      2.5814      0.0528      4.1547     64.5722     17.6489
  1888.7000      7.9409      2.5895      0.0793      3.6693     65.9729     18.2988
  1888.8000      7.9338      2.5957      0.0708      3.2887     65.5366     18.8114
  1888.9000      7.9338      2.5901      0.1188      3.6320     62.4365     19.6273
  1889.0000      7.9264      2.5664      0.0772      5.0652     61.7484     20.7880
  1889.1000      7.9264      2.5408      0.0350      6.6179     68.8012     21.1568
  1889.2000      7.9264      2.5238      0.0554      7.6459     79.5459     20.3244
  1889.3000      7.9234      2.5101      0.0421      8.4764     84.8052     19.1538
  1889.4000      7.9234      2.5013      0.0242      9.0144     81.8827     18.7855
  1889.5000      7.9377      2.5002      0.0608      9.0771     77.8320     19.7412
  1889.6000      7.9377      2.5011      0.0084      9.0216     77.9016     20.8592
  1889.7000      7.9377      2.4984      0.0770      9.1852     80.2399     21.3696
  1889.8000      7.9439      2.4943      0.0354      9.4357     81.0744     21.9575
  1889.9000      7.9439      2.4978      0.0539      9.2253     80.6885     22.6128
  1890.0000      7.9558      2.5079      0.0445      8.6091     83.3531     22.9158
  1890.1000      7.9558      2.5156      0.0586      8.1454     85.6538     23.1711
  1890.2000      7.9558      2.5175      0.0566      8.0333     81.9473     23.5938
  1890.3000      7.9586      2.5184      0.0709      7.9784     78.0254     23.5195
  1890.4000      7.9586      2.5223      0.0481      7.7368     79.2010     22.2638
  1890.5000      7.9549      2.5278      0.0436      7.4040     82.7658     20.3887
  1890.6000      7.9549      2.5301      0.0775      7.2687     85.5257     18.9955
  1890.7000      7.9549      2.5342      0.0670      7.0184     87.0614     18.7354
  1890.8000      7.9543      2.5499      0.0772      6.0692     86.7899     19.3054
  1890.9000      7.9543      2.5640      0.0969      5.2095     84.6175     20.1493
  1891.0000      7.9584      2.5542      0.1080      5.8080     83.7808     21.4050
  1891.1000      7.9584      2.5281      0.0115      7.3853     86.3848     22.4677
  1891.2000      7.9584      2.5098      0.0364      8.4961     88.4303     22.7543
  1891.3000      7.9559      2.4978      0.0488      9.2260     84.8978     23.2283
  1891.4000      7.9559      2.4849     -0.0024     10.0039     75.7601     24.4093
  1891.5000      7.9350      2.4842     -0.0410     10.0474     66.1433     25.0861
  1891.6000      7.9350      2.4997      0.0205      9.1081     61.0630     24.5100
  1891.7000      7.9350      2.5156      0.0504      8.1471     62.0735     23.2655
  1891.8000      7.9438      2.5274      0.0620      7.4332     67.5627     22.1152
  1891.9000      7.9438      2.5357      0.0758      6.9266     72.7476     21.9049
  1892.0000      7.9451      2.5334      0.0554      7.0667     74.3851     23.0172
  1892.1000      7.9451      2.5256     -0.0161      7.5382     73.2806     24.3870
  1892.2000      7.9451      2.5234      0.0407      7.6709     70.4895     24.6069
  1892.3000      7.9438      2.5218      0.0498      7.7709     68.5132     23.7525
  1892.4000      7.9438      2.5126      0.0383      8.3243     70.2549     22.6837
  1892.5000      7.9466      2.4984      0.0298      9.1877     73.9338     21.7316
  1892.6000      7.9466      2.4873      0.0281      9.8582     76.2220     21.0495
  1892.7000      7.9466      2.4857      0.0194      9.9548     76.3747     21.0667
  1892.8000      7.9479      2.4914      0.0335      9.6113     73.1370     21.5113
  1892.9000      7.9479      2.4981      0.0225      9.2059     67.4317     21.4767
  1893.0000      7.9477      2.5037      0.0205      8.8659     65.0193     20.8953
  1893.1000      7.9477      2.5059      0.0661      8.7319     64.7781     20.5098
  1893.2000      7.9477      2.5037      0.0410      8.8656     62.3071     20.3680
  1893.3000      7.9445      2.5021      0.0417      8.9652     60.6774     20.0130
  1893.4000      7.9445      2.5056      0.0236      8.7501     61.9946     19.6034
  1893.5000      7.9535      2.5143      0.0535      8.2234     65.3061     19.6992
  1893.6000      7.9535      2.5254      0.0213      7.5487     68.2727     20.4924
  1893.7000      7.9535      2.5310      0.0846      7.2144     68.1089     21.1595
  1893.8000      7.9425      2.5244      0.0445      7.6100     63.9675     20.7740
  1893.9000      7.9425      2.5193      0.0165      7.9214     57.3835     19.8637
  1894.0000      7.9410      2.5196      0.0927      7.9022     54.8793     19.9270
  1894.1000      7.9410      2.5112      0.0158      8.4126     60.3247     21.2136
  1894.2000      7.9410      2.4996      0.0172      9.1151     68.8708     22.4453
  1894.3000      7.9467      2.4926      0.0600      9.5402     72.3171     23.1790
  1894.4000      7.9467      2.4823      0.0296     10.1632     69.5154     23.8537
  1894.5000      7.9472      2.4716     -0.0064     10.8124     68.7939     24.1950
  1894.6000      7.9472      2.4741     -0.0252     10.6612     73.5570     23.3529
  1894.7000      7.9472      2.4888      0.0365      9.7690     77.4095     21.9404
  1894.8000      7.9354      2.5024      0.0316      8.9473     75.9129     21.3547
  1894.9000      7.9354      2.5098      0.0212      8.4987     72.3435     21.6735
  1895.0000      7.9246      2.5178      0.0212      8.0151     70.3384     22.2971
  1895.1000      7.9246      2.5389      0.0483      6.7357     67.6441     22.7980
  1895.2000      7.9246      2.5750      0.0524      4.5449     63.7098     22.8768
  1895.3000      7.9221      2.6024      0.1119      2.8828     63.2295     22.4270
  1895.4000      7.9221      2.6015      0.0699      2.9397     65.2619     21.6217
  1895.5000      7.9191      2.5881      0.0683      3.7510     65.1658     20.9640
  1895.6000      7.9191      2.5751      0.0759      4.5418     61.5765     20.9175
  1895.7000      7.9191      2.5547      0.0635      5.7760     56.1387     21.1348
  1895.8000      7.9204      2.5317      0.0054      7.1668     51.4634     20.9550
  1895.9000      7.9204      2.5181      0.0146      7.9961     48.6654     20.6947
  1896.0000      7.9320      2.5107      0.0366      8.4399     46.8917     20.8862
  1896.1000      7.9320      2.5077      0.0143      8.6258     46.6772     21.2756
  1896.2000      7.9320      2.5154      0.0322      8.1573     47.3880     21.3343
  1896.3000      7.9425      2.5291      0.0660      7.3300     46.7735     21.2708
  1896.4000      7.9425      2.5360      0.0799      6.9080     45.2200     21.7520
  1896.5000      7.9426      2.5403      0.0431      6.6511     44.9825     22.7586
  1896.6000      7.9426      2.5486      0.0559      6.1427     46.7133     23.2815
  1896.7000      7.9426      2.5461      0.0716      6.2984     48.8037     22.5460
  1896.8000      7.9432      2.5237      0.0363      7.6564     49.9689     21.1995
  1896.9000      7.9432      2.5001      0.0068      9.0865     52.6024     20.4741
