~Version Information
VERS.                      2.0: CWLS Log ASCII Standard - VERSION 2.0
WRAP.                       NO: One line per depth step
~Well Information Block
STRT.FT               665.0000: 
STOP.FT              2193.5000: 
STEP.FT                 0.1000: 
NULL.                -999.2500: 
COMP.          Pioneer Natural Resources: COMPANY
WELL.          Bear Cub Federal 11-23: WELL
FLD.           Purgatoire River: FIELD
LOC.           1225' FNL & 1268' FWL--: LOCATION
CNTY.               Las Animas: COUNTY
SRVC.                Patterson: SERVICE COMPANY
DATE.          Tue Jun 20 09:14:02 2006: LOG DATE
UWI.           05 071 08509 00: UNIQUE WELL ID
STAT.                 Colorado: STATE
~Curve Information Block
DEPT.FT            0 000 00 00: Depth
DCAL.in                       : CDL Caliper
RHOB.g/cc                     : CDL Bulk Density
RHOC.g/cc                     : CDL Density Correction
DPOR.pu                       : CDL Density Porosity
NPOR.pu                       : Neutron Porosity
GR.GAPI                       : Gamma Ray
~Parameter Information Block
~A  Depth       DCAL        RHOB        RHOC        DPOR        NPOR         GR     
# ...
  1461.8000      7.9975      2.5873      0.0513      3.8005     27.2052    118.4498
  1461.9000      7.9975      2.5884      0.0359      3.7317     27.2424    120.9785
  1462.0000      7.9998      2.6029      0.0620      2.8519     27.1286    127.2398
  1462.1000      7.9998      2.6037      0.0412      2.8033     27.1308    131.9019
  1462.2000      7.9998      2.5767      0.0515      4.4450     27.1715    130.6715
  1462.3000      8.0018      2.5348      0.0212      6.9837     26.9731    128.3694
  1462.4000      8.0018      2.5076     -0.0406      8.6294     26.7802    130.0469
  1462.5000      8.0014      2.5087      0.0048      8.5646     26.8365    133.3542
  1462.6000      8.0014      2.5167      0.0201      8.0800     27.0502    135.3034
  1462.7000      8.0014      2.5159     -0.0168      8.1277     27.2874    135.8875
  1462.8000      7.9976      2.5138      0.0119      8.2549     27.2481    136.5845
  1462.9000      7.9976      2.5072      0.0235      8.6550     26.7992    139.2084
  1463.0000      7.9949      2.4878      0.0329      9.8282     26.1897    143.9402
  1463.1000      7.9949      2.4639      0.0147     11.2802     25.5757    146.4572
  1463.2000      7.9949      2.4473      0.0129     12.2872     24.9910    144.8652
  1463.3000      7.9946      2.4412      0.0428     12.6569     24.5453    143.9030
  1463.4000      7.9946      2.4410      0.0610     12.6661     24.1174    144.8064
  1463.5000      7.9935      2.4419      0.0388     12.6108     23.2351    143.7319
  1463.6000      7.9935      2.4460      0.0486     12.3632     21.9360    140.2441
  1463.7000      7.9935      2.4557      0.0613     11.7746     21.0153    137.0696
  1463.8000      7.9914      2.4691      0.0982     10.9650     20.7847    136.7482
  1463.9000      7.9914      2.4836      0.1267     10.0823     20.7810    137.0994
  1464.0000      7.9902      2.4983      0.1187      9.1935     20.7856    134.0567
  1464.1000      7.9902      2.5096      0.1461      8.5120     21.0113    130.9400
  1464.2000      7.9902      2.5144      0.0854      8.2190     21.4316    131.4707
  1464.3000      7.9896      2.5174      0.0726      8.0345     21.8633    133.6057
  1464.4000      7.9896      2.5181      0.0615      7.9947     22.4318    137.3072
  1464.5000      7.9876      2.5177      0.0222      8.0166     23.2569    142.2610
  1464.6000      7.9876      2.5288      0.0430      7.3472     23.8742    145.6756
  1464.7000      7.9876      2.5431      0.1138      6.4792     23.9338    147.5599
  1464.8000      7.9866      2.5407      0.0638      6.6233     23.7692    148.7433
  1464.9000      7.9866      2.5297      0.0453      7.2923     23.6374    149.9624
  1465.0000      7.9913      2.5244      0.0491      7.6128     23.5839    151.9757
  1465.1000      7.9913      2.5253      0.0183      7.5582     23.7607    151.7017
  1465.2000      7.9913      2.5263      0.0769      7.4957     24.0503    149.3761
  1465.3000      7.9973      2.5161      0.0776      8.1129     24.0531    149.9742
  1465.4000      7.9973      2.4953      0.0475      9.3768     23.8960    151.9716
  1465.5000      7.9988      2.4776      0.0744     10.4461     23.9386    151.6818
  1465.6000      7.9988      2.4763      0.0333     10.5303     23.8963    153.3977
  1465.7000      7.9988      2.4963      0.0484      9.3123     23.5286    160.2117
  1465.8000      7.9973      2.5233      0.1106      7.6766     23.1936    165.7564
  1465.9000      7.9973      2.5337      0.1466      7.0477     23.1779    167.5577
  1466.0000      7.9949      2.5248      0.1244      7.5850     23.3228    169.0433
  1466.1000      7.9949      2.5158      0.1284      8.1362     23.3274    167.1723
  1466.2000      7.9949      2.5197      0.0817      7.8950     23.0779    157.3025
  1466.3000      7.9914      2.5351      0.0999      6.9648     22.6396    143.5784
  1466.4000      7.9914      2.5562      0.0939      5.6852     22.0587    132.9757
  1466.5000      7.9898      2.5793      0.1255      4.2858     21.5199    128.3743
  1466.6000      7.9898      2.5898      0.1907      3.6490     21.2929    131.5676
  1466.7000      7.9898      2.5779      0.1024      4.3675     21.5978    137.7470
  1466.8000      7.9896      2.5643      0.1046      5.1930     22.3981    137.8793
  1466.9000      7.9896      2.5649      0.1301      5.1595     23.3807    133.1866
  1467.0000      7.9866      2.5696      0.1380      4.8740     24.2210    128.6131
  1467.1000      7.9866      2.5746      0.0968      4.5716     24.7884    124.5107
  1467.2000      7.9866      2.5839      0.1047      4.0047     25.3685    123.6552
  1467.3000      7.9810      2.5876      0.1145      3.7806     26.2524    124.5094
  1467.4000      7.9810      2.5783      0.0602      4.3439     27.1662    120.3695
  1467.5000      7.9768      2.5682      0.0678      4.9558     27.6055    111.5447
  1467.6000      7.9768      2.5682      0.0444      4.9583     27.6856    104.0400
  1467.7000      7.9768      2.5749      0.0878      4.5518     27.7275    100.3097
  1467.8000      7.9760      2.5778      0.0695      4.3769     27.6174     96.6455
  1467.9000      7.9760      2.5720      0.0747      4.7273     27.3681     89.4955
  1468.0000      7.9760      2.5671      0.0237      5.0241     27.1393     81.1185
  1468.1000      7.9760      2.5742      0.0592      4.5926     26.7837     78.0197
  1468.2000      7.9760      2.5917      0.0345      3.5313     26.1846     82.1542
  1468.3000      7.9755      2.6107      0.0823      2.3809     25.4830     86.4880
  1468.4000      7.9755      2.6205      0.0771      1.7862     24.8142     84.6205
  1468.5000      7.9760      2.6200      0.0886      1.8168     24.2912     78.4232
  1468.6000      7.9760      2.6153      0.0636      2.1059     24.0488     73.1773
  1468.7000      7.9760      2.6065      0.0428      2.6387     24.0777     71.3376
  1468.8000      7.9788      2.5967      0.0235      3.2279     24.2584     73.0516
  1468.9000      7.9788      2.5973      0.0331      3.1940     24.5499     77.7598
  1469.0000      7.9833      2.6038      0.0755      2.8000     24.8750     83.9478
  1469.1000      7.9833      2.5981      0.0280      3.1432     24.9919     89.2836
  1469.2000      7.9833      2.5873      0.0224      3.8000     24.9005     91.7715
  1469.3000      7.9877      2.5916      0.0189      3.5387     24.8584     92.3765
  1469.4000      7.9877      2.6093      0.0633      2.4645     24.8881     90.7725
  1469.5000      7.9870      2.6262      0.0444      1.4434     25.0041     87.1567
  1469.6000      7.9870      2.6319      0.0510      1.0975     25.2528     85.9524
  1469.7000      7.9870      2.6199      0.0697      1.8245     25.3868     88.0513
  1469.8000      7.9830      2.6058      0.0198      2.6795     25.1681     90.7329
  1469.9000      7.9830      2.6145      0.0673      2.1490     24.8438     94.5865
  1470.0000      7.9815      2.6313      0.1266      1.1357     24.7303    100.0494
  1470.1000      7.9815      2.6299      0.0636      1.2201     24.9116    104.2585
  1470.2000      7.9815      2.6204      0.0775      1.7957     25.4942    105.1197
  1470.3000      7.9833      2.6141      0.1012      2.1765     26.1885    102.7432
  1470.4000      7.9833      2.6015      0.0643      2.9380     26.4149    101.6209
  1470.5000      7.9866      2.5835     -0.0013      4.0316     26.0163    105.5123
  1470.6000      7.9866      2.5751      0.0275      4.5367     25.4377    111.2239
  1470.7000      7.9866      2.5783      0.0342      4.3434     25.2497    115.0302
  1470.8000      7.9907      2.5752      0.0600      4.5360     25.3786    118.4842
  1470.9000      7.9907      2.5553      0.0509      5.7392     25.4575    123.1327
  1471.0000      7.9922      2.5386      0.0222      6.7525     25.6076    126.0662
  1471.1000      7.9922      2.5474      0.0045      6.2157     25.8072    124.7780
  1471.2000      7.9922      2.5691      0.0418      4.9051     25.7197    119.4132
  1471.3000      7.9888      2.5717      0.0666      4.7465     25.5813    111.8548
