~Version Information
VERS.                      2.0: CWLS Log ASCII Standard - VERSION 2.0
WRAP.                       NO: One line per depth step
~Well Information Block
STRT.FT               520.0000: 
STOP.FT              2555.2500: 
STEP.FT                 0.2500: 
NULL.                -999.2500: 
COMP.          Pioneer Natural Resources: COMPANY
WELL.          Horsefeathers 24-34: WELL
FLD.           Purgatoire River: FIELD
LOC.           183' FSL & 1570' FWL--: LOCATION
CNTY.               Las Animas: COUNTY
SRVC.                Patterson: SERVICE COMPANY
DATE.          Sun Feb 05 17:35:59 2006: LOG DATE
UWI.           05 071 08675 00: UNIQUE WELL ID
STAT.                 Colorado: STATE
~Curve Information Block
DEPT.FT            0 000 00 00: Depth
SN.Ohm-m                      : IEL Short Normal
SP.mV                         : IEL Spontaneous Potential
DIR.Ohm-m                     : IEL Induction Resistivity
GR.GAPI                       : Gamma Ray
~Parameter Information Block
NPORSHIFT.              0.0000: NPORSHIFT
~A  Depth        SN          SP         DIR          GR     
# ...
  2262.0000      8.1287     26.3388 100000.0000    111.1002
  2262.2500      7.4939     16.0958 100000.0000    117.4808
  2262.5000      6.6851      3.2568 100000.0000    125.8022
  2262.7500      5.7434    -12.6760     35.8747    129.8597
  2263.0000      4.7790    -32.0598      4.2531    133.4232
  2263.2500      3.9147    -54.9623      3.1011    133.6339
  2263.5000      3.2224    -81.0355      3.7467    129.1179
  2263.7500      2.7075   -109.4620      7.9206    122.2032
  2264.0000      2.3399   -139.0094 100000.0000    106.8645
  2264.2500      2.0897   -168.1947 100000.0000     95.2556
  2264.5000      1.9389   -195.5154 100000.0000     79.8741
  2264.7500      1.8796   -219.6840 100000.0000     72.5997
  2265.0000      1.9123   -239.7989 100000.0000     66.6113
  2265.2500      2.0449   -255.4006 100000.0000     65.2418
  2265.5000      2.2790   -266.4076 100000.0000     65.7698
  2265.7500      2.5875   -272.9649     10.6757     67.2289
  2266.0000      2.9011   -275.2648      1.6140     70.1857
  2266.2500      3.1223   -273.4036      0.5664     72.3313
  2266.5000      3.1686   -267.3242      0.2209     76.1862
  2266.7500      3.0221   -256.8616      0.0813     79.9207
  2267.0000      2.7512   -241.8731      0.0316     88.0654
  2267.2500      2.4838   -222.4114      0.0149     94.7171
  2267.5000      2.3555   -198.8740      0.0089    104.6341
  2267.7500      2.4736   -172.0738      0.0067    110.3348
  2268.0000      2.9032   -143.1982      0.0065    117.0627
  2268.2500      3.6495   -113.6630      0.0083    120.2760
  2268.5000      4.6343    -84.9047      0.0143    122.7825
  2268.7500      5.7047    -58.1723      0.0338    122.6662
  2269.0000      6.6972    -34.3770      0.1009    120.1175
  2269.2500      7.5117    -14.0288      0.3027    117.6092
  2269.5000      8.1375      2.7385      0.8550    114.6763
  2269.7500      8.6229     16.0841      3.2508    114.5057
  2270.0000      9.0288     26.3584 100000.0000    118.0432
  2270.2500      9.3993     34.0114 100000.0000    122.4586
  2270.5000      9.7559     39.5248 100000.0000    129.5216
  2270.7500     10.1067     43.3681   1006.9654    132.7316
  2271.0000     10.4608     45.9693      9.1106    133.5245
  2271.2500     10.8348     47.6964      4.7649    131.3547
  2271.5000     11.2449     48.8438      3.6861    125.2025
  2271.7500     11.6944     49.6281      3.5535    120.1751
  2272.0000     12.1729     50.1950      4.0560    112.9795
  2272.2500     12.6636     50.6376      5.4402    109.0160
  2272.5000     13.1531     51.0188      9.1011    104.0680
  2272.7500     13.6349     51.3871     28.2554    100.7028
  2273.0000     14.1110     51.7843 100000.0000     94.5484
  2273.2500     14.5940     52.2436 100000.0000     89.8685
  2273.5000     15.1056     52.7787 100000.0000     83.4119
  2273.7500     15.6633     53.3747 100000.0000     80.3415
  2274.0000     16.2571     53.9887 100000.0000     78.0952
  2274.2500     16.8323     54.5601 100000.0000     77.8774
  2274.5000     17.2992     55.0306 100000.0000     78.4736
  2274.7500     17.5682     55.3644 100000.0000     78.8072
  2275.0000     17.5932     55.5604 100000.0000     78.1808
  2275.2500     17.3929     55.6502 100000.0000     76.9040
  2275.5000     17.0391     55.6882 100000.0000     75.0159
  2275.7500     16.6247     55.7329 100000.0000     75.0378
  2276.0000     16.2265     55.8297     34.8961     78.2911
  2276.2500     15.8808     56.0008     15.6196     82.3479
  2276.5000     15.5779     56.2434     11.7099     89.5601
  2276.7500     15.2779     56.5355     10.4776     93.8958
  2277.0000     14.9370     56.8451     10.2229     97.9471
  2277.2500     14.5281     57.1418     10.4566     98.6550
  2277.5000     14.0487     57.4044     10.9738     97.8108
  2277.7500     13.5248     57.6263     11.6430     97.3585
  2278.0000     13.0132     57.8163     12.3488     99.0722
  2278.2500     12.5969     57.9941     12.9969    102.2144
  2278.5000     12.3648     58.1819     13.5417    108.3406
  2278.7500     12.3822     58.3940     13.9924    111.4388
  2279.0000     12.6599     58.6279     14.3898    111.6485
  2279.2500     13.1351     58.8618     14.7744    108.5111
  2279.5000     13.6856     59.0571     15.1704    101.0519
  2279.7500     14.1857     59.1703     15.5859     96.0626
  2280.0000     14.5708     59.1665     16.0181     90.6421
  2280.2500     14.8607     59.0319     16.4543     88.7485
  2280.5000     15.1298     58.7807     16.8638     88.0308
  2280.7500     15.4563     58.4535     17.1835     88.3215
  2281.0000     15.8857     58.1081     17.3105     88.5963
  2281.2500     16.4219     57.8061     17.1268     88.0924
  2281.5000     17.0401     57.5982     16.5666     86.1086
  2281.7500     17.7082     57.5154     15.6910     84.3978
  2282.0000     18.4000     57.5648     14.6937     82.6822
  2282.2500     19.0928     57.7325     13.8330     82.8713
  2282.5000     19.7595     57.9904     13.3765     85.2471
  2282.7500     20.3623     58.3042     13.6509     87.4473
  2283.0000     20.8535     58.6397     15.2895     89.9267
  2283.2500     21.1862     58.9688     20.2156     90.3747
  2283.5000     21.3359     59.2721     38.8995     88.9784
  2283.7500     21.3206     59.5394 100000.0000     86.9202
  2284.0000     21.1994     59.7690 100000.0000     83.1500
  2284.2500     21.0402     59.9666 100000.0000     80.9035
  2284.5000     20.8723     60.1434 100000.0000     78.7348
  2284.7500     20.6580     60.3145 100000.0000     78.2105
  2285.0000     20.3097     60.4965 100000.0000     78.9263
  2285.2500     19.7458     60.7052 100000.0000     80.6254
  2285.5000     18.9458     60.9524     51.9705     85.3192
  2285.7500     17.9657     61.2426     28.4351     89.7733
  2286.0000     16.9068     61.5693     20.8568     97.7419
  2286.2500     15.8642     61.9130     16.3641    103.3629
  2286.5000     14.8905     62.2389     12.7718    111.3004
  2286.7500     13.9921     62.4974      9.8380    115.7346
  2287.0000     13.1501     62.6252      7.6956    120.5284
  2287.2500     12.3443     62.5474      6.4038    122.6400
  2287.5000     11.5669     62.1779      6.0268    125.2557
  2287.7500     10.8259     61.4210      7.1177    127.1984
  2288.0000     10.1410     60.1709     15.0611    130.3421
  2288.2500      9.5349     58.3135 100000.0000    132.0247
  2288.5000      9.0204     55.7209 100000.0000    133.0103
  2288.7500      8.5896     52.2450 100000.0000    132.5883
  2289.0000      8.2094     47.7035 100000.0000    131.1483
  2289.2500      7.8285     41.8592 100000.0000    130.2828
  2289.5000      7.3900     34.3971 100000.0000    129.7320
  2289.7500      6.8457     24.9116 100000.0000    129.8688
  2290.0000      6.1726     12.9216      3.5958    130.6245
  2290.2500      5.3893     -2.0704      0.8734    131.2321
  2290.5000      4.5585    -20.4716      0.4223    131.1267
  2290.7500      3.7632    -42.4565      0.2750    129.2814
  2291.0000      3.0683    -67.8293      0.2441    122.0648
  2291.2500      2.4995    -95.9373      0.2976    113.8368
  2291.5000      2.0531   -125.6822      0.4665     97.2949
  2291.7500      1.7195   -155.6437      0.8832     85.0465
  2292.0000      1.4918   -184.2963      2.1387     68.3007
  2292.2500      1.3579   -210.2606     10.4907     59.7043
  2292.5000      1.2958   -232.5223 100000.0000     51.2009
  2292.7500      1.2792   -250.5552 100000.0000     47.8394
  2293.0000      1.2878   -264.3244 100000.0000     44.8993
  2293.2500      1.3089   -274.1823 100000.0000     43.9110
  2293.5000      1.3335   -280.6970 100000.0000     43.9253
  2293.7500      1.3543   -284.4663 100000.0000     45.1162
  2294.0000      1.3683   -285.9576 100000.0000     48.5624
  2294.2500      1.3780   -285.4005 100000.0000     51.4276
  2294.5000      1.3883   -282.7415 100000.0000     55.0921
  2294.7500      1.4007   -277.6613      5.9188     56.4101
  2295.0000      1.4148   -269.6529      0.9476     56.7444
  2295.2500      1.4391   -258.1504      0.3214     56.7982
