~Version Information
VERS.                      2.0: CWLS Log ASCII Standard - VERSION 2.0
WRAP.                       NO: One line per depth step
~Well Information Block
STRT.FT                -7.7500: 
STOP.FT              1485.2500: 
STEP.FT                 0.2500: 
NULL.                -999.2500: 
COMP.          Pioneer Natural Resources: COMPANY
WELL.          Hammerhead 24-24 Tr: WELL
FLD.           Purgatorie River: FIELD
LOC.           953' FSL & 1922' FWL--: LOCATION
CNTY.               Las Animas: COUNTY
SRVC.          Patterson Wireline: SERVICE COMPANY
DATE.          Thu Feb 02 15:03:23 2006: LOG DATE
UWI.           05 071 08669 00: UNIQUE WELL ID
STAT.                       CO: STATE
~Curve Information Block
DEPT.FT            0 000 00 00: Depth
CCL.                          : Casing Collar Locator
TT3.usec                      : CBL 3' Travel Time
AMP3.mV                       : CBL 3' Amplitude
GR.GAPI                       : Gamma Ray
~Parameter Information Block
~A  Depth       CCL         TT3         AMP3         GR     
# ...
   695.7500      0.0000    738.2706      7.3772     85.9421
   696.0000      0.0000    729.9645      7.4000     88.4407
   696.2500      0.0000    725.4467      7.4192     89.7804
   696.5000      0.0000    724.4621      7.4187     90.3094
   696.7500      0.0000    725.1544      7.3952     90.8062
   697.0000      0.0000    726.0055      7.3623     91.5636
   697.2500      0.0000    726.5370      7.3438     92.3560
   697.5000      0.0000    726.8436      7.3587     93.0281
   697.7500      0.0000    727.0644      7.4066     93.4955
   698.0000      0.0000    727.2489      7.4668     93.2281
   698.2500      0.0000    727.4055      7.5128     91.3726
   698.5000      0.0000    727.5271      7.5294     87.6448
   698.7500      0.0000    727.5931      7.5174     82.9976
   699.0000      0.0000    727.5827      7.4870     79.2509
   699.2500      0.0000    727.4934      7.4472     77.9287
   699.5000      0.0000    727.3300      7.3997     79.3236
   699.7500      0.0000    727.0881      7.3406     82.5103
   700.0000      0.0000    726.7695      7.2678     86.0896
   700.2500      0.0000    726.4056      7.1868     88.9799
   700.5000      0.0000    726.0519      7.1089     90.8214
   700.7500      0.0000    725.7605      7.0445     91.9318
   701.0000      0.0000    725.5630      6.9986     92.7381
   701.2500      0.0000    725.4691      6.9699     92.9999
   701.5000      0.0000    725.4573      6.9533     91.8567
   701.7500      0.0000    725.4670      6.9440     89.0753
   702.0000      0.0000    725.4272      6.9386     86.0484
   702.2500      0.0000    725.3095      6.9327     84.9436
   702.5000      0.0000    725.1429      6.9203     86.7437
   702.7500      0.0000    724.9736      6.8978     90.3793
   703.0000      0.0000    724.8307      6.8677     93.6706
   703.2500      0.0000    724.7389      6.8372     94.8190
   703.5000      0.0000    724.7424      6.8123     93.0575
   703.7500      0.0000    724.8987      6.7949     88.5884
   704.0000      0.0000    725.2460      6.7844     82.5518
   704.2500      0.0000    725.7602      6.7802     76.7805
   704.5000      0.0000    726.3239      6.7818     72.8117
   704.7500      0.0000    726.7676      6.7883     70.7638
   705.0000      0.0000    727.0356      6.7973     69.2371
   705.2500      0.0000    727.3945      6.8061     66.4468
   705.5000      0.0000    728.5248      6.8143     61.6682
   705.7500      0.0000    731.3438      6.8284     55.7419
   706.0000      0.0000    736.4260      6.8615     50.2792
   706.2500      0.0000    743.1171      6.9198     46.5237
   706.5000      0.0000    749.1056      6.9890     44.9859
   706.7500      0.0000    751.4341      7.0346     45.8067
   707.0000      0.0000    748.4657      7.0172     49.0452
   707.2500      0.0000    740.8940      6.9098     54.5030
   707.5000      0.0000    730.7685      6.7125     61.4341
   707.7500      0.0000    720.1146      6.4707     68.5429
   708.0000      0.0000    710.9982      6.2698     74.3381
   708.2500      0.0000    706.2654      6.1726     77.7208
   708.5000      0.0000    708.6613      6.1568     78.5050
   708.7500      0.0000    718.4400      6.1500     77.5836
   709.0000      0.0000    732.3086      6.1219     76.5793
   709.2500      0.0000    745.2352      6.0990     76.8886
   709.5000      0.0000    753.6423      6.1031     78.6029
   709.7500      0.0000    757.4890      6.1227     80.4111
   710.0000      2.0000    759.4654      6.1540     80.9037
   710.2500      0.0000    761.1144      6.2588     79.9529
   710.5000      0.0000    759.5823      6.5709     78.7073
   710.7500      0.0000    750.1340      7.1976     78.5420
   711.0000      0.0000    732.9844      8.0632     80.1416
   711.2500      0.0000    715.0215      8.8802     83.1355
   711.5000      0.0000    702.9881      9.3541     86.2612
   711.7500      0.0000    698.5190      9.4151     88.1803
   712.0000      0.0000    702.0593      9.2174     88.5155
   712.2500      0.0000    716.1942      8.9579     88.1532
   712.5000      0.0000    740.3225      8.7437     88.4441
   712.7500      0.0000    765.6432      8.5921     89.9464
   713.0000      0.0000    779.2841      8.4813     91.8551
   713.2500      0.0000    771.8890      8.3840     92.8342
   713.5000      0.0000    742.0922      8.2822     92.4599
   713.7500      0.0000    699.1188      8.1731     91.4522
   714.0000      0.0000    661.9245      8.0662     90.2790
   714.2500      0.0000    649.3379      7.9704     88.1911
   714.5000      0.0000    666.5044      7.8867     84.2664
   714.7500      0.0000    701.8801      7.8130     79.0296
   715.0000      0.0000    737.9132      7.7512     74.4544
   715.2500      0.0000    763.2274      7.7061     72.5199
   715.5000      0.0000    776.0760      7.6789     74.1247
   715.7500      0.0000    780.1457      7.6642     79.1211
   716.0000      0.0000    779.3690      7.6555     86.6051
   716.2500      0.0000    776.0817      7.6517     94.8438
   716.5000      0.0000    772.0892      7.6576    101.4966
   716.7500      0.0000    769.7672      7.6712    104.6873
   717.0000      0.0000    771.3769      7.6728    104.1167
   717.2500      0.0000    777.1896      7.6340    101.1232
   717.5000      0.0000    784.5944      7.5421     97.8767
   717.7500      0.0000    789.4961      7.4138     96.5501
   718.0000      0.0000    788.8454      7.2818     98.6810
   718.2500      0.0000    782.0273      7.1712    104.4598
   718.5000      0.0000    770.6265      7.0912    112.1105
   718.7500      0.0000    757.5492      7.0398    118.4866
   719.0000      0.0000    745.8860      7.0102    121.3186
   719.2500      0.0000    737.5955      6.9934    121.0432
   719.5000      0.0000    732.8609      6.9815    119.9415
   719.7500      0.0000    730.6509      6.9704    119.6846
   720.0000      0.0000    729.7440      6.9603    120.1265
   720.2500      0.0000    729.2867      6.9545    120.1375
   720.5000      0.0000    728.7773      6.9559    119.0571
   720.7500      0.0000    727.8325      6.9626    117.2282
   721.0000      0.0000    726.0942      6.9666    115.2370
   721.2500      0.0000    723.4200      6.9587    112.8271
   721.5000      0.0000    720.0950      6.9360    108.9199
   721.7500      0.0000    716.5034      6.9070    102.8853
   722.0000      0.0000    712.4815      6.8866     95.6318
   722.2500      0.0000    707.4510      6.8846     89.0147
   722.5000      0.0000    701.5076      6.8956     84.0419
   722.7500      0.0000    695.9429      6.9030     80.1901
   723.0000      0.0000    692.3676      6.8931     76.8587
   723.2500      0.0000    691.5536      6.8669     75.0288
   723.5000      0.0000    693.0939      6.8378     76.6819
   723.7500      0.0000    695.8139      6.8189     82.5246
   724.0000      0.0000    698.5849      6.8106     91.0141
   724.2500      0.0000    701.1429      6.8030     99.7580
   724.5000      0.0000    704.1695      6.7884    106.8298
   724.7500      0.0000    708.4956      6.7675    110.4657
   725.0000      0.0000    714.3880      6.7454    109.1639
   725.2500      0.0000    721.4191      6.7246    103.5508
   725.5000      0.0000    728.5185      6.7035     97.2796
   725.7500      0.0000    734.1248      6.6797     94.3554
   726.0000      0.0000    736.8546      6.6526     95.4505
   726.2500      0.0000    736.4489      6.6254     97.7892
   726.5000      0.0000    733.9210      6.6053     98.7018
   726.7500      0.0000    730.4569      6.5973     98.2824
   727.0000      0.0000    726.2377      6.5994     98.2400
   727.2500      0.0000    720.5411      6.6043     99.1790
   727.5000      0.0000    712.9783      6.6061     99.9329
   727.7500      0.0000    704.4644      6.6044     99.2541
   728.0000      0.0000    696.8293      6.6024     97.2461
   728.2500      0.0000    691.5938      6.6041     94.9110
   728.5000      0.0000    689.3389      6.6134     92.9190
   728.7500      0.0000    690.2159      6.6338     91.2148
   729.0000      0.0000    694.6308      6.6659     89.5839
