~Version Information
VERS.                      2.0: CWLS Log ASCII Standard - VERSION 2.0
WRAP.                       NO: One line per depth step
~Well Information Block
STRT.FT               620.0000: 
STOP.FT              3067.2500: 
STEP.FT                 0.2500: 
NULL.                -999.2500: 
COMP.          Pioneer Natural Resources: COMPANY
WELL.          Interceptor 43-13 Kv: WELL
FLD.           Purgatoire River: FIELD
LOC.           2073' FSL & 519' FEL--: LOCATION
PROV.                 Colorado: PROVINCE
CNTY.               Las Animas: COUNTRY
SRVC.                Patterson: SERVICE COMPANY
DATE.          Sat Jan 14 19:35:17 2006: LOG DATE
UWI.           05 071 08655 00: UNIQUE WELL ID
~Curve Information Block
DEPT.FT            0 000 00 00: Depth
SN.Ohm-m                      : IEL Short Normal
SP.mV                         : IEL Spontaneous Potential
DIR.Ohm-m                     : IEL Induction Resistivity
GR.GAPI                       : Gamma Ray
~Parameter Information Block
~A  Depth        SN          SP         DIR          GR     
# ...
  2060.5000      9.3538     -3.9140      9.0245     98.5241
  2060.7500      9.1994     -3.8747      8.8555     97.3455
  2061.0000      9.0724     -3.8325      8.6844     95.4684
  2061.2500      9.0007     -3.8101      8.5258     94.3813
  2061.5000      9.0000     -3.8270      8.3870     93.1509
  2061.7500      9.0585     -3.8974      8.2701     92.4480
  2062.0000      9.1354     -4.0305      8.1752     91.2023
  2062.2500      9.1801     -4.2304      8.1027     90.2177
  2062.5000      9.1643     -4.4965      8.0545     88.8033
  2062.7500      9.0998     -4.8245      8.0338     88.0563
  2063.0000      9.0275     -5.2067      8.0446     87.3450
  2063.2500      8.9877     -5.6342      8.0918     87.2670
  2063.5000      8.9963     -6.0970      8.1791     88.0671
  2063.7500      9.0438     -6.5860      8.3053     89.2278
  2064.0000      9.1103     -7.0939      8.4609     91.3197
  2064.2500      9.1814     -7.6151      8.6284     92.4337
  2064.5000      9.2529     -8.1455      8.7864     93.2587
  2064.7500      9.3246     -8.6810      8.9178     93.4499
  2065.0000      9.3940     -9.2153      9.0153     93.8831
  2065.2500      9.4560     -9.7388      9.0821     94.4939
  2065.5000      9.5084    -10.2378      9.1279     95.6899
  2065.7500      9.5564    -10.6968      9.1643     96.3482
  2066.0000      9.6119    -11.1012      9.2019     96.6859
  2066.2500      9.6873    -11.4426      9.2506     96.4464
  2066.5000      9.7873    -11.7230      9.3188     95.6454
  2066.7500      9.9056    -11.9557      9.4116     95.0474
  2067.0000     10.0288    -12.1645      9.5287     94.5836
  2067.2500     10.1449    -12.3776      9.6628     94.9079
  2067.5000     10.2488    -12.6215      9.8016     96.4626
  2067.7500     10.3400    -12.9141      9.9329     97.7633
  2068.0000     10.4185    -13.2613     10.0489     99.0630
  2068.2500     10.4825    -13.6571     10.1494     99.3347
  2068.5000     10.5291    -14.0863     10.2393     99.4610
  2068.7500     10.5582    -14.5294     10.3245     99.6260
  2069.0000     10.5766    -14.9673     10.4092     99.6216
  2069.2500     10.5955    -15.3846     10.4956     99.0747
  2069.5000     10.6226    -15.7709     10.5842     97.4943
  2069.7500     10.6574    -16.1206     10.6743     96.4680
  2070.0000     10.6947    -16.4317     10.7621     96.0239
  2070.2500     10.7329    -16.7052     10.8403     96.5817
  2070.5000     10.7769    -16.9451     10.9001     97.6566
  2070.7500     10.8346    -17.1585     10.9353     97.7045
  2071.0000     10.9102    -17.3565     10.9459     96.5996
  2071.2500     11.0023    -17.5556     10.9396     95.8690
  2071.5000     11.1086    -17.7766     10.9316     95.9595
  2071.7500     11.2337    -18.0434     10.9410     96.4600
  2072.0000     11.3886    -18.3796     10.9866     95.9358
  2072.2500     11.5818    -18.8044     11.0811     93.9443
  2072.5000     11.8075    -19.3275     11.2266     88.9457
  2072.7500     12.0436    -19.9438     11.4131     85.2040
  2073.0000     12.2587    -20.6300     11.6203     80.1772
  2073.2500     12.4274    -21.3424     11.8242     77.3124
  2073.5000     12.5464    -22.0203     12.0050     73.5611
  2073.7500     12.6387    -22.5942     12.1525     71.6862
  2074.0000     12.7393    -22.9994     12.2660     70.8948
  2074.2500     12.8694    -23.1920     12.3501     72.1062
  2074.5000     13.0214    -23.1640     12.4105     75.9882
  2074.7500     13.1604    -22.9496     12.4519     79.1641
  2075.0000     13.2436    -22.6211     12.4759     83.5749
  2075.2500     13.2454    -22.2735     12.4801     85.8650
  2075.5000     13.1713    -22.0019     12.4582     88.2133
  2075.7500     13.0497    -21.8799     12.4035     89.3266
  2076.0000     12.9121    -21.9456     12.3144     90.9472
  2076.2500     12.7809    -22.1982     12.1993     92.1017
  2076.5000     12.6709    -22.6065     12.0774     93.5994
  2076.7500     12.5919    -23.1222     11.9726     94.2151
  2077.0000     12.5464    -23.6944     11.9056     94.4735
  2077.2500     12.5284    -24.2802     11.8860     94.2761
  2077.5000     12.5282    -24.8489     11.9098     93.7114
  2077.7500     12.5384    -25.3818     11.9606     93.4080
  2078.0000     12.5551    -25.8690     12.0157     93.4188
  2078.2500     12.5739    -26.3047     12.0542     93.7252
  2078.5000     12.5910    -26.6838     12.0654     94.2612
  2078.7500     12.6100    -26.9999     12.0527     94.5042
  2079.0000     12.6496    -27.2445     12.0320     94.8050
  2079.2500     12.7401    -27.4082     12.0253     95.1073
  2079.5000     12.9116    -27.4812     12.0545     95.6106
  2079.7500     13.1775    -27.4561     12.1375     95.6992
  2080.0000     13.5264    -27.3290     12.2860     94.8099
  2080.2500     13.9279    -27.1005     12.5050     93.1024
  2080.5000     14.3477    -26.7760     12.7906     88.3486
  2080.7500     14.7602    -26.3649     13.1302     83.9333
  2081.0000     15.1556    -25.8798     13.5039     76.9651
  2081.2500     15.5401    -25.3350     13.8925     73.2347
  2081.5000     15.9353    -24.7449     14.2856     70.2370
  2081.7500     16.3695    -24.1232     14.6843     69.9415
  2082.0000     16.8617    -23.4815     15.0941     71.1516
  2082.2500     17.4043    -22.8296     15.5144     72.5556
  2082.5000     17.9558    -22.1759     15.9312     75.1708
  2082.7500     18.4487    -21.5288     16.3185     77.1333
  2083.0000     18.8178    -20.8985     16.6481     80.0545
  2083.2500     19.0372    -20.2996     16.9025     81.7977
  2083.5000     19.1456    -19.7529     17.0855     84.2234
  2083.7500     19.2435    -19.2868     17.2258     86.1288
  2084.0000     19.4582    -18.9370     17.3734     90.4891
  2084.2500     19.9010    -18.7441     17.5907     94.7819
  2084.5000     20.6476    -18.7486     17.9434    102.5007
  2084.7500     21.7530    -18.9855     18.4909    107.0545
  2085.0000     23.2765    -19.4772     19.2792    109.9399
  2085.2500     25.2915    -20.2276     20.3366    107.9807
  2085.5000     27.8787    -21.2181     21.6777     99.0656
  2085.7500     31.1148    -22.4074     23.3135     90.2809
  2086.0000     35.0509    -23.7340     25.2637     76.0772
  2086.2500     39.6573    -25.1231     27.5541     67.7991
  2086.5000     44.7568    -26.4956     30.1960     59.3154
  2086.7500     50.0182    -27.7782     33.1528     56.7359
  2087.0000     55.0432    -28.9124     36.3205     56.9390
  2087.2500     59.4917    -29.8608     39.5403     58.7978
  2087.5000     63.1591    -30.6081     42.6341     61.9031
  2087.7500     65.9776    -31.1590     45.4418     63.1149
  2088.0000     67.9698    -31.5318     47.8403     63.0342
  2088.2500     69.2017    -31.7509     49.7539     61.9551
  2088.5000     69.7596    -31.8398     51.1624     59.3551
  2088.7500     69.7488    -31.8160     52.1036     57.1389
  2089.0000     69.2945    -31.6891     52.6548     53.4267
  2089.2500     68.5292    -31.4628     52.9036     51.1194
  2089.5000     67.5683    -31.1382     52.9233     48.9410
  2089.7500     66.4865    -30.7186     52.7644     48.8936
  2090.0000     65.3107    -30.2138     52.4493     51.2502
  2090.2500     64.0369    -29.6419     51.9587     54.0725
  2090.5000     62.6579    -29.0284     51.2316     58.8803
  2090.7500     61.1798    -28.4033     50.2040     61.8032
  2091.0000     59.6210    -27.7954     48.8751     65.3339
  2091.2500     58.0003    -27.2271     47.3382     67.1184
  2091.5000     56.3207    -26.7104     45.7331     68.9338
  2091.7500     54.5586    -26.2445     44.1586     69.6103
  2092.0000     52.6722    -25.8175     42.6256     70.2183
  2092.2500     50.6351    -25.4093     41.0868     70.6686
  2092.5000     48.4677    -24.9971     39.5004     71.6925
  2092.7500     46.2380    -24.5608     37.8649     72.6209
  2093.0000     44.0312    -24.0874     36.1982     74.5187
  2093.2500     41.9147    -23.5735     34.5034     76.2940
  2093.5000     39.9218    -23.0247     32.7642     79.7715
  2093.7500     38.0533    -22.4532     30.9698     82.4852
