~Version Information
VERS.                      2.0: CWLS Log ASCII Standard - VERSION 2.0
WRAP.                       NO: One line per depth step
~Well Information Block
STRT.FT               860.0000: 
STOP.FT              2360.5000: 
STEP.FT                 0.1000: 
NULL.                -999.2500: 
COMP.          Pioneer Natural Resources: COMPANY
WELL.            Cayenne 23-23: WELL
FLD.           Purgatoire River: FIELD
LOC.           2555' FSL & 2386' FWL: LOCATION
PROV.                 Colorado: PROVINCE
CNTY.               Las Animas: COUNTRY
SRVC.                Patterson: SERVICE COMPANY
DATE.          Wed Aug 17 08:28:25 2005: LOG DATE
UWI.           05 071 08476 00: UNIQUE WELL ID
~Curve Information Block
DEPT.FT            0 000 00 00: Depth
DCAL.in                       : CDL Caliper
RHOB.g/cc                     : CDL Bulk Density
RHOC.g/cc                     : CDL Density Correction
DPOR.pu                       : CDL Density Porosity
GR.GAPI                       : Gamma Ray
NPOR.pu                       : Neutron Porosity
~Parameter Information Block
~A  Depth       DCAL        RHOB        RHOC        DPOR         GR         NPOR    
# ...
  1359.2000      8.1152      2.5175      0.2576      8.0317    123.5566     31.4321
  1359.3000      8.1102      2.5354      0.2527      6.9480    119.4374     31.2102
  1359.4000      8.1102      2.5483      0.1359      6.1610    114.0178     30.5950
  1359.5000      8.1886      2.5522      0.0732      5.9258    112.4012     30.0943
  1359.6000      8.1886      2.5502      0.0719      6.0462    117.2445     29.7805
  1359.7000      8.1886      2.5483      0.0629      6.1638    124.3102     29.7883
  1359.8000      8.1721      2.5447      0.0598      6.3847    127.6682     29.9084
  1359.9000      8.1721      2.5345      0.0493      7.0028    123.7556     29.5916
  1360.0000      8.0855      2.5231      0.0431      7.6886    119.0303     29.1637
  1360.1000      8.0855      2.5155      0.0566      8.1504    125.2836     29.6202
  1360.2000      8.0855      2.5027      0.0727      8.9256    138.0249     30.6718
  1360.3000      8.1228      2.4725      0.0656     10.7589    141.3886     31.1732
  1360.4000      8.1228      2.4323     -0.0435     13.1914    133.1199     30.6976
  1360.5000      8.1925      2.4003     -0.0221     15.1343    125.7628     29.5252
  1360.6000      8.1925      2.3783     -0.0609     16.4650    128.8069     28.5712
  1360.7000      8.1925      2.3668     -0.0192     17.1619    139.0491     28.4924
  1360.8000      8.1822      2.3768     -0.0403     16.5556    147.7295     29.1294
  1360.9000      8.1822      2.4110      0.0410     14.4820    151.9004     29.9189
  1361.0000      8.2269      2.4491      0.1102     12.1738    152.9521     30.3388
  1361.1000      8.2269      2.4750      0.1063     10.6057    153.3241     30.0999
  1361.2000      8.2269      2.4976      0.1186      9.2336    154.3691     29.3522
  1361.3000      8.3277      2.5200      0.1744      7.8797    152.4174     28.7912
  1361.4000      8.3277      2.5295      0.1365      7.3022    145.1382     28.8176
  1361.5000      8.4048      2.5262      0.1407      7.5050    137.3728     29.4355
  1361.6000      8.4048      2.5151      0.1366      8.1732    135.7309     29.8798
  1361.7000      8.4048      2.4987      0.1199      9.1709    142.9865     29.4013
  1361.8000      8.2595      2.4798      0.0873     10.3134    156.2189     29.1002
  1361.9000      8.2595      2.4612      0.0631     11.4396    163.6370     30.1851
  1362.0000      8.2701      2.4521      0.0209     11.9932    161.1759     31.4260
  1362.1000      8.2701      2.4601      0.0112     11.5114    158.6442     31.1663
  1362.2000      8.2701      2.4724      0.1279     10.7642    163.9672     30.1586
  1362.3000      8.2115      2.4803      0.0489     10.2826    174.2526     29.4808
  1362.4000      8.2115      2.4955      0.1110      9.3625    179.5204     29.1918
  1362.5000      8.2163      2.5187      0.1031      7.9572    177.4951     29.3645
  1362.6000      8.2163      2.5359      0.1447      6.9162    176.2658     29.9031
  1362.7000      8.2163      2.5345      0.1371      6.9974    174.0756     30.1566
  1362.8000      8.1370      2.5173      0.1094      8.0434    164.2677     29.4896
  1362.9000      8.1370      2.5012      0.0887      9.0208    153.1007     28.5340
  1363.0000      8.1479      2.4995      0.0935      9.1235    147.9928     28.0531
  1363.1000      8.1479      2.5137      0.0959      8.2606    147.9452     28.1954
  1363.2000      8.1479      2.5373      0.0967      6.8329    150.1691     28.9926
  1363.3000      8.2283      2.5564      0.1461      5.6706    153.5889     30.2393
  1363.4000      8.2283      2.5542      0.1196      5.8090    157.7999     31.2125
  1363.5000      8.2842      2.5200      0.0920      7.8783    158.8558     31.1131
  1363.6000      8.2842      2.4556      0.0747     11.7798    150.6425     30.6317
  1363.7000      8.2842      2.3707      0.0940     16.9274    137.2944     30.9696
  1363.8000      8.2408      2.2756      0.0459     22.6927    130.9944     31.6250
  1363.9000      8.2408      2.1830      0.0397     28.3012    135.2902     31.5364
  1364.0000      8.2940      2.1071      0.0241     32.9008    142.5997     31.3681
  1364.1000      8.2940      2.0571     -0.0284     35.9321    146.8253     31.8481
  1364.2000      8.2940      2.0289     -0.0174     37.6449    149.3449     31.9563
  1364.3000      8.2371      2.0101      0.0376     38.7822    149.6675     31.6431
  1364.4000      8.2371      2.0057      0.0238     39.0513    144.4119     32.0332
  1364.5000      8.3389      2.0248      0.1284     37.8886    134.8049     32.9833
  1364.6000      8.3389      2.0600      0.1113     35.7570    126.8567     33.3633
  1364.7000      8.3389      2.1014      0.1127     33.2470    126.5644     32.6460
  1364.8000      8.4202      2.1389      0.0889     30.9785    130.9181     31.7450
  1364.9000      8.4202      2.1601      0.1515     29.6933    129.9841     31.4930
  1365.0000      8.4271      2.1641      0.1007     29.4479    121.0967     31.6268
  1365.1000      8.4271      2.1605      0.0822     29.6665    114.7513     31.7674
  1365.2000      8.4271      2.1510      0.0820     30.2441    119.2007     31.7976
  1365.3000      8.3767      2.1274      0.0779     31.6712    126.5001     31.6622
  1365.4000      8.3767      2.0938      0.0076     33.7108    123.2869     31.6820
  1365.5000      8.3738      2.0659      0.0515     35.4008    113.2977     31.8760
  1365.6000      8.3738      2.0520      0.0425     36.2430    113.6126     31.5942
  1365.7000      8.3738      2.0564      0.0316     35.9768    126.6107     31.2797
  1365.8000      8.4234      2.0749      0.0705     34.8557    136.6836     31.6158
  1365.9000      8.4234      2.0890      0.0926     33.9977    136.1499     31.9754
  1366.0000      8.4308      2.0863      0.0835     34.1635    132.9925     31.8004
  1366.1000      8.4308      2.0718      0.1204     35.0400    136.0720     31.6045
  1366.2000      8.4308      2.0588      0.0894     35.8285    142.2215     32.2672
  1366.3000      8.4392      2.0646      0.0798     35.4775    141.2745     33.3096
  1366.4000      8.4392      2.0941      0.0947     33.6905    133.3982     33.3968
  1366.5000      8.3712      2.1194      0.1492     32.1560    127.2141     32.5532
  1366.6000      8.3712      2.1121      0.1001     32.5985    125.2164     31.4466
  1366.7000      8.3712      2.0798      0.0861     34.5596    126.0654     30.5544
  1366.8000      8.3705      2.0509      0.0645     36.3090    131.5216     30.4407
  1366.9000      8.3705      2.0446      0.0729     36.6911    140.0194     30.8562
  1367.0000      8.1876      2.0570      0.0526     35.9411    142.8780     30.9617
  1367.1000      8.1876      2.0746      0.0712     34.8705    135.9706     30.4081
  1367.2000      8.1876      2.0938      0.0517     33.7062    126.9771     29.1869
  1367.3000      8.1024      2.1193      0.0446     32.1622    119.0842     27.7487
  1367.4000      8.1024      2.1494      0.0812     30.3384    107.0116     27.0968
  1367.5000      8.0877      2.1855      0.0771     28.1492     88.5913     27.6679
  1367.6000      8.0877      2.2430      0.0668     24.6688     68.8494     28.7354
  1367.7000      8.0877      2.3195      0.1178     20.0332     56.8722     28.9381
  1367.8000      8.0482      2.3902      0.1506     15.7456     56.9111     27.8634
  1367.9000      8.0482      2.4509      0.1100     12.0684     63.2636     26.1479
  1368.0000      7.9352      2.5194      0.1321      7.9122     66.2853     24.8747
  1368.1000      7.9352      2.5919      0.1246      3.5219     61.2645     24.7251
  1368.2000      7.9352      2.6422      0.0895      0.4739     52.3894     25.2713
  1368.3000      7.9735      2.6560      0.0889     -0.3633     44.3034     26.0878
  1368.4000      7.9735      2.6465      0.0808      0.2133     37.9293     26.6386
  1368.5000      8.1034      2.6374      0.0748      0.7631     35.2509     26.2526
  1368.6000      8.1034      2.6307      0.1173      1.1697     37.9507     24.9708
  1368.7000      8.1034      2.6171      0.0098      1.9961     43.9226     23.4602
