~Version Information
VERS.                      2.0: CWLS Log ASCII Standard - VERSION 2.0
WRAP.                       NO: One line per depth step
~Well Information Block
STRT.FT               305.0000: 
STOP.FT              1376.5000: 
STEP.FT                 0.1000: 
NULL.                -999.2500: 
COMP.          Pioneer Natural Resources: COMPANY
WELL.               LPGC 32-32: WELL
FLD.           Purgatoire River: FIELD
LOC.           1937' FNL & 1661' FEL: LOCATION
PROV.                 Colorado: PROVINCE
CNTY.               Las Animas: COUNTRY
SRVC.                Patterson: SERVICE COMPANY
DATE.          Mon Jan 30 07:33:36 2006: LOG DATE
UWI.           05 071 08641 00: UNIQUE WELL ID
~Curve Information Block
DEPT.FT            0 000 00 00: Depth
DCAL.in                       : CDL Caliper
RHOB.g/cc                     : CDL Bulk Density
RHOC.g/cc                     : CDL Density Correction
DPOR.pu                       : CDL Density Porosity
GR.GAPI                       : Gamma Ray
NPOR.pu                       : Neutron Porosity
~Parameter Information Block
~A  Depth       DCAL        RHOB        RHOC        DPOR         GR         NPOR    
# ...
   727.4000      8.0054      2.6298      0.0747      1.2228    140.5406     25.7619
   727.5000      7.9845      2.6480      0.1267      0.1212    142.8090     25.9037
   727.6000      7.9845      2.6545      0.0872     -0.2757    132.1129     26.1000
   727.7000      7.9845      2.6629      0.0906     -0.7835    119.8966     26.1574
   727.8000      7.9848      2.6816      0.0992     -1.9138    117.2061     25.9447
   727.9000      7.9848      2.6973      0.1667     -2.8655    120.2937     25.3709
   728.0000      7.9922      2.6982      0.0981     -2.9235    122.2659     24.8750
   728.1000      7.9922      2.6949      0.0757     -2.7232    120.6984     25.0340
   728.2000      7.9922      2.6867      0.1302     -2.2245    115.6304     25.5111
   728.3000      7.9828      2.6560      0.0889     -0.3609    112.9987     25.6861
   728.4000      7.9828      2.6115      0.0664      2.3326    118.6709     25.5254
   728.5000      7.9916      2.5856     -0.0168      3.9014    128.9141     25.2361
   728.6000      7.9916      2.5898     -0.0071      3.6501    138.1174     24.8594
   728.7000      7.9916      2.5967      0.0418      3.2289    143.6235     24.4010
   728.8000      7.9988      2.5855      0.0061      3.9090    141.8596     23.9741
   728.9000      7.9988      2.5717     -0.0126      4.7432    135.0024     23.7427
   729.0000      8.0036      2.5649      0.0066      5.1579    131.5819     23.7240
   729.1000      8.0036      2.5531      0.0074      5.8747    134.8559     23.9641
   729.2000      8.0036      2.5334      0.0269      7.0650    142.5693     24.5026
   729.3000      8.0075      2.5167     -0.0467      8.0773    152.8060     25.1079
   729.4000      8.0075      2.5164     -0.0535      8.0964    159.8275     25.2234
   729.5000      8.0238      2.5323     -0.0243      7.1324    159.4582     24.7629
   729.6000      8.0238      2.5509     -0.0293      6.0052    158.9485     24.6661
   729.7000      8.0238      2.5634      0.0453      5.2459    164.3124     25.3572
   729.8000      8.0157      2.5712      0.0255      4.7780    170.6442     26.1530
   729.9000      8.0157      2.5798      0.0545      4.2531    173.1517     26.7833
   730.0000      8.0159      2.5900      0.0684      3.6342    174.2845     27.5659
   730.1000      8.0159      2.5966      0.0691      3.2383    176.6504     28.1913
   730.2000      8.0159      2.5954      0.0849      3.3070    177.7284     28.3196
   730.3000      8.0238      2.5888      0.0742      3.7115    172.7912     28.3297
   730.4000      8.0238      2.5865      0.0158      3.8491    164.7211     28.7112
   730.5000      8.0179      2.6040      0.0135      2.7867    159.0735     29.3975
   730.6000      8.0179      2.6449      0.0700      0.3082    151.9862     29.6537
   730.7000      8.0179      2.6932      0.0439     -2.6163    142.9357     29.2542
   730.8000      8.0450      2.7270      0.0465     -4.6674    138.1640     28.6739
   730.9000      8.0450      2.7404      0.0602     -5.4795    137.9078     28.1288
   731.0000      8.0450      2.7553      0.0192     -6.3818    139.6948     27.7275
   731.1000      8.0450      2.7858      0.0960     -8.2297    142.0887     27.4649
   731.2000      8.0450      2.8059      0.0831     -9.4508    137.8142     26.9348
   731.3000      8.0223      2.7940      0.0428     -8.7279    124.5191     26.2446
   731.4000      8.0223      2.7600      0.0209     -6.6692    115.8570     26.0471
   731.5000      7.9928      2.7139      0.0178     -3.8733    121.4923     26.2949
   731.6000      7.9928      2.6575     -0.0275     -0.4565    133.4467     26.4718
   731.7000      7.9928      2.6051     -0.0802      2.7234    140.7127     26.3858
   731.8000      8.0055      2.5741     -0.1078      4.5987    142.4073     26.1377
   731.9000      8.0055      2.5685     -0.0700      4.9378    143.7017     25.9006
   732.0000      8.0122      2.5776     -0.0160      4.3861    145.1227     25.7879
   732.1000      8.0122      2.5783      0.0335      4.3462    144.4212     25.6955
   732.2000      8.0122      2.5539      0.0079      5.8263    144.2520     25.3531
   732.3000      8.0320      2.5196     -0.0019      7.9053    150.0460     24.7772
   732.4000      8.0320      2.5013     -0.0084      9.0117    158.6725     24.3123
   732.5000      8.0516      2.4991      0.0374      9.1484    163.6497     24.2530
   732.6000      8.0516      2.4972      0.0083      9.2628    162.3951     24.5360
   732.7000      8.0516      2.4946     -0.0340      9.4173    156.5043     24.7179
   732.8000      8.0321      2.5002     -0.0014      9.0813    150.0261     24.6784
   732.9000      8.0321      2.5172      0.0204      8.0481    146.9546     24.7315
   733.0000      8.0094      2.5449      0.0929      6.3708    149.5128     24.7971
   733.1000      8.0094      2.5702      0.1435      4.8384    154.7916     24.7194
   733.2000      8.0094      2.5786      0.1441      4.3289    160.2557     24.8477
   733.3000      8.0068      2.5766      0.1702      4.4479    165.7515     25.2419
   733.4000      8.0068      2.5723      0.1802      4.7093    168.2674     25.3934
   733.5000      7.9909      2.5586      0.1648      5.5369    167.0164     25.0195
   733.6000      7.9909      2.5364      0.1158      6.8823    165.7540     24.5839
   733.7000      7.9909      2.5236      0.1315      7.6597    166.9748     24.6509
   733.8000      8.0056      2.5361      0.0890      6.9049    170.8856     25.1801
   733.9000      8.0056      2.5721      0.1524      4.7193    175.7281     25.9096
   734.0000      8.0097      2.6151      0.1784      2.1159    174.4274     26.5635
   734.1000      8.0097      2.6439      0.1878      0.3723    165.9259     27.1277
   734.2000      8.0097      2.6456      0.1380      0.2674    161.6384     27.8151
   734.3000      8.0243      2.6339      0.0976      0.9762    166.3786     28.3148
   734.4000      8.0243      2.6290      0.1416      1.2706    169.7220     28.4012
   734.5000      8.0182      2.6313      0.0491      1.1348    164.8891     28.4396
   734.6000      8.0182      2.6279      0.1396      1.3414    159.0964     28.7107
   734.7000      8.0182      2.6071      0.0524      2.5976    159.4100     28.8880
   734.8000      8.0502      2.5765      0.0155      4.4575    161.7083     28.6175
   734.9000      8.0502      2.5530      0.0098      5.8796    161.5724     28.1290
   735.0000      8.0601      2.5436      0.0378      6.4504    160.2891     27.5600
   735.1000      8.0601      2.5405     -0.0232      6.6365    159.9307     26.7993
   735.2000      8.0601      2.5310      0.0393      7.2129    162.3482     26.0042
   735.3000      8.0633      2.5104      0.0092      8.4608    167.4870     25.5151
   735.4000      8.0633      2.4948     -0.0329      9.4088    171.1552     25.3137
   735.5000      8.0335      2.4974      0.0706      9.2502    172.3429     25.1817
   735.6000      8.0335      2.5086      0.0636      8.5694    174.5184     25.2393
   735.7000      8.0335      2.5213      0.0674      7.8007    177.6522     25.5232
   735.8000      8.0449      2.5296      0.1542      7.2940    178.0562     25.8797
   735.9000      8.0449      2.5210      0.1262      7.8157    174.2666     26.4071
   736.0000      8.0328      2.5000      0.0706      9.0915    171.0707     27.1181
   736.1000      8.0328      2.4818      0.1054     10.1955    171.6124     27.5921
   736.2000      8.0328      2.4714      0.1085     10.8228    175.5889     27.4547
   736.3000      8.0178      2.4701      0.1140     10.9053    181.2657     27.0537
   736.4000      8.0178      2.4746      0.1377     10.6306    183.0411     27.0054
   736.5000      8.0122      2.4822      0.0926     10.1691    177.4966     27.2768
   736.6000      8.0122      2.4950      0.1231      9.3952    169.8419     27.5089
   736.7000      8.0122      2.5116      0.0055      8.3867    164.9359     27.7748
   736.8000      8.0268      2.5334      0.0253      7.0649    162.0828     28.1583
   736.9000      8.0268      2.5516      0.1112      5.9649    160.2570     28.3413
