~Version Information
VERS.                      2.0: CWLS Log ASCII Standard - VERSION 2.0
WRAP.                       NO: One line per depth step
~Well Information Block
STRT.FT               260.8000: 
STOP.FT              1942.0000: 
STEP.FT                 0.1000: 
NULL.                -999.2500: 
COMP.          XTO Energy Inc.: COMPANY
WELL.          Golden Eagle 19-11: WELL
FLD.           Purgatoire River: FIELD
LOC.           2351' FSL & 1926' FWL--: LOCATION
CNTY.               Las Animas: COUNTY
SRVC.                Patterson: SERVICE COMPANY
DATE.          Thu Mar 09 08:41:38 2006: LOG DATE
UWI.           05 071 08696 00: UNIQUE WELL ID
STAT.                 Colorado: STATE
~Curve Information Block
DEPT.FT            0 000 00 00: Depth
DCAL.in                       : CDL Caliper
RHOB.g/cc                     : CDL Bulk Density
RHOC.g/cc                     : CDL Density Correction
DPOR.pu                       : CDL Density Porosity
NPOR.pu                       : Neutron Porosity
GR.GAPI                       : Gamma Ray
~Parameter Information Block
~A  Depth       DCAL        RHOB        RHOC        DPOR        NPOR         GR     
# ...
  1249.6000      7.9723      2.4809      0.0091     10.2459     67.8103     58.4659
  1249.7000      7.9723      2.4917      0.0659      9.5932     67.8103     55.3697
  1249.8000      7.9846      2.5017      0.0577      8.9859     67.8103     52.6126
  1249.9000      7.9846      2.5034      0.0480      8.8854     67.8103     52.1021
  1250.0000      7.9991      2.4961      0.0506      9.3292     67.8103     54.0580
  1250.1000      7.9991      2.4806      0.0191     10.2695     67.8103     54.7852
  1250.2000      7.9991      2.4635      0.0225     11.3032     67.8103     53.0239
  1250.3000      8.0097      2.4559      0.0165     11.7625     67.8103     51.0883
  1250.4000      8.0097      2.4616      0.0393     11.4202     67.8103     50.9743
  1250.5000      8.0165      2.4686      0.0620     10.9936     67.8103     52.2255
  1250.6000      8.0165      2.4713     -0.0002     10.8319     67.8103     51.8537
  1250.7000      8.0165      2.4741      0.0594     10.6585     67.8103     49.4766
  1250.8000      8.0143      2.4670      0.0657     11.0893     67.8103     47.3986
  1250.9000      8.0143      2.4483     -0.0057     12.2269     67.8103     46.9452
  1251.0000      8.0049      2.4329     -0.0028     13.1551     67.8103     50.2810
  1251.1000      8.0049      2.4255      0.0302     13.6048     67.8103     57.2668
  1251.2000      8.0049      2.4328     -0.0421     13.1612     67.8103     60.9063
  1251.3000      8.0012      2.4628      0.0248     11.3431     67.8103     57.6208
  1251.4000      8.0012      2.4929      0.0228      9.5190     67.8103     52.8769
  1251.5000      8.0039      2.4953      0.0116      9.3757     67.8103     50.3182
  1251.6000      8.0039      2.4763      0.0095     10.5297     67.8103     49.0794
  1251.7000      8.0039      2.4584      0.0122     11.6133     67.8103     49.3261
  1251.8000      8.0052      2.4461      0.0274     12.3579     67.8103     52.3322
  1251.9000      8.0052      2.4375     -0.0025     12.8789     67.8103     57.7518
  1252.0000      7.9985      2.4390      0.0091     12.7859     67.8103     62.8824
  1252.1000      7.9985      2.4465      0.0335     12.3344     67.8103     64.7843
  1252.2000      7.9985      2.4512      0.0138     12.0512     67.8103     60.9441
  1252.3000      7.9837      2.4520      0.0372     12.0024     67.8103     53.6417
  1252.4000      7.9837      2.4481      0.0397     12.2339     67.8103     49.1902
  1252.5000      7.9675      2.4491      0.0192     12.1777     67.8103     48.2589
  1252.6000      7.9675      2.4675      0.0213     11.0636     67.8103     47.5482
  1252.7000      7.9675      2.4940      0.0880      9.4534     67.8103     48.5296
  1252.8000      7.9554      2.5085      0.0951      8.5743     67.8103     53.3602
  1252.9000      7.9554      2.5073      0.0690      8.6504     67.8103     59.1744
  1253.0000      7.9517      2.4991      0.0598      9.1451     67.8103     61.9684
  1253.1000      7.9517      2.4885      0.0842      9.7884     67.8103     60.4230
  1253.2000      7.9517      2.4762      0.0550     10.5342     67.8103     54.4988
  1253.3000      7.9557      2.4662      0.0546     11.1406     67.8103     47.0386
  1253.4000      7.9557      2.4588      0.0520     11.5872     67.8103     42.7715
  1253.5000      7.9589      2.4489      0.0679     12.1872     67.8103     41.3523
  1253.6000      7.9589      2.4417      0.0003     12.6270     67.8103     40.4282
  1253.7000      7.9589      2.4441      0.0581     12.4762     67.8103     40.4402
  1253.8000      7.9622      2.4541      0.0179     11.8734     67.8103     40.6471
  1253.9000      7.9622      2.4736      0.0553     10.6891     67.8103     40.0819
  1254.0000      7.9633      2.4953      0.0626      9.3743     67.8103     40.1058
  1254.1000      7.9633      2.4990      0.0963      9.1525     67.8103     41.5484
  1254.2000      7.9633      2.4800      0.0674     10.3052     67.8103     42.6610
  1254.3000      7.9626      2.4573      0.0655     11.6786     67.8103     42.5134
  1254.4000      7.9626      2.4476      0.0764     12.2690     67.8103     42.5322
  1254.5000      7.9684      2.4513      0.0474     12.0414     67.8103     42.1953
  1254.6000      7.9684      2.4585      0.0555     11.6069     67.8103     40.5877
  1254.7000      7.9684      2.4566      0.0546     11.7218     67.8103     38.8963
  1254.8000      7.9769      2.4478      0.0342     12.2519     67.8103     38.5248
  1254.9000      7.9769      2.4482      0.0250     12.2284     67.8103     40.6329
  1255.0000      7.9809      2.4593      0.0589     11.5605     67.8103     43.7870
  1255.1000      7.9809      2.4639      0.0547     11.2766     67.8103     44.7453
  1255.2000      7.9809      2.4572      0.0346     11.6846     67.8103     44.8633
  1255.3000      7.9827      2.4479      0.0505     12.2456     67.8103     46.9747
  1255.4000      7.9827      2.4413      0.0254     12.6511     67.8103     50.8161
  1255.5000      7.9835      2.4422      0.0135     12.5941     67.8103     54.6956
  1255.6000      7.9835      2.4528      0.0210     11.9507     67.8103     56.7004
  1255.7000      7.9835      2.4677      0.0365     11.0511     67.8103     57.8891
  1255.8000      7.9824      2.4834      0.0745     10.0995     67.8103     61.7941
  1255.9000      7.9824      2.5018      0.0362      8.9799     67.8103     68.3219
  1256.0000      7.9810      2.5183      0.0725      7.9822     67.8103     73.7615
  1256.1000      7.9810      2.5224      0.0736      7.7338     67.8103     76.5287
  1256.2000      7.9810      2.5202      0.0209      7.8672     67.8103     79.0128
  1256.3000      7.9810      2.5244      0.0702      7.6118     67.8103     84.4398
  1256.4000      7.9810      2.5302      0.0513      7.2615     67.8103     92.3357
  1256.5000      7.9774      2.5245      0.0647      7.6071     67.8103     98.1424
  1256.6000      7.9774      2.5049      0.0285      8.7953     67.8103     99.8026
  1256.7000      7.9774      2.4868      0.0091      9.8883     67.8103     99.2735
  1256.8000      7.9704      2.4878     -0.0034      9.8318     67.8103     95.7446
  1256.9000      7.9704      2.5011      0.0495      9.0233     67.8103     89.5717
  1257.0000      7.9682      2.5097      0.0570      8.5023     67.8103     81.4899
  1257.1000      7.9682      2.5093      0.0863      8.5276     67.8103     72.8774
  1257.2000      7.9682      2.4988      0.0821      9.1618     67.8103     68.9721
  1257.3000      7.9708      2.4821      0.0654     10.1728     67.8103     70.5540
  1257.4000      7.9708      2.4752     -0.0186     10.5969     67.8103     74.2732
  1257.5000      7.9735      2.4824      0.0645     10.1603     67.8103     75.4738
  1257.6000      7.9735      2.4810      0.0838     10.2430     67.8103     71.4671
  1257.7000      7.9735      2.4608      0.0343     11.4647     67.8103     65.7938
  1257.8000      7.9785      2.4423      0.0080     12.5862     67.8103     62.0393
  1257.9000      7.9785      2.4352      0.0341     13.0172     67.8103     59.5729
  1258.0000      7.9834      2.4244      0.0338     13.6715     67.8103     58.6804
  1258.1000      7.9834      2.4024     -0.0093     15.0034     67.8103     59.2426
  1258.2000      7.9834      2.3873     -0.0178     15.9221     67.8103     57.6671
  1258.3000      7.9857      2.3954      0.0151     15.4274     67.8103     52.4713
  1258.4000      7.9857      2.4154      0.0630     14.2207     67.8103     46.8004
  1258.5000      7.9872      2.4239      0.0701     13.7051     67.8103     45.5981
  1258.6000      7.9872      2.4137      0.0687     14.3201     67.8103     48.6782
  1258.7000      7.9872      2.3952      0.0454     15.4426     67.8103     50.7225
  1258.8000      7.9927      2.3803      0.0471     16.3441     67.8103     50.0191
  1258.9000      7.9927      2.3756      0.0412     16.6288     67.8103     47.5711
  1259.0000      8.0003      2.3825      0.0186     16.2096     67.8103     43.6500
  1259.1000      8.0003      2.3925      0.0776     15.6057     67.8103     41.4793
