~Version Information
VERS.                      2.0: CWLS Log ASCII Standard - VERSION 2.0
WRAP.                       NO: One line per depth step
~Well Information Block
STRT.FT               545.0000: 
STOP.FT              2200.7000: 
STEP.FT                 0.1000: 
NULL.                -999.2500: 
COMP.          Pioneer Natural Resources: COMPANY
WELL.               Erin 21-15: WELL
FLD.           Purgatoire River: FIELD
LOC.           1217' FNL & 2284' FWL--: LOCATION
CNTY.               Las Animas: COUNTY
SRVC.                Patterson: SERVICE COMPANY
DATE.          Thu Mar 02 09:55:43 2006: LOG DATE
UWI.           05 071 08713 00: UNIQUE WELL ID
STAT.                 Colorado: STATE
~Curve Information Block
DEPT.FT            0 000 00 00: Depth
DCAL.in                       : CDL Caliper
RHOB.g/cc                     : CDL Bulk Density
RHOC.g/cc                     : CDL Density Correction
DPOR.pu                       : CDL Density Porosity
NPOR.pu                       : Neutron Porosity
GR.GAPI                       : Gamma Ray
~Parameter Information Block
~A  Depth       DCAL        RHOB        RHOC        DPOR        NPOR         GR     
# ...
  1303.4000      8.0127      2.4241      0.1345     13.6909     25.4222    118.4828
  1303.5000      8.0129      2.4591      0.1754     11.5707     25.1620    119.9839
  1303.6000      8.0129      2.4824      0.1143     10.1554     25.0424    119.8617
  1303.7000      8.0129      2.4988      0.0080      9.1619     25.1136    117.1810
  1303.8000      8.0058      2.5118      0.0309      8.3739     25.2635    114.8809
  1303.9000      8.0058      2.5194     -0.0015      7.9137     25.0470    116.3562
  1304.0000      7.9970      2.5305      0.0195      7.2413     24.5693    121.9126
  1304.1000      7.9970      2.5442      0.0414      6.4145     24.2013    128.0436
  1304.2000      7.9970      2.5447      0.0579      6.3847     23.7736    131.5445
  1304.3000      7.9912      2.5315      0.0027      7.1833     23.0971    130.7340
  1304.4000      7.9912      2.5256      0.0152      7.5369     22.1374    125.4834
  1304.5000      7.9875      2.5448      0.0494      6.3768     21.0363    118.6953
  1304.6000      7.9875      2.5858      0.0927      3.8884     20.2696    113.4224
  1304.7000      7.9875      2.6302      0.0928      1.1998     20.0670    110.1956
  1304.8000      7.9844      2.6584      0.1099     -0.5072     20.4560    108.0729
  1304.9000      7.9844      2.6581      0.1025     -0.4912     21.2996    104.3760
  1305.0000      7.9840      2.6316      0.0678      1.1156     22.0555     97.8177
  1305.1000      7.9840      2.5987      0.0057      3.1065     22.4747     92.0383
  1305.2000      7.9840      2.5812      0.0080      4.1721     22.7518     91.6846
  1305.3000      7.9863      2.5764      0.0269      4.4611     22.9320     96.2142
  1305.4000      7.9863      2.5681      0.0176      4.9616     22.6165     96.8828
  1305.5000      7.9889      2.5545     -0.0162      5.7886     21.6517     90.0869
  1305.6000      7.9889      2.5445     -0.0021      6.3952     20.7671     86.9443
  1305.7000      7.9889      2.5486     -0.0040      6.1444     20.7734     94.4614
  1305.8000      7.9901      2.5746     -0.0169      4.5723     21.6061    104.9088
  1305.9000      7.9901      2.6099      0.0625      2.4296     22.2770    108.7204
  1306.0000      7.9896      2.6297      0.0700      1.2326     22.1396    105.9313
  1306.1000      7.9896      2.6341     -0.0045      0.9611     21.6807    103.3936
  1306.2000      7.9896      2.6350      0.0588      0.9120     21.6991    103.5856
  1306.3000      7.9905      2.6282      0.0430      1.3237     22.1442    102.6842
  1306.4000      7.9905      2.6233      0.0114      1.6206     22.4984     97.1325
  1306.5000      7.9974      2.6302      0.0615      1.1985     22.6238     91.6401
  1306.6000      7.9974      2.6353      0.0390      0.8882     22.6370     91.5089
  1306.7000      7.9974      2.6283      0.0567      1.3123     22.5862     91.9722
  1306.8000      8.0083      2.6112      0.0042      2.3487     22.4386     89.9157
  1306.9000      8.0083      2.5940      0.0206      3.3952     22.2182     89.6392
  1307.0000      8.0161      2.5826      0.0517      4.0828     22.1518     91.5679
  1307.1000      8.0161      2.5780     -0.0006      4.3646     22.6382     93.6690
  1307.2000      8.0161      2.5828      0.0355      4.0727     23.6539     98.7806
  1307.3000      8.0161      2.5905      0.0211      3.6088     24.3738    105.5229
  1307.4000      8.0161      2.5942      0.0371      3.3841     24.2301    109.9865
  1307.5000      8.0127      2.5960      0.0625      3.2710     23.7304    113.6507
  1307.6000      8.0127      2.6000      0.0434      3.0274     23.4555    117.2226
  1307.7000      8.0127      2.6134      0.0180      2.2195     23.1465    119.6818
  1307.8000      8.0112      2.6337      0.0636      0.9864     22.6347    120.7645
  1307.9000      8.0112      2.6441      0.0322      0.3596     22.2398    121.1651
  1308.0000      8.0111      2.6328      0.0595      1.0398     21.9397    121.9741
  1308.1000      8.0111      2.5994      0.0306      3.0641     21.4947    118.7293
  1308.2000      8.0111      2.5593     -0.0041      5.4982     20.8388    108.6497
  1308.3000      8.0110      2.5377     -0.0136      6.8056     20.1786     99.0200
  1308.4000      8.0110      2.5451      0.0015      6.3567     19.8730     96.0978
  1308.5000      8.0077      2.5708      0.0368      4.7978     19.9698     98.6252
  1308.6000      8.0077      2.5945      0.0106      3.3647     20.3468    104.9634
  1308.7000      8.0077      2.5972      0.0365      3.1977     20.7956    112.6459
  1308.8000      8.0013      2.5802     -0.0058      4.2287     20.9350    118.3012
  1308.9000      8.0013      2.5700      0.0027      4.8506     21.0938    118.2641
  1309.0000      7.9965      2.5789     -0.0026      4.3098     21.9643    112.5142
  1309.1000      7.9965      2.5874      0.0176      3.7917     23.0999    107.4387
  1309.2000      7.9965      2.5822     -0.0039      4.1102     23.6541    107.7289
  1309.3000      7.9931      2.5739     -0.0009      4.6094     23.5705    112.0922
  1309.4000      7.9931      2.5734      0.0059      4.6440     23.1023    118.7956
  1309.5000      7.9903      2.5802      0.0218      4.2275     22.5573    124.6844
  1309.6000      7.9903      2.5902      0.0271      3.6258     22.1467    122.3618
  1309.7000      7.9903      2.5919      0.0647      3.5190     21.7487    112.4656
  1309.8000      7.9880      2.5755      0.0134      4.5141     21.3565    105.5839
  1309.9000      7.9880      2.5477      0.0314      6.2030     21.0496    104.2537
  1310.0000      7.9858      2.5295     -0.0324      7.3003     20.5849    103.1419
  1310.1000      7.9858      2.5406      0.0319      6.6314     20.0154     99.4093
  1310.2000      7.9858      2.5734      0.0577      4.6414     19.6852     94.8045
  1310.3000      7.9853      2.5990      0.0929      3.0934     19.5063     92.7924
  1310.4000      7.9853      2.6043      0.0512      2.7674     19.3926     92.0993
  1310.5000      7.9877      2.6011      0.0607      2.9615     19.5019     88.3884
  1310.6000      7.9877      2.5939      0.0449      3.4020     19.6594     80.5461
  1310.7000      7.9877      2.5829      0.0191      4.0678     19.8114     72.5174
  1310.8000      7.9898      2.5801     -0.0067      4.2339     20.1951     68.3127
  1310.9000      7.9898      2.5849      0.0647      3.9466     20.7059     69.7809
  1311.0000      7.9889      2.5875     -0.0013      3.7877     21.0574     77.8269
  1311.1000      7.9889      2.5976      0.0367      3.1746     21.2757     90.9631
  1311.2000      7.9889      2.6185      0.0292      1.9106     21.5113    103.6725
  1311.3000      7.9884      2.6269      0.0909      1.4025     21.6890    108.2468
  1311.4000      7.9884      2.6070      0.0514      2.6077     21.6666    105.5092
  1311.5000      7.9886      2.5812      0.0126      4.1697     21.6103    106.5954
  1311.6000      7.9886      2.5765      0.0616      4.4527     21.6709    113.8992
  1311.7000      7.9886      2.5896      0.0507      3.6587     21.8322    120.6766
  1311.8000      7.9891      2.6100      0.0392      2.4247     22.0061    122.5775
  1311.9000      7.9891      2.6285      0.0436      1.3008     21.9982    116.4088
  1312.0000      7.9916      2.6287      0.0956      1.2913     21.9090    104.4884
  1312.1000      7.9916      2.6137     -0.0012      2.1985     21.7379     93.9372
  1312.2000      7.9916      2.6059      0.0302      2.6733     21.2458     88.2712
  1312.3000      7.9952      2.6031      0.0303      2.8436     20.7479     88.7533
  1312.4000      7.9952      2.5975      0.0077      3.1790     20.7808     93.0774
  1312.5000      7.9987      2.6036      0.0139      2.8105     21.2010     93.3870
  1312.6000      7.9987      2.6219      0.0259      1.7047     21.5014     92.1500
  1312.7000      7.9987      2.6240      0.0583      1.5754     21.7157     97.7415
  1312.8000      8.0020      2.5971      0.0035      3.2066     22.1660    101.8986
  1312.9000      8.0020      2.5647      0.0130      5.1719     22.6941     96.3636
