~Version Information
VERS.                      2.0: CWLS Log ASCII Standard - VERSION 2.0
WRAP.                       NO: One line per depth step
~Well Information Block
STRT.FT               -10.0000: 
STOP.FT              1703.5000: 
STEP.FT                 0.2500: 
NULL.                -999.2500: 
COMP.          Pioneer Natural Resources: COMPANY
WELL.          Parrothead 31-31 Tr: WELL
FLD.           Purgatoire River: FIELD
LOC.           496' FNL & 1546' FEL--: LOCATION
PROV.                       CO: PROVINCE
CNTY.               Las Animas: COUNTRY
SRVC.          Patterson Wireline: SERVICE COMPANY
DATE.          Mon Nov 14 09:44:02 2005: LOG DATE
UWI.           05 071 08610 00: UNIQUE WELL ID
~Curve Information Block
DEPT.FT            0 000 00 00: Depth
CCL.                          : Casing Collar Locator
TT3.usec                      : CBL 3' Travel Time
AMP3.mV                       : CBL 3' Amplitude
GR.GAPI                       : Gamma Ray
~Parameter Information Block
~A  Depth       CCL         TT3         AMP3         GR     
# ...
  1665.0000      0.0000    738.5858      6.5092    148.5095
  1665.2500      0.0000    735.6978      6.5757    149.2869
  1665.5000      0.0000    730.3960      6.6321    152.2274
  1665.7500      0.0000    723.5091      6.6790    157.8582
  1666.0000      0.0000    716.2750      6.7122    165.0458
  1666.2500      0.0000    710.5492      6.7173    171.8996
  1666.5000      0.0000    708.2806      6.6772    176.9904
  1666.7500      0.0000    709.9697      6.5859    179.9508
  1667.0000      0.0000    713.7080      6.4585    181.0679
  1667.2500      0.0000    716.1257      6.3356    180.2260
  1667.5000      0.0000    714.1777      6.2783    176.4974
  1667.7500      0.0000    706.2352      6.3353    169.4140
  1668.0000      0.0000    693.0852      6.4834    160.6263
  1668.2500      0.0000    679.4567      6.6001    153.3861
  1668.5000      0.0000    673.1796      6.5395    150.0078
  1668.7500      0.0000    679.7601      6.2741    150.3093
  1669.0000      0.0000    697.3579      5.9540    152.4101
  1669.2500      0.0000    718.4625      5.7868    154.4045
  1669.5000      0.0000    735.8389      5.8521    155.4148
  1669.7500      0.0000    745.9962      6.0477    155.7190
  1670.0000     -2.0000    748.9682      6.2091    156.1220
  1670.2500      0.0000    747.1135      6.2459    157.1711
  1670.5000      0.0000    743.6453      6.1622    158.9140
  1670.7500      0.0000    740.7337      5.9932    161.0110
  1671.0000      0.0000    738.5904      5.7842    162.6586
  1671.2500      0.0000    736.5271      5.6449    162.7852
  1671.5000      0.0000    734.4857      5.7569    160.9425
  1671.7500      0.0000    733.1412      6.2406    158.0000
  1672.0000      0.0000    732.8779      7.0106    155.7148
  1672.2500      0.0000    733.3596      7.8153    155.6831
  1672.5000      0.0000    734.0490      8.4268    158.5414
  1672.7500      0.0000    734.6561      8.7643    163.5960
  1673.0000      0.0000    735.0815      8.8621    169.0028
  1673.2500      0.0000    735.2767      8.7886    172.7751
  1673.5000      0.0000    735.2576      8.6077    174.0421
  1673.7500      0.0000    735.1011      8.3635    173.3625
  1674.0000      0.0000    734.8054      8.0660    171.9905
  1674.2500      0.0000    734.1625      7.7072    171.2122
  1674.5000      0.0000    732.7373      7.3044    172.0744
  1674.7500      0.0000    730.0131      6.9148    174.6648
  1675.0000      0.0000    725.8426      6.6021    177.1706
  1675.2500      0.0000    721.1109      6.3982    176.3857
  1675.5000      0.0000    717.7490      6.2933    170.0551
  1675.7500      0.0000    717.3684      6.2530    159.0234
  1676.0000      0.0000    719.5345      6.2459    146.9058
  1676.2500      0.0000    721.7255      6.2606    137.3844
  1676.5000      0.0000    721.3448      6.3020    131.6214
  1676.7500      0.0000    717.8976      6.3711    128.1451
  1677.0000      0.0000    713.3575      6.4496    124.9266
  1677.2500      0.0000    710.3875      6.5057    121.2475
  1677.5000      0.0000    709.9576      6.5174    117.8344
  1677.7500      0.0000    710.6727      6.4923    115.8653
  1678.0000      0.0000    710.6270      6.4604    116.1227
  1678.2500      0.0000    709.7391      6.4484    118.5781
  1678.5000      0.0000    709.7626      6.4616    122.2787
  1678.7500      0.0000    711.9729      6.4944    125.7348
  1679.0000      0.0000    715.3818      6.5477    127.7234
  1679.2500      0.0000    717.6253      6.6265    127.8458
  1679.5000      0.0000    717.3814      6.7245    126.5157
  1679.7500      0.0000    715.5190      6.8191    124.6775
  1680.0000      0.0000    713.8684      6.8861    123.4813
  1680.2500      0.0000    713.3435      6.9177    123.7606
  1680.5000      0.0000    713.4619      6.9283    125.5392
  1680.7500      0.0000    713.1823      6.9422    128.0577
  1681.0000      0.0000    711.7452      6.9728    130.2995
  1681.2500      0.0000    709.0397      7.0111    131.5993
  1681.5000      0.0000    705.7721      7.0322    131.9431
  1681.7500      0.0000    703.2548      7.0148    131.5828
  1682.0000      0.0000    702.5291      6.9573    130.3534
  1682.2500      0.0000    703.5344      6.8790    127.6805
  1682.5000      0.0000    705.3865      6.8087    123.3160
  1682.7500      0.0000    707.5034      6.7732    117.8714
  1683.0000      0.0000    710.1732      6.7935    112.7697
  1683.2500      0.0000    714.0370      6.8829    109.6416
  1683.5000      0.0000    719.3835      7.0388    109.2973
  1683.7500      0.0000    725.9034      7.2389    111.2486
  1684.0000      0.0000    732.6541      7.4451    114.5483
  1684.2500      0.0000    738.2052      7.6148    118.7137
  1684.5000      0.0000    741.2671      7.7147    123.2979
  1684.7500      0.0000    741.5660      7.7384    127.0529
  1685.0000      0.0000    740.0580      7.7093    128.6177
  1685.2500      0.0000    738.1094      7.6597    128.0984
  1685.5000      0.0000    736.5481      7.6068    127.1389
  1685.7500      0.0000    735.4722      7.5554    127.2452
  1686.0000      0.0000    734.5993      7.5153    128.4927
  1686.2500      0.0000    733.5295      7.5026    129.8096
  1686.5000      0.0000    731.8817      7.5217    130.0257
  1686.7500      0.0000    729.6328      7.5537    128.6703
  1687.0000      0.0000    727.4777      7.5633    126.0567
  1687.2500      0.0000    726.5362      7.5167    122.6854
  1687.5000      0.0000    727.3765      7.3994    118.6405
  1687.7500      0.0000    729.4166      7.2243    113.7993
  1688.0000      0.0000    731.4825      7.0281    108.6064
  1688.2500      0.0000    732.7670      6.8558    104.1949
  1688.5000      0.0000    733.0991      6.7394    101.3517
  1688.7500      0.0000    732.5397      6.6821     99.3942
  1689.0000      0.0000    731.0899      6.6580     96.1263
  1689.2500      0.0000    728.9420      6.6300     88.8314
  1689.5000      0.0000    726.8747      6.5735     75.7654
  1689.7500      0.0000    726.0018      6.4874     57.6244
  1690.0000      0.0000    726.8384      6.3901     37.8703
  1690.2500      0.0000    728.7752      6.3099     20.9452
  1690.5000      0.0000    730.7014      6.2782      9.5490
  1690.7500      0.0000    731.9651      6.3245      3.5336
  1691.0000      0.0000    732.6029      6.4676      1.0489
  1691.2500      0.0000    732.9258      6.7005      0.2475
  1691.5000      0.0000    733.1564      6.9822      0.0456
  1691.7500      0.0000    733.3787      7.2494      0.0060
  1692.0000      0.0000    733.6190      7.4487      0.0000
  1692.2500      0.0000    733.8849      7.5658   -999.2500
  1692.5000      0.0000    734.1563      7.6222   -999.2500
  1692.7500      0.0000    734.3815      7.6441   -999.2500
  1693.0000      0.0000    734.5089      7.6395   -999.2500
  1693.2500      0.0000    734.4711      7.6033   -999.2500
  1693.5000      0.0000    734.0741      7.5343   -999.2500
  1693.7500      0.0000    732.3463      7.4341   -999.2500
  1694.0000      0.0000    725.8506      7.2799   -999.2500
  1694.2500      0.0000    706.0302      6.9835   -999.2500
  1694.5000      0.0000    658.5110      6.3815   -999.2500
  1694.7500      0.0000    569.6893      5.3176   -999.2500
  1695.0000      0.0000    440.4165      3.8046   -999.2500
  1695.2500      0.0000    293.9209      2.1124   -999.2500
  1695.5000      0.0000    164.6446      0.6327   -999.2500
  1695.7500      0.0000     75.8015     -0.3770   -999.2500
  1696.0000      0.0000     28.2511     -0.9144   -999.2500
  1696.2500      0.0000      8.4306     -1.1374   -999.2500
  1696.5000      0.0000      1.9962     -1.2096   -999.2500
  1696.7500      0.0000      0.3694     -1.2278   -999.2500
  1697.0000      0.0000      0.0491     -1.2313   -999.2500
  1697.2500      0.0000   -999.2500   -999.2500   -999.2500
  1697.5000      0.0000   -999.2500   -999.2500   -999.2500
  1697.7500      0.0000   -999.2500   -999.2500   -999.2500
  1698.0000      0.0000   -999.2500   -999.2500   -999.2500
  1698.2500      0.0000   -999.2500   -999.2500   -999.2500
