~Version Information
VERS.                      2.0: CWLS Log ASCII Standard - VERSION 2.0
WRAP.                       NO: One line per depth step
~Well Information Block
STRT.FT               875.0000: 
STOP.FT              2054.5000: 
STEP.FT                 0.2500: 
NULL.                -999.2500: 
COMP.          Pioneer Natural Resources: COMPANY
WELL.          Woodstock 43-19: WELL
FLD.           Purgatoire River: FIELD
LOC.           2195' FSL & 250' FEL: LOCATION
CNTY.               Las Animas: COUNTY
SRVC.                Patterson: SERVICE COMPANY
DATE.          Thu Feb 02 03:08:19 2006: LOG DATE
UWI.           05 071 08677 00: UNIQUE WELL ID
STAT.                 Colorado: STATE
~Curve Information Block
DEPT.FT            0 000 00 00: Depth
SN.Ohm-m                      : IEL Short Normal
SP.mV                         : IEL Spontaneous Potential
DIR.Ohm-m                     : IEL Induction Resistivity
GR.GAPI                       : Gamma Ray
~Parameter Information Block
~A  Depth        SN          SP         DIR          GR     
# ...
  1545.0000     33.0325     60.9245     28.5589     93.6969
  1545.2500     34.7534     60.8677     28.9682     91.0614
  1545.5000     37.0070     60.8117     29.5245     87.1483
  1545.7500     39.6611     60.7673     30.2831     84.4150
  1546.0000     42.4730     60.7545     31.2662     80.1437
  1546.2500     45.0543     60.7978     32.4579     77.5565
  1546.5000     47.0884     60.9205     33.8175     75.0332
  1546.7500     48.6200     61.1364     35.3094     74.5683
  1547.0000     49.9452     61.4417     36.9169     75.3035
  1547.2500     51.2763     61.8135     38.6221     76.1459
  1547.5000     52.6908     62.2182     40.3687     76.9479
  1547.7500     54.3048     62.6256     42.0515     76.7881
  1548.0000     56.2877     63.0175     43.5470     75.0501
  1548.2500     58.7313     63.3832     44.7705     72.8224
  1548.5000     61.5973     63.7143     45.7270     68.5174
  1548.7500     64.7769     64.0076     46.5223     65.7440
  1549.0000     68.1398     64.2737     47.3185     62.6321
  1549.2500     71.5145     64.5375     48.2629     61.2074
  1549.5000     74.7368     64.8281     49.4335     59.4922
  1549.7500     77.7691     65.1682     50.8394     58.5090
  1550.0000     80.7574     65.5717     52.4636     57.4648
  1550.2500     83.9522     66.0448     54.2864     57.0416
  1550.5000     87.4600     66.5840     56.2347     56.2138
  1550.7500     91.0515     67.1757     58.0904     55.0875
  1551.0000     94.3313     67.8009     59.4852     52.3417
  1551.2500     97.0958     68.4435     60.0979     50.1342
  1551.5000     99.4161     69.0937     59.9220     47.0312
  1551.7500    101.4017     69.7434     59.2938     45.3368
  1552.0000    103.1014     70.3776     58.6182     43.3049
  1552.2500    104.7135     70.9744     58.1033     42.1825
  1552.5000    106.6287     71.5160     57.7235     40.7992
  1552.7500    109.0619     72.0030     57.3519     40.1043
  1553.0000    111.6825     72.4605     56.8816     39.3910
  1553.2500    113.6984     72.9283     56.2240     39.0991
  1553.5000    114.3368     73.4396     55.2224     39.0371
  1553.7500    113.3343     73.9999     53.6168     39.4427
  1554.0000    111.0512     74.5782     51.1499     40.8974
  1554.2500    108.0214     75.1136     47.7637     42.1843
  1554.5000    104.3622     75.5318     43.6973     43.8470
  1554.7500     99.7041     75.7602     39.3763     44.6574
  1555.0000     93.6340     75.7368     35.2030     46.2835
  1555.2500     86.0202     75.4116     31.4268     48.5568
  1555.5000     76.8945     74.7459     28.1357     55.1586
  1555.7500     66.4306     73.7200     25.3097     62.0407
  1556.0000     55.2689     72.3493     22.8783     75.7411
  1556.2500     44.5467     70.7049     20.7630     86.4932
  1556.5000     35.4364     68.9206     18.9016    103.3091
  1556.7500     28.5812     67.1733     17.2583    113.6037
  1557.0000     23.8584     65.6345     15.8201    125.3822
  1557.2500     20.6761     64.4177     14.5844    130.1795
  1557.5000     18.4131     63.5527     13.5445    133.7296
  1557.7500     16.6517     62.9977     12.6820    135.0085
  1558.0000     15.1840     62.6732     11.9688    137.1986
  1558.2500     13.8571     62.4964     11.3768    138.9438
  1558.5000     12.5817     62.4001     10.8850    140.5953
  1558.7500     11.5223     62.3386     10.4801    140.0979
  1559.0000     10.9657     62.2854     10.1519    136.2819
  1559.2500     10.9242     62.2294      9.8890    131.9305
  1559.5000     11.1025     62.1713      9.6781    123.7113
  1559.7500     11.2437     62.1164      9.5076    117.9326
  1560.0000     11.3078     62.0665      9.3708    110.6085
  1560.2500     11.3818     62.0153      9.2647    107.5427
  1560.5000     11.5677     61.9525      9.1865    105.8967
  1560.7500     11.8402     61.8722      9.1287    105.9827
  1561.0000     11.9828     61.7811      9.0793    106.3969
  1561.2500     11.8463     61.6976      9.0271    106.7774
  1561.5000     11.5895     61.6444      8.9670    108.4347
  1561.7500     11.4556     61.6376      8.9013    110.5698
  1562.0000     11.4480     61.6803      8.8351    114.7018
  1562.2500     11.4259     61.7597      8.7726    117.4731
  1562.5000     11.3349     61.8513      8.7158    120.9928
  1562.7500     11.2140     61.9285      8.6649    122.6731
  1563.0000     11.1443     61.9756      8.6189    123.8226
  1563.2500     11.1887     61.9955      8.5751    123.7077
  1563.5000     11.2904     62.0069      8.5287    122.9820
  1563.7500     11.2881     62.0331      8.4751    122.6881
  1564.0000     11.0743     62.0888      8.4117    122.9420
  1564.2500     10.7094     62.1753      8.3395    123.4471
  1564.5000     10.3434     62.2818      8.2620    124.2042
  1564.7500     10.0695     62.3894      8.1832    124.4488
  1565.0000      9.8833     62.4776      8.1073    124.2792
  1565.2500      9.7610     62.5325      8.0378    123.8616
  1565.5000      9.7165     62.5520      7.9783    122.8920
  1565.7500      9.7274     62.5469      7.9317    122.0479
  1566.0000      9.6802     62.5349      7.8998    120.4109
  1566.2500      9.5010     62.5328      7.8824    118.9279
  1566.5000      9.2638     62.5496      7.8777    116.1210
  1566.7500      9.1174     62.5850      7.8823    114.2697
  1567.0000      9.1656     62.6356      7.8931    112.5163
  1567.2500      9.3744     62.6997      7.9078    112.3270
  1567.5000      9.5820     62.7745      7.9246    113.4574
  1567.7500      9.6682     62.8478      7.9413    115.0720
  1568.0000      9.6493     62.8984      7.9555    118.6513
  1568.2500      9.5875     62.9096      7.9659    121.4989
  1568.5000      9.5034     62.8798      7.9748    125.3244
  1568.7500      9.3718     62.8183      7.9874    126.7870
  1569.0000      9.1844     62.7355      8.0096    126.4668
  1569.2500      9.0313     62.6397      8.0445    124.5493
  1569.5000      9.0559     62.5401      8.0900    119.9057
  1569.7500      9.3042     62.4460      8.1405    116.4777
  1570.0000      9.6638     62.3629      8.1885    112.4707
  1570.2500      9.9404     62.2887      8.2266    111.1415
  1570.5000     10.0100     62.2160      8.2487    110.9633
  1570.7500      9.9103     62.1379      8.2520    111.4791
  1571.0000      9.7766     62.0524      8.2390    112.4555
  1571.2500      9.7219     61.9622      8.2184    113.2068
  1571.5000      9.7716     61.8731      8.2017    114.6216
  1571.7500      9.8753     61.7935      8.1977    115.6315
  1572.0000      9.9812     61.7363      8.2068    116.7628
  1572.2500     10.1041     61.7150      8.2205    117.0581
  1572.5000     10.2566     61.7374      8.2250    116.7057
  1572.7500     10.3306     61.8037      8.2080    115.9520
  1573.0000     10.1934     61.9084      8.1641    114.2628
  1573.2500      9.8930     62.0423      8.0952    113.0554
  1573.5000      9.6354     62.1886      8.0082    111.7496
  1573.7500      9.5436     62.3222      7.9116    111.4333
  1574.0000      9.5963     62.4186      7.8151    111.5484
  1574.2500      9.7556     62.4699      7.7272    111.6092
  1574.5000      9.9394     62.4919      7.6546    111.3091
  1574.7500     10.0107     62.5115      7.5997    111.1488
  1575.0000      9.9312     62.5471      7.5603    111.9118
  1575.2500      9.7874     62.6023      7.5311    113.3129
  1575.5000      9.6463     62.6724      7.5067    115.9646
  1575.7500      9.4818     62.7499      7.4842    117.1920
  1576.0000      9.2683     62.8250      7.4642    117.1130
  1576.2500      9.0681     62.8860      7.4499    115.9526
  1576.5000      8.9856     62.9256      7.4449    114.0435
  1576.7500      9.1060     62.9460      7.4523    113.5032
  1577.0000      9.4532     62.9547      7.4755    114.0742
  1577.2500      9.9496     62.9547      7.5183    114.9177
  1577.5000     10.4620     62.9405      7.5834    115.8769
  1577.7500     10.8970     62.9068      7.6703    115.9436
  1578.0000     11.2295     62.8629      7.7728    115.1549
  1578.2500     11.4578     62.8355      7.8802    114.4349
