~Version Information
VERS.                      2.0: CWLS Log ASCII Standard - VERSION 2.0
WRAP.                       NO: One line per depth step
~Well Information Block
STRT.FT               240.0000: 
STOP.FT               902.0000: 
STEP.FT                 0.1000: 
NULL.                -999.2500: 
COMP.          Pioneer Natural Resources: COMPANY
WELL.          Bienville 31-28: WELL
FLD.           Purgatoire River: FIELD
LOC.           1212' FNL & 2271' FEL: LOCATION
PROV.                 Colorado: PROVINCE
CNTY.               Las Animas: COUNTRY
SRVC.                Patterson: SERVICE COMPANY
DATE.          Mon Jan 16 13:39:21 2006: LOG DATE
UWI.           05 071 08666 00: UNIQUE WELL ID
~Curve Information Block
DEPT.FT            0 000 00 00: Depth
DCAL.in                       : CDL Caliper
RHOB.g/cc                     : CDL Bulk Density
RHOC.g/cc                     : CDL Density Correction
DPOR.pu                       : CDL Density Porosity
GR.GAPI                       : Gamma Ray
NPOR.pu                       : Neutron Porosity
~Parameter Information Block
~A  Depth       DCAL        RHOB        RHOC        DPOR         GR         NPOR    
# ...
   672.0000      8.0317      2.2971      0.2116     21.3887     71.2686     23.9081
   672.1000      8.0317      2.3248      0.1159     19.7089     72.2702     24.1031
   672.2000      8.0317      2.3548      0.1492     17.8902     72.0086     24.2703
   672.3000      8.0570      2.3786      0.1009     16.4493     74.1198     24.3134
   672.4000      8.0570      2.3853      0.1397     16.0438     78.3656     24.1838
   672.5000      7.9831      2.3714      0.0606     16.8854     85.3841     24.0235
   672.6000      7.9831      2.3419      0.0527     18.6730     94.7048     23.9315
   672.7000      7.9831      2.3172     -0.0388     20.1679    100.9224     23.8298
   672.8000      7.9565      2.3237     -0.0974     19.7780    101.2033     23.6757
   672.9000      7.9565      2.3583     -0.0031     17.6758     97.1653     23.5981
   673.0000      7.9212      2.3887      0.0405     15.8378     90.2695     23.7615
   673.1000      7.9212      2.3982      0.0334     15.2635     83.9067     24.0671
   673.2000      7.9212      2.3953      0.0314     15.4340     82.0976     23.9908
   673.3000      7.9212      2.3927      0.0419     15.5959     84.7730     23.4492
   673.4000      7.9212      2.3943      0.0563     15.4964     90.2622     23.3100
   673.5000      7.9106      2.3965      0.0287     15.3633     97.8499     23.9657
   673.6000      7.9106      2.3973      0.0999     15.3137    105.2989     24.8231
   673.7000      7.9106      2.3991      0.0635     15.2080    109.3248     25.2665
   673.8000      7.8792      2.4085      0.0497     14.6357    108.2270     25.2986
   673.9000      7.8792      2.4234      0.0571     13.7354    101.5699     25.0946
   674.0000      7.8688      2.4297      0.0716     13.3515     95.0666     24.6370
   674.1000      7.8688      2.4281      0.0160     13.4513     97.9363     24.2810
   674.2000      7.8688      2.4341      0.0384     13.0866    106.3581     24.3837
   674.3000      7.9050      2.4522      0.0564     11.9858    109.6872     24.7402
   674.4000      7.9050      2.4781      0.0706     10.4184    106.7347     24.9428
   674.5000      7.9185      2.5089      0.0906      8.5540    101.1176     24.8262
   674.6000      7.9185      2.5319      0.1453      7.1599     96.6221     24.7001
   674.7000      7.9185      2.5286      0.1398      7.3549     93.0394     24.8573
   674.8000      7.9211      2.5033      0.1231      8.8936     88.0060     25.0758
   674.9000      7.9211      2.4815      0.0824     10.2116     83.7661     25.0135
   675.0000      7.8742      2.4820      0.1002     10.1815     82.1818     24.7698
   675.1000      7.8742      2.4981      0.0983      9.2053     82.5285     24.6440
   675.2000      7.8742      2.5127      0.1082      8.3224     83.9598     24.5011
   675.3000      7.8383      2.5246      0.0880      7.5989     86.0631     24.2716
   675.4000      7.8383      2.5388      0.1404      6.7407     88.0727     24.2550
   675.5000      7.8372      2.5478      0.1143      6.1926     89.6104     24.5047
   675.6000      7.8372      2.5443      0.1237      6.4062     91.6441     24.6794
   675.7000      7.8372      2.5283      0.0987      7.3787     93.5345     24.5343
   675.8000      7.8325      2.4998      0.0670      9.1049     92.0051     24.3405
   675.9000      7.8325      2.4632      0.0527     11.3235     87.2695     24.5282
   676.0000      7.8421      2.4296      0.0034     13.3568     82.7933     25.1484
   676.1000      7.8421      2.4000      0.0142     15.1494     78.8727     25.9095
   676.2000      7.8421      2.3743     -0.0751     16.7112     75.4448     26.3477
   676.3000      7.8512      2.3717     -0.0169     16.8678     74.8420     26.3802
   676.4000      7.8512      2.4020     -0.0078     15.0328     76.6414     26.4127
   676.5000      7.8903      2.4516      0.0346     12.0240     79.6756     26.5497
   676.6000      7.8903      2.5023      0.0829      8.9487     83.8293     26.4394
   676.7000      7.8903      2.5371      0.1481      6.8422     86.4928     25.8442
   676.8000      7.8756      2.5521      0.1088      5.9359     86.5283     25.1928
   676.9000      7.8756      2.5599      0.1231      5.4621     84.5191     25.0217
   677.0000      7.8503      2.5690      0.0802      4.9084     80.8590     25.0912
   677.1000      7.8503      2.5844      0.0641      3.9737     79.5672     25.0585
   677.2000      7.8503      2.6040      0.0910      2.7852     80.1257     25.0496
   677.3000      7.8410      2.6119      0.1162      2.3100     75.2429     24.9846
   677.4000      7.8410      2.6042      0.0402      2.7736     65.3136     24.7404
   677.5000      7.8467      2.5978      0.0744      3.1617     58.4813     24.4363
   677.6000      7.8467      2.6058      0.0598      2.6773     59.1933     24.0540
   677.7000      7.8467      2.6277      0.0873      1.3519     65.7384     23.5979
   677.8000      7.8751      2.6454      0.1344      0.2792     71.5668     23.2350
   677.9000      7.8751      2.6403      0.1167      0.5865     71.2264     22.9897
   678.0000      7.8436      2.6263      0.0761      1.4375     66.6473     22.9099
   678.1000      7.8436      2.6310      0.0643      1.1494     63.0451     22.9342
   678.2000      7.8436      2.6558      0.1361     -0.3533     60.8798     22.8302
   678.3000      7.8303      2.6828      0.1345     -1.9853     60.4088     22.7296
   678.4000      7.8303      2.6931      0.1630     -2.6146     63.6830     22.7261
   678.5000      7.8400      2.6782      0.0707     -1.7061     67.3899     22.6120
   678.6000      7.8400      2.6523      0.1041     -0.1371     67.6645     22.5845
   678.7000      7.8400      2.6346      0.0899      0.9331     65.5568     22.8528
   678.8000      7.8431      2.6331      0.0451      1.0250     63.3758     22.9643
   678.9000      7.8431      2.6437      0.0749      0.3814     63.5102     22.6482
   679.0000      7.8518      2.6505      0.0577     -0.0286     65.6656     22.3790
   679.1000      7.8518      2.6416      0.0787      0.5077     67.0550     22.3562
   679.2000      7.8518      2.6199      0.0697      1.8217     66.4349     22.2321
   679.3000      7.8523      2.5946      0.0568      3.3586     64.2223     22.0086
   679.4000      7.8523      2.5656      0.0359      5.1126     63.2569     21.9450
   679.5000      7.8618      2.5366     -0.0052      6.8726     65.6144     21.9722
   679.6000      7.8618      2.5282     -0.0087      7.3808     66.6652     21.9728
   679.7000      7.8618      2.5470      0.0147      6.2450     62.7227     21.9653
   679.8000      7.8777      2.5707      0.0277      4.8053     58.1086     21.9856
   679.9000      7.8777      2.5842      0.0501      3.9902     58.1135     22.0450
   680.0000      7.8702      2.5866      0.0579      3.8435     61.4917     22.0521
   680.1000      7.8702      2.5743      0.0322      4.5858     62.7029     21.7953
   680.2000      7.8702      2.5510      0.0434      5.9988     59.8155     21.4164
   680.3000      7.8730      2.5353      0.0327      6.9506     55.4606     21.3704
   680.4000      7.8730      2.5368      0.0307      6.8623     52.6158     21.6070
   680.5000      7.8578      2.5375      0.0368      6.8171     54.0197     21.8454
   680.6000      7.8578      2.5255     -0.0416      7.5449     56.6184     22.1294
   680.7000      7.8578      2.5175     -0.0187      8.0304     55.4959     22.3177
   680.8000      7.8700      2.5212      0.0466      7.8070     52.3024     22.2487
   680.9000      7.8700      2.5302     -0.0479      7.2617     51.3464     22.1519
   681.0000      7.8947      2.5431     -0.0270      6.4785     53.3894     22.1772
   681.1000      7.8947      2.5512      0.0078      5.9881     55.8171     22.0817
   681.2000      7.8947      2.5504      0.0055      6.0371     56.3843     21.8482
   681.3000      7.8985      2.5570     -0.0154      5.6349     54.9381     22.0035
   681.4000      7.8985      2.5825      0.0396      4.0933     53.7121     22.3981
   681.5000      7.8973      2.6104      0.0960      2.3973     52.3046     22.3145
