~Version Information
VERS.                      2.0: CWLS Log ASCII Standard - VERSION 2.0
WRAP.                       NO: One line per depth step
~Well Information Block
STRT.FT                -7.5000: 
STOP.FT              1350.7500: 
STEP.FT                 0.2500: 
NULL.                -999.2500: 
COMP.          Pioneer Natural Resources: COMPANY
WELL.            Gamma 13-3 Tr: WELL
FLD.           Purgatorie River: FIELD
LOC.           2127' FSL & 738' FWL: LOCATION
STAT.                       CO: State
CNTY.               Las Animas: COUNTY
CTRY.                      USA: Country
SECT.                        3: Section
TOWN.                      33S: Township
RANG.                      67W: Range
SRVC.          Patterson Wireline: SERVICE COMPANY
DATE.          Fri Sep 23 13:24:40 2005: LOG DATE
API.           05 071 08524 00: API
~Curve Information Block
DEPT.FT            0 000 00 00: Depth
CCL.                          : Casing Collar Locator
TT3.usec                      : CBL 3' Travel Time
AMP3.mV                       : CBL 3' Amplitude
GR.GAPI                       : Gamma Ray
~Parameter Information Block
~A  Depth       CCL         TT3         AMP3         GR     
# ...
   361.0000      0.0000    656.4021     15.6319     92.6628
   361.2500      0.0000    647.9399     15.6146     91.5435
   361.5000      0.0000    639.5233     15.5758     90.0595
   361.7500      0.0000    634.2368     15.5050     89.3407
   362.0000      0.0000    632.8962     15.4223     89.1951
   362.2500      0.0000    635.8937     15.3523     88.9734
   362.5000      0.0000    644.5660     15.2950     88.6218
   362.7500      0.0000    659.7621     15.2264     88.3389
   363.0000      0.0000    678.3115     15.1262     87.6919
   363.2500      0.0000    691.2203     15.0020     85.8917
   363.5000      0.0000    687.2162     14.8780     82.8627
   363.7500      0.0000    660.7498     14.7571     79.4288
   364.0000      0.0000    618.3048     14.5913     76.4489
   364.2500      0.0000    576.0516     14.3050     74.2258
   364.5000      0.0000    548.1532     13.8662     72.8105
   364.7500      0.0000    537.1522     13.3290     72.3688
   365.0000      0.0000    538.7610     12.7828     72.8832
   365.2500      0.0000    553.5800     12.2629     73.7605
   365.5000      0.0000    586.5400     11.7512     74.0136
   365.7500      0.0000    634.7079     11.2530     72.7309
   366.0000      0.0000    683.8145     10.8234     69.5468
   366.2500     -2.0000    720.4009     10.5192     65.0871
   366.5000      2.0000    742.1063     10.3629     60.8678
   366.7500      0.0000    752.5192     10.3518     58.3083
   367.0000      0.0000    750.3688     10.4901     57.7075
   367.2500      0.0000    729.7513     10.8117     58.1198
   367.5000      0.0000    691.6228     11.3500     57.9806
   367.7500      0.0000    651.3940     12.0424     55.9058
   368.0000      0.0000    631.0883     12.6851     51.4043
   368.2500      0.0000    642.2238     13.0595     45.2342
   368.5000      0.0000    677.0977     13.1116     39.1056
   368.7500      0.0000    717.1151     12.9624     34.8590
   369.0000      0.0000    747.7112     12.7684     33.6871
   369.2500      0.0000    765.1024     12.6163     35.8070
   369.5000      0.0000    772.7958     12.5221     40.5272
   369.7500      0.0000    775.5989     12.4696     46.6200
   370.0000      0.0000    776.6042     12.4386     52.9409
   370.2500      0.0000    777.1091     12.4149     58.9462
   370.5000      0.0000    777.4250     12.3935     64.6813
   370.7500      0.0000    777.5699     12.3773     70.3834
   371.0000      0.0000    777.5547     12.3735     76.2655
   371.2500      0.0000    777.4443     12.3845     82.5148
   371.5000      0.0000    777.2676     12.4044     89.1289
   371.7500      0.0000    776.8954     12.4235     95.7440
   372.0000      0.0000    775.9668     12.4372    101.7407
   372.2500      0.0000    774.0383     12.4484    106.3349
   372.5000      0.0000    771.0626     12.4606    108.7175
   372.7500      0.0000    767.7737     12.4709    108.6694
   373.0000      0.0000    765.1867     12.4691    106.9889
   373.2500      0.0000    763.4123     12.4463    104.8166
   373.5000      0.0000    761.4788     12.4022    102.6068
   373.7500      0.0000    758.9137     12.3473    100.1240
   374.0000      0.0000    757.0259     12.2951     97.1338
   374.2500      0.0000    757.7255     12.2533     93.7061
   374.5000      0.0000    761.1367     12.2199     90.0813
   374.7500      0.0000    765.0247     12.1886     86.5717
   375.0000      0.0000    766.6021     12.1564     83.5123
   375.2500      0.0000    764.6890     12.1272     81.1101
   375.5000      0.0000    760.5849     12.1080     79.2971
   375.7500      0.0000    757.2911     12.1038     77.8669
   376.0000      0.0000    757.3842     12.1134     76.8203
   376.2500      0.0000    761.0544     12.1301     76.4420
   376.5000      0.0000    766.2241     12.1469     77.0628
   376.7500      0.0000    770.5355     12.1606     78.8400
   377.0000      0.0000    772.8431     12.1700     81.6437
   377.2500      0.0000    772.8726     12.1731     84.9706
   377.5000      0.0000    769.9854     12.1688     88.0304
   377.7500      0.0000    762.8074     12.1613     90.1251
   378.0000      0.0000    750.7090     12.1545     91.0912
   378.2500      0.0000    736.0308     12.1438     91.3660
   378.5000      0.0000    723.8386     12.1186     91.3970
   378.7500      0.0000    718.0096     12.0766     90.8616
   379.0000      0.0000    717.9583     12.0318     88.7381
   379.2500      0.0000    720.4258     12.0027     84.5542
   379.5000      0.0000    723.4257     11.9954     79.5887
   379.7500      0.0000    726.5729     11.9992     76.4125
   380.0000      0.0000    728.5244     11.9972     76.9106
   380.2500      0.0000    726.7101     11.9803     80.6592
   380.5000      0.0000    720.3191     11.9559     85.1893
   380.7500      0.0000    712.3431     11.9408     87.9239
   381.0000      0.0000    707.6891     11.9436     88.1813
   381.2500      0.0000    709.3918     11.9535     87.4921
   381.5000      0.0000    716.7282     11.9510     87.9161
   381.7500      0.0000    726.3492     11.9282     90.0156
   382.0000      0.0000    734.3958     11.8945     92.5215
   382.2500      0.0000    737.8409     11.8663     93.8572
   382.5000      0.0000    735.2776     11.8542     93.6242
   382.7500      0.0000    727.6266     11.8597     92.4570
   383.0000      0.0000    717.9832     11.8781     90.8910
   383.2500      0.0000    710.0538     11.9026     88.9992
   383.5000      0.0000    706.1874     11.9258     87.2511
   383.7500      0.0000    706.3813     11.9400     87.1098
   384.0000      0.0000    708.6622     11.9390     89.9640
   384.2500      0.0000    710.3795     11.9191     95.2372
   384.5000      0.0000    709.3897     11.8788    100.1789
   384.7500      0.0000    704.5149     11.8201    102.1541
   385.0000      0.0000    696.0161     11.7525    101.0222
   385.2500      0.0000    686.4075     11.6928     98.7531
   385.5000      0.0000    679.7199     11.6578     96.8933
   385.7500      0.0000    678.3682     11.6545     95.2002
   386.0000      0.0000    680.5038     11.6763     92.7834
   386.2500      0.0000    681.3968     11.7079     89.7718
   386.5000      0.0000    677.8947     11.7351     87.3947
   386.7500      0.0000    671.0329     11.7508     86.6096
   387.0000      0.0000    664.1649     11.7562     86.9278
   387.2500      0.0000    659.5708     11.7571     87.0173
   387.5000      0.0000    657.3577     11.7583     86.5619
   387.7500      0.0000    656.6047     11.7612     86.6689
   388.0000      0.0000    656.6515     11.7634     88.0599
   388.2500      0.0000    657.6558     11.7599     89.8256
   388.5000      0.0000    660.7570     11.7450     90.4580
   388.7500      0.0000    667.8492     11.7156     89.3545
   389.0000      0.0000    680.2864     11.6742     87.2345
   389.2500      0.0000    696.9742     11.6293     85.7622
   389.5000      0.0000    714.2471     11.5918     86.5537
   389.7500      0.0000    728.8301     11.5673     89.7510
   390.0000      0.0000    740.5646     11.5544     93.5342
   390.2500      0.0000    751.1298     11.5492     95.4952
   390.5000      0.0000    760.9165     11.5507     94.5664
   390.7500      0.0000    768.6419     11.5577     91.5784
   391.0000      0.0000    773.3711     11.5654     88.1858
   391.2500      0.0000    775.5397     11.5660     85.4967
   391.5000      0.0000    776.1376     11.5548     83.7072
   391.7500      0.0000    775.6368     11.5325     82.9348
   392.0000      0.0000    773.6212     11.5029     84.0578
   392.2500      0.0000    769.2634     11.4693     87.9149
   392.5000      0.0000    762.6801     11.4336     93.4101
   392.7500      0.0000    756.2057     11.3995     97.4092
   393.0000      0.0000    753.5005     11.3726     97.4474
   393.2500      0.0000    756.4334     11.3566     94.1889
   393.5000      0.0000    763.1979     11.3495     90.5623
   393.7500      0.0000    770.1442     11.3445     88.7677
   394.0000      0.0000    774.8992     11.3347     88.7075
   394.2500      0.0000    777.3138     11.3179     89.0190
