~Version Information
VERS.                      2.0: CWLS Log ASCII Standard - VERSION 2.0
WRAP.                       NO: One line per depth step
~Well Information Block
STRT.FT               620.0000: 
STOP.FT              3067.2500: 
STEP.FT                 0.2500: 
NULL.                -999.2500: 
COMP.          Pioneer Natural Resources: COMPANY
WELL.          Interceptor 43-13 Kv: WELL
FLD.           Purgatoire River: FIELD
LOC.           2073' FSL & 519' FEL--: LOCATION
PROV.                 Colorado: PROVINCE
CNTY.               Las Animas: COUNTRY
SRVC.                Patterson: SERVICE COMPANY
DATE.          Sat Jan 14 19:35:17 2006: LOG DATE
UWI.           05 071 08655 00: UNIQUE WELL ID
~Curve Information Block
DEPT.FT            0 000 00 00: Depth
SN.Ohm-m                      : IEL Short Normal
SP.mV                         : IEL Spontaneous Potential
DIR.Ohm-m                     : IEL Induction Resistivity
GR.GAPI                       : Gamma Ray
~Parameter Information Block
~A  Depth        SN          SP         DIR          GR     
# ...
  1893.0000     24.1086    -41.7955     23.4981    118.8892
  1893.2500     24.9324    -42.6284     24.0719    117.2308
  1893.5000     25.9049    -43.5183     24.8103    117.3730
  1893.7500     27.0294    -44.4484     25.6791    118.1691
  1894.0000     28.2761    -45.4053     26.6234    118.3866
  1894.2500     29.5923    -46.3781     27.5919    117.0366
  1894.5000     30.9316    -47.3580     28.5593    111.9934
  1894.7500     32.2878    -48.3378     29.5313    106.6457
  1895.0000     33.7036    -49.3117     30.5377     96.7065
  1895.2500     35.2371    -50.2739     31.6226     89.7354
  1895.5000     36.9048    -51.2182     32.8361     80.0017
  1895.7500     38.6505    -52.1359     34.2262     74.3068
  1896.0000     40.3617    -53.0151     35.8224     67.1017
  1896.2500     41.9149    -53.8393     37.6082     63.2326
  1896.5000     43.2113    -54.5875     39.4873     58.8950
  1896.7500     44.1826    -55.2353     41.2741     56.9995
  1897.0000     44.7843    -55.7584     42.7420     55.7035
  1897.2500     44.9985    -56.1360     43.7239     55.9686
  1897.5000     44.8504    -56.3555     44.1919     58.3263
  1897.7500     44.4178    -56.4156     44.2438     61.3728
  1898.0000     43.8142    -56.3282     44.0182     68.3440
  1898.2500     43.1562    -56.1173     43.6217     74.5155
  1898.5000     42.5311    -55.8164     43.1094     85.1794
  1898.7500     41.9817    -55.4642     42.5017     92.1896
  1899.0000     41.5058    -55.0999     41.8005    100.4670
  1899.2500     41.0706    -54.7590     40.9929    103.6761
  1899.5000     40.6420    -54.4707     40.0562    105.0753
  1899.7500     40.2182    -54.2565     38.9621    104.5613
  1900.0000     39.8403    -54.1301     37.6674    103.5218
  1900.2500     39.5686    -54.0989     36.0878    103.4417
  1900.5000     39.4433    -54.1654     34.0932    104.5299
  1900.7500     39.4615    -54.3286     31.5725    105.6459
  1901.0000     39.5844    -54.5848     28.5593    106.4261
  1901.2500     39.7613    -54.9287     25.3003    105.3407
  1901.5000     39.9498    -55.3536     22.1677    100.4065
  1901.7500     40.1255    -55.8514     19.4840     95.3337
  1902.0000     40.2828    -56.4123     17.4306     87.0688
  1902.2500     40.4282    -57.0236     16.0934     82.3826
  1902.5000     40.5644    -57.6679     15.6040     77.7585
  1902.7500     40.6723    -58.3208     16.4151     76.1659
  1903.0000     40.7034    -58.9502     20.2637     74.9472
  1903.2500     40.5888    -59.5171     38.7954     74.3416
  1903.5000     40.2566    -59.9799 100000.0000     73.6059
  1903.7500     39.6492    -60.3002 100000.0000     73.5900
  1904.0000     38.7415    -60.4496 100000.0000     74.9225
  1904.2500     37.5575    -60.4167 100000.0000     76.8628
  1904.5000     36.1710    -60.2108 100000.0000     81.4935
  1904.7500     34.6812    -59.8635 100000.0000     85.9895
  1905.0000     33.1735    -59.4269 100000.0000     95.2689
  1905.2500     31.6909    -58.9713 100000.0000    102.8170
  1905.5000     30.2296    -58.5822 100000.0000    114.1160
  1905.7500     28.7586    -58.3584 100000.0000    120.0415
  1906.0000     27.2493    -58.4117 100000.0000    124.8531
  1906.2500     25.6995    -58.8656 100000.0000    125.4759
  1906.5000     24.1426    -59.8550 100000.0000    124.1232
  1906.7500     22.6347    -61.5205     16.6308    122.9069
  1907.0000     21.2276    -63.9986      8.2882    122.4848
  1907.2500     19.9449    -67.4097      5.7317    123.7344
  1907.5000     18.7742    -71.8450      4.7520    127.3286
  1907.7500     17.6770    -77.3565      4.6753    129.6967
  1908.0000     16.6009    -83.9598      5.7197    131.3320
  1908.2500     15.4852    -91.6495     10.3311    131.1123
  1908.5000     14.2625   -100.4255 100000.0000    130.6662
  1908.7500     12.8713   -110.3186 100000.0000    131.3812
  1909.0000     11.2866   -121.3999 100000.0000    133.8052
  1909.2500      9.5578   -133.7594 100000.0000    135.0398
  1909.5000      7.8145   -147.4507 100000.0000    133.7842
  1909.7500      6.2146   -162.4153      2.3950    129.9948
  1910.0000      4.8672   -178.4140      0.6702    119.5335
  1910.2500      3.7997   -194.9962      0.2352    109.5772
  1910.5000      2.9867   -211.5304      0.0774     91.2566
  1910.7500      2.3951   -227.2943      0.0276     78.1316
  1911.0000      1.9978   -241.6009      0.0130     60.3436
  1911.2500      1.7631   -253.9212      0.0085     51.4208
  1911.5000      1.6476   -263.9666      0.0077     43.5055
  1911.7500      1.6057   -271.7097      0.0093     41.4441
  1912.0000      1.6007   -277.3462      0.0148     41.9171
  1912.2500      1.6092   -281.2176      0.0304     44.2781
  1912.5000      1.6191   -283.7238      0.0769     51.0786
  1912.7500      1.6251   -285.2505      0.2072     57.6480
  1913.0000      1.6242   -286.1216      0.5212     68.6718
  1913.2500      1.6150   -286.5798      1.3560     74.8906
  1913.5000      1.5998   -286.7898      4.7235     79.6677
  1913.7500      1.5841   -286.8501     74.5536     79.3120
  1914.0000      1.5734   -286.8065 100000.0000     74.7177
  1914.2500      1.5714   -286.6603 100000.0000     70.2604
  1914.5000      1.5815   -286.3684 100000.0000     63.6109
  1914.7500      1.6098   -285.8331 100000.0000     60.1967
  1915.0000      1.6652   -284.8863 100000.0000     58.0413
  1915.2500      1.7529   -283.2716 100000.0000     59.2373
  1915.5000      1.8662   -280.6326     81.0051     65.4866
  1915.7500      1.9809   -276.5237      4.4387     72.5309
  1916.0000      2.0642   -270.4516      1.4933     86.9805
  1916.2500      2.0986   -261.9487      0.6859     98.8541
  1916.5000      2.1104   -250.6717      0.3542    118.4988
  1916.7500      2.1850   -236.5040      0.1907    130.9633
  1917.0000      2.4589   -219.6305      0.1104    144.7314
  1917.2500      3.0784   -200.5561      0.0761    149.1112
  1917.5000      4.1229   -180.0546      0.0688    148.9622
  1917.7500      5.5317   -159.0570      0.0862    146.1767
  1918.0000      7.1047   -138.5083      0.1472    141.4341
  1918.2500      8.5964   -119.2308      0.3091    139.0311
  1918.5000      9.8303   -101.8308      0.7463    136.5918
  1918.7500     10.7491    -86.6623      2.8131    135.3563
  1919.0000     11.3882    -73.8461 100000.0000    134.0321
  1919.2500     11.8258    -63.3228 100000.0000    133.7041
  1919.5000     12.1535    -54.9150 100000.0000    133.7098
  1919.7500     12.4675    -48.3806 100000.0000    133.2618
  1920.0000     12.8548    -43.4491 100000.0000    130.4702
  1920.2500     13.3686    -39.8433     51.4844    127.0120
  1920.5000     14.0057    -37.2933      7.0689    120.7851
  1920.7500     14.7103    -35.5490      4.5055    117.3104
  1921.0000     15.4080    -34.3909      4.0113    114.9380
  1921.2500     16.0465    -33.6374      4.2874    115.4112
  1921.5000     16.6140    -33.1470      5.1720    117.8610
  1921.7500     17.1298    -32.8119      6.7967    119.3429
  1922.0000     17.6266    -32.5524      9.5980    119.4858
  1922.2500     18.1363    -32.3129     14.9873    118.0501
  1922.5000     18.6837    -32.0619     30.2328    115.1092
  1922.7500     19.2874    -31.7952    864.0612    113.7315
  1923.0000     19.9631    -31.5387 100000.0000    113.1440
  1923.2500     20.7237    -31.3433 100000.0000    113.2158
  1923.5000     21.5752    -31.2713 100000.0000    112.7405
  1923.7500     22.5192    -31.3767 100000.0000    111.6420
  1924.0000     23.5609    -31.6862 100000.0000    108.8800
  1924.2500     24.7147    -32.1880 100000.0000    106.4751
  1924.5000     25.9977    -32.8332 100000.0000    102.1587
  1924.7500     27.4148    -33.5498 100000.0000     98.7581
  1925.0000     28.9473    -34.2609 100000.0000     92.6713
  1925.2500     30.5493    -34.9039     52.6666     87.8165
  1925.5000     32.1531    -35.4427     23.2955     79.2883
  1925.7500     33.6808    -35.8712     17.6959     73.0391
  1926.0000     35.0629    -36.2083     16.3468     63.7113
  1926.2500     36.2552    -36.4897     16.7681     57.9914
