~Version Information
VERS.                      2.0: CWLS Log ASCII Standard - VERSION 2.0
WRAP.                       NO: One line per depth step
~Well Information Block
STRT.FT               330.0000: 
STOP.FT              1923.5000: 
STEP.FT                 0.1000: 
NULL.                -999.2500: 
COMP.          Pioneer Natural Resources: COMPANY
WELL.          State Wildlife 32-16 Tr: WELL
FLD.           Purgatoire River: FIELD
LOC.           1838' FNL & 1850' FEL: LOCATION
STAT.                 Colorado: State
CNTY.               Las Animas: COUNTY
CTRY. USA : Country
SECT. 16 : Section
TOWN. 32S : Township
RANG. 66W : Range
SRVC.                Patterson: SERVICE COMPANY
DATE.          Mon Nov 14 07:20:48 2005: LOG DATE
API.           05 071 08568 00: UNIQUE WELL ID
~Curve Information Block
DEPT.FT            0 000 00 00: Depth
DCAL.in                       : CDL Caliper
RHOB.g/cc                     : CDL Bulk Density
RHOC.g/cc                     : CDL Density Correction
DPOR.pu                       : CDL Density Porosity
GR.GAPI                       : Gamma Ray
NPOR.pu                       : Neutron Porosity
~Parameter Information Block
~A  Depth       DCAL        RHOB        RHOC        DPOR         GR         NPOR    
# ...
   435.6000      8.3266      2.5224      0.0322      7.7321    142.6507     25.5427
   435.7000      8.3266      2.5423      0.0407      6.5245    136.3919     25.1177
   435.8000      8.2866      2.5378      0.0480      6.8010    130.4416     24.5819
   435.9000      8.2866      2.5051      0.0305      8.7815    126.2319     24.5893
   436.0000      8.2764      2.4704     -0.0376     10.8854    121.7702     24.7945
   436.1000      8.2764      2.4587     -0.0282     11.5910    121.1460     24.7053
   436.2000      8.2764      2.4635      0.0050     11.3060    126.1964     24.6722
   436.3000      8.2833      2.4701     -0.0286     10.9060    132.8077     24.9181
   436.4000      8.2833      2.4780     -0.0403     10.4267    134.9563     25.1433
   436.5000      8.2913      2.4824      0.0268     10.1598    129.5356     25.0898
   436.6000      8.2913      2.4790      0.0028     10.3613    122.5791     24.7222
   436.7000      8.2913      2.4817     -0.0126     10.1970    123.7451     24.5317
   436.8000      8.3020      2.5010      0.0499      9.0312    132.3694     24.7241
   436.9000      8.3020      2.5350      0.0668      6.9683    142.6498     25.0496
   437.0000      8.3681      2.5775      0.0998      4.3922    150.6887     25.7270
   437.1000      8.3681      2.6113      0.1043      2.3447    153.3666     26.7700
   437.2000      8.3681      2.6212      0.0984      1.7480    153.8859     27.1809
   437.3000      8.3041      2.6149      0.0386      2.1299    155.3101     26.3145
   437.4000      8.3041      2.6046      0.0896      2.7491    152.7437     25.0193
   437.5000      8.2719      2.5795      0.0935      4.2742    146.4211     24.3987
   437.6000      8.2719      2.5368      0.0569      6.8593    141.8081     24.5784
   437.7000      8.2719      2.5079     -0.0098      8.6139    139.3484     25.2868
   437.8000      8.2827      2.5170      0.0349      8.0613    138.2697     26.4538
   437.9000      8.2827      2.5478      0.0536      6.1933    139.3383     27.5461
   438.0000      8.3206      2.5685      0.0628      4.9379    143.7457     27.6300
   438.1000      8.3206      2.5694      0.0073      4.8825    148.7878     26.8879
   438.2000      8.3206      2.5552      0.0799      5.7474    149.5991     26.3393
   438.3000      8.2979      2.5326     -0.0284      7.1122    145.8454     26.2073
   438.4000      8.2979      2.5170     -0.0004      8.0593    141.6014     26.1653
   438.5000      8.2871      2.5121      0.0170      8.3600    139.8114     26.1910
   438.6000      8.2871      2.5061      0.0405      8.7188    138.6498     26.3924
   438.7000      8.2871      2.4914      0.0125      9.6095    138.0886     26.5737
   438.8000      8.2676      2.4724     -0.0165     10.7627    141.4714     26.4194
   438.9000      8.2676      2.4562     -0.0281     11.7458    144.9593     25.9056
   439.0000      8.2758      2.4487     -0.0200     12.2015    143.8388     25.2732
   439.1000      8.2758      2.4549     -0.0405     11.8258    143.7153     24.9361
   439.2000      8.2758      2.4667      0.0143     11.1107    146.3704     25.0458
   439.3000      8.2711      2.4710     -0.0047     10.8502    144.9489     25.2631
   439.4000      8.2711      2.4690      0.0095     10.9687    138.2746     25.3979
   439.5000      8.2711      2.4618      0.0615     11.4065    132.9503     25.2997
   439.6000      8.2711      2.4554     -0.0361     11.7922    133.9840     24.9819
   439.7000      8.2711      2.4699      0.0295     10.9158    136.4595     24.8338
   439.8000      8.2626      2.5083     -0.0035      8.5864    134.1487     24.9362
   439.9000      8.2626      2.5481      0.1302      6.1758    129.8802     25.1082
   440.0000      8.2759      2.5644      0.0759      5.1901    124.9424     25.2633
   440.1000      8.2759      2.5667      0.0761      5.0470    119.7145     25.2614
   440.2000      8.2759      2.5776      0.1130      4.3892    121.6434     25.2365
   440.3000      8.2704      2.5935      0.1527      3.4225    131.2922     25.3563
   440.4000      8.2704      2.6045      0.1310      2.7585    139.1857     25.3245
   440.5000      8.2664      2.6053      0.1310      2.7075    141.4013     25.1035
   440.6000      8.2664      2.5886      0.1204      3.7234    140.3575     25.1556
   440.7000      8.2664      2.5589      0.0448      5.5211    138.6279     25.5747
   440.8000      8.2691      2.5391     -0.0164      6.7226    137.2493     25.7341
   440.9000      8.2691      2.5390      0.0484      6.7262    134.6349     25.1119
   441.0000      8.2759      2.5400      0.0550      6.6663    132.4283     24.1255
   441.1000      8.2759      2.5263      0.0115      7.4953    134.9044     23.5037
   441.2000      8.2759      2.4948      0.0372      9.4073    139.7376     23.3388
   441.3000      8.2820      2.4545     -0.0616     11.8467    143.7976     23.1833
   441.4000      8.2820      2.4319     -0.0495     13.2153    146.3113     22.6502
   441.5000      8.2836      2.4340     -0.0182     13.0911    144.3904     22.1272
   441.6000      8.2836      2.4392      0.0353     12.7779    137.9498     22.0999
   441.7000      8.2836      2.4375      0.0251     12.8760    132.1401     22.2850
   441.8000      8.2836      2.4401      0.0475     12.7184    130.9998     22.2619
   441.9000      8.2836      2.4487      0.1043     12.2004    133.8784     22.0491
   442.0000      8.3079      2.4558      0.0297     11.7690    138.0125     21.8547
   442.1000      8.3079      2.4660      0.0504     11.1540    141.9099     21.9987
   442.2000      8.3079      2.4804      0.1094     10.2759    146.3746     22.4886
   442.3000      8.4723      2.4927      0.0766      9.5337    151.2447     22.8767
   442.4000      8.4723      2.5020      0.0964      8.9675    155.7426     23.0321
   442.5000      8.5036      2.5124      0.1147      8.3384    158.6423     23.3879
   442.6000      8.5036      2.5298      0.0704      7.2840    155.6845     23.8977
   442.7000      8.5036      2.5465      0.1668      6.2736    146.7743     24.1176
   442.8000      8.4582      2.5335      0.1899      7.0628    140.1994     24.3121
   442.9000      8.4582      2.4926      0.0312      9.5381    140.3376     24.8322
   443.0000      8.4221      2.4634     -0.0365     11.3088    143.0712     25.3049
   443.1000      8.4221      2.4612     -0.0197     11.4399    144.3736     25.5064
   443.2000      8.4221      2.4693      0.0179     10.9491    142.4316     25.9325
   443.3000      8.4319      2.4791     -0.0116     10.3592    139.2933     26.6631
   443.4000      8.4319      2.4974      0.0276      9.2468    141.2290     27.0781
   443.5000      8.5044      2.5258      0.0258      7.5301    148.6727     26.9364
   443.6000      8.5044      2.5522      0.0709      5.9257    153.8206     26.4991
   443.7000      8.5044      2.5589      0.0743      5.5216    153.5751     26.1248
   443.8000      8.3579      2.5458      0.0162      6.3161    152.7259     26.2032
   443.9000      8.3579      2.5292      0.0209      7.3227    152.2421     26.6566
   444.0000      8.2839      2.5191      0.0148      7.9357    148.9112     26.7798
   444.1000      8.2839      2.5189      0.0163      7.9475    144.1552     26.3548
   444.2000      8.2839      2.5274      0.0514      7.4305    139.4647     25.8886
   444.3000      8.2709      2.5417      0.0090      6.5660    132.9148     25.8777
   444.4000      8.2709      2.5589      0.0514      5.5220    125.6725     26.1823
   444.5000      8.2798      2.5638      0.0463      5.2223    123.3038     26.1964
   444.6000      8.2798      2.5495      0.0134      6.0926    126.2812     25.9140
   444.7000      8.2798      2.5391     -0.0212      6.7194    127.9008     25.7753
   444.8000      8.2573      2.5497      0.0176      6.0762    122.0639     25.7192
   444.9000      8.2573      2.5657      0.0505      5.1100    109.4586     25.5649
   445.0000      8.2564      2.5710      0.0323      4.7872     98.5104     25.5871
   445.1000      8.2564      2.5684      0.0309      4.9462     95.1420     25.5516
