~Version Information
VERS.                      2.0: CWLS Log ASCII Standard - VERSION 2.0
WRAP.                       NO: One line per depth step
~Well Information Block
STRT.FT               -16.0000: 
STOP.FT              2827.7500: 
STEP.FT                 0.2500: 
NULL.                -999.2500: 
COMP.          Pioneer Natural Resources: COMPANY
WELL.          Touchstone 11-32: WELL
FLD.           Purgatorie River: FIELD
LOC.           853' FNL & 407' FWL--: LOCATION
CNTY.               Las Animas: COUNTY
SRVC.          Patterson Wireline: SERVICE COMPANY
DATE.          Wed Mar 15 10:09:19 2006: LOG DATE
UWI.           05 071 08564 00: UNIQUE WELL ID
STAT.                       CO: STATE
~Curve Information Block
DEPT.FT            0 000 00 00: Depth
CCL.                          : Casing Collar Locator
TT3.usec                      : CBL 3' Travel Time
AMP3.mV                       : CBL 3' Amplitude
GR.GAPI                       : Gamma Ray
~Parameter Information Block
~A  Depth       CCL         TT3         AMP3         GR     
# ...
  2429.5000      0.0000    666.9280      5.2731    111.1428
  2429.7500      0.0000    680.3232      5.1458    104.4972
  2430.0000      0.0000    686.9999      5.0079     95.6494
  2430.2500      0.0000    689.5312      4.8634     86.4089
  2430.5000      0.0000    691.5411      4.7171     79.1548
  2430.7500      0.0000    695.9393      4.5741     75.6013
  2431.0000      0.0000    703.3973      4.4299     75.9653
  2431.2500      0.0000    712.1793      4.2639     79.2580
  2431.5000      0.0000    719.2580      4.0528     84.4774
  2431.7500      0.0000    721.9911      3.7943     91.6487
  2432.0000      0.0000    719.6678      3.5150    101.5841
  2432.2500      0.0000    713.7237      3.2581    114.1698
  2432.5000      0.0000    706.1177      3.0633    126.9554
  2432.7500      0.0000    697.5725      2.9508    136.3962
  2433.0000      0.0000    687.9651      2.9136    141.1224
  2433.2500      0.0000    678.2376      2.9220    143.3135
  2433.5000      0.0000    670.7195      2.9428    146.0882
  2433.7500      0.0000    667.1411      2.9589    149.8291
  2434.0000      0.0000    667.2335      2.9723    151.7559
  2434.2500      0.0000    669.6017      2.9907    149.1094
  2434.5000      0.0000    672.9320      3.0149    142.2315
  2434.7500      0.0000    676.0214      3.0410    134.2760
  2435.0000      0.0000    677.8641      3.0707    128.1774
  2435.2500      0.0000    678.2188      3.1157    124.3079
  2435.5000      0.0000    677.0067      3.1912    121.0754
  2435.7500      0.0000    672.5972      3.3031    117.4304
  2436.0000      0.0000    661.6534      3.4426    114.4679
  2436.2500      0.0000    641.5742      3.5890    114.5480
  2436.5000      0.0000    613.3392      3.7178    119.0987
  2436.7500      0.0000    582.2198      3.8053    127.4092
  2437.0000      0.0000    555.6699      3.8297    137.2855
  2437.2500      0.0000    539.6432      3.7768    146.4149
  2437.5000      0.0000    535.8033      3.6474    153.0794
  2437.7500      0.0000    541.3473      3.4618    155.9279
  2438.0000      0.0000    550.9021      3.2527    153.7605
  2438.2500      0.0000    558.9233      3.0499    146.2626
  2438.5000      0.0000    561.8666      2.8674    135.0725
  2438.7500      0.0000    559.7988      2.7019    123.4487
  2439.0000      0.0000    556.3721      2.5444    114.3141
  2439.2500      0.0000    556.5910      2.3950    108.6241
  2439.5000      0.0000    564.0396      2.2682    105.4699
  2439.7500      0.0000    579.6409      2.1890    103.2449
  2440.0000      0.0000    601.7195      2.1843    100.7092
  2440.2500      0.0000    626.4431      2.2671     97.5539
  2440.5000      0.0000    649.1873      2.4179     94.2580
  2440.7500      0.0000    666.7121      2.5892     91.2244
  2441.0000      0.0000    678.1260      2.7424     88.1132
  2441.2500      0.0000    684.1407      2.8787     84.2368
  2441.5000      0.0000    686.3883      3.0259     79.5979
  2441.7500      0.0000    687.2586      3.2012     75.3340
  2442.0000      0.0000    689.1779      3.3986     73.0398
  2442.2500      2.0000    693.3198      3.6079     73.5429
  2442.5000      0.0000    699.0447      3.8387     76.1637
  2442.7500      0.0000    704.8803      4.1151     79.0647
  2443.0000      0.0000    709.9915      4.4246     80.5678
  2443.2500      0.0000    714.1799      4.6730     80.4911
  2443.5000      0.0000    716.9042      4.7360     80.2436
  2443.7500      0.0000    717.8421      4.5881     81.4575
  2444.0000      0.0000    718.2256      4.3421     84.4734
  2444.2500      0.0000    719.5935      4.1334     88.0550
  2444.5000      0.0000    720.7819      4.0019     90.3156
  2444.7500      0.0000    717.9760      3.9026     89.9535
  2445.0000      0.0000    708.7143      3.7848     87.0936
  2445.2500      0.0000    694.7090      3.6344     83.2463
  2445.5000      0.0000    680.0433      3.4647     80.2787
  2445.7500      0.0000    667.7692      3.2923     79.1668
  2446.0000      0.0000    658.8608      3.1252     79.5138
  2446.2500      0.0000    653.1262      2.9657     79.9266
  2446.5000      0.0000    649.9937      2.8208     78.8382
  2446.7500      0.0000    648.7031      2.7059     75.4879
  2447.0000      0.0000    648.4511      2.6402     70.5177
  2447.2500      0.0000    648.6795      2.6354     65.5490
  2447.5000      0.0000    649.2786      2.6884     62.0808
  2447.7500      0.0000    650.5660      2.7795     60.8382
  2448.0000      0.0000    652.9291      2.8788     61.8732
  2448.2500      0.0000    656.1807      2.9567     64.6906
  2448.5000      0.0000    659.1202      2.9965     67.9774
  2448.7500      0.0000    660.0871      3.0011     69.7544
  2449.0000      0.0000    658.3791      2.9902     68.7678
  2449.2500      0.0000    654.9734      2.9910     65.9619
  2449.5000      0.0000    651.5956      3.0228     63.8516
  2449.7500      0.0000    649.3038      3.0834     64.0351
  2450.0000      0.0000    648.1021      3.1478     65.6477
  2450.2500      0.0000    647.5002      3.1864     66.3269
  2450.5000      0.0000    647.0788      3.1866     64.3296
  2450.7500      0.0000    646.6483      3.1556     59.8298
  2451.0000      0.0000    646.2194      3.1090     54.6721
  2451.2500      0.0000    646.0689      3.0645     51.0638
  2451.5000      0.0000    646.9392      3.0457     50.3341
  2451.7500      0.0000    650.0945      3.0829     52.5896
  2452.0000      0.0000    656.7363      3.2002     57.0839
  2452.2500      0.0000    666.8710      3.3996     62.6423
  2452.5000      0.0000    678.7130      3.6564     67.7751
  2452.7500      0.0000    689.6520      3.9318     70.9339
  2453.0000      0.0000    698.1411      4.1913     71.4213
  2453.2500      0.0000    704.6134      4.4148     70.1894
  2453.5000      0.0000    710.3923      4.5953     69.2748
  2453.7500      0.0000    715.6546      4.7332     70.4653
  2454.0000      0.0000    718.7718      4.8333     74.7342
  2454.2500      0.0000    717.8838      4.9009     82.2053
  2454.5000      0.0000    712.5698      4.9383     91.7080
  2454.7500      0.0000    702.8979      4.9466    100.7937
  2455.0000      0.0000    686.8987      4.9287    107.1454
  2455.2500      0.0000    661.0037      4.8843    110.0112
  2455.5000      0.0000    625.4797      4.7991    110.0463
  2455.7500      0.0000    589.8694      4.6498    108.2747
  2456.0000      0.0000    570.7338      4.4245    105.6887
  2456.2500      0.0000    581.1590      4.1365    103.4692
  2456.5000      0.0000    620.8839      3.8177    102.6706
  2456.7500      0.0000    675.7714      3.5017    103.2790
  2457.0000      0.0000    726.4467      3.2136    103.8701
  2457.2500      0.0000    758.6114      2.9696    102.4970
  2457.5000      0.0000    768.5175      2.7802     98.0981
  2457.7500      0.0000    762.2764      2.6547     91.4589
  2458.0000      0.0000    750.3799      2.6027     84.9400
  2458.2500      0.0000    740.5862      2.6276     80.8725
  2458.5000      0.0000    734.3701      2.7185     79.9368
  2458.7500      0.0000    729.1327      2.8538     81.1104
  2459.0000      0.0000    722.6428      3.0158     83.1275
  2459.2500      0.0000    715.2159      3.1994     85.9167
  2459.5000      0.0000    708.7892      3.4024     90.5831
  2459.7500      0.0000    704.9584      3.6089     97.8433
  2460.0000      0.0000    704.0082      3.7784    106.5001
  2460.2500      0.0000    705.3339      3.8528    113.8027
  2460.5000      0.0000    708.3591      3.7847    117.4473
  2460.7500      0.0000    713.1431      3.5700    116.9262
  2461.0000      0.0000    720.5406      3.2544    112.8377
  2461.2500      0.0000    731.2644      2.9047    105.4211
  2461.5000      0.0000    743.5227      2.5745     94.3789
  2461.7500      0.0000    751.8065      2.2973     80.1840
  2462.0000      0.0000    750.2995      2.0979     65.0783
  2462.2500      0.0000    738.7067      1.9980     52.2577
  2462.5000      0.0000    723.5562      2.0112     43.9967
  2462.7500      0.0000    713.2183      2.1412     40.6925
