~Version Information
VERS.                      2.0: CWLS Log ASCII Standard - VERSION 2.0
WRAP.                       NO: One line per depth step
~Well Information Block
STRT.FT               460.0000: 
STOP.FT              1509.0000: 
STEP.FT                 0.2500: 
NULL.                -999.2500: 
COMP.          Pioneer Natural Resources: COMPANY
WELL.           Amore 32-09 Tr: WELL
FLD.           Purgatoire River: FIELD
LOC.           1941' FNL & 2297' FEL: LOCATION
PROV.                 Colorado: PROVINCE
CNTY.               Las Animas: COUNTRY
SRVC.                Patterson: SERVICE COMPANY
DATE.          Mon Nov 14 11:07:52 2005: LOG DATE
UWI.           05 071 08584 00: UNIQUE WELL ID
~Curve Information Block
DEPT.FT            0 000 00 00: Depth
SN.Ohm-m                      : IEL Short Normal
SP.mV                         : IEL Spontaneous Potential
DIR.Ohm-m                     : IEL Induction Resistivity
GR.GAPI                       : Gamma Ray
~Parameter Information Block
~A  Depth        SN          SP         DIR          GR     
# ...
   661.0000   2000.0000   2000.0000     28.1097    115.9095
   661.2500   2000.0000   2000.0000     27.8355    112.6743
   661.5000   2000.0000   2000.0000     27.5364    110.0177
   661.7500   2000.0000   2000.0000     27.3113    110.6341
   662.0000   2000.0000   2000.0000     27.2340    114.8086
   662.2500   2000.0000   2000.0000     27.3679    118.7269
   662.5000   2000.0000   2000.0000     27.7623    124.3635
   662.7500   2000.0000   2000.0000     28.4364    127.1571
   663.0000   2000.0000   2000.0000     29.3697    129.0708
   663.2500   2000.0000   2000.0000     30.5008    128.4282
   663.5000   2000.0000   2000.0000     31.7316    123.8418
   663.7500   2000.0000   2000.0000     32.9307    118.1428
   664.0000   2000.0000   2000.0000     33.9513    106.4230
   664.2500   2000.0000   2000.0000     34.6852     97.7365
   664.5000   2000.0000   2000.0000     35.1437     85.7451
   664.7500   2000.0000   2000.0000     35.5003     79.1935
   665.0000   2000.0000   2000.0000     36.0317     71.4947
   665.2500   2000.0000   2000.0000     36.9822     67.4071
   665.5000   2000.0000   2000.0000     38.4329     62.3055
   665.7500   2000.0000   2000.0000     40.2566     59.4532
   666.0000   2000.0000   2000.0000     42.2090     56.1476
   666.2500   2000.0000   2000.0000     44.1227     54.8997
   666.5000   2000.0000   2000.0000     46.0273     54.8861
   666.7500   2000.0000   2000.0000     48.0599     55.9008
   667.0000   2000.0000   2000.0000     50.2705     57.7831
   667.2500   2000.0000   2000.0000     52.5208     58.7345
   667.5000   2000.0000   2000.0000     54.5399     60.0822
   667.7500   2000.0000   2000.0000     56.0557     61.6840
   668.0000   2000.0000   2000.0000     56.8911     65.8559
   668.2500   2000.0000   2000.0000     56.9950     69.3570
   668.5000   2000.0000   2000.0000     56.4289     73.8187
   668.7500   2000.0000   2000.0000     55.3118     75.2283
   669.0000   2000.0000   2000.0000     53.7597     74.3937
   669.2500   2000.0000   2000.0000     51.8499     72.3956
   669.5000   2000.0000   2000.0000     49.6216     69.1466
   669.7500   2000.0000   2000.0000     47.1010     67.9685
   670.0000   2000.0000   2000.0000     44.3417     68.8238
   670.2500   2000.0000   2000.0000     41.4600     71.1451
   670.5000   2000.0000   2000.0000     38.6236     76.4328
   670.7500   2000.0000   2000.0000     35.9932     80.5341
   671.0000   2000.0000   2000.0000     33.6650     86.7393
   671.2500   2000.0000   2000.0000     31.6586     90.7344
   671.5000   2000.0000   2000.0000     29.9433     96.6457
   671.7500   2000.0000   2000.0000     28.4728    100.5620
   672.0000   2000.0000   2000.0000     27.2056    105.6735
   672.2500   2000.0000   2000.0000     26.1071    107.7365
   672.5000   2000.0000   2000.0000     25.1406    107.8134
   672.7500   2000.0000   2000.0000     24.2619    106.1026
   673.0000   2000.0000   2000.0000     23.4282    102.6563
   673.2500   2000.0000   2000.0000     22.6147    101.0098
   673.5000   2000.0000   2000.0000     21.8226    100.9839
   673.7500   2000.0000   2000.0000     21.0732    102.8599
   674.0000   2000.0000   2000.0000     20.3955    108.1625
   674.2500   2000.0000   2000.0000     19.8165    112.8635
   674.5000   2000.0000   2000.0000     19.3560    120.4728
   674.7500   2000.0000   2000.0000     19.0197    125.1563
   675.0000   2000.0000   2000.0000     18.7959    130.6595
   675.2500   2000.0000   2000.0000     18.6577    133.0917
   675.5000   2000.0000   2000.0000     18.5723    134.7259
   675.7500   2000.0000   2000.0000     18.5159    134.3295
   676.0000   2000.0000   2000.0000     18.4848    131.3866
   676.2500   2000.0000   2000.0000     18.5015    128.1338
   676.5000   2000.0000   2000.0000     18.6097    122.5264
   676.7500   2000.0000   2000.0000     18.8615    119.1883
   677.0000   2000.0000   2000.0000     19.2978    115.9222
   677.2500   2000.0000   2000.0000     19.9322    115.1362
   677.5000   2000.0000   2000.0000     20.7430    115.6058
   677.7500   2000.0000   2000.0000     21.6748    116.2671
   678.0000   2000.0000   2000.0000     22.6532    116.0067
   678.2500   2000.0000   2000.0000     23.6138    114.2031
   678.5000   2000.0000   2000.0000     24.5341    108.9918
   678.7500   2000.0000   2000.0000     25.4418    104.5835
   679.0000   2000.0000   2000.0000     26.3815     98.4370
   679.2500   2000.0000   2000.0000     27.3585     95.6709
   679.5000   2000.0000   2000.0000     28.3081     94.5498
   679.7500   2000.0000   2000.0000     29.1224     95.7873
   680.0000   2000.0000   2000.0000     29.7259     99.5221
   680.2500   2000.0000   2000.0000     30.1359    102.4321
   680.5000   2000.0000   2000.0000     30.4490    106.7033
   680.7500   2000.0000   2000.0000     30.7680    109.6902
   681.0000   2000.0000   2000.0000     31.1263    115.1456
   681.2500   2000.0000   2000.0000     31.4577    119.5019
   681.5000   2000.0000   2000.0000     31.6311    125.8925
   681.7500   2000.0000   2000.0000     31.5441    128.8101
   682.0000   2000.0000   2000.0000     31.2032    129.5318
   682.2500   2000.0000   2000.0000     30.7169    127.6073
   682.5000   2000.0000   2000.0000     30.2125    122.8162
   682.7500   2000.0000   2000.0000     29.7697    119.5701
   683.0000   2000.0000   2000.0000     29.4190    115.8917
   683.2500   2000.0000   2000.0000     29.1722    114.5229
   683.5000   2000.0000   2000.0000     29.0358    114.4604
   683.7500   2000.0000   2000.0000     28.9974    115.8003
   684.0000   2000.0000   2000.0000     29.0189    118.9522
   684.2500   2000.0000   2000.0000     29.0517    120.6601
   684.5000   2000.0000   2000.0000     29.0594    120.8023
   684.7500   2000.0000   2000.0000     29.0176    119.0086
   685.0000   2000.0000   2000.0000     28.8994    114.5158
   685.2500   2000.0000   2000.0000     28.6717    111.2908
   685.5000   2000.0000   2000.0000     28.3180    107.5122
   685.7500   2000.0000   2000.0000     27.8652    106.1890
   686.0000   2000.0000   2000.0000     27.3772    106.2706
   686.2500   2000.0000   2000.0000     26.9183    107.5479
   686.5000   2000.0000   2000.0000     26.5160    110.7252
   686.7500   2000.0000   2000.0000     26.1553    113.3631
   687.0000   2000.0000   2000.0000     25.7989    117.7146
   687.2500   2000.0000   2000.0000     25.4124    120.7081
   687.5000   2000.0000   2000.0000     24.9762    125.1259
   687.7500   2000.0000   2000.0000     24.4932    127.9014
   688.0000   2000.0000   2000.0000     23.9964    131.1710
   688.2500   2000.0000   2000.0000     23.5423    132.0483
   688.5000   2000.0000   2000.0000     23.1854    130.5585
   688.7500   2000.0000   2000.0000     22.9495    128.0715
   689.0000   2000.0000   2000.0000     22.8205    124.0851
   689.2500   2000.0000   2000.0000     22.7581    122.4086
   689.5000   2000.0000   2000.0000     22.7119    122.2136
   689.7500   2000.0000   2000.0000     22.6347    123.4498
   690.0000   2000.0000   2000.0000     22.4983    126.2863
   690.2500   2000.0000   2000.0000     22.3089    128.0489
   690.5000   2000.0000   2000.0000     22.1002    129.5944
   690.7500   2000.0000   2000.0000     21.9010    129.9024
   691.0000   2000.0000   2000.0000     21.7077    129.9263
   691.2500   2000.0000   2000.0000     21.4924    129.9245
   691.5000   2000.0000   2000.0000     21.2382    129.7864
   691.7500   2000.0000   2000.0000     20.9646    129.5290
   692.0000   2000.0000   2000.0000     20.7151    129.4963
   692.2500   2000.0000   2000.0000     20.5214    130.2730
   692.5000   2000.0000   2000.0000     20.3811    132.7626
   692.7500   2000.0000   2000.0000     20.2677    134.6603
   693.0000   2000.0000   2000.0000     20.1625    136.4343
   693.2500   2000.0000   2000.0000     20.0765    136.5313
   693.5000   2000.0000   2000.0000     20.0385    135.5188
   693.7500   2000.0000   2000.0000     20.0618    134.6171
   694.0000   2000.0000   2000.0000     20.1250    133.3233
   694.2500   2000.0000   2000.0000     20.1874    132.2239
