~Version Information
VERS.                      2.0: CWLS Log ASCII Standard - VERSION 2.0
WRAP.                       NO: One line per depth step
~Well Information Block
STRT.FT               410.0000: 
STOP.FT              1530.5000: 
STEP.FT                 0.1000: 
NULL.                -999.2500: 
COMP.          Pioneer Natural Resources: COMPANY
WELL.          Pioneer 34-27 Tr: WELL
FLD.           Purgatoire River: FIELD
LOC.           243' FSL & 1593' FEL: LOCATION
STAT.                 Colorado: State
CNTY.               Las Animas: COUNTY
CTRY. USA : Country
SECT. 27 : Section
TOWN. 32S : Township
RANG. 67W : Range 
SRVC.                Patterson: SERVICE COMPANY
DATE.          Fri Oct 07 07:11:38 2005: LOG DATE
API.           05 071 08548 00: UNIQUE WELL ID
~Curve Information Block
DEPT.FT            0 000 00 00: Depth
DCAL.in                       : CDL Caliper
RHOB.g/cc                     : CDL Bulk Density
RHOC.g/cc                     : CDL Density Correction
DPOR.pu                       : CDL Density Porosity
GR.GAPI                       : Gamma Ray
NPOR.pu                       : Neutron Porosity
~Parameter Information Block
~A  Depth       DCAL        RHOB        RHOC        DPOR         GR         NPOR    
# ...
   995.6000      7.9495      2.5590      0.0791      5.5123    115.5861     23.4098
   995.7000      7.9495      2.5302      0.0624      7.2603    116.8573     23.9322
   995.8000      7.9611      2.5279      0.0077      7.4023    120.0425     24.4604
   995.9000      7.9611      2.5432      0.0583      6.4720    124.7619     24.9491
   996.0000      7.9993      2.5639      0.1116      5.2160    130.7431     25.5085
   996.1000      7.9993      2.5878      0.0906      3.7724    132.6565     25.9583
   996.2000      7.9993      2.6142      0.1378      2.1699    124.2208     26.0969
   996.3000      8.0460      2.6359      0.1425      0.8521    112.1699     26.1112
   996.4000      8.0460      2.6512      0.1875     -0.0739    106.6306     26.0432
   996.5000      8.0332      2.6617      0.1417     -0.7114    104.9708     25.6313
   996.6000      8.0332      2.6656      0.1345     -0.9463    101.1012     25.0080
   996.7000      8.0332      2.6522      0.1507     -0.1325     97.5055     24.5939
   996.8000      8.0221      2.6167      0.0764      2.0197     97.4260     24.5281
   996.9000      8.0221      2.5754      0.0038      4.5199     99.7696     24.6482
   997.0000      7.9760      2.5454      0.0131      6.3394    103.3157     24.8137
   997.1000      7.9760      2.5313      0.0292      7.1930    106.3230     25.1003
   997.2000      7.9760      2.5285      0.0597      7.3639    108.2844     25.5099
   997.3000      8.0673      2.5283      0.0682      7.3781    109.9311     25.8867
   997.4000      8.0673      2.5253      0.0158      7.5595    110.3069     26.0900
   997.5000      8.0544      2.5168      0.0471      8.0712    109.1134     26.0432
   997.6000      8.0544      2.5014      0.0270      9.0077    107.9488     25.9422
   997.7000      8.0544      2.4865      0.0093      9.9100    109.4463     26.0743
   997.8000      8.0705      2.4888     -0.0030      9.7711    114.2446     26.4566
   997.9000      8.0705      2.5189      0.0295      7.9448    119.6544     26.8625
   998.0000      8.1709      2.5637      0.1130      5.2297    121.9550     27.0136
   998.1000      8.1709      2.5946      0.1611      3.3566    120.5503     27.0511
   998.2000      8.1709      2.6003      0.1074      3.0138    118.2808     27.2385
   998.3000      8.1577      2.5940      0.0975      3.3920    113.9520     27.3529
   998.4000      8.1577      2.5827      0.1526      4.0796    107.3294     27.2805
   998.5000      8.0185      2.5620      0.1065      5.3317    103.0995     27.3328
   998.6000      8.0185      2.5408      0.0872      6.6183    101.6942     27.5997
   998.7000      8.0185      2.5337      0.0821      7.0508     98.2705     27.7074
   998.8000      7.9599      2.5365      0.0632      6.8804     94.4803     27.5374
   998.9000      7.9599      2.5365      0.0225      6.8796     98.2670     27.2264
   999.0000      7.9755      2.5387      0.0792      6.7481    110.9794     26.7013
   999.1000      7.9755      2.5591      0.0726      5.5090    123.8923     26.1991
   999.2000      7.9755      2.5960      0.1773      3.2750    128.0550     26.1460
   999.3000      8.0297      2.6222      0.2050      1.6864    125.5722     26.4984
   999.4000      8.0297      2.6222      0.1675      1.6851    123.1292     26.8108
   999.5000      8.0379      2.6144      0.1365      2.1579    123.3599     26.8247
   999.6000      8.0379      2.6217      0.1481      1.7122    126.7160     26.7629
   999.7000      8.0379      2.6410      0.2047      0.5438    129.6773     26.7408
   999.8000      7.9863      2.6550      0.2068     -0.3052    130.4259     26.7988
   999.9000      7.9863      2.6524      0.1896     -0.1483    133.7231     26.8372
  1000.0000      7.9873      2.6273      0.1550      1.3729    138.5165     26.7331
  1000.1000      7.9873      2.5887      0.0920      3.7140    140.2888     26.6339
  1000.2000      7.9873      2.5632      0.0531      5.2584    141.3630     26.6155
  1000.3000      8.0115      2.5647      0.0865      5.1668    145.0070     26.5904
  1000.4000      8.0115      2.5784      0.0900      4.3381    146.6755     26.4316
  1000.5000      8.0471      2.5783      0.1323      4.3446    143.5518     26.3403
  1000.6000      8.0471      2.5505      0.0990      6.0312    142.1498     26.6180
  1000.7000      8.0471      2.5117      0.0472      8.3846    146.8017     26.9571
  1000.8000      8.0659      2.4922      0.0481      9.5650    151.2050     26.9509
  1000.9000      8.0659      2.4980      0.1124      9.2142    148.6048     26.6633
  1001.0000      8.0599      2.5184      0.0439      7.9753    141.9617     26.3584
  1001.1000      8.0599      2.5487      0.1016      6.1389    137.6657     26.3007
  1001.2000      8.0599      2.5791      0.0828      4.2976    139.2015     26.8161
  1001.3000      8.0516      2.5996      0.1312      3.0536    143.8852     27.8784
  1001.4000      8.0516      2.6122      0.1486      2.2896    144.3985     28.9558
  1001.5000      8.0543      2.6239      0.1551      1.5817    137.1485     29.5239
  1001.6000      8.0543      2.6331      0.1277      1.0219    127.0065     29.5295
  1001.7000      8.0543      2.6365      0.1073      0.8157    120.6246     29.3373
  1001.8000      8.0420      2.6404      0.0799      0.5812    120.8886     29.2649
  1001.9000      8.0420      2.6605      0.0377     -0.6392    123.3702     29.2670
  1002.0000      8.0259      2.7061      0.0761     -3.3986    120.0483     29.2526
  1002.1000      8.0259      2.7562      0.1290     -6.4376    111.8711     29.1757
  1002.2000      8.0259      2.7768      0.1321     -7.6843    105.7161     28.7304
  1002.3000      8.0683      2.7612      0.0729     -6.7389    105.0220     27.9041
  1002.4000      8.0683      2.7239      0.0931     -4.4762    108.3517     27.2140
  1002.5000      8.0998      2.6682      0.0847     -1.1014    114.4276     26.8136
  1002.6000      8.0998      2.6028      0.0689      2.8587    121.4743     26.3182
  1002.7000      8.0998      2.5618      0.0183      5.3426    126.4014     25.8104
  1002.8000      8.0509      2.5672      0.0999      5.0189    130.6748     25.7806
  1002.9000      8.0509      2.6078      0.0835      2.5554    133.7230     26.1965
  1003.0000      7.9754      2.6651      0.1095     -0.9170    131.2659     26.6299
  1003.1000      7.9754      2.7183      0.1289     -4.1380    127.5079     26.9194
  1003.2000      7.9754      2.7502      0.1334     -6.0709    129.0032     27.2031
  1003.3000      7.9793      2.7574      0.1028     -6.5102    131.8636     27.5330
  1003.4000      7.9793      2.7412      0.1283     -5.5248    129.2103     27.6935
  1003.5000      7.9898      2.7084      0.0757     -3.5379    123.5242     27.5094
  1003.6000      7.9898      2.6764      0.0188     -1.6005    120.7281     27.0887
  1003.7000      7.9898      2.6477     -0.0049      0.1404    121.2929     26.7142
  1003.8000      8.0342      2.6093     -0.0165      2.4666    122.7167     26.5791
  1003.9000      8.0342      2.5662     -0.0859      5.0758    124.0889     26.5530
  1004.0000      8.0443      2.5391     -0.0602      6.7227    125.0684     26.2469
  1004.1000      8.0443      2.5331      0.0037      7.0826    123.6200     25.6840
  1004.2000      8.0443      2.5267      0.0212      7.4704    119.3735     25.3499
  1004.3000      8.0527      2.4996      0.0581      9.1179    116.2417     25.2596
  1004.4000      8.0527      2.4622      0.0109     11.3825    115.6696     25.1734
  1004.5000      8.0640      2.4419      0.0021     12.6124    117.2115     25.0595
  1004.6000      8.0640      2.4461      0.0278     12.3582    124.1804     25.0474
  1004.7000      8.0640      2.4631     -0.0026     11.3296    136.5808     25.4161
  1004.8000      8.0663      2.4868      0.0759      9.8913    146.5529     26.2431
  1004.9000      8.0663      2.5146      0.1044      8.2041    146.8649     27.1748
  1005.0000      8.0660      2.5437      0.1016      6.4396    142.9556     27.8216
  1005.1000      8.0660      2.5674      0.1396      5.0055    144.7117     28.0375
