~Version Information
VERS.                      2.0: CWLS Log ASCII Standard - VERSION 2.0
WRAP.                       NO: One line per depth step
~Well Information Block
STRT.FT                -7.2500: 
STOP.FT              1334.7500: 
STEP.FT                 0.2500: 
NULL.                -999.2500: 
COMP.          Pioneer Natural Resources: COMPANY
WELL.          Buffet 41-36 Tr: WELL
FLD.           Purgatorie River: FIELD
LOC.           119' FNL & 271' FEL--: LOCATION
PROV.                       CO: PROVINCE
CNTY.               Las Animas: COUNTRY
SRVC.          Patterson Wireline: SERVICE COMPANY
DATE.          Tue Jan 03 09:43:31 2006: LOG DATE
UWI.           05 071 08627 00: UNIQUE WELL ID
~Curve Information Block
DEPT.FT            0 000 00 00: Depth
CCL.                          : Casing Collar Locator
TT3.usec                      : CBL 3' Travel Time
AMP3.mV                       : CBL 3' Amplitude
GR.GAPI                       : Gamma Ray
~Parameter Information Block
~A  Depth       CCL         TT3         AMP3         GR     
# ...
   160.2500      0.0000    727.4905     11.3361     93.7283
   160.5000      0.0000    722.4883     11.1893     90.5930
   160.7500      0.0000    707.1555     11.0587     88.6259
   161.0000      0.0000    680.7098     10.9818     87.5375
   161.2500      0.0000    651.7076     10.9906     87.3929
   161.5000      0.0000    637.0848     11.0383     88.0076
   161.7500      0.0000    649.6780     11.0283     88.5789
   162.0000      0.0000    686.5444     10.9350     88.0047
   162.2500      0.0000    731.9469     10.8329     85.5032
   162.5000      0.0000    771.0385     10.7939     81.2510
   162.7500      2.0000    798.8513     10.8142     76.7826
   163.0000      0.0000    817.0403     10.8470     74.3581
   163.2500      0.0000    824.9337     10.8691     75.2582
   163.5000      0.0000    816.9141     10.9170     78.5961
   163.7500      0.0000    789.7743     11.0833     82.0206
   164.0000      0.0000    749.3809     11.4469     83.5951
   164.2500      0.0000    707.1129     11.9561     83.1034
   164.5000      0.0000    672.5712     12.4113     81.8238
   164.7500      0.0000    652.6870     12.6201     81.1783
   165.0000      0.0000    653.3665     12.5544     81.5187
   165.2500      0.0000    675.8307     12.3309     82.0093
   165.5000      0.0000    712.5880     12.0808     81.5606
   165.7500      0.0000    751.7438     11.8728     79.9443
   166.0000      0.0000    784.9622     11.7212     78.1512
   166.2500      0.0000    809.3842     11.6126     77.5632
   166.5000      0.0000    824.1944     11.5192     78.6489
   166.7500      0.0000    829.4899     11.4167     80.5713
   167.0000      0.0000    829.1271     11.3089     82.1088
   167.2500      0.0000    830.4496     11.2355     82.6695
   167.5000      0.0000    836.8962     11.2502     82.3531
   167.7500      0.0000    842.3406     11.3796     81.4996
   168.0000      0.0000    837.3809     11.5952     80.5127
   168.2500      0.0000    819.9254     11.8278     79.7587
   168.5000      0.0000    794.5789     12.0168     79.0578
   168.7500      0.0000    763.6113     12.1453     77.3269
   169.0000      0.0000    725.3994     12.2277     73.3243
   169.2500      0.0000    681.9791     12.2749     67.0435
   169.5000      0.0000    642.3658     12.2836     60.0627
   169.7500      0.0000    616.8383     12.2570     54.2835
   170.0000      0.0000    609.9775     12.2235     50.5086
   170.2500      0.0000    617.2270     12.2241     48.2736
   170.5000      0.0000    626.6448     12.2773     46.7420
   170.7500      0.0000    627.9114     12.3588     45.5654
   171.0000      0.0000    622.1093     12.4164     45.0628
   171.2500      0.0000    620.1860     12.4048     45.7668
   171.5000      0.0000    630.4598     12.3117     47.7937
   171.7500      0.0000    650.0669     12.1598     50.6223
   172.0000      0.0000    669.6272     11.9851     53.4751
   172.2500      0.0000    682.7165     11.8158     55.7709
   172.5000      0.0000    689.0334     11.6723     57.0446
   172.7500      0.0000    691.2789     11.5716     56.6066
   173.0000      0.0000    691.8171     11.5163     53.7912
   173.2500      0.0000    691.8334     11.4772     48.8113
   173.5000      0.0000    691.7668     11.4023     43.2103
   173.7500      0.0000    691.7333     11.2492     39.2036
   174.0000      0.0000    691.7479     11.0111     38.3735
   174.2500      0.0000    691.7823     10.7158     40.8251
   174.5000      0.0000    691.8132     10.4066     45.3901
   174.7500      0.0000    691.8240     10.1241     50.4179
   175.0000      0.0000    691.7964      9.9000     54.4007
   175.2500      0.0000    691.7213      9.7570     56.3221
   175.5000      0.0000    691.6251      9.7020     55.9501
   175.7500      0.0000    691.5619      9.7094     53.9467
   176.0000      0.0000    691.5594      9.7198     51.5355
   176.2500      0.0000    691.5765      9.6714     49.8968
   176.5000      0.0000    691.5406      9.5431     49.7423
   176.7500      0.0000    691.4349      9.3665     51.2370
   177.0000      0.0000    691.3333      9.1949     53.9268
   177.2500      0.0000    691.3418      9.0625     56.5535
   177.5000      0.0000    691.5300      8.9703     57.4405
   177.7500      0.0000    692.0077      8.9047     55.7228
   178.0000      0.0000    693.1453      8.8671     52.2993
   178.2500      0.0000    695.6742      8.8813     49.4636
   178.5000      0.0000    700.1960      8.9685     49.6688
   178.7500      0.0000    706.1053      9.1165     54.2805
   179.0000      0.0000    711.0648      9.2767     62.6559
   179.2500      0.0000    712.3445      9.3945     72.1032
   179.5000      0.0000    709.2079      9.4414     79.2251
   179.7500      0.0000    703.6325      9.4241     81.9298
   180.0000      0.0000    698.4474      9.3734     80.4351
   180.2500      0.0000    695.1656      9.3216     76.5827
   180.5000      0.0000    693.6370      9.2847     72.3562
   180.7500      0.0000    693.1159      9.2634     68.8026
   181.0000      0.0000    693.2448      9.2595     65.9473
   181.2500      0.0000    694.3200      9.2832     63.5373
   181.5000      0.0000    696.8945      9.3373     61.7772
   181.7500      0.0000    700.8916      9.4022     61.2245
   182.0000      0.0000    704.8803      9.4407     62.0380
   182.2500      0.0000    706.7130      9.4177     63.5873
   182.5000      0.0000    705.5917      9.3225     64.9498
   182.7500      0.0000    703.5853      9.1818     65.7262
   183.0000      0.0000    704.9498      9.0492     66.3381
   183.2500      0.0000    713.9244      8.9708     67.5819
   183.5000      0.0000    732.0760      8.9579     69.8299
   183.7500      0.0000    755.9739      8.9871     72.4641
   184.0000      0.0000    777.3706      9.0240     74.0273
   184.2500      0.0000    787.5851      9.0482     73.1372
   184.5000      0.0000    783.3397      9.0600     69.4678
   184.7500      0.0000    768.8541      9.0683     64.1786
   185.0000      0.0000    752.7379      9.0734     59.5863
   185.2500      0.0000    742.5468      9.0638     57.8688
   185.5000      0.0000    740.7794      9.0273     59.4272
   185.7500      0.0000    745.1018      8.9702     62.5839
   186.0000      0.0000    752.5757      8.9213     65.1259
   186.2500      0.0000    763.4164      8.9139     65.9475
   186.5000      0.0000    779.5969      8.9580     65.2277
   186.7500      0.0000    800.1552      9.0319     63.7307
   187.0000      0.0000    820.0873      9.1008     62.4847
   187.2500      0.0000    834.3732      9.1419     62.5991
   187.5000      0.0000    841.3663      9.1547     64.4434
   187.7500      0.0000    841.9656      9.1481     66.8547
   188.0000      0.0000    837.2670      9.1240     67.8511
   188.2500      0.0000    828.0216      9.0778     66.5359
   188.5000      0.0000    815.4765      9.0172     63.9973
   188.7500      0.0000    800.9883      8.9717     62.1879
   189.0000      0.0000    784.3668      8.9679     62.2479
   189.2500      0.0000    764.3321      8.9970     63.9192
   189.5000      0.0000    741.7391      9.0191     66.1150
   189.7500      0.0000    720.7401      9.0023     67.8603
   190.0000      0.0000    705.5720      8.9497     68.7201
   190.2500      0.0000    697.2741      8.8876     68.4383
   190.5000      0.0000    694.1001      8.8373     66.7324
   190.7500      0.0000    694.1360      8.7993     63.8832
   191.0000      0.0000    697.2085      8.7630     61.1029
   191.2500      0.0000    704.9138      8.7288     59.7256
   191.5000      0.0000    718.6609      8.7183     60.0176
   191.7500      0.0000    736.6030      8.7540     60.8982
   192.0000      0.0000    752.5306      8.8292     60.7547
   192.2500      0.0000    759.5457      8.9001     58.5386
   192.5000      0.0000    756.0157      8.9138     54.3992
   192.7500      0.0000    747.2942      8.8454     49.5775
   193.0000      0.0000    740.9586      8.7107     45.7838
   193.2500      0.0000    740.8710      8.5488     44.5296
   193.5000      0.0000    745.5437      8.3947     46.5619
