~Version Information
 VERS.                                  2.0 : CWLS LAS VERSION
 WRAP.                                   NO : WRAPING MODE
 SWARE .                 MController 2.5.0J : SOFTWARE VERSION
~Well Information
 WELL.                         Joplin 44-05 : WELL
 COMP.    Pioneer Natural Resources USA Inc : COMPANY
 FLD.                      Purgatoire River : FIELD
 LOC.                  SE/SE SEC5 T33S R66W : LOCATION
 DATE.                             12/12/05 : DATE(S) LOGGED
 SRVC.       Blanco Geological Services LLC : SERVICE COMPANY
 STAT.                             Colorado : STATE
 CNTY.                           Las Animas : COUNTY
 CTRY.                                  USA : COUNTRY
 API.                       05-071-08623-05 : API NUMBER
 STRT.FT                             686.00 : START DEPTH
 STOP.FT                            2105.00 : STOP DEPTH
 STEP.FT                               1.00 : DEPTH INCREMENT
 NULL.                                -9999 : NULL VALUE
~Curve information
 DEPTH.FT                                   :
 ROP.MIN/FT                                 :
 GAS.UNITS                                  :
~ASCII Log data
       686.0     -9999.00          1.3 
       687.0         3.48          1.8 
       688.0         0.67          1.2 
       689.0         0.60          1.6 
       690.0         0.10          1.5 
       691.0         0.67          1.9 
       692.0         0.50          1.5 
       693.0         0.17          1.4 
       694.0         0.55          1.5 
       695.0         0.90          2.1 
       696.0         0.20          1.7 
       697.0         0.10          1.7 
       698.0         0.73          1.8 
       699.0         0.17          1.5 
       700.0         0.20          1.6 
       701.0         0.10          1.6 
       702.0         0.10          1.9 
       703.0         0.28          1.5 
       704.0         0.10          1.7 
       705.0         0.30          1.9 
       706.0         0.10          1.9 
       707.0         0.17          1.8 
       708.0         0.20          2.1 
       709.0         0.10          2.1 
       710.0         0.10          2.1 
       711.0         0.10          1.8 
       712.0         0.10          1.8 
       713.0         0.43          2.2 
       714.0         0.23          2.1 
       715.0         0.13          1.8 
       716.0         2.22          2.2 
       717.0         0.13          2.2 
       718.0         0.13          2.8 
       719.0         0.23          2.6 
       720.0         0.43          3.0 
       721.0         0.10          2.5 
       722.0         0.20          2.5 
       723.0         0.47          2.5 
       724.0         0.20          2.6 
       725.0         0.10          2.6 
       726.0         0.12          2.6 
       727.0         0.50          3.1 
       728.0         0.20          2.4 
       729.0         1.00          3.0 
       730.0         0.27          2.6 
       731.0         0.57          2.9 
       732.0         0.60          2.7 
       733.0         0.38          2.7 
       734.0         0.60          2.7 
       735.0         0.50          3.0 
       736.0         0.63          3.3 
       737.0         0.30          3.5 
       738.0         0.47          4.7 
       739.0         0.60          4.4 
       740.0         0.55          3.6 
       741.0         0.77          3.0 
       742.0         0.20          2.8 
       743.0         0.23          2.8 
       744.0         0.23          3.2 
       745.0         0.20          3.7 
       746.0         2.75          3.6 
       747.0         0.30          2.9 
       748.0         0.27          3.5 
       749.0         0.33          3.0 
       750.0         0.27          2.9 
       751.0         0.30          3.7 
       752.0         0.30          3.3 
       753.0         0.28          3.8 
       754.0         0.23          3.3 
       755.0         0.20          3.3 
       756.0         0.30          3.5 
       757.0         0.23          3.9 
       758.0         0.17          3.7 
       759.0         0.17          3.9 
       760.0         0.23         21.9 
       761.0         0.23         25.8 
       762.0         0.20         54.2 
       763.0         0.20         87.7 
       764.0         0.27        116.3 
       765.0         0.53        144.7 
       766.0         0.32        162.7 
       767.0         0.37        165.4 
       768.0         0.30        154.9 
       769.0         0.33        153.9 
       770.0         0.27        151.0 
       771.0         0.27        149.0 
       772.0         0.27        153.6 
       773.0         0.27        165.2 
       774.0         0.30        241.5 
       775.0         0.20        359.2 
       776.0         2.12        920.6 
       777.0         0.57        433.4 
       778.0         0.83        467.0 
       779.0         0.52        494.3 
       780.0         0.27        499.1 
       781.0         0.17        499.1 
       782.0         0.17        496.9 
       783.0         0.17        494.6 
       784.0         0.23        490.8 
       785.0         0.27        488.3 
       786.0         0.33        486.4 
       787.0         0.23        480.7 
       788.0         0.27        483.8 
       789.0         0.27        486.7 
       790.0         0.33        498.1 
       791.0         0.30        508.9 
       792.0         0.32        484.5 
       793.0         0.30        450.5 
       794.0         0.27        435.9 
       795.0         0.30        422.9 
       796.0         0.23        205.6 
       797.0         0.17        199.0 
       798.0         0.17        199.0 
       799.0         0.17        201.8 
       800.0         0.13        215.6 
       801.0         0.13        227.3 
       802.0         0.13        275.4 
       803.0         0.13        275.4 
       804.0         0.13        306.3 
       805.0         0.13        337.9 
       806.0         2.28       1540.7 
       807.0         0.40        638.4 
       808.0         0.30        587.6 
       809.0         0.17        584.5 
       810.0         0.23        609.2 
       811.0         0.20        644.1 
       812.0         0.23        666.3 
       813.0         0.30        663.5 
       814.0         0.35        651.4 
       815.0         0.27        648.2 
       816.0         0.33        641.3 
       817.0         0.20        647.0 
       818.0         0.17        647.3 
       819.0         0.23        647.0 
       820.0         0.17        640.6 
       821.0         0.20        609.5 
       822.0         0.17        569.2 
       823.0         0.13        569.2 
       824.0         0.17        541.3 
       825.0         0.20        515.3 
       826.0         0.23        507.3 
       827.0         0.17        493.7 
       828.0         0.13        472.1 
       829.0         0.17        472.1 
       830.0         0.17        514.9 
       831.0         0.18        514.9 
       832.0         0.13        558.1 
       833.0         0.13       1126.2 
       834.0         0.20       1458.2 
       835.0         0.13       1458.2 
       836.0         1.67       1580.4 
       837.0         0.33        768.9 
       838.0         0.40        708.9 
       839.0         0.45        687.9 
       840.0         0.23        656.5 
       841.0         0.20        647.3 
       842.0         0.27        639.0 
       843.0         0.23        635.6 
       844.0         0.23        641.3 
       845.0         0.20        646.7 
       846.0         0.20        638.7 
       847.0         0.17        635.2 
       848.0         0.23        653.0 
       849.0         0.20        659.0 
       850.0         0.27        663.5 
       851.0         0.13        663.5 
       852.0         0.17        656.8 
       853.0         0.17        656.8 
       854.0         0.22        618.4 
       855.0         0.27        573.3 
       856.0         0.23        556.8 
       857.0         0.13        534.9 
       858.0         0.13        502.3 
       859.0         0.17        496.9 
       860.0         0.20        501.3 
       861.0         0.17        526.1 
       862.0         0.13        549.9 
       863.0         0.20        874.5 
       864.0         0.20       1456.9 
       865.0         0.23       1635.9 
       866.0         1.38       1514.4 
       867.0         0.50        104.0 
       868.0         0.23         73.0 
       869.0         0.27         46.0 
       870.0         0.23         39.0 
       871.0         0.20         21.1 
       872.0         0.23         14.5 
       873.0         0.20          9.1 
       874.0         0.20          8.9 
       875.0         0.13          6.5 
       876.0         0.13          5.6 
       877.0         0.40          4.4 
       878.0         0.58          3.7 
       879.0         0.50          3.3 
       880.0         0.43          3.3 
       881.0         0.53          3.6 
       882.0         0.23          3.4 
       883.0         0.10          3.4 
       884.0         0.13          3.2 
       885.0         0.13          3.7 
