~Version Information
VERS.                      2.0: CWLS Log ASCII Standard - VERSION 2.0
WRAP.                       NO: One line per depth step
~Well Information Block
STRT.FT                 6.0000: 
STOP.FT              1577.7500: 
STEP.FT                 0.2500: 
NULL.                -999.2500: 
COMP.          Pioneer Natural Resources: COMPANY
WELL.           Kermit 32-7 Tr: WELL
FLD.           Purgatoire River: FIELD
LOC.           2009' FNL & 2196' FEL: LOCATION
PROV.                 Colorado: PROVINCE
CNTY.               Las Animas: COUNTRY
SRVC.                Patterson: SERVICE COMPANY
DATE.          Wed Jan 18 14:19:39 2006: LOG DATE
UWI.           05 071 08664 00: UNIQUE WELL ID
~Curve Information Block
DEPT.FT            0 000 00 00: Depth
GR.GAPI                       : Gamma Ray
CCL.                          : Casing Collar Locator
TT3.usec                      : CBL 3' Travel Time
AMP3.mV                       : CBL 3' Amplitude
~Parameter Information Block
~A  Depth        GR         CCL         TT3         AMP3    
# ...
   106.5000     47.2628      0.0000    777.3947     12.8167
   106.7500     49.7094      0.0000    780.3969     12.9588
   107.0000     52.0681      0.0000    785.6755     13.1088
   107.2500     53.8377      0.0000    792.6503     13.2960
   107.5000     54.5538      0.0000    798.9513     13.5342
   107.7500     53.7594      0.0000    801.5369     13.8054
   108.0000     51.2284      0.0000    798.9730     14.0693
   108.2500     47.3256      0.0000    792.6241     14.2880
   108.5000     43.1256      0.0000    785.3978     14.4482
   108.7500     40.0553      0.0000    779.3152     14.5679
   109.0000     39.2770      0.0000    774.1523     14.6859
   109.2500     41.1348      0.0000    768.0355     14.8334
   109.5000     44.8044      0.0000    759.4326     15.0038
   109.7500     48.4758      0.0000    749.1751     15.1534
   110.0000     50.3668      0.0000    740.4103     15.2433
   110.2500     49.9264      0.0000    735.6688     15.2803
   110.5000     48.0126      0.0000    734.2982     15.3069
   110.7500     45.9550      0.0000    734.1448     15.3515
   111.0000     44.5693      0.0000    735.2963     15.4003
   111.2500     43.8615      0.0000    740.0323     15.4185
   111.5000     43.3069      0.0000    749.0347     15.3842
   111.7500     42.4083      0.0000    759.6506     15.3006
   112.0000     41.1870      0.0000    768.2831     15.1930
   112.2500     40.1885      0.0000    772.7784     15.0914
   112.5000     39.9554      0.0000    772.0745     14.9946
   112.7500     40.6049      0.0000    765.7537     14.8341
   113.0000     41.9143      0.0000    756.3852     14.4739
   113.2500     43.5603      0.0000    751.2245     13.7605
   113.5000     45.0678      0.0000    757.1703     12.6246
   113.7500     45.6976      0.0000    772.2628     11.1916
   114.0000     44.7878      0.0000    785.6852      9.7712
   114.2500     42.4561      0.0000    788.9298      8.6740
   114.5000     39.8728      0.0000    784.5911      8.0157
   114.7500     38.6103      0.0000    781.9457      7.7077
   115.0000     39.4892     -2.6793    785.9860      7.6029
   115.2500     41.9984     -2.5296    792.9684      7.6261
   115.5000     44.8936      0.0000    795.3212      7.7971
   115.7500     47.3140      0.0000    788.5720      8.1739
   116.0000     49.1492      0.0000    773.8029      8.7860
   116.2500     50.4055      0.0000    755.4881      9.6141
   116.5000     50.6108      0.0000    737.5952     10.6092
   116.7500     49.1862      0.0000    721.0945     11.6843
   117.0000     46.3593      0.0000    705.0979     12.6864
   117.2500     43.4301      0.0000    689.5833     13.4462
   117.5000     41.9603      0.0000    676.0261     13.8919
   117.7500     42.7651      0.0000    666.0649     14.0852
   118.0000     45.6567      0.0000    660.2709     14.1420
   118.2500     49.7677      0.0000    657.6979     14.1416
   118.5000     53.7765      0.0000    656.3286     14.1097
   118.7500     56.1578      0.0000    654.4851     14.0481
   119.0000     56.0061      0.0000    651.9426     13.9609
   119.2500     53.9375      0.0000    649.5292     13.8621
   119.5000     51.7757      0.0000    647.9837     13.7722
   119.7500     51.0685      0.0000    647.4883     13.7088
   120.0000     52.1291      0.0000    647.9777     13.6778
   120.2500     54.4602      0.0000    649.4811     13.6744
   120.5000     57.3987      0.0000    651.9493     13.6885
   120.7500     60.0867      0.0000    654.8847     13.7071
   121.0000     61.5247      0.0000    657.5195     13.7153
   121.2500     61.1937      0.0000    659.5278     13.7007
   121.5000     59.3941      0.0000    661.3220     13.6612
   121.7500     56.9341      0.0000    663.6007     13.6060
   122.0000     54.7647      0.0000    667.0370     13.5461
   122.2500     53.6581      0.0000    672.2494     13.4854
   122.5000     53.6936      0.0000    679.2047     13.4216
   122.7500     54.1139      0.0000    686.6284     13.3499
   123.0000     54.0637      0.0000    693.1395     13.2682
   123.2500     53.4480      0.0000    698.9778     13.1836
   123.5000     52.8377      0.0000    704.7904     13.1111
   123.7500     52.6534      0.0000    708.4601     13.0615
   124.0000     52.7256      0.0000    705.7977     13.0316
   124.2500     52.6900      0.0000    695.5372     13.0103
   124.5000     52.4959      0.0000    681.5658     12.9927
   124.7500     52.2682      0.0000    669.1423     12.9829
   125.0000     51.8302      0.0000    660.5007     12.9855
   125.2500     50.6961      0.0000    654.9813     12.9978
   125.5000     48.5599      0.0000    651.9485     13.0130
   125.7500     45.6291      0.0000    652.5300     13.0312
   126.0000     42.4945      0.0000    659.2189     13.0651
   126.2500     39.8218      0.0000    674.1413     13.1280
   126.5000     38.0977      0.0000    696.7229     13.2092
   126.7500     37.4841      0.0000    722.5497     13.2654
   127.0000     37.8864      0.0000    745.4072     13.2487
   127.2500     39.1331      0.0000    761.1591     13.1506
   127.5000     40.9522      0.0000    769.6179     13.0149
   127.7500     42.9199      0.0000    773.0246     12.9059
   128.0000     44.7646      0.0000    773.4811     12.8617
   128.2500     46.6759      0.0000    771.6179     12.8743
   128.5000     48.9327      0.0000    767.0231     12.9054
   128.7500     51.2116      0.0000    759.9850     12.9211
   129.0000     52.6172      0.0000    753.1379     12.9180
   129.2500     52.5094      0.0000    750.7119     12.9150
   129.5000     51.1582      0.0000    755.3129     12.9242
   129.7500     49.6135      0.0000    765.7912     12.9359
   130.0000     49.0506      0.0000    778.5012     12.9394
   130.2500     50.1042      0.0000    789.9519     12.9446
   130.5000     52.5308      0.0000    798.4161     12.9708
   130.7500     55.3258      0.0000    804.3535     13.0133
   131.0000     57.2481      0.0000    809.5478     13.0385
   131.2500     57.5393      0.0000    814.9910     13.0166
   131.5000     56.3690      0.0000    819.3348     12.9500
   131.7500     54.5314      0.0000    819.6131     12.8677
   132.0000     52.6422      0.0000    813.8347     12.7970
   132.2500     50.7811      0.0000    803.2114     12.7467
   132.5000     49.0034      0.0000    791.6762     12.7118
   132.7500     47.9522      0.0000    782.9418     12.6876
   133.0000     48.6584      0.0000    778.2697     12.6760
   133.2500     51.7013      0.0000    776.7838     12.6809
   133.5000     56.6194      0.0000    776.7963     12.6955
   133.7500     62.1513      0.0000    776.1133     12.6953
   134.0000     67.1387      0.0000    771.7751     12.6454
   134.2500     71.3088      0.0000    761.4544     12.5216
   134.5000     75.1801      0.0000    746.4581     12.3316
   134.7500     79.2309      0.0000    732.7597     12.1156
   135.0000     83.3109      0.0000    727.5940     11.9208
   135.2500     86.8800      0.0000    734.5421     11.7726
   135.5000     89.5443      0.0000    750.9871     11.6701
   135.7500     91.1051      0.0000    768.4796     11.6045
   136.0000     91.3037      0.0000    776.3757     11.5752
   136.2500     89.9402      0.0000    769.0479     11.5821
   136.5000     87.3581      0.0000    751.4213     11.6114
   136.7500     84.5313      0.0000    735.8123     11.6375
   137.0000     82.3635      0.0000    731.9429     11.6411
   137.2500     80.9523      0.0000    740.0825     11.6196
   137.5000     79.8006      0.0000    753.1472     11.5806
   137.7500     78.7318      0.0000    763.5093     11.5295
   138.0000     78.2266      0.0000    767.0422     11.4668
   138.2500     78.7122      0.0000    762.6641     11.3942
   138.5000     79.8763      0.0000    751.3164     11.3199
   138.7500     81.0932      0.0000    736.9458     11.2544
   139.0000     82.3910      0.0000    726.6156     11.2004
   139.2500     84.3751      0.0000    726.4702     11.1466
   139.5000     86.9699      0.0000    736.5735     11.0759
   139.7500     88.9014      0.0000    750.9819     10.9814
