~Version Information
VERS.                      2.0: CWLS Log ASCII Standard - VERSION 2.0
WRAP.                       NO: One line per depth step
~Well Information Block
STRT.FT                -8.0000: 
STOP.FT              1323.7500: 
STEP.FT                 0.2500: 
NULL.                -999.2500: 
COMP.          Pioneer Natural Resources: COMPANY
WELL.              Geyser 41-2: WELL
FLD.           Purgatorie River: FIELD
LOC.           506' FNL & 1127' FEL--: LOCATION
PROV.                       CO: PROVINCE
CNTY.               Las Animas: COUNTRY
SRVC.          Patterson Wireline: SERVICE COMPANY
DATE.          Tue Dec 06 09:28:14 2005: LOG DATE
UWI.           08 071 08598 00: UNIQUE WELL ID
~Curve Information Block
DEPT.FT            0 000 00 00: Depth
CCL.                          : Casing Collar Locator
TT3.usec                      : CBL 3' Travel Time
AMP3.mV                       : CBL 3' Amplitude
GR.GAPI                       : Gamma Ray
~Parameter Information Block
~A  Depth       CCL         TT3         AMP3         GR     
# ...
  1131.0000      0.0000    720.5807      9.3495     63.3728
  1131.2500      0.0000    720.3362      9.2512     61.5403
  1131.5000      0.0000    719.1413      9.2458     61.3465
  1131.7500      0.0000    716.9517      9.3148     61.3558
  1132.0000      0.0000    714.8757      9.4281     60.0344
  1132.2500      0.0000    714.5424      9.5517     56.9669
  1132.5000      0.0000    716.8221      9.6528     53.1418
  1132.7500      0.0000    720.7186      9.7098     50.1106
  1133.0000      0.0000    723.5952      9.7247     48.9969
  1133.2500      0.0000    722.9590      9.7259     50.1929
  1133.5000      0.0000    718.3139      9.7478     53.6651
  1133.7500      0.0000    711.4197      9.7973     59.3262
  1134.0000      0.0000    704.8411      9.8414     66.9804
  1134.2500      0.0000    700.2216      9.8361     75.9269
  1134.5000      0.0000    697.7180      9.7705     84.9996
  1134.7500      0.0000    696.6302      9.6799     93.2128
  1135.0000      0.0000    696.2380      9.6110    100.0491
  1135.2500      0.0000    696.1416      9.5798    105.0268
  1135.5000      0.0000    696.1991      9.5697    107.4980
  1135.7500      0.0000    696.3749      9.5669    107.0439
  1136.0000      0.0000    696.6244      9.5812    103.7178
  1136.2500      0.0000    696.8385      9.6256     97.8782
  1136.5000      0.0000    696.8964      9.6869     90.1485
  1136.7500      0.0000    696.7899      9.7300     81.7009
  1137.0000      0.0000    696.6622      9.7301     74.2892
  1137.2500      0.0000    696.7063      9.6972     69.4660
  1137.5000      0.0000    697.1206      9.6667     67.4528
  1137.7500      0.0000    698.3060      9.6681     66.9752
  1138.0000      0.0000    701.0511      9.7018     66.4459
  1138.2500      0.0000    706.1593      9.7481     65.1609
  1138.5000      0.0000    713.5139      9.7956     63.2167
  1138.7500      0.0000    721.2953      9.8528     60.6311
  1139.0000      0.0000    725.9822      9.9335     57.0742
  1139.2500      0.0000    722.6468     10.0407     52.5326
  1139.5000      0.0000    705.4158     10.1673     47.8511
  1139.7500      0.0000    669.8424     10.3043     44.3115
  1140.0000      0.0000    617.6962     10.4427     42.6521
  1140.2500      0.0000    559.4594     10.5761     42.6204
  1140.5000      0.0000    509.6591     10.7073     43.5268
  1140.7500      0.0000    478.7571     10.8517     45.1022
  1141.0000      0.0000    470.2483     11.0242     47.6344
  1141.2500      0.0000    484.0444     11.2224     51.2975
  1141.5000      0.0000    519.0055     11.4230     55.5809
  1141.7500      0.0000    570.5547     11.5954     59.4186
  1142.0000      0.0000    628.0432     11.7151     61.8504
  1142.2500      0.0000    678.1414     11.7713     62.7274
  1142.5000      0.0000    712.3444     11.7669     62.8589
  1142.7500      0.0000    730.5787     11.7090     63.2673
  1143.0000      0.0000    738.0663     11.5980     64.2883
  1143.2500      0.0000    740.2759     11.4388     65.6234
  1143.5000      0.0000    740.6669     11.2697     67.1464
  1143.7500      0.0000    741.0649     11.1588     69.1429
  1144.0000      0.0000    742.4312     11.1548     71.6580
  1144.2500      0.0000    744.9172     11.2460     74.1871
  1144.5000      0.0000    747.4827     11.3777     76.2544
  1144.7500      0.0000    747.6697     11.4981     77.9829
  1145.0000      0.0000    741.4324     11.5792     79.9548
  1145.2500      0.0000    723.0797     11.6084     82.7034
  1145.5000      0.0000    687.3462     11.5773     86.2603
  1145.7500      0.0000    634.6313     11.4799     90.0452
  1146.0000      0.0000    574.5042     11.3187     93.3385
  1146.2500      0.0000    521.2789     11.1123     95.9563
  1146.5000      0.0000    484.6601     10.8971     98.2829
  1146.7500      0.0000    465.0780     10.7180    100.4156
  1147.0000      0.0000    456.8900     10.6152    101.3920
  1147.2500      0.0000    454.0826     10.6126     99.8448
  1147.5000      0.0000    453.7470     10.7077     95.8261
  1147.7500      0.0000    457.5760     10.8658     91.5112
  1148.0000      0.0000    472.0602     11.0283     89.3674
  1148.2500      0.0000    505.0513     11.1350     89.7244
  1148.5000      0.0000    557.5718     11.1458     90.5783
  1148.7500      0.0000    617.0580     11.0476     89.6833
  1149.0000      0.0000    661.3580     10.8523     86.5627
  1149.2500      0.0000    673.7844     10.5952     82.5657
  1149.5000      0.0000    657.0963     10.3355     79.2518
  1149.7500      0.0000    632.9750     10.1493     77.0528
  1150.0000      0.0000    625.4677     10.1062     75.5038
  1150.2500      0.0000    642.6531     10.2353     74.2564
  1150.5000      0.0000    673.8016     10.5052     73.4223
  1150.7500      0.0000    702.3831     10.8407     73.1579
  1151.0000      0.0000    719.0690     11.1687     73.3781
  1151.2500      0.0000    724.0261     11.4545     73.8252
  1151.5000      0.0000    722.2518     11.7044     74.1524
  1151.7500      0.0000    719.0020     11.9366     74.0976
  1152.0000      0.0000    716.8929     12.1515     73.8335
  1152.2500      0.0000    714.1880     12.3293     74.1590
  1152.5000      0.0000    705.6788     12.4498     76.1905
  1152.7500      0.0000    687.4736     12.5083     80.5478
  1153.0000      0.0000    662.9713     12.5120     86.5456
  1153.2500      0.0000    643.4177     12.4667     92.3119
  1153.5000      0.0000    639.8040     12.3717     96.0382
  1153.7500      0.0000    653.6721     12.2275     97.2052
  1154.0000      0.0000    677.4688     12.0458     96.5582
  1154.2500      0.0000    702.7941     11.8519     94.9823
  1154.5000      0.0000    725.3310     11.6817     92.5098
  1154.7500      0.0000    742.8181     11.5779     88.4293
  1155.0000      0.0000    752.5875     11.5809     82.4703
  1155.2500      0.0000    752.8489     11.7164     75.7312
  1155.5000      0.0000    744.8917     11.9850     69.8881
  1155.7500      0.0000    732.9944     12.3606     65.5320
  1156.0000      0.0000    722.6055     12.7992     61.9558
  1156.2500      0.0000    718.3983     13.2458     58.3452
  1156.5000      0.0000    722.5203     13.6336     54.3328
  1156.7500      0.0000    733.1650     13.8923     49.7470
  1157.0000      0.0000    744.8235     13.9849     44.9938
  1157.2500      0.0000    751.6302     13.9428     41.7928
  1157.5000      0.0000    751.9891     13.8443     42.6606
  1157.7500      0.0000    749.7590     13.7528     49.0790
  1158.0000      0.0000    749.9263     13.6840     60.0138
  1158.2500      0.0000    753.3108     13.6260     72.0959
  1158.5000      0.0000    756.5254     13.5664     81.3733
  1158.7500      0.0000    756.6740     13.4985     85.3105
  1159.0000      0.0000    754.1625     13.4130     83.6973
  1159.2500      0.0000    750.7540     13.2964     78.4263
  1159.5000      0.0000    747.3113     13.1415     72.6475
  1159.7500      0.0000    744.8146     12.9627     69.3035
  1160.0000      0.0000    745.6067     12.7890     69.5391
  1160.2500      0.0000    751.4866     12.6335     72.3209
  1160.5000      0.0000    761.0243     12.4730     75.7028
  1160.7500      0.0000    770.0609     12.2651     78.3750
  1161.0000      0.0000    775.3287     11.9881     79.8826
  1161.2500      0.0000    777.0969     11.6626     79.8016
  1161.5000      0.0000    777.2913     11.3384     77.5786
  1161.7500      0.0000    775.5227     11.0582     73.4574
  1162.0000      0.0000    768.9218     10.8276     68.9589
  1162.2500      0.0000    755.5883     10.6038     65.9654
  1162.5000      0.0000    736.1357     10.3038     65.4900
  1162.7500      0.0000    712.6655      9.8382     67.3632
  1163.0000      0.0000    689.2889      9.1828     70.7619
  1163.2500      0.0000    673.3093      8.4409     74.9124
  1163.5000      0.0000    672.5997      7.7909     79.4540
  1163.7500      0.0000    690.8748      7.3275     84.1942
  1164.0000      0.0000    726.0507      7.0000     88.5164
  1164.2500      0.0000    772.0365      6.7454     91.0360
