~Version Information
VERS.                      2.0: CWLS Log ASCII Standard - VERSION 2.0
WRAP.                       NO: One line per depth step
~Well Information Block
STRT.FT               310.0000: 
STOP.FT              2298.0000: 
STEP.FT                 0.2500: 
NULL.                -999.2500: 
COMP.          Pioneer Natural Resources: COMPANY
WELL.               Relay 12-7: WELL
FLD.           Purgatoire River: FIELD
LOC.           1999' FNL & 848' FWL: LOCATION
PROV.                 Colorado: PROVINCE
CNTY.               Las Animas: COUNTRY
SRVC.                Patterson: SERVICE COMPANY
DATE.          Fri Dec 16 17:39:57 2005: LOG DATE
UWI.           05 071 08453 00: UNIQUE WELL ID
~Curve Information Block
DEPT.FT            0 000 00 00: Depth
SN.Ohm-m                      : IEL Short Normal
SP.mV                         : IEL Spontaneous Potential
DIR.Ohm-m                     : IEL Induction Resistivity
GR.GAPI                       : Gamma Ray
~Parameter Information Block
~A  Depth        SN          SP         DIR          GR     
# ...
   578.0000   2000.0000   2000.0000     47.3008     91.3046
   578.2500   2000.0000   2000.0000     46.7938     88.2598
   578.5000   2000.0000   2000.0000     46.3356     84.4197
   578.7500   2000.0000   2000.0000     45.8651     82.3030
   579.0000   2000.0000   2000.0000     45.3627     79.3318
   579.2500   2000.0000   2000.0000     44.8999     77.2551
   579.5000   2000.0000   2000.0000     44.5786     74.1726
   579.7500   2000.0000   2000.0000     44.4210     72.5957
   580.0000   2000.0000   2000.0000     44.3199     71.8472
   580.2500   2000.0000   2000.0000     44.0938     72.6485
   580.5000   2000.0000   2000.0000     43.6049     75.3051
   580.7500   2000.0000   2000.0000     42.8548     77.3763
   581.0000   2000.0000   2000.0000     41.9771     79.7806
   581.2500   2000.0000   2000.0000     41.1441     80.5971
   581.5000   2000.0000   2000.0000     40.4638     80.9247
   581.7500   2000.0000   2000.0000     39.9394     80.9228
   582.0000   2000.0000   2000.0000     39.5063     80.8269
   582.2500   2000.0000   2000.0000     39.1093     80.5543
   582.5000   2000.0000   2000.0000     38.7647     79.6770
   582.7500   2000.0000   2000.0000     38.5559     78.8904
   583.0000   2000.0000   2000.0000     38.5679     77.5581
   583.2500   2000.0000   2000.0000     38.8152     76.4834
   583.5000   2000.0000   2000.0000     39.2221     74.4539
   583.7500   2000.0000   2000.0000     39.6750     73.0294
   584.0000   2000.0000   2000.0000     40.0979     71.7345
   584.2500   2000.0000   2000.0000     40.4776     71.9985
   584.5000   2000.0000   2000.0000     40.8183     74.1327
   584.7500   2000.0000   2000.0000     41.0895     76.0316
   585.0000   2000.0000   2000.0000     41.2246     78.0283
   585.2500   2000.0000   2000.0000     41.1663     78.2926
   585.5000   2000.0000   2000.0000     40.9143     77.3888
   585.7500   2000.0000   2000.0000     40.5463     76.4793
   586.0000   2000.0000   2000.0000     40.1990     75.4414
   586.2500   2000.0000   2000.0000     40.0155     75.1002
   586.5000   2000.0000   2000.0000     40.0806     74.8567
   586.7500   2000.0000   2000.0000     40.3862     74.6211
   587.0000   2000.0000   2000.0000     40.8459     73.9354
   587.2500   2000.0000   2000.0000     41.3419     73.3458
   587.5000   2000.0000   2000.0000     41.7661     72.5362
   587.7500   2000.0000   2000.0000     42.0363     72.0945
   588.0000   2000.0000   2000.0000     42.1060     71.5023
   588.2500   2000.0000   2000.0000     41.9873     71.1949
   588.5000   2000.0000   2000.0000     41.7638     71.1268
   588.7500   2000.0000   2000.0000     41.5600     71.4096
   589.0000   2000.0000   2000.0000     41.4762     72.0084
   589.2500   2000.0000   2000.0000     41.5368     72.2444
   589.5000   2000.0000   2000.0000     41.6933     72.2770
   589.7500   2000.0000   2000.0000     41.8781     72.3527
   590.0000   2000.0000   2000.0000     42.0632     73.0990
   590.2500   2000.0000   2000.0000     42.2706     74.0960
   590.5000   2000.0000   2000.0000     42.5199     75.8687
   590.7500   2000.0000   2000.0000     42.7713     76.7593
   591.0000   2000.0000   2000.0000     42.9324     77.1285
   591.2500   2000.0000   2000.0000     42.9395     76.8553
   591.5000   2000.0000   2000.0000     42.8365     76.4169
   591.7500   2000.0000   2000.0000     42.7428     76.4741
   592.0000   2000.0000   2000.0000     42.7464     77.2808
   592.2500   2000.0000   2000.0000     42.8208     78.3263
   592.5000   2000.0000   2000.0000     42.8455     80.9429
   592.7500   2000.0000   2000.0000     42.7105     83.6498
   593.0000   2000.0000   2000.0000     42.4272     89.2398
   593.2500   2000.0000   2000.0000     42.1636     93.4554
   593.5000   2000.0000   2000.0000     42.1666     98.5783
   593.7500   2000.0000   2000.0000     42.6060    100.0859
   594.0000   2000.0000   2000.0000     43.4248     99.0280
   594.2500   2000.0000   2000.0000     44.2983     96.7147
   594.5000   2000.0000   2000.0000     44.7916     92.0525
   594.7500   2000.0000   2000.0000     44.6559     88.4654
   595.0000   2000.0000   2000.0000     43.9887     82.5892
   595.2500   2000.0000   2000.0000     43.0933     78.6641
   595.5000   2000.0000   2000.0000     42.2382     73.7057
   595.7500   2000.0000   2000.0000     41.5538     71.5640
   596.0000   2000.0000   2000.0000     41.0689     70.5005
   596.2500   2000.0000   2000.0000     40.7781     71.0011
   596.5000   2000.0000   2000.0000     40.6695     72.6428
   596.7500   2000.0000   2000.0000     40.7090     73.8544
   597.0000   2000.0000   2000.0000     40.8329     75.5719
   597.2500   2000.0000   2000.0000     40.9655     76.7148
   597.5000   2000.0000   2000.0000     41.0592     78.5023
   597.7500   2000.0000   2000.0000     41.1146     79.6534
   598.0000   2000.0000   2000.0000     41.1700     80.9243
   598.2500   2000.0000   2000.0000     41.2755     81.1509
   598.5000   2000.0000   2000.0000     41.4705     80.2086
   598.7500   2000.0000   2000.0000     41.7684     78.8531
   599.0000   2000.0000   2000.0000     42.1494     76.5434
   599.2500   2000.0000   2000.0000     42.5527     75.3813
   599.5000   2000.0000   2000.0000     42.8797     74.7222
   599.7500   2000.0000   2000.0000     43.0094     74.9141
   600.0000   2000.0000   2000.0000     42.8335     75.6964
   600.2500   2000.0000   2000.0000     42.2974     76.4885
   600.5000   2000.0000   2000.0000     41.4193     78.5248
   600.7500   2000.0000   2000.0000     40.2701     80.7097
   601.0000   2000.0000   2000.0000     38.9311     85.1098
   601.2500   2000.0000   2000.0000     37.4644     88.4942
   601.5000   2000.0000   2000.0000     35.9098     94.0869
   601.7500   2000.0000   2000.0000     34.3023     98.4622
   602.0000   2000.0000   2000.0000     32.6923    106.5214
   602.2500   2000.0000   2000.0000     31.1513    112.5682
   602.5000   2000.0000   2000.0000     29.7552    120.8415
   602.7500   2000.0000   2000.0000     28.5527    124.8028
   603.0000   2000.0000   2000.0000     27.5403    128.2340
   603.2500   2000.0000   2000.0000     26.6593    129.5911
   603.5000   2000.0000   2000.0000     25.8216    131.4069
   603.7500   2000.0000   2000.0000     24.9543    132.4833
   604.0000   2000.0000   2000.0000     24.0379    133.2758
   604.2500   2000.0000   2000.0000     23.1081    133.2587
   604.5000   2000.0000   2000.0000     22.2250    133.4534
   604.7500   2000.0000   2000.0000     21.4375    134.4136
   605.0000   2000.0000   2000.0000     20.7693    137.3586
   605.2500   2000.0000   2000.0000     20.2233    139.8904
   605.5000   2000.0000   2000.0000     19.7926    143.3936
   605.7500   2000.0000   2000.0000     19.4660    145.0047
   606.0000   2000.0000   2000.0000     19.2299    146.0510
   606.2500   2000.0000   2000.0000     19.0730    145.9780
   606.5000   2000.0000   2000.0000     18.9933    145.2446
   606.7500   2000.0000   2000.0000     18.9991    144.7352
   607.0000   2000.0000   2000.0000     19.0987    144.3671
   607.2500   2000.0000   2000.0000     19.2853    144.1894
   607.5000   2000.0000   2000.0000     19.5290    143.1503
   607.7500   2000.0000   2000.0000     19.7848    141.6706
   608.0000   2000.0000   2000.0000     20.0102    138.5983
   608.2500   2000.0000   2000.0000     20.1801    136.2674
   608.5000   2000.0000   2000.0000     20.2895    132.4522
   608.7500   2000.0000   2000.0000     20.3422    129.6747
   609.0000   2000.0000   2000.0000     20.3389    125.4835
   609.2500   2000.0000   2000.0000     20.2718    123.1992
   609.5000   2000.0000   2000.0000     20.1314    121.8570
   609.7500   2000.0000   2000.0000     19.9183    122.9899
   610.0000   2000.0000   2000.0000     19.6523    127.7669
   610.2500   2000.0000   2000.0000     19.3675    132.3140
   610.5000   2000.0000   2000.0000     19.0990    139.3767
   610.7500   2000.0000   2000.0000     18.8698    143.2929
   611.0000   2000.0000   2000.0000     18.6882    147.0026
   611.2500   2000.0000   2000.0000     18.5516    147.8954
