~Version Information
VERS.                      2.0: CWLS Log ASCII Standard - VERSION 2.0
WRAP.                       NO: One line per depth step
~Well Information Block
STRT.FT                 5.0000: 
STOP.FT               880.0000: 
STEP.FT                 0.2500: 
NULL.                -999.2500: 
COMP.          Pioneer Natural Resources: COMPANY
WELL.          Bienville 31-28: WELL
FLD.           Purgatoire River: FIELD
LOC.           1212' FNL & 2271' FEL: LOCATION
PROV.                 Colorado: PROVINCE
CNTY.               Las Animas: COUNTRY
SRVC.                Patterson: SERVICE COMPANY
DATE.          Tue Jan 24 11:44:03 2006: LOG DATE
UWI.           05 071 08666 00: UNIQUE WELL ID
~Curve Information Block
DEPT.FT            0 000 00 00: Depth
GR.GAPI                       : Gamma Ray
CCL.                          : Casing Collar Locator
TT3.usec                      : CBL 3' Travel Time
AMP3.mV                       : CBL 3' Amplitude
~Parameter Information Block
~A  Depth        GR         CCL         TT3         AMP3    
# ...
   340.0000    129.9957      0.0000    716.0178      3.1261
   340.2500    129.5232      0.0000    705.5145      2.5783
   340.5000    128.4087      0.0000    713.4318      2.0232
   340.7500    126.4596      0.0000    739.4387      1.5331
   341.0000    123.8860      0.0000    775.5753      1.2032
   341.2500    121.4344      0.0000    809.7907      1.0537
   341.5000    119.9625      0.0000    831.2669      1.0193
   341.7500    120.0323      3.0000    835.1061      1.0271
   342.0000    122.0088      0.0000    823.9034      1.0713
   342.2500    125.8982      0.0000    805.1870      1.2261
   342.5000    130.5394      0.0000    786.6712      1.5723
   342.7500    133.3834      0.0000    772.7474      2.0748
   343.0000    131.8916      0.0000    764.2039      2.5654
   343.2500    125.3748      0.0000    760.2857      2.9048
   343.5000    115.3532      0.0000    760.2238      3.1251
   343.7500    104.4223      0.0000    762.9608      3.3460
   344.0000     95.0443      0.0000    766.9526      3.6062
   344.2500     88.9609      0.0000    770.9904      3.8492
   344.5000     86.9535      0.0000    774.6368      4.0275
   344.7500     88.8322      0.0000    777.6279      4.1604
   345.0000     93.7522      0.0000    779.6484      4.3045
   345.2500    100.7557      0.0000    781.0273      4.4902
   345.5000    109.1939      0.0000    782.8087      4.6763
   345.7500    118.6483      0.0000    785.3074      4.7619
   346.0000    128.4156      0.0000    787.0789      4.6681
   346.2500    137.3224      0.0000    786.1584      4.4125
   346.5000    144.4328      0.0000    782.2657      4.0963
   346.7500    149.9044      0.0000    777.1370      3.8187
   347.0000    154.6928      0.0000    772.8326      3.6160
   347.2500    159.2668      0.0000    770.3278      3.4710
   347.5000    162.9942      0.0000    769.6202      3.3546
   347.7500    164.8731      0.0000    770.3683      3.2503
   348.0000    164.3950      0.0000    771.8978      3.1553
   348.2500    161.4721      0.0000    772.8826      3.0723
   348.5000    156.0435      0.0000    771.9156      3.0028
   348.7500    148.1787      0.0000    768.9871      2.9463
   349.0000    138.2967      0.0000    765.9816      2.9030
   349.2500    126.9536      0.0000    765.0831      2.8773
   349.5000    114.6352      0.0000    766.7963      2.8794
   349.7500    102.0440      0.0000    769.5518      2.9181
   350.0000     90.3618      0.0000    770.6704      2.9878
   350.2500     81.0700      0.0000    767.8984      3.0634
   350.5000     75.7743      0.0000    761.2520      3.1169
   350.7500     76.0961      0.0000    753.8795      3.1396
   351.0000     82.8394      0.0000    750.3881      3.1457
   351.2500     94.6012      0.0000    753.6450      3.1527
   351.5000    107.4721      0.0000    762.9194      3.1650
   351.7500    116.8444      0.0000    774.6902      3.1773
   352.0000    120.0928      0.0000    785.0466      3.1881
   352.2500    117.9127      0.0000    791.7934      3.2013
   352.5000    113.2979      0.0000    794.9063      3.2141
   352.7500    109.2318      0.0000    795.3564      3.2139
   353.0000    107.2274      0.0000    793.8644      3.1944
   353.2500    107.5777      0.0000    790.8339      3.1686
   353.5000    109.9967      0.0000    786.9479      3.1587
   353.7500    113.5895      0.0000    783.3347      3.1768
   354.0000    116.9158      0.0000    780.9631      3.2185
   354.2500    118.7477      0.0000    779.7770      3.2679
   354.5000    118.6208      0.0000    778.6820      3.3063
   354.7500    116.5820      0.0000    776.7365      3.3242
   355.0000    112.7912      0.0000    774.1984      3.3284
   355.2500    107.5683      0.0000    772.2122      3.3383
   355.5000    101.6036      0.0000    771.8869      3.3716
   355.7500     95.8563      0.0000    773.9714      3.4321
   356.0000     91.0865      0.0000    778.8736      3.5092
   356.2500     87.5385      0.0000    786.2657      3.5881
   356.5000     85.2214      0.0000    794.7086      3.6620
   356.7500     84.3904      0.0000    802.2136      3.7330
   357.0000     85.4381      0.0000    807.4626      3.8017
   357.2500     88.2328      0.0000    810.3966      3.8628
   357.5000     91.6930      0.0000    811.7448      3.9109
   357.7500     94.2256      0.0000    812.2603      3.9454
   358.0000     94.7646      0.0000    812.3882      3.9676
   358.2500     93.4952      0.0000    812.3323      3.9794
   358.5000     91.6952      0.0000    812.2028      3.9854
   358.7500     90.8820      0.0000    812.0814      3.9915
   359.0000     91.6772      0.0000    812.0101      3.9983
   359.2500     93.0728      0.0000    811.9315      4.0006
   359.5000     93.1219      0.0000    811.5983      3.9923
   359.7500     90.9380      0.0000    810.4809      3.9725
   360.0000     87.9008      0.0000    807.8312      3.9438
   360.2500     86.5029      0.0000    803.1640      3.9081
   360.5000     88.1978      0.0000    796.9833      3.8681
   360.7500     92.6113      0.0000    790.8408      3.8339
   361.0000     98.3634      0.0000    786.2587      3.8232
   361.2500    103.9920      0.0000    783.6134      3.8482
   361.5000    108.2475      0.0000    782.2056      3.8998
   361.7500    110.3754      0.0000    781.0067      3.9500
   362.0000    110.6410      0.0000    779.1503      3.9726
   362.2500    110.3265      0.0000    776.3181      3.9594
   362.5000    110.8346      0.0000    773.0112      3.9170
   362.7500    112.8973      0.0000    770.1141      3.8517
   363.0000    116.6226      0.0000    768.0190      3.7614
   363.2500    121.6629      0.0000    766.1772      3.6397
   363.5000    126.9386      0.0000    763.2175      3.4861
   363.7500    130.7329      0.0000    757.3526      3.3161
   364.0000    131.7365      0.0000    747.3181      3.1611
   364.2500    130.0318      0.0000    733.6332      3.0537
   364.5000    126.8805      0.0000    718.6567      3.0092
   364.7500    123.8506      0.0000    704.8610      3.0207
   365.0000    122.3429      0.0000    693.7690      3.0689
   365.2500    123.2574      0.0000    687.3192      3.1326
   365.5000    126.1984      0.0000    688.7990      3.1942
   365.7500    129.1026      0.0000    700.5169      3.2418
   366.0000    129.6045      0.0000    720.8923      3.2698
   366.2500    127.2472      0.0000    744.8510      3.2800
   366.5000    123.8856      0.0000    766.7093      3.2779
   366.7500    121.6433      0.0000    782.4025      3.2656
   367.0000    121.1199      0.0000    790.2734      3.2410
   367.2500    122.1179      0.0000    791.2099      3.2034
   367.5000    125.3042      0.0000    787.8431      3.1608
   367.7500    131.9160      0.0000    782.4962      3.1307
   368.0000    141.8850      0.0000    775.6738      3.1313
   368.2500    153.1046      0.0000    767.0433      3.1706
   368.5000    162.6848      0.0000    757.7471      3.2408
   368.7500    168.4990      0.0000    750.8444      3.3230
   369.0000    169.5917      0.0000    748.9991      3.3975
   369.2500    165.7354      0.0000    752.0818      3.4533
   369.5000    157.0915      0.0000    757.4258      3.4897
   369.7500    144.4004      0.0000    762.2057      3.5132
   370.0000    129.2897      0.0000    765.2068      3.5324
   370.2500    114.0753      0.0000    766.6755      3.5526
   370.5000    101.0829      0.0000    767.2609      3.5726
   370.7500     91.9509      0.0000    767.3628      3.5863
   371.0000     87.2183      0.0000    767.1431      3.5935
   371.2500     86.3800      0.0000    766.7503      3.6069
   371.5000     88.4586      0.0000    766.3975      3.6433
   371.7500     92.6817      0.0000    766.2510      3.7055
   372.0000     98.7018      0.0000    766.2783      3.7798
   372.2500    106.3141      0.0000    766.1639      3.8479
   372.5000    115.0631      0.0000    765.2650      3.8975
   372.7500    123.9487      0.0000    762.6592      3.9216
   373.0000    131.4832      0.0000    757.5239      3.9125
   373.2500    136.4109      0.0000    749.8710      3.8574
