~Version Information
VERS.                      2.0: CWLS Log ASCII Standard - VERSION 2.0
WRAP.                       NO: One line per depth step
~Well Information Block
STRT.FT               240.0000: 
STOP.FT              1342.0000: 
STEP.FT                 0.1000: 
NULL.                -999.2500: 
COMP.          Pioneer Natural Resources: COMPANY
WELL.          Lorencito 9-4-34-66: WELL
FLD.           Purgatoire River: FIELD
LOC.           2540' FSL & 438' FEL: LOCATION
STAT.                 Colorado: State
CNTY.               Las Animas: COUNTY
CTRY. USA : Country
SECT. 4 : Section
TOWN. 34S : Township
RANG. 68W : range
SRVC.                Patterson: SERVICE COMPANY
DATE.          Thu Sep 15 13:16:59 2005: LOG DATE
API.           05 071 08498 00: UNIQUE WELL ID
~Curve Information Block
DEPT.FT            0 000 00 00: Depth
DCAL.in                       : CDL Caliper
RHOB.g/cc                     : CDL Bulk Density
RHOC.g/cc                     : CDL Density Correction
DPOR.pu                       : CDL Density Porosity
GR.GAPI                       : Gamma Ray
NPOR.pu                       : Neutron Porosity
~Parameter Information Block
~A  Depth       DCAL        RHOB        RHOC        DPOR         GR         NPOR    
   240.0000      5.0179     -0.1689     -0.7061    170.8423     85.8142     25.7983
   240.1000      5.0179     -0.1884     -0.7487    172.0233     86.8876     26.3835
   240.2000      5.0179     -0.2001     -0.7956    172.7323     89.2840     27.0546
   240.3000      5.0258     -0.1939     -0.7327    172.3566     93.2918     27.7660
   240.4000      5.0258     -0.1764     -0.7483    171.2993     96.4116     28.0634
   240.5000      5.0228     -0.1537     -0.7101    169.9239     97.5899     27.6446
   240.6000      5.0228     -0.1342     -0.6762    168.7364     98.1773     26.5836
   240.7000      5.0228     -0.1330     -0.6515    168.6641    102.8683     25.3048
   240.8000      5.0144     -0.1497     -0.7344    169.6772    114.8001     24.2827
   240.9000      5.0144     -0.1645     -0.7326    170.5727    128.8235     23.6813
   241.0000      5.0275     -0.1680     -0.7044    170.7877    135.5388     23.4494
   241.1000      5.0275     -0.1661     -0.7277    170.6718    132.7220     23.6519
   241.2000      5.0275     -0.1654     -0.7017    170.6311    128.1575     24.2820
   241.3000      5.0336     -0.1702     -0.7297    170.9200    126.9767     25.2444
   241.4000      5.0336     -0.1770     -0.7544    171.3313    129.0316     26.2074
   241.5000      5.0175     -0.1831     -0.7158    171.7045    134.8708     26.2529
   241.6000      5.0175     -0.1949     -0.7378    172.4162    137.6675     25.3965
   241.7000      5.0175     -0.2124     -0.7761    173.4813    131.8948     24.6715
   241.8000      4.9943     -0.2253     -0.8029    174.2623    123.1813     24.4060
   241.9000      4.9943     -0.2235     -0.7972    174.1499    118.4871     24.3688
   242.0000      5.0179     -0.2072     -0.7720    173.1660    118.9083     24.3045
   242.1000      5.0179     -0.1918     -0.6975    172.2275    119.5531     24.3980
   242.2000      5.0179     -0.1901     -0.7552    172.1249    118.6764     24.4338
   242.3000      5.0297     -0.1960     -0.7563    172.4875    122.4283     23.6123
   242.4000      5.0297     -0.1996     -0.7714    172.7010    130.9086     22.7573
   242.5000      5.0258     -0.1958     -0.7734    172.4701    135.0191     23.0307
   242.6000      5.0258     -0.1860     -0.7369    171.8779    129.8783     23.9199
   242.7000      5.0258     -0.1814     -0.7266    171.6020    120.3178     24.6551
   242.8000      5.0188     -0.1894     -0.7214    172.0843    116.6005     25.1336
   242.9000      5.0188     -0.2003     -0.7820    172.7479    120.3185     25.5403
   243.0000      5.0180     -0.2018     -0.7594    172.8393    123.3733     25.7473
   243.1000      5.0180     -0.1968     -0.7401    172.5322    122.2990     25.2125
   243.2000      5.0180     -0.1933     -0.7469    172.3239    119.4012     24.1102
   243.3000      5.0166     -0.1910     -0.7496    172.1830    117.4901     23.4737
   243.4000      5.0166     -0.1864     -0.7367    171.9022    117.8669     23.8758
   243.5000      5.0236     -0.1811     -0.7242    171.5823    121.0802     24.7526
   243.6000      5.0236     -0.1761     -0.7447    171.2780    126.1829     25.0431
   243.7000      5.0236     -0.1699     -0.7129    170.9059    128.5407     25.0493
   243.8000      5.0289     -0.1618     -0.7342    170.4095    122.8119     25.8376
   243.9000      5.0289     -0.1485     -0.7376    169.6055    112.0157     26.9188
   244.0000      5.0246     -0.1376     -0.6566    168.9459    105.2019     26.7970
   244.1000      5.0246     -0.1417     -0.7189    169.1948    101.0585     25.5113
   244.2000      5.0246     -0.1575     -0.7190    170.1507     94.0960     24.7195
   244.3000      5.0287     -0.1715     -0.7480    171.0019     85.4567     25.3027
   244.4000      5.0287     -0.1698     -0.7766    170.8991     75.9198     26.6304
   244.5000      5.0256     -0.1553     -0.7028    170.0169     66.1860     27.6830
   244.6000      5.0256     -0.1524     -0.6593    169.8448     61.2158     27.9233
   244.7000      5.0256     -0.1655     -0.7833    170.6349     62.7888     27.3906
   244.8000      5.0173     -0.1712     -0.7299    170.9848     64.0259     26.8425
   244.9000      5.0173     -0.1634     -0.7273    170.5102     60.9901     26.4053
   245.0000      5.0344     -0.1545     -0.6984    169.9693     59.8949     25.7683
   245.1000      5.0344     -0.1554     -0.7124    170.0238     65.3313     25.5973
   245.2000      5.0344     -0.1702     -0.7040    170.9233     72.8543     25.8815
   245.3000      5.0220     -0.1902     -0.7900    172.1317     78.4600     25.9790
   245.4000      5.0220     -0.2004     -0.7736    172.7527     81.3486     25.9955
   245.5000      5.0229     -0.2067     -0.7135    173.1341     80.3487     25.6615
   245.6000      5.0229     -0.2199     -0.8188    173.9305     78.5998     24.6838
   245.7000      5.0229     -0.2301     -0.8127    174.5526     82.3649     24.1790
   245.8000      5.0325     -0.2333     -0.7463    174.7438     92.9152     25.3452
   245.9000      5.0325     -0.2333     -0.8234    174.7473    104.7583     27.4620
   246.0000      5.0393     -0.2244     -0.8017    174.2087    111.3278     28.5953
   246.1000      5.0393     -0.2080     -0.7445    173.2102    113.6919     28.0624
   246.2000      5.0393     -0.1947     -0.7556    172.4089    118.2000     27.1615
   246.3000      5.0320     -0.1881     -0.7234    172.0051    121.2516     26.6939
   246.4000      5.0320     -0.1813     -0.8004    171.5922    120.6981     26.5134
   246.5000      5.0171     -0.1684     -0.6911    170.8130    124.5911     26.8958
   246.6000      5.0171     -0.1538     -0.7335    169.9248    133.5752     27.2383
   246.7000      5.0171     -0.1423     -0.6619    169.2298    142.8215     26.9325
   246.8000      5.0287     -0.1328     -0.7344    168.6557    147.4274     26.7034
   246.9000      5.0287     -0.1226     -0.6538    168.0375    143.4460     26.6350
   247.0000      5.0285     -0.1173     -0.6640    167.7149    139.4070     26.2981
   247.1000      5.0285     -0.1175     -0.6840    167.7253    139.6000     25.8466
   247.2000      5.0285     -0.1172     -0.6859    167.7076    136.7162     25.3380
   247.3000      5.0307     -0.1232     -0.6410    168.0710    127.9728     24.8061
   247.4000      5.0307     -0.1419     -0.7039    169.2060    119.0192     24.6610
   247.5000      5.0382     -0.1584     -0.7606    170.2063    118.6608     25.4438
   247.6000      5.0382     -0.1607     -0.7024    170.3461    124.4025     26.5483
   247.7000      5.0382     -0.1591     -0.7152    170.2495    122.3214     26.7665
   247.8000      5.0311     -0.1652     -0.7089    170.6209    109.8380     26.2064
   247.9000      5.0311     -0.1808     -0.7247    171.5609     97.2378     25.1299
   248.0000      5.0310     -0.1997     -0.7610    172.7084     91.9961     23.6854
   248.1000      5.0310     -0.2121     -0.7696    173.4606     93.9624     23.2008
   248.2000      5.0310     -0.2104     -0.7956    173.3563     97.1789     24.3133
   248.3000      5.0282     -0.1957     -0.7425    172.4640     98.9501     25.7200
   248.4000      5.0282     -0.1781     -0.7339    171.4022    101.4021     26.0903
   248.5000      5.0246     -0.1646     -0.7476    170.5836    104.0200     25.2362
   248.6000      5.0246     -0.1567     -0.7005    170.1057    107.0204     24.6100
   248.7000      5.0246     -0.1544     -0.7364    169.9625    112.5775     25.4022
   248.8000      5.0085     -0.1520     -0.7205    169.8162    123.1878     26.1420
   248.9000      5.0085     -0.1456     -0.7337    169.4315    138.5604     25.4248
   249.0000      5.0144     -0.1398     -0.6941    169.0801    153.0147     24.6081
   249.1000      5.0144     -0.1399     -0.7132    169.0826    158.3358     24.8657
   249.2000      5.0144     -0.1373     -0.7396    168.9279    150.9954     25.2449
   249.3000      5.0232     -0.1214     -0.7250    167.9640    141.9990     25.0935
   249.4000      5.0232     -0.1053     -0.6280    166.9901    140.6947     24.9936
   249.5000      5.0239     -0.1087     -0.6899    167.1947    141.9343     24.9762
