~Version Information
VERS.                      2.0: CWLS Log ASCII Standard - VERSION 2.0
WRAP.                       NO: One line per depth step
~Well Information Block
STRT.FT                -6.7500: 
STOP.FT              2027.0000: 
STEP.FT                 0.2500: 
NULL.                -999.2500: 
COMP.          Pioneer Natural Resources: COMPANY
WELL.             Fleming 11-2: WELL
FLD.           Purgatorie River: FIELD
LOC.           534' FNL & 160' FWL--: LOCATION
CNTY.               Las Animas: COUNTY
SRVC.          Patterson Wireline: SERVICE COMPANY
DATE.          Thu Jul 13 10:28:00 2006: LOG DATE
UWI.           05 071 08491 00: UNIQUE WELL ID
STAT.                       CO: STATE
~Curve Information Block
DEPT.FT            0 000 00 00: Depth
CCL.                          : Casing Collar Locator
TT3.usec                      : CBL 3' Travel Time
AMP3.mV                       : CBL 3' Amplitude
GR.GAPI                       : Gamma Ray
~Parameter Information Block
~A  Depth       CCL         TT3         AMP3         GR     
# ...
   395.2500      0.0000    709.6890      4.2952     64.5722
   395.5000      0.0000    707.5676      4.2438     68.5783
   395.7500      0.0000    703.4857      4.1841     73.6703
   396.0000      0.0000    698.2814      4.1264     79.2379
   396.2500      0.0000    693.0153      4.0771     84.9543
   396.5000      0.0000    689.0944      4.0380     90.8279
   396.7500      0.0000    688.0839      4.0088     96.9722
   397.0000      0.0000    691.1807      3.9887    103.3922
   397.2500      0.0000    698.7961      3.9764    109.5563
   397.5000      0.0000    710.2014      3.9701    113.9307
   397.7500      0.0000    722.8516      3.9683    114.4015
   398.0000      0.0000    732.4823      3.9706    109.9602
   398.2500      0.0000    735.4839      3.9773    102.2251
   398.5000      0.0000    731.8319      3.9901     94.7953
   398.7500      0.0000    725.0010      4.0115     90.6614
   399.0000      0.0000    718.8610      4.0444     90.4139
   399.2500      0.0000    715.1628      4.0880     92.9188
   399.5000      0.0000    713.6024      4.1354     96.8596
   399.7500      0.0000    713.1802      4.1757    101.1501
   400.0000      0.0000    713.1197      4.2010    104.6415
   400.2500      0.0000    713.0205      4.2095    106.3234
   400.5000      0.0000    712.6318      4.2041    105.7127
   400.7500      0.0000    711.5549      4.1899    102.9081
   401.0000      0.0000    709.0088      4.1725     98.6836
   401.2500      0.0000    703.9007      4.1547     94.5767
   401.5000      0.0000    695.6893      4.1340     92.2112
   401.7500      0.0000    685.8311      4.1055     92.1895
   402.0000      0.0000    678.0824      4.0683     93.6872
   402.2500      0.0000    676.2785      4.0281     95.0499
   402.5000      0.0000    681.3062      3.9954     94.8422
   402.7500      0.0000    690.3672      3.9805     92.7644
   403.0000      0.0000    698.9002      3.9887     89.9905
   403.2500      0.0000    703.3616      4.0186     88.6663
   403.5000      0.0000    703.5182      4.0652     90.5383
   403.7500      0.0000    702.7567      4.1219     95.2882
   404.0000      0.0000    705.1680      4.1816    100.1966
   404.2500      0.0000    711.5986      4.2355    102.1899
   404.5000      0.0000    718.8683      4.2765    100.4774
   404.7500      0.0000    722.6905      4.3031     96.7076
   405.0000      0.0000    720.8127      4.3206     92.5135
   405.2500      0.0000    713.9311      4.3347     87.7302
   405.5000      0.0000    704.7770      4.3447     81.5376
   405.7500      0.0000    696.4387      4.3478     74.8174
   406.0000      0.0000    690.8110      4.3559     70.4346
   406.2500      0.0000    687.9465      4.4017     70.9464
   406.5000      0.0000    686.4173      4.5094     76.2706
   406.7500      0.0000    684.3624      4.6480     83.6304
   407.0000      0.0000    681.2152      4.7364     89.5838
   407.2500      0.0000    679.3536      4.7177     92.2052
   407.5000      0.0000    683.3992      4.6166     91.6835
   407.7500      0.0000    696.3016      4.5047     89.2802
   408.0000      2.0000    715.6502      4.4273     86.1806
   408.2500     -2.0000    734.4517      4.3821     83.3217
   408.5000      0.0000    745.5693      4.3500     81.5120
   408.7500      0.0000    745.3539      4.3270     80.8576
   409.0000      0.0000    734.4406      4.3273     80.2529
   409.2500      0.0000    716.9102      4.3603     78.3589
   409.5000      0.0000    698.4332      4.4047     75.2087
   409.7500      0.0000    683.5508      4.4184     72.1426
   410.0000      0.0000    674.0018      4.3850     70.1887
   410.2500      0.0000    669.2742      4.3364     69.2975
   410.5000      0.0000    668.0644      4.3203     69.2321
   410.7500      0.0000    669.3621      4.3559     70.3849
   411.0000      0.0000    673.0367      4.4282     73.2542
   411.2500      0.0000    679.5920      4.5079     77.4043
   411.5000      0.0000    688.8904      4.5696     81.2576
   411.7500      0.0000    699.0075      4.6003     83.0269
   412.0000      0.0000    706.8942      4.6005     81.9372
   412.2500      0.0000    710.8834      4.5805     78.6859
   412.5000      0.0000    712.5480      4.5531     75.0253
   412.7500      0.0000    715.2791      4.5294     73.0056
   413.0000      0.0000    720.4557      4.5193     73.9545
   413.2500      0.0000    725.4954      4.5307     77.4731
   413.5000      0.0000    726.2694      4.5657     81.5500
   413.7500      0.0000    721.1451      4.6178     84.2409
   414.0000      0.0000    712.2573      4.6715     85.2326
   414.2500      0.0000    703.2803      4.7066     85.5781
   414.5000      0.0000    696.6650      4.7074     86.2638
   414.7500      0.0000    692.7933      4.6747     87.5098
   415.0000      0.0000    690.8481      4.6296     89.2347
   415.2500      0.0000    689.9040      4.6008     91.4505
   415.5000      0.0000    689.3987      4.6050     93.8824
   415.7500      0.0000    689.1024      4.6370     95.5817
   416.0000      0.0000    688.9366      4.6766     95.3839
   416.2500      0.0000    688.8654      4.7045     92.9167
   416.5000      0.0000    688.8627      4.7124     89.0972
   416.7500      0.0000    688.9149      4.7039     85.6294
   417.0000      0.0000    689.0096      4.6880     84.0532
   417.2500      0.0000    689.1293      4.6715     85.1288
   417.5000      0.0000    689.2476      4.6570     88.5325
   417.7500      0.0000    689.3134      4.6485     92.7552
   418.0000      0.0000    689.2394      4.6553     95.7209
   418.2500      0.0000    688.9377      4.6856     96.1775
   418.5000      0.0000    688.3365      4.7345     94.4222
   418.7500      0.0000    687.2664      4.7838     91.4325
   419.0000      0.0000    685.1812      4.8140     87.8050
   419.2500      0.0000    680.9592      4.8167     83.9759
   419.5000      0.0000    673.1627      4.7961     80.8325
   419.7500      0.0000    660.8884      4.7654     79.2701
   420.0000      0.0000    644.6511      4.7381     79.3564
   420.2500      0.0000    626.5712      4.7202     80.5483
   420.5000      0.0000    609.8303      4.7064     82.5981
   420.7500      0.0000    597.8357      4.6900     85.6804
   421.0000      0.0000    593.1962      4.6731     89.6262
   421.2500      0.0000    596.6309      4.6646     93.6092
   421.5000      0.0000    606.6428      4.6681     96.6475
   421.7500      0.0000    620.5399      4.6766     97.9263
   422.0000      0.0000    635.9058      4.6792     96.7432
   422.2500      0.0000    651.0649      4.6697     92.9345
   422.5000      0.0000    664.5368      4.6494     87.5993
   422.7500      0.0000    674.8524      4.6231     82.8111
   423.0000      0.0000    681.2347      4.5941     80.2024
   423.2500      0.0000    684.1055      4.5631     79.8903
   423.5000      0.0000    684.6667      4.5320     80.7704
   423.7500      0.0000    684.1517      4.5066     81.7253
   424.0000      0.0000    683.4664      4.4917     82.5389
   424.2500      0.0000    683.1832      4.4856     83.7477
   424.5000      0.0000    683.5428      4.4815     85.6424
   424.7500      0.0000    684.4221      4.4744     87.5103
   425.0000      0.0000    685.4066      4.4643     87.9928
   425.2500      0.0000    686.0175      4.4541     86.2776
   425.5000      0.0000    685.9836      4.4466     82.9572
   425.7500      0.0000    685.3638      4.4420     79.7710
   426.0000      0.0000    684.4523      4.4366     78.4227
   426.2500      0.0000    683.5071      4.4254     79.4853
   426.5000      0.0000    682.4454      4.4087     82.2932
   426.7500      0.0000    680.6571      4.3935     85.6079
   427.0000      0.0000    677.2947      4.3868     88.2491
   427.2500      0.0000    672.2918      4.3893     89.3509
   427.5000      0.0000    667.3173      4.3976     88.4033
   427.7500      0.0000    664.9498      4.4087     85.2791
   428.0000      0.0000    666.0493      4.4222     80.4169
   428.2500      0.0000    668.3620      4.4393     75.0020
   428.5000      0.0000    668.6581      4.4594     70.5125
