~Version Information
VERS.                      2.0: CWLS Log ASCII Standard - VERSION 2.0
WRAP.                       NO: One line per depth step
~Well Information Block
STRT.FT               530.7500: 
STOP.FT              1325.2500: 
STEP.FT                 0.2500: 
NULL.                -999.2500: 
COMP.          Pioneer Natural Resources: COMPANY
WELL.            Erin 21-15 Tr: WELL
FLD.           Purgatoire River: FIELD
LOC.           1217' FNL & 2284' FWL--: LOCATION
CNTY.               Las Animas: COUNTY
SRVC.                Patterson: SERVICE COMPANY
DATE.          Fri Mar 03 23:07:06 2006: LOG DATE
UWI.           05 071 08712 00: UNIQUE WELL ID
STAT.                 Colorado: STATE
~Curve Information Block
DEPT.FT            0 000 00 00: Depth
SN.Ohm-m                      : IEL Short Normal
SP.mV                         : IEL Spontaneous Potential
DIR.Ohm-m                     : IEL Induction Resistivity
GR.GAPI                       : Gamma Ray
~Parameter Information Block
~A  Depth        SN          SP         DIR          GR     
# ...
   564.2500   2000.0000   2025.0000 100000.0000     76.0721
   564.5000   2000.0000   2025.0000 100000.0000     84.9669
   564.7500   2000.0000   2025.0000 100000.0000     91.3611
   565.0000   2000.0000   2025.0000 100000.0000    101.2428
   565.2500   2000.0000   2025.0000 100000.0000    107.6455
   565.5000   2000.0000   2025.0000 100000.0000    115.1268
   565.7500   2000.0000   2025.0000 100000.0000    117.0645
   566.0000   2000.0000   2025.0000 100000.0000    113.7465
   566.2500   2000.0000   2025.0000 100000.0000    108.1754
   566.5000   2000.0000   2025.0000 100000.0000     98.5732
   566.7500   2000.0000   2025.0000 100000.0000     93.5127
   567.0000   2000.0000   2025.0000 100000.0000     89.4821
   567.2500   2000.0000   2025.0000 100000.0000     88.8568
   567.5000   2000.0000   2025.0000 100000.0000     89.6803
   567.7500   2000.0000   2025.0000 100000.0000     90.6483
   568.0000   2000.0000   2025.0000 100000.0000     91.7110
   568.2500   2000.0000   2025.0000 100000.0000     91.8086
   568.5000   2000.0000   2025.0000 100000.0000     91.0112
   568.7500   2000.0000   2025.0000 100000.0000     90.1852
   569.0000   2000.0000   2025.0000 100000.0000     89.5468
   569.2500   2000.0000   2025.0000 100000.0000     90.1432
   569.5000   2000.0000   2025.0000 100000.0000     92.6747
   569.7500   2000.0000   2025.0000 100000.0000     94.6417
   570.0000   2000.0000   2025.0000 100000.0000     95.9888
   570.2500   2000.0000   2025.0000 100000.0000     95.1630
   570.5000   2000.0000   2025.0000 100000.0000     91.8069
   570.7500   2000.0000   2025.0000 100000.0000     89.0108
   571.0000   2000.0000   2025.0000      8.2787     85.6813
   571.2500   2000.0000   2025.0000      3.9250     85.0479
   571.5000   2000.0000   2025.0000      3.1893     87.6870
   571.7500   2000.0000   2025.0000      3.5430     91.4908
   572.0000   2000.0000   2025.0000      5.3225     97.0121
   572.2500   2000.0000   2025.0000     13.1764     97.9759
   572.5000   2000.0000   2025.0000 100000.0000     93.1395
   572.7500   2000.0000   2025.0000 100000.0000     86.7977
   573.0000   2000.0000   2025.0000 100000.0000     76.6893
   573.2500   2000.0000   2025.0000 100000.0000     71.3412
   573.5000   2000.0000   2025.0000 100000.0000     65.8686
   573.7500   2000.0000   2025.0000 100000.0000     63.2515
   574.0000   2000.0000   2025.0000     26.9215     59.8201
   574.2500   2000.0000   2025.0000     14.9683     57.6757
   574.5000   2000.0000   2025.0000     12.0064     54.8112
   574.7500   2000.0000   2025.0000     11.3400     53.2330
   575.0000   2000.0000   2025.0000     11.7150     51.4701
   575.2500   2000.0000   2025.0000     12.6736     50.8933
   575.5000   2000.0000   2025.0000     13.8801     51.8254
   575.7500   2000.0000   2025.0000     14.9499     54.4046
   576.0000   2000.0000   2025.0000     15.5156     62.1460
   576.2500   2000.0000   2025.0000     15.4664     69.8738
   576.5000   2000.0000   2025.0000     15.0525     84.3536
   576.7500   2000.0000   2025.0000     14.6735     95.0562
   577.0000   2000.0000   2025.0000     14.6109    110.9525
   577.2500   2000.0000   2025.0000     14.9077    120.4519
   577.5000   2000.0000   2025.0000     15.3314    131.8862
   577.7500   2000.0000   2025.0000     15.4390    137.4891
   578.0000   2000.0000   2025.0000     14.8895    143.2438
   578.2500   2000.0000   2025.0000     13.7806    145.4371
   578.5000   2000.0000   2025.0000     12.5184    145.7491
   578.7500   2000.0000   2025.0000     11.4433    143.3999
   579.0000   2000.0000   2025.0000     10.6961    135.3228
   579.2500   2000.0000   2025.0000     10.2850    126.9359
   579.5000   2000.0000   2025.0000     10.1610    110.9218
   579.7500   2000.0000   2025.0000     10.2485     99.1914
   580.0000   2000.0000   2025.0000     10.4543     82.8508
   580.2500   2000.0000   2025.0000     10.6782     74.3850
   580.5000   2000.0000   2025.0000     10.8329     67.0024
   580.7500   2000.0000   2025.0000     10.8612     65.8069
   581.0000   2000.0000   2025.0000     10.7396     68.8465
   581.2500   2000.0000   2025.0000     10.4714     73.2787
   581.5000   2000.0000   2025.0000     10.0797     82.0135
   581.7500   2000.0000   2025.0000      9.6024     88.5246
   582.0000   2000.0000   2025.0000      9.0845     98.6050
   582.2500   2000.0000   2025.0000      8.5700    105.2431
   582.5000   2000.0000   2025.0000      8.0940    114.3613
   582.7500   2000.0000   2025.0000      7.6795    119.2819
   583.0000   2000.0000   2025.0000      7.3372    124.1832
   583.2500   2000.0000   2025.0000      7.0691    125.9797
   583.5000   2000.0000   2025.0000      6.8712    127.7266
   583.7500   2000.0000   2025.0000      6.7371    128.8687
   584.0000   2000.0000   2025.0000      6.6602    130.4645
   584.2500   2000.0000   2025.0000      6.6356    131.0689
   584.5000   2000.0000   2025.0000      6.6610    131.2132
   584.7500   2000.0000   2025.0000      6.7360    131.0972
   585.0000   2000.0000   2025.0000      6.8612    130.5881
   585.2500   2000.0000   2025.0000      7.0361    129.4665
   585.5000   2000.0000   2025.0000      7.2578    125.7256
   585.7500   2000.0000   2025.0000      7.5212    122.0631
   586.0000   2000.0000   2025.0000      7.8201    116.3757
   586.2500   2000.0000   2025.0000      8.1490    113.3956
   586.5000   2000.0000   2025.0000      8.5031    110.7725
   586.7500   2000.0000   2025.0000      8.8767    110.1136
   587.0000   2000.0000   2025.0000      9.2606    110.3377
   587.2500   2000.0000   2025.0000      9.6405    111.0518
   587.5000   2000.0000   2025.0000      9.9992    112.3128
   587.7500   2000.0000   2025.0000     10.3222    112.8227
   588.0000   2000.0000   2025.0000     10.6014    112.6648
   588.2500   2000.0000   2025.0000     10.8350    111.9376
   588.5000   2000.0000   2025.0000     11.0242    109.9517
   588.7500   2000.0000   2025.0000     11.1689    108.0164
   589.0000   2000.0000   2025.0000     11.2659    104.4025
   589.2500   2000.0000   2025.0000     11.3109    101.8596
   589.5000   2000.0000   2025.0000     11.3020     98.7334
   589.7500   2000.0000   2025.0000     11.2434     97.7556
   590.0000   2000.0000   2025.0000     11.1450     98.8575
   590.2500   2000.0000   2025.0000     11.0198    101.2817
   590.5000   2000.0000   2025.0000     10.8791    106.2278
   590.7500   2000.0000   2025.0000     10.7282    109.4545
   591.0000   2000.0000   2025.0000     10.5645    113.2967
   591.2500   2000.0000   2025.0000     10.3796    115.2438
   591.5000   2000.0000   2025.0000     10.1655    117.7321
   591.7500   2000.0000   2025.0000      9.9215    119.3245
   592.0000   2000.0000   2025.0000      9.6581    121.8862
   592.2500   2000.0000   2025.0000      9.3949    123.8169
   592.5000   2000.0000   2025.0000      9.1553    126.7439
   592.7500   2000.0000   2025.0000      8.9609    128.1923
   593.0000   2000.0000   2025.0000      8.8272    128.8048
   593.2500   2000.0000   2025.0000      8.7615    128.1248
   593.5000   2000.0000   2025.0000      8.7613    126.0355
   593.7500   2000.0000   2025.0000      8.8156    124.3718
   594.0000   2000.0000   2025.0000      8.9070    122.0601
   594.2500   2000.0000   2025.0000      9.0157    120.7442
   594.5000   2000.0000   2025.0000      9.1242    118.8399
   594.7500   2000.0000   2025.0000      9.2218    117.4576
   595.0000   2000.0000   2025.0000      9.3063    115.6027
   595.2500   2000.0000   2025.0000      9.3838    115.1209
   595.5000   2000.0000   2025.0000      9.4655    116.1956
   595.7500   2000.0000   2025.0000      9.5628    117.7105
   596.0000   2000.0000   2025.0000      9.6820    119.4115
   596.2500   2000.0000   2025.0000      9.8210    119.2999
   596.5000   2000.0000   2025.0000      9.9689    117.0621
   596.7500   2000.0000   2025.0000     10.1110    114.5788
   597.0000   2000.0000   2025.0000     10.2363    110.0275
   597.2500   2000.0000   2025.0000     10.3430    106.8501
   597.5000   2000.0000   2025.0000     10.4410    103.1016
