~Version Information
VERS.                      2.0: CWLS Log ASCII Standard - VERSION 2.0
WRAP.                       NO: One line per depth step
~Well Information Block
STRT.FT                -8.0000: 
STOP.FT              2135.0000: 
STEP.FT                 0.2500: 
NULL.                -999.2500: 
COMP.          Pioneer Natural Resources: COMPANY
WELL.             AMX 13-13 Tr: WELL
FLD.           Purgatorie River: FIELD
LOC.           2401' FSL & 895' FWL--: LOCATION
PROV.                       CO: PROVINCE
CNTY.               Las Animas: COUNTRY
SRVC.          Patterson Wireline: SERVICE COMPANY
DATE.          Thu Jan 05 10:37:28 2006: LOG DATE
UWI.           05 071 08631 00: UNIQUE WELL ID
~Curve Information Block
DEPT.FT            0 000 00 00: Depth
CCL.                          : Casing Collar Locator
TT3.usec                      : CBL 3' Travel Time
AMP3.mV                       : CBL 3' Amplitude
GR.GAPI                       : Gamma Ray
~Parameter Information Block
~A  Depth       CCL         TT3         AMP3         GR     
# ...
  1667.0000      0.0000    653.4075      4.0465     97.7906
  1667.2500      0.0000    662.5328      4.1157    102.3933
  1667.5000      0.0000    669.7889      4.1819    107.7938
  1667.7500      0.0000    669.8670      4.2270    111.7711
  1668.0000      0.0000    661.8764      4.2373    114.2684
  1668.2500      0.0000    648.0517      4.2058    116.7768
  1668.5000      0.0000    631.2314      4.1358    120.3959
  1668.7500      0.0000    615.2422      4.0433    125.1313
  1669.0000      0.0000    606.3232      3.9551    130.3354
  1669.2500      0.0000    609.6309      3.8994    135.0610
  1669.5000      0.0000    622.7588      3.8960    138.1345
  1669.7500      0.0000    636.3366      3.9471    138.3525
  1670.0000      0.0000    643.3764      4.0334    135.2652
  1670.2500      0.0000    645.9179      4.1199    130.2166
  1670.5000      0.0000    650.8869      4.1715    126.1414
  1670.7500      0.0000    661.4633      4.1700    125.4835
  1671.0000      0.0000    674.5229      4.1223    128.2740
  1671.2500      0.0000    685.1352      4.0525    132.6304
  1671.5000      0.0000    691.1260      3.9854    136.6809
  1671.7500      0.0000    693.4207      3.9328    139.6031
  1672.0000      0.0000    693.9299      3.8958    141.5540
  1672.2500      0.0000    693.9697      3.8736    143.2977
  1672.5000      0.0000    694.0044      3.8697    145.6201
  1672.7500      0.0000    694.0154      3.8850    148.6749
  1673.0000      0.0000    693.8632      3.9093    151.7672
  1673.2500      0.0000    693.4056      3.9210    153.6518
  1673.5000      0.0000    692.4446      3.8994    153.2032
  1673.7500      0.0000    690.7164      3.8383    149.9627
  1674.0000      0.0000    688.1248      3.7493    144.0044
  1674.2500      0.0000    685.1794      3.6512    135.4983
  1674.5000      0.0000    683.0685      3.5563    124.7559
  1674.7500      0.0000    682.8713      3.4655    112.3721
  1675.0000      0.0000    684.5364      3.3749     98.8654
  1675.2500      0.0000    686.8735      3.2851     84.4252
  1675.5000      0.0000    688.6282      3.2035     69.5657
  1675.7500      0.0000    689.3890      3.1384     56.0163
  1676.0000      0.0000    689.5862      3.0923     46.2803
  1676.2500      0.0000    690.1125      3.0621     41.7693
  1676.5000      0.0000    692.2347      3.0483     41.3951
  1676.7500      0.0000    697.5748      3.0587     42.2623
  1677.0000      0.0000    707.2162      3.1022     41.8790
  1677.2500      0.0000    720.0602      3.1783     39.6450
  1677.5000      0.0000    732.4515      3.2764     36.4940
  1677.7500      0.0000    740.5967      3.3825     33.6661
  1678.0000      0.0000    743.7093      3.4841     31.9646
  1678.2500      0.0000    744.3138      3.5681     31.6254
  1678.5000      0.0000    745.5092      3.6180     32.3620
  1678.7500      0.0000    748.1848      3.6198     33.5389
  1679.0000      0.0000    750.8008      3.5716     34.7346
  1679.2500      0.0000    751.5915      3.4903     36.3509
  1679.5000      0.0000    750.2998      3.4123     39.3777
  1679.7500      0.0000    746.7747      3.3832     44.3503
  1680.0000      0.0000    738.5672      3.4277     50.8068
  1680.2500      0.0000    722.3406      3.5184     57.7468
  1680.5000      0.0000    698.7390      3.5864     64.0568
  1680.7500      0.0000    674.3487      3.5757     68.5338
  1681.0000      0.0000    657.6392      3.4868     70.4517
  1681.2500      0.0000    653.3362      3.3643     70.4460
  1681.5000      0.0000    660.0375      3.2542     70.1371
  1681.7500      0.0000    671.3293      3.1750     70.5228
  1682.0000      0.0000    679.3874      3.1236     71.1215
  1682.2500      0.0000    679.8089      3.0996     70.8836
  1682.5000      0.0000    674.5248      3.1194     69.6609
  1682.7500      0.0000    669.7754      3.2024     68.5348
  1683.0000      0.0000    670.4203      3.3413     68.7765
  1683.2500      0.0000    676.1016      3.4932     70.7139
  1683.5000      0.0000    682.9612      3.6047     73.6603
  1683.7500      0.0000    687.9026      3.6491     76.7669
  1684.0000      0.0000    690.3433      3.6413     79.8596
  1684.2500      0.0000    690.8582      3.6201     83.6311
  1684.5000      0.0000    689.4783      3.6188     89.1268
  1684.7500      0.0000    685.5873      3.6466     96.6798
  1685.0000      0.0000    679.3508      3.6918    105.1989
  1685.2500      0.0000    673.1625      3.7411    112.9525
  1685.5000      0.0000    671.0212      3.7913    119.1347
  1685.7500      0.0000    675.6628      3.8464    123.9625
  1686.0000      0.0000    686.4416      3.9066    127.0915
  1686.2500      0.0000    700.1052      3.9657    126.9007
  1686.5000      0.0000    713.0768      4.0173    122.1069
  1686.7500      0.0000    723.1174      4.0620    113.8519
  1687.0000      0.0000    729.7855      4.1047    105.6197
  1687.2500      0.0000    733.4906      4.1470    100.8294
  1687.5000      0.0000    733.7467      4.1839    100.4165
  1687.7500      0.0000    728.8641      4.2078    102.5975
  1688.0000      0.0000    717.8283      4.2149    104.7609
  1688.2500      0.0000    701.7913      4.2058    105.5088
  1688.5000      0.0000    683.5233      4.1788    105.0362
  1688.7500      0.0000    666.5698      4.1229    104.0133
  1689.0000      0.0000    654.7737      4.0221    102.6142
  1689.2500      0.0000    650.2933      3.8721    100.9069
  1689.5000      0.0000    651.5612      3.6960     99.8992
  1689.7500      0.0000    655.2184      3.5391    101.1934
  1690.0000      0.0000    660.1723      3.4440    105.0849
  1690.2500      0.0000    667.9888      3.4266    109.8112
  1690.5000      0.0000    679.5005      3.4770    113.3267
  1690.7500      0.0000    692.3625      3.5720    115.1744
  1691.0000      0.0000    702.3585      3.6840    116.0800
  1691.2500      0.0000    706.9686      3.7869    116.2746
  1691.5000      0.0000    707.1031      3.8681    115.2412
  1691.7500      0.0000    704.9838      3.9396    113.2287
  1692.0000      0.0000    701.4189      4.0385    112.1584
  1692.2500      0.0000    696.1758      4.2040    114.2514
  1692.5000      0.0000    690.0648      4.4326    119.8623
  1692.7500      0.0000    685.1336      4.6437    127.1696
  1693.0000      0.0000    682.9446      4.7194    133.9212
  1693.2500      0.0000    683.2930      4.6057    139.0057
  1693.5000      0.0000    684.3161      4.3665    142.3671
  1693.7500      0.0000    683.2201      4.1222    144.2124
  1694.0000      0.0000    677.5310      3.9533    144.8533
  1694.2500      0.0000    667.2565      3.8705    144.9168
  1694.5000      0.0000    656.5345      3.8444    145.0090
  1694.7500      0.0000    651.6395      3.8411    145.1308
  1695.0000      0.0000    655.5766      3.8405    144.7027
  1695.2500      0.0000    665.0991      3.8384    143.1546
  1695.5000      0.0000    674.1462      3.8376    140.5367
  1695.7500      0.0000    679.2386      3.8359    137.7281
  1696.0000      0.0000    680.4304      3.8250    135.9074
  1696.2500      0.0000    677.8793      3.8031    135.3864
  1696.5000      0.0000    669.2598      3.7863    135.0941
  1696.7500      0.0000    651.3571      3.7990    133.6504
  1697.0000      0.0000    623.8323      3.8496    130.7971
  1697.2500      0.0000    590.2870      3.9181    127.5344
  1697.5000      0.0000    555.2923      3.9718    125.1658
  1697.7500      0.0000    521.6053      3.9931    124.3861
  1698.0000      0.0000    490.8966      3.9880    124.8221
  1698.2500      0.0000    465.3162      3.9703    125.1572
  1698.5000      0.0000    446.7490      3.9438    124.0133
  1698.7500      0.0000    435.2064      3.9059    121.1740
  1699.0000      0.0000    428.8649      3.8634    118.0480
  1699.2500      0.0000    425.4481      3.8363    116.8428
  1699.5000      0.0000    423.3304      3.8401    118.9872
  1699.7500      0.0000    421.7628      3.8665    123.9862
  1700.0000      0.0000    420.5656      3.8842    129.7314
  1700.2500      0.0000    419.6487      3.8627    134.0086
