~Version Information
VERS.                      2.0: CWLS Log ASCII Standard - VERSION 2.0
WRAP.                       NO: One line per depth step
~Well Information Block
STRT.FT               880.0000: 
STOP.FT              1996.5000: 
STEP.FT                 0.1000: 
NULL.                -999.2500: 
COMP.          Petrogulf Corporation: COMPANY
WELL.          Collister 17-31R: WELL
FLD.           Purgatorie River: FIELD
LOC.           962' FNL & 1520' FEL: LOCATION
PROV.                 Colorado: PROVINCE
CNTY.               Las Animas: COUNTRY
SRVC.                Patterson: SERVICE COMPANY
DATE.          Mon Sep 26 09:28:52 2005: LOG DATE
UWI.                          : UNIQUE WELL ID
~Curve Information Block
DEPT.FT            0 000 00 00: Depth
DCAL.in                       : CDL Caliper
RHOB.g/cc                     : CDL Bulk Density
RHOC.g/cc                     : CDL Density Correction
DPOR.pu                       : CDL Density Porosity
GR.GAPI                       : Gamma Ray
NPOR.pu                       : Neutron Porosity
~Parameter Information Block
~A  Depth       DCAL        RHOB        RHOC        DPOR         GR         NPOR    
# ...
  1907.2000      7.8190      2.6310      0.1230      1.1545     93.4118     21.9014
  1907.3000      7.8090      2.6207      0.1285      1.7772    105.0899     21.8224
  1907.4000      7.8090      2.5881      0.0879      3.7522    114.8275     22.3130
  1907.5000      7.8117      2.5475      0.0707      6.2110    120.0558     23.1055
  1907.6000      7.8117      2.5151      0.0391      8.1757    125.2512     23.6926
  1907.7000      7.8117      2.4942      0.0122      9.4396    134.3450     23.7665
  1907.8000      7.8497      2.4801     -0.0143     10.2975    145.2606     23.4567
  1907.9000      7.8497      2.4746     -0.0085     10.6312    151.6814     23.0849
  1908.0000      7.8649      2.4862     -0.0466      9.9264    151.0599     22.7073
  1908.1000      7.8649      2.5115      0.0362      8.3941    147.1109     22.4655
  1908.2000      7.8649      2.5293      0.0376      7.3162    144.9296     22.5810
  1908.3000      7.8765      2.5305      0.0294      7.2418    146.3122     22.9432
  1908.4000      7.8765      2.5283      0.0566      7.3760    150.0285     23.4453
  1908.5000      7.8638      2.5369      0.0627      6.8567    153.4747     24.2074
  1908.6000      7.8638      2.5564      0.0590      5.6707    153.9376     25.2007
  1908.7000      7.8638      2.5742      0.0758      4.5959    152.6890     25.9741
  1908.8000      7.9124      2.5791      0.1026      4.2946    152.6676     26.1229
  1908.9000      7.9124      2.5732      0.1012      4.6551    154.6943     25.8842
  1909.0000      7.9018      2.5665      0.1069      5.0576    158.2357     25.9195
  1909.1000      7.9018      2.5677      0.0832      4.9901    160.7077     26.3984
  1909.2000      7.9018      2.5776      0.1415      4.3861    158.7095     26.6833
  1909.3000      7.8309      2.5939      0.1452      3.4021    152.3258     26.3260
  1909.4000      7.8309      2.6088      0.1500      2.4956    145.9020     25.9009
  1909.5000      7.8272      2.6105      0.1724      2.3952    143.7497     26.2177
  1909.6000      7.8272      2.5991      0.1142      3.0846    146.8858     26.9405
  1909.7000      7.8272      2.5869      0.0850      3.8262    151.0717     27.0843
  1909.8000      7.8453      2.5781      0.0975      4.3606    153.1597     26.5268
  1909.9000      7.8453      2.5656      0.0967      5.1133    155.4180     25.9207
  1910.0000      7.8857      2.5496      0.0432      6.0862    158.1904     25.7117
  1910.1000      7.8857      2.5416      0.0419      6.5670    158.7075     25.8924
  1910.2000      7.8857      2.5428      0.0296      6.4940    156.2366     26.1066
  1910.3000      7.8974      2.5380      0.0394      6.7857    154.2567     25.9087
  1910.4000      7.8974      2.5171      0.0531      8.0566    155.4308     25.3346
  1910.5000      7.9221      2.4893      0.0051      9.7411    155.7423     24.8093
  1910.6000      7.9221      2.4693      0.0288     10.9487    152.2470     24.6173
  1910.7000      7.9221      2.4567      0.0258     11.7178    148.6224     24.8381
  1910.8000      7.9196      2.4526     -0.0367     11.9613    147.6352     25.2263
  1910.9000      7.9196      2.4656      0.0386     11.1728    148.0889     25.2679
  1911.0000      7.9089      2.4871      0.0427      9.8753    149.3525     24.8477
  1911.1000      7.9089      2.5026      0.0463      8.9327    149.8188     24.3964
  1911.2000      7.9089      2.5071      0.0991      8.6604    146.8663     24.2880
  1911.3000      7.9177      2.5091      0.0770      8.5390    142.0892     24.5844
  1911.4000      7.9177      2.5323      0.0675      7.1329    139.6755     24.9801
  1911.5000      7.8665      2.5812      0.1649      4.1707    140.5082     25.1221
  1911.6000      7.8665      2.6336      0.1762      0.9922    139.6725     24.9407
  1911.7000      7.8665      2.6704      0.2358     -1.2365    133.5893     24.5980
  1911.8000      7.8010      2.6807      0.1781     -1.8626    126.3941     24.2926
  1911.9000      7.8010      2.6718      0.0972     -1.3208    123.6415     24.1312
  1912.0000      7.8373      2.6617      0.1130     -0.7119    122.3299     24.0780
  1912.1000      7.8373      2.6542      0.0825     -0.2516    117.3748     23.7683
  1912.2000      7.8373      2.6448      0.0993      0.3143    110.8051     23.0834
  1912.3000      7.8148      2.6353      0.0426      0.8890    106.7824     22.3317
  1912.4000      7.8148      2.6243      0.0808      1.5555    104.5732     21.8495
  1912.5000      7.8313      2.6137     -0.0109      2.2007    100.3663     21.7981
  1912.6000      7.8313      2.6170      0.0033      2.0019     93.6634     21.6937
  1912.7000      7.8313      2.6254      0.0790      1.4903     88.7814     21.0917
  1912.8000      7.8348      2.6142      0.0423      2.1700     88.1337     20.2519
  1912.9000      7.8348      2.5835      0.0457      4.0290     89.1769     19.6463
  1913.0000      7.8330      2.5498      0.0380      6.0746     89.5272     19.4256
  1913.1000      7.8330      2.5264      0.0044      7.4902     88.3812     19.5444
  1913.2000      7.8330      2.5175      0.0163      8.0281     84.3927     19.8031
  1913.3000      7.8335      2.5132      0.0261      8.2887     79.2871     20.1037
  1913.4000      7.8335      2.5032      0.0101      8.8944     76.7461     20.5716
  1913.5000      7.8307      2.4923      0.0088      9.5578     76.5883     21.0464
  1913.6000      7.8307      2.4884      0.0355      9.7944     76.4924     21.2652
  1913.7000      7.8307      2.4852      0.0382      9.9905     74.6193     21.2198
  1913.8000      7.8241      2.4704      0.0555     10.8832     71.2153     21.1432
  1913.9000      7.8241      2.4536      0.0082     11.9030     68.2555     21.1273
  1914.0000      7.8225      2.4556      0.0074     11.7806     66.2827     21.0253
  1914.1000      7.8225      2.4692      0.0846     10.9552     63.5168     20.8263
  1914.2000      7.8225      2.4751      0.0445     10.5994     59.8450     20.5164
  1914.3000      7.8252      2.4793      0.0461     10.3466     56.9916     20.0879
  1914.4000      7.8252      2.4906      0.0746      9.6588     57.0948     19.7904
  1914.5000      7.8305      2.4997      0.0629      9.1102     62.0398     19.7384
  1914.6000      7.8305      2.4993      0.0489      9.1357     67.6397     19.7454
  1914.7000      7.8305      2.4935      0.0672      9.4847     68.1412     19.5778
  1914.8000      7.8307      2.4888      0.0238      9.7721     65.5583     19.0582
  1914.9000      7.8307      2.4864      0.0694      9.9154     63.3198     18.3705
  1915.0000      7.8355      2.4836      0.0371     10.0865     61.2223     17.9421
  1915.1000      7.8355      2.4844      0.0501     10.0374     57.6565     17.8687
  1915.2000      7.8355      2.4898      0.0761      9.7069     53.6962     17.8402
  1915.3000      7.8419      2.4891      0.0462      9.7508     53.0730     17.6573
  1915.4000      7.8419      2.4772      0.0313     10.4701     55.9561     17.5301
  1915.5000      7.8407      2.4626      0.0803     11.3561     58.4319     17.6170
  1915.6000      7.8407      2.4496      0.0886     12.1429     58.6293     17.5682
  1915.7000      7.8407      2.4359      0.0411     12.9758     57.2581     17.1061
  1915.8000      7.8508      2.4269      0.0049     13.5207     55.6554     16.5611
  1915.9000      7.8508      2.4293      0.0309     13.3788     54.8391     16.3116
  1916.0000      7.8663      2.4406     -0.0274     12.6937     55.0705     16.2634
  1916.1000      7.8663      2.4562      0.0375     11.7465     56.2577     16.2751
  1916.2000      7.8663      2.4658      0.0751     11.1655     56.8401     16.3734
  1916.3000      7.8500      2.4687      0.0903     10.9869     55.4804     16.4799
  1916.4000      7.8500      2.4759      0.0973     10.5538     53.0083     16.4662
  1916.5000      7.8345      2.4815      0.0900     10.2096     52.4278     16.3440
  1916.6000      7.8345      2.4760      0.0738     10.5456     55.8997     16.2277
  1916.7000      7.8345      2.4672      0.0285     11.0812     60.2705     16.2421
