~Version Information
VERS.                      2.0: CWLS Log ASCII Standard - VERSION 2.0
WRAP.                       NO: One line per depth step
~Well Information Block
STRT.FT               440.0000: 
STOP.FT              1702.7500: 
STEP.FT                 0.2500: 
NULL.                -999.2500: 
COMP.          Pioneer Natural Resources: COMPANY
WELL.          Culver 14-12 Tr: WELL
FLD.           Purgatoire River: FIELD
LOC.           915' FSL & 1048' FWL--: LOCATION
STAT.                 Colorado: State
CNTY.               Las Animas: COUNTY
CTRY. USA : Country
SECT. 12 : Section
TOWN. 32S : Township
RANG. 66W : Range
SRVC.                Patterson: SERVICE COMPANY
DATE.          Tue Sep 27 23:38:23 2005: LOG DATE
API.           05 071 08520 00: UNIQUE WELL ID
~Curve Information Block
DEPT.FT            0 000 00 00: Depth
SN.Ohm-m                      : IEL Short Normal
SP.mV                         : IEL Spontaneous Potential
DIR.Ohm-m                     : IEL Induction Resistivity
GR.GAPI                       : Gamma Ray
~Parameter Information Block
~A  Depth        SN          SP         DIR          GR     
   440.0000   2000.0000   2014.0000 100000.0000     60.8744
   440.2500   2000.0000   2014.0000 100000.0000     60.5387
   440.5000   2000.0000   2014.0000 100000.0000     60.5689
   440.7500   2000.0000   2014.0000 100000.0000     60.9382
   441.0000   2000.0000   2014.0000 100000.0000     61.6341
   441.2500   2000.0000   2014.0000 100000.0000     62.1060
   441.5000   2000.0000   2014.0000 100000.0000     63.1359
   441.7500   2000.0000   2014.0000 100000.0000     64.1586
   442.0000   2000.0000   2014.0000 100000.0000     65.5970
   442.2500   2000.0000   2014.0000 100000.0000     65.8123
   442.5000   2000.0000   2014.0000 100000.0000     64.5024
   442.7500   2000.0000   2014.0000 100000.0000     63.0154
   443.0000   2000.0000   2014.0000 100000.0000     61.2369
   443.2500   2000.0000   2014.0000 100000.0000     60.7401
   443.5000   2000.0000   2014.0000 100000.0000     60.6884
   443.7500   2000.0000   2014.0000 100000.0000     60.8069
   444.0000   2000.0000   2014.0000 100000.0000     61.2191
   444.2500   2000.0000   2014.0000 100000.0000     61.8750
   444.5000   2000.0000   2014.0000 100000.0000     63.6892
   444.7500   2000.0000   2014.0000 100000.0000     65.4540
   445.0000   2000.0000   2014.0000 100000.0000     68.9932
   445.2500   2000.0000   2014.0000 100000.0000     48.1612
   445.5000   2000.0000   2014.0000 100000.0000     52.8752
   445.7500   2000.0000   2014.0000 100000.0000     57.1985
   446.0000   2000.0000   2014.0000 100000.0000     65.0652
   446.2500   2000.0000   2014.0000 100000.0000     70.6012
   446.5000   2000.0000   2014.0000 100000.0000     78.1731
   446.7500   2000.0000   2014.0000 100000.0000     82.3852
   447.0000   2000.0000   2014.0000 100000.0000     87.6669
   447.2500   2000.0000   2014.0000 100000.0000     90.8139
   447.5000   2000.0000   2014.0000 100000.0000     95.1771
   447.7500   2000.0000   2014.0000 100000.0000     97.8585
   448.0000   2000.0000   2014.0000 100000.0000    102.0404
   448.2500   2000.0000   2014.0000 100000.0000    105.4443
   448.5000   2000.0000   2014.0000 100000.0000    111.7257
   448.7500   2000.0000   2014.0000 100000.0000    116.2415
   449.0000   2000.0000   2014.0000 100000.0000    122.4149
   449.2500   2000.0000   2014.0000 100000.0000    125.8125
   449.5000   2000.0000   2014.0000 100000.0000    129.9580
   449.7500   2000.0000   2014.0000 100000.0000    132.2663
   450.0000   2000.0000   2014.0000 100000.0000    135.2146
   450.2500   2000.0000   2014.0000      8.8620    136.9337
   450.5000   2000.0000   2014.0000      4.0440    139.4605
   450.7500   2000.0000   2014.0000      2.8921    141.3033
   451.0000   2000.0000   2014.0000      2.7281    144.4487
   451.2500   2000.0000   2014.0000      3.2899    146.7676
   451.5000   2000.0000   2014.0000      5.2753    150.3704
   451.7500   2000.0000   2014.0000     14.6788    152.6620
   452.0000   2000.0000   2014.0000 100000.0000    155.6355
   452.2500   2000.0000   2014.0000 100000.0000    157.2619
   452.5000   2000.0000   2014.0000 100000.0000    159.2829
   452.7500   2000.0000   2014.0000 100000.0000    160.3118
   453.0000   2000.0000   2014.0000 100000.0000    160.8458
   453.2500   2000.0000   2014.0000 100000.0000    160.1859
   453.5000   2000.0000   2014.0000     33.7441    157.6857
   453.7500   2000.0000   2014.0000     17.0228    155.2553
   454.0000   2000.0000   2014.0000     13.2683    150.4305
   454.2500   2000.0000   2014.0000     12.3154    146.1261
   454.5000   2000.0000   2014.0000     12.5445    138.1456
   454.7500   2000.0000   2014.0000     13.4520    132.6675
   455.0000   2000.0000   2014.0000     14.7597    126.3933
   455.2500   2000.0000   2014.0000     16.1647    124.3718
   455.5000   2000.0000   2014.0000     17.3049    124.4295
   455.7500   2000.0000   2014.0000     17.9709    125.6475
   456.0000   2000.0000   2014.0000     18.3477    127.4967
   456.2500   2000.0000   2014.0000     18.9337    128.1510
   456.5000   2000.0000   2014.0000     20.2606    128.2153
   456.7500   2000.0000   2014.0000     22.6648    127.9128
   457.0000   2000.0000   2014.0000     25.9485    127.3766
   457.2500   2000.0000   2014.0000     28.8070    127.1998
   457.5000   2000.0000   2014.0000     29.2206    127.7193
   457.7500   2000.0000   2014.0000     26.8047    128.8837
   458.0000   2000.0000   2014.0000     23.2979    132.2212
   458.2500   2000.0000   2014.0000     20.2510    135.7349
   458.5000   2000.0000   2014.0000     18.1562    143.4083
   458.7500   2000.0000   2014.0000     16.9585    150.1088
   459.0000   2000.0000   2014.0000     16.4673    161.1524
   459.2500   2000.0000   2014.0000     16.4784    167.6757
   459.5000   2000.0000   2014.0000     16.7890    174.2155
   459.7500   2000.0000   2014.0000     17.2137    176.5924
   460.0000   2000.0000   2014.0000     17.6241    179.3414
   460.2500   2000.0000   2014.0000     17.9784    181.5139
   460.5000   2000.0000   2014.0000     18.3060    184.2102
   460.7500   2000.0000   2014.0000     18.6583    183.9894
   461.0000   2000.0000   2014.0000     19.0648    178.7253
   461.2500   2000.0000   2014.0000     19.5118    172.2762
   461.5000   2000.0000   2014.0000     19.9442    160.8079
   461.7500   2000.0000   2014.0000     20.2828    153.6455
   462.0000   2000.0000   2014.0000     20.4524    145.2622
   462.2500   2000.0000   2014.0000     20.4111    141.4403
   462.5000   2000.0000   2014.0000     20.1646    138.3683
   462.7500   2000.0000   2014.0000     19.7597    138.2896
   463.0000   2000.0000   2014.0000     19.2595    141.3285
   463.2500   2000.0000   2014.0000     18.7178    144.9762
   463.5000   2000.0000   2014.0000     18.1662    150.9555
   463.7500   2000.0000   2014.0000     17.6187    154.1584
   464.0000   2000.0000   2014.0000     17.0854    157.0787
   464.2500   2000.0000   2014.0000     16.5849    158.0329
   464.5000   2000.0000   2014.0000     16.1460    158.4437
   464.7500   2000.0000   2014.0000     15.7998    157.8797
   465.0000   2000.0000   2014.0000     15.5699    155.1944
   465.2500   2000.0000   2014.0000     15.4672    152.2129
   465.5000   2000.0000   2014.0000     15.4903    146.9647
   465.7500   2000.0000   2014.0000     15.6274    143.7559
   466.0000   2000.0000   2014.0000     15.8586    140.4125
   466.2500   2000.0000   2014.0000     16.1558    139.4162
   466.5000   2000.0000   2014.0000     16.4844    139.6710
   466.7500   2000.0000   2014.0000     16.8068    140.7766
   467.0000   2000.0000   2014.0000     17.0886    143.4955
   467.2500   2000.0000   2014.0000     17.3059    145.9977
   467.5000   2000.0000   2014.0000     17.4503    151.0408
   467.7500   2000.0000   2014.0000     17.5285    155.2913
   468.0000   2000.0000   2014.0000     17.5554    162.1039
   468.2500   2000.0000   2014.0000     17.5438    165.8281
   468.5000   2000.0000   2014.0000     17.4975    168.3125
   468.7500   2000.0000   2014.0000     17.4119    167.5415
   469.0000   2000.0000   2014.0000     17.2823    163.9298
   469.2500   2000.0000   2014.0000     17.1124    161.2698
   469.5000   2000.0000   2014.0000     16.9178    158.9995
   469.7500   2000.0000   2014.0000     16.7207    158.9910
   470.0000   2000.0000   2014.0000     16.5408    160.2671
   470.2500   2000.0000   2014.0000     16.3874    161.0155
   470.5000   2000.0000   2014.0000     16.2580    160.6229
   470.7500   2000.0000   2014.0000     16.1432    158.9288
   471.0000   2000.0000   2014.0000     16.0345    154.2595
   471.2500   2000.0000   2014.0000     15.9300    150.2373
   471.5000   2000.0000   2014.0000     15.8340    144.3036
   471.7500   2000.0000   2014.0000     15.7521    141.1596
   472.0000   2000.0000   2014.0000     15.6880    138.0627
   472.2500   2000.0000   2014.0000     15.6432    136.8835
   472.5000   2000.0000   2014.0000     15.6191    135.9719
   472.7500   2000.0000   2014.0000     15.6163    135.6748
   473.0000   2000.0000   2014.0000     15.6326    135.0406
   473.2500   2000.0000   2014.0000     15.6624    134.0142
