~Version Information
VERS.                      2.0: CWLS Log ASCII Standard - VERSION 2.0
WRAP.                       NO: One line per depth step
~Well Information Block
STRT.FT                -7.0000: 
STOP.FT              1155.0000: 
STEP.FT                 0.2500: 
NULL.                -999.2500: 
COMP.          Pioneer Natural Resources: COMPANY
WELL.          Whitecoat 14-36: WELL
FLD.           Purgatorie River: FIELD
LOC.           606' FSL & 260' FWL--: LOCATION
PROV.                       CO: PROVINCE
CNTY.               Las Animas: COUNTRY
SRVC.          Patterson Wireline: SERVICE COMPANY
DATE.          Mon Dec 12 12:56:49 2005: LOG DATE
UWI.           08 071 08593 00: UNIQUE WELL ID
~Curve Information Block
DEPT.FT            0 000 00 00: Depth
CCL.                          : Casing Collar Locator
TT3.usec                      : CBL 3' Travel Time
AMP3.mV                       : CBL 3' Amplitude
GR.GAPI                       : Gamma Ray
~Parameter Information Block
~A  Depth       CCL         TT3         AMP3         GR     
# ...
   830.5000      0.0000    526.4772      2.9882     65.0875
   830.7500      0.0000    525.4600      2.9568     65.8369
   831.0000      0.0000    506.2757      2.9923     69.1779
   831.2500      0.0000    483.4549      3.0639     73.2742
   831.5000      0.0000    475.3989      3.1280     76.5948
   831.7500      0.0000    492.3260      3.1535     78.5776
   832.0000      0.0000    531.2831      3.1334     79.1010
   832.2500      0.0000    578.2408      3.0790     78.1114
   832.5000      0.0000    616.0709      3.0107     75.9882
   832.7500      0.0000    635.0361      2.9506     73.7161
   833.0000      0.0000    638.1768      2.9171     72.5017
   833.2500      0.0000    636.9699      2.9203     73.3528
   833.5000      0.0000    641.4197      2.9588     76.6928
   833.7500      0.0000    653.1467      3.0161     81.8148
   834.0000      0.0000    666.3309      3.0615     86.7471
   834.2500      0.0000    673.5481      3.0573     89.2154
   834.5000      0.0000    670.6042      2.9731     88.2080
   834.7500      0.0000    658.5738      2.7989     84.8209
   835.0000      0.0000    643.7758      2.5572     81.4196
   835.2500      0.0000    634.4955      2.3044     79.6796
   835.5000      0.0000    635.1210      2.1066     79.3165
   835.7500      0.0000    643.7953      1.9944     78.6183
   836.0000      0.0000    656.2435      1.9447     76.0597
   836.2500      0.0000    669.1028      1.9209     71.5528
   836.5000      0.0000    678.7403      1.9273     66.5443
   836.7500      0.0000    681.4113      2.0157     63.1148
   837.0000      0.0000    677.9791      2.2406     62.7467
   837.2500     -2.0000    674.8555      2.6068     65.5081
   837.5000      0.0000    676.1325      3.0471     70.2368
   837.7500      0.0000    678.0193      3.4522     75.5297
   838.0000      0.0000    675.9284      3.7362     80.5366
   838.2500      0.0000    673.5126      3.8797     84.8857
   838.5000      0.0000    678.5476      3.8996     88.2573
   838.7500      0.0000    691.7367      3.7997     90.3774
   839.0000      0.0000    705.0510      3.5910     91.2945
   839.2500      0.0000    710.6319      3.3483     91.4632
   839.5000      0.0000    707.5927      3.1886     91.6331
   839.7500      0.0000    699.9510      3.1776     92.5327
   840.0000      0.0000    690.6633      3.2838     94.3382
   840.2500      0.0000    679.0420      3.4291     96.3887
   840.5000      0.0000    663.4437      3.5609     97.4439
   840.7500      0.0000    645.0844      3.6679     96.1477
   841.0000      0.0000    628.1112      3.7497     91.6754
   841.2500      0.0000    615.5266      3.7992     84.6533
   841.5000      0.0000    605.4778      3.8142     77.4251
   841.7500      0.0000    592.4266      3.8098     72.7149
   842.0000      0.0000    572.7743      3.8064     71.6738
   842.2500      0.0000    548.6446      3.8121     73.2428
   842.5000      0.0000    524.5193      3.8185     75.3419
   842.7500      0.0000    501.5376      3.8127     76.6014
   843.0000      0.0000    478.2845      3.7891     77.0356
   843.2500      0.0000    455.8210      3.7517     77.3048
   843.5000      0.0000    438.0117      3.7102     77.6726
   843.7500      0.0000    427.2774      3.6772     77.8724
   844.0000      0.0000    422.6595      3.6679     77.8156
   844.2500      0.0000    421.7943      3.6946     77.8463
   844.5000      0.0000    423.2646      3.7558     77.9156
   844.7500      0.0000    427.2770      3.8295     77.0461
   845.0000      0.0000    434.7962      3.8829     74.4476
   845.2500      0.0000    445.4530      3.8931     70.9520
   845.5000      0.0000    455.7027      3.8596     68.4836
   845.7500      0.0000    460.1943      3.7989     68.0445
   846.0000      0.0000    456.3234      3.7300     68.8078
   846.2500      0.0000    447.0659      3.6675     69.2941
   846.5000      0.0000    438.6642      3.6207     69.0283
   846.7500      0.0000    436.6841      3.5937     68.7872
   847.0000      0.0000    444.7886      3.5836     69.3552
   847.2500      0.0000    464.8439      3.5812     70.4755
   847.5000      0.0000    495.3947      3.5746     71.3336
   847.7500      0.0000    530.2811      3.5555     71.7953
   848.0000      0.0000    561.1317      3.5219     72.5469
   848.2500      0.0000    582.5909      3.4787     73.8990
   848.5000      0.0000    595.0789      3.4364     75.0115
   848.7500      0.0000    603.2401      3.4073     74.8043
   849.0000      0.0000    612.7045      3.3972     73.3172
   849.2500      0.0000    627.3919      3.4018     71.5439
   849.5000      0.0000    647.5113      3.4101     70.0547
   849.7500      0.0000    669.1346      3.4124     68.3951
   850.0000      0.0000    686.6470      3.4050     65.8572
   850.2500      0.0000    696.5987      3.3903     62.3586
   850.5000      0.0000    699.4832      3.3748     58.4346
   850.7500      0.0000    698.3215      3.3648     54.8325
   851.0000      0.0000    696.1057      3.3632     52.4487
   851.2500      0.0000    694.3959      3.3694     52.3359
   851.5000      0.0000    693.4613      3.3808     55.1129
   851.7500      0.0000    693.0275      3.3916     60.1101
   852.0000      0.0000    692.7833      3.3927     65.4108
   852.2500      0.0000    692.4925      3.3747     69.1120
   852.5000      0.0000    691.7168      3.3345     70.5707
   852.7500      0.0000    689.1443      3.2795     70.3255
   853.0000      0.0000    681.5901      3.2255     69.1302
   853.2500      0.0000    663.7746      3.1871     67.4713
   853.5000      0.0000    630.9412      3.1697     65.7685
   853.7500      0.0000    584.3624      3.1725     64.5206
   854.0000      0.0000    534.9178      3.2002     64.3014
   854.2500      0.0000    499.0710      3.2671     65.8791
   854.5000      0.0000    488.9159      3.3834     70.1091
   854.7500      0.0000    504.7890      3.5407     77.2666
   855.0000      0.0000    536.2670      3.7144     86.4865
   855.2500      0.0000    569.3722      3.8804     96.1443
   855.5000      0.0000    593.5139      4.0264    104.7780
   855.7500      0.0000    603.9647      4.1499    111.5531
   856.0000      0.0000    601.1743      4.2496    116.0930
   856.2500      0.0000    589.9102      4.3230    118.2165
   856.5000      0.0000    578.1533      4.3704    117.8634
   856.7500      0.0000    574.1116      4.3981    115.1876
   857.0000      0.0000    582.1418      4.4170    110.9620
   857.2500      0.0000    600.5529      4.4382    106.8561
   857.5000      0.0000    622.7924      4.4687    104.5146
   857.7500      0.0000    640.4183      4.5082    104.0545
   858.0000      0.0000    645.8748      4.5491    104.1977
   858.2500      0.0000    635.2034      4.5838    104.1895
   858.5000      0.0000    611.1232      4.6110    104.7785
   858.7500      0.0000    583.7610      4.6345    106.8403
   859.0000      0.0000    565.9005      4.6533    109.7337
   859.2500      0.0000    565.4357      4.6574    111.6398
   859.5000      0.0000    581.6266      4.6333    111.2405
   859.7500      0.0000    607.1066      4.5788    108.6216
   860.0000      0.0000    631.9992      4.5115    104.7017
   860.2500      0.0000    647.3266      4.4601    100.3521
   860.5000      0.0000    647.8044      4.4437     96.3370
   860.7500      0.0000    633.7781      4.4569     93.5979
   861.0000      0.0000    611.2105      4.4773     92.8969
   861.2500      0.0000    589.2216      4.4842     94.1692
   861.5000      0.0000    576.2350      4.4671     96.5415
   861.7500      0.0000    576.7548      4.4186     99.0362
   862.0000      0.0000    590.5735      4.3284    101.2262
   862.2500      0.0000    614.2339      4.1980    103.2923
   862.5000      0.0000    642.5769      4.0632    105.3673
   862.7500      0.0000    669.3789      3.9861    106.7477
   863.0000      0.0000    688.6689      4.0118    106.1193
   863.2500      0.0000    697.1913      4.1358    102.9931
   863.5000      0.0000    695.4707      4.3133     98.7311
   863.7500      0.0000    686.0221      4.4912     95.7753
