~Version Information
VERS.                      2.0: CWLS Log ASCII Standard - VERSION 2.0
WRAP.                       NO: One line per depth step
~Well Information Block
STRT.FT               480.0000: 
STOP.FT              1817.0000: 
STEP.FT                 0.1000: 
NULL.                -999.2500: 
COMP.          Pioneer Natural Resources: COMPANY
WELL.           Bobsy 34-11 Tr: WELL
FLD.           Purgatoire River: FIELD
LOC.           514' FSL & 1784' FEL: LOCATION
PROV.                 Colorado: PROVINCE
CNTY.               Las Animas: COUNTRY
SRVC.                Patterson: SERVICE COMPANY
DATE.          Tue Jul 19 10:30:09 2005: LOG DATE
UWI.           05 071 08438 00: UNIQUE WELL ID
~Curve Information Block
DEPT.FT            0 000 00 00: Depth
DCAL.in                       : CDL Caliper
DPOR.pu                       : CDL Density Porosity
GR.GAPI                       : Gamma Ray
NPOR.pu                       : Neutron Porosity
RHOB.g/cc                     : CDL Bulk Density
RHOC.g/cc                     : CDL Density Correction
~Parameter Information Block
~A  Depth       DCAL        DPOR         GR         NPOR        RHOB        RHOC    
# ...
  1363.2000      8.1006      1.4454    143.5845     25.5979      2.6262      0.1223
  1363.3000      8.1109      1.4639    138.9197     24.6243      2.6258      0.1283
  1363.4000      8.1109      1.7295    137.5492     23.9626      2.6215      0.1440
  1363.5000      8.0857      2.2562    135.6847     24.3019      2.6128      0.1482
  1363.6000      8.0857      3.4576    129.8848     24.8956      2.5929      0.1320
  1363.7000      8.0857      5.0313    121.5651     24.6696      2.5670      0.0948
  1363.8000      8.0277      6.6029    115.0680     23.7292      2.5411      0.0820
  1363.9000      8.0277      7.8430    115.5107     22.6139      2.5206      0.1160
  1364.0000      7.9813      8.0644    121.8643     21.7243      2.5169      0.0720
  1364.1000      7.9813      7.0907    124.4168     21.5120      2.5330      0.0861
  1364.2000      7.9813      5.9081    118.6039     21.9949      2.5525      0.0626
  1364.3000      7.9947      5.0847    111.6509     22.4394      2.5661      0.0629
  1364.4000      7.9947      3.8803    109.4455     22.7196      2.5860      0.0945
  1364.5000      8.0157      2.0950    109.9455     23.4762      2.6154      0.1573
  1364.6000      8.0157      0.9250    109.4519     24.4161      2.6347      0.1158
  1364.7000      8.0157      1.3404    108.2495     24.8625      2.6279      0.1687
  1364.8000      7.9602      2.8177    108.6429     24.7873      2.6035      0.0912
  1364.9000      7.9602      4.1729    110.2175     24.4371      2.5811      0.0958
  1365.0000      7.9380      5.1514    110.7983     24.5554      2.5650      0.0537
  1365.1000      7.9380      5.6290    112.4937     25.3497      2.5571      0.0163
  1365.2000      7.9380      5.6460    116.3383     25.5811      2.5568      0.0434
  1365.3000      7.9199      6.1065    116.3573     24.6821      2.5492      0.0512
  1365.4000      7.9199      6.6909    112.4148     23.5678      2.5396     -0.0127
  1365.5000      7.9891      6.3840    110.0222     22.9293      2.5447      0.0634
  1365.6000      7.9891      6.3940    105.9512     22.8067      2.5445      0.1243
  1365.7000      7.9891      7.9646     97.7208     23.0040      2.5186      0.1368
  1365.8000      8.0153      9.4712     93.4419     23.3041      2.4937      0.0752
  1365.9000      8.0153      8.2637     94.6159     23.5410      2.5136      0.0859
  1366.0000      8.0240      4.5467     92.5968     23.9192      2.5750      0.2415
  1366.1000      8.0240      0.7608     85.0096     24.5594      2.6374      0.2658
  1366.2000      8.0240     -2.0410     78.1083     25.2357      2.6837      0.2800
  1366.3000      7.9640     -3.5774     76.4762     16.6610      2.7090      0.2942
  1366.4000      7.9640     -3.4906     79.3305     16.3113      2.7076      0.2518
  1366.5000      7.9524     -2.7417     82.4388     14.7985      2.6952      0.1798
  1366.6000      7.9524     -2.1125     83.3297     13.0620      2.6849      0.2167
  1366.7000      7.9524     -0.3289     85.1614     12.5617      2.6554      0.1913
  1366.8000      7.9770      3.8099     89.0709     13.4602      2.5871      0.1202
  1366.9000      7.9770      8.6113     90.5547     15.0088      2.5079     -0.0025
  1367.0000      8.1182     10.9113     89.7522     16.5815      2.4700     -0.0373
  1367.1000      8.1182     10.2568     90.3742     17.7733      2.4808      0.0354
  1367.2000      8.1182      8.7891     92.1146     18.5714      2.5050      0.0364
  1367.3000      8.2030      7.6244     94.1552     18.9867      2.5242      0.0349
  1367.4000      8.2030      6.5515     97.8501     18.9667      2.5419      0.0786
  1367.5000      8.3374      5.2233    101.9601     19.0120      2.5638      0.1223
  1367.6000      8.3374      3.4357    103.0047     19.7501      2.5933      0.1911
  1367.7000      8.3374      2.1593    101.5633     20.8007      2.6144      0.2558
  1367.8000      8.2683      2.9031    100.7792     21.3801      2.6021      0.1747
  1367.9000      8.2683      5.1706     99.0913     21.9114      2.5647      0.0926
  1368.0000      8.0336      7.1316     95.2523     22.3749      2.5323      0.0815
  1368.1000      8.0336      7.9400     93.2885     21.9849      2.5190      0.0782
  1368.2000      8.0336      7.5272     94.5699     21.4794      2.5258      0.0504
  1368.3000      7.9773      6.4092     96.1969     21.5697      2.5442      0.0995
  1368.4000      7.9773      5.9081     98.1558     21.4531      2.5525      0.1236
  1368.5000      8.0025      6.8281    100.7224     21.1993      2.5373      0.1212
  1368.6000      8.0025      8.3888    102.5303     22.1108      2.5116      0.0940
  1368.7000      8.0025      9.5069    106.2089     23.8910      2.4931      0.1864
  1368.8000      7.9881     10.0772    115.8642     24.6064      2.4837      0.1765
  1368.9000      7.9881     10.0309    127.3523     23.9978      2.4845      0.1836
  1369.0000      8.0148     10.0666    133.3009     23.2801      2.4839      0.2324
  1369.1000      8.0148     11.5125    133.4191     22.9920      2.4600      0.1476
  1369.2000      8.0148     13.7333    133.5437     23.5949      2.4234      0.1148
  1369.3000      8.0232     14.5568    139.3319     25.0181      2.4098      0.0891
  1369.4000      8.0232     13.2234    147.7979     26.1235      2.4318      0.1507
  1369.5000      7.9687     11.5263    150.5488     25.9329      2.4598      0.2092
  1369.6000      7.9687     10.6707    147.8810     25.0206      2.4739      0.0900
  1369.7000      7.9687      9.1261    144.5237     24.7626      2.4994      0.0230
  1369.8000      7.9489      6.2047    139.2625     25.2550      2.5476      0.0969
  1369.9000      7.9489      3.7991    133.6556     25.4230      2.5873      0.1600
  1370.0000      8.0188      3.3156    131.9097     24.8728      2.5953      0.1846
  1370.1000      8.0188      4.4590    131.8126     24.3465      2.5764      0.1138
  1370.2000      8.0188      6.2880    128.8493     24.3910      2.5462      0.1192
  1370.3000      8.0287      7.6155    123.6720     24.3197      2.5243      0.0427
  1370.4000      8.0287      7.6606    123.6835     23.5830      2.5236      0.0724
  1370.5000      8.0399      6.4674    134.3033     23.0618      2.5433      0.0072
  1370.6000      8.0399      3.8819    150.2949     23.2562      2.5859      0.0569
  1370.7000      8.0399      0.0008    160.7453     23.8396      2.6500      0.0955
  1370.8000      8.0303     -3.7232    160.8887     24.4910      2.7114      0.1657
  1370.9000      8.0303     -5.2178    159.0938     24.6276      2.7361      0.2301
  1371.0000      8.0612     -4.2146    162.5742     24.0300      2.7195      0.2138
  1371.1000      8.0612     -2.1725    166.9541     23.0816      2.6858      0.2062
  1371.2000      8.0612     -0.0665    166.6243     22.0271      2.6511      0.1593
  1371.3000      8.0824      1.6035    161.7174     21.2878      2.6235      0.0907
  1371.4000      8.0824      2.7929    155.2335     21.5739      2.6039      0.1287
  1371.5000      8.0032      4.2577    146.3818     22.7816      2.5797      0.0657
  1371.6000      8.0032      6.0927    132.4618     23.9435      2.5495      0.0262
  1371.7000      8.0032      7.2420    116.8266     24.2310      2.5305     -0.0307
  1371.8000      8.0511      7.4147    105.5345     24.1776      2.5277      0.0538
  1371.9000      8.0511      7.2412     98.7481     24.5145      2.5305     -0.0077
  1372.0000      8.0480      6.2850     96.4516     24.9995      2.5463     -0.0066
  1372.1000      8.0480      4.2376    100.1668     24.9949      2.5801     -0.0223
  1372.2000      8.0480      2.3034    102.4207     24.1758      2.6120      0.0321
  1372.3000      8.0204      1.5436     93.1166     23.1804      2.6245     -0.0169
  1372.4000      8.0204      1.7931     76.4348     22.9714      2.6204      0.0401
  1372.5000      7.9845      2.8618     66.6974     23.4908      2.6028      0.0425
  1372.6000      7.9845      5.4411     70.7266     23.9212      2.5602      0.0947
  1372.7000      7.9845      9.7305     80.5525     23.7547      2.4894      0.0145
