~Version Information
VERS.                      2.0: CWLS Log ASCII Standard - VERSION 2.0
WRAP.                       NO: One line per depth step
~Well Information Block
STRT.FT               240.0000: 
STOP.FT              1185.5000: 
STEP.FT                 0.2500: 
NULL.                -999.2500: 
COMP.          Pioneer Natural Resources: COMPANY
WELL.          Whitecoat 14-36: WELL
FLD.           Purgatorie River: FIELD
LOC.           606' FSL & 260' FWL: LOCATION
PROV.                 Colorado: PROVINCE
CNTY.               Las Animas: COUNTRY
SRVC.                Patterson: SERVICE COMPANY
DATE.          Mon Dec 05 16:51:12 2005: LOG DATE
UWI.                          : UNIQUE WELL ID
~Curve Information Block
DEPT.FT            0 000 00 00: Depth
DIR.Ohm-m                     : IEL Induction Resistivity
GR.GAPI                       : Gamma Ray
~Parameter Information Block
~A  Depth       DIR          GR     
# ...
   630.2500     13.3423    173.7564
   630.5000     13.5833    170.1493
   630.7500     13.9364    166.5961
   631.0000     14.4150    159.6939
   631.2500     14.9997    154.3077
   631.5000     15.6493    145.8622
   631.7500     16.3130    140.6810
   632.0000     16.9373    134.8985
   632.2500     17.4698    132.9060
   632.5000     17.8681    132.8492
   632.7500     18.1137    134.4644
   633.0000     18.2231    138.4792
   633.2500     18.2467    141.4859
   633.5000     18.2563    144.7877
   633.7500     18.3289    145.1113
   634.0000     18.5342    141.6888
   634.2500     18.9221    137.0523
   634.5000     19.5086    128.5489
   634.7500     20.2648    123.3825
   635.0000     21.1216    118.3717
   635.2500     21.9938    117.3011
   635.5000     22.8074    118.8597
   635.7500     23.5120    121.5211
   636.0000     24.0731    126.7593
   636.2500     24.4639    130.2866
   636.5000     24.6700    134.2652
   636.7500     24.7093    135.2762
   637.0000     24.6466    133.3325
   637.2500     24.5766    129.6648
   637.5000     24.5765    121.7529
   637.7500     24.6627    116.0155
   638.0000     24.7891    108.4456
   638.2500     24.8875    104.5536
   638.5000     24.9075    100.3548
   638.7500     24.8213     98.3936
   639.0000     24.6043     96.4073
   639.2500     24.2284     95.6504
   639.5000     23.6830     95.3455
   639.7500     23.0070     95.8052
   640.0000     22.2914     98.0574
   640.2500     21.6358    101.0074
   640.5000     21.0894    107.6536
   640.7500     20.6234    112.9258
   641.0000     20.1544    120.2973
   641.2500     19.6033    124.0444
   641.5000     18.9448    127.8315
   641.7500     18.2135    129.7505
   642.0000     17.4679    132.9621
   642.2500     16.7511    135.6866
   642.5000     16.0768    140.2807
   642.7500     15.4442    142.9429
   643.0000     14.8614    144.7927
   643.2500     14.3522    144.1399
   643.5000     13.9412    141.1733
   643.7500     13.6357    139.1615
   644.0000     13.4224    138.2907
   644.2500     13.2796    139.6919
   644.5000     13.1909    144.2798
   644.7500     13.1471    148.3136
   645.0000     13.1413    154.5683
   645.2500     13.1676    158.1032
   645.5000     13.2267    161.2789
   645.7500     13.3306    161.7698
   646.0000     13.4999    160.9118
   646.2500     13.7526    160.1569
   646.5000     14.0931    159.9526
   646.7500     14.5077    160.6919
   647.0000     14.9715    162.9317
   647.2500     15.4612    164.9214
   647.5000     15.9628    168.1245
   647.7500     16.4682    169.9118
   648.0000     16.9639    170.6729
   648.2500     17.4241    169.0213
   648.5000     17.8121    162.8068
   648.7500     18.0867    156.8082
   649.0000     18.2104    147.0918
   649.2500     18.1598    141.1909
   649.5000     17.9369    133.9224
   649.7500     17.5737    129.9507
   650.0000     17.1229    124.6203
   650.2500     16.6351    121.2745
   650.5000     16.1399    116.9646
   650.7500     15.6402    115.2157
   651.0000     15.1224    115.6041
   651.2500     14.5758    118.3513
   651.5000     14.0082    125.9267
   651.7500     13.4478    132.4547
   652.0000     12.9325    142.4907
   652.2500     12.4946    148.2956
   652.5000     12.1520    154.6264
   652.7500     11.9072    157.1742
   653.0000     11.7531    158.9958
   653.2500     11.6769    159.3659
   653.5000     11.6627    159.5972
   653.7500     11.6902    160.0130
   654.0000     11.7356    161.2511
   654.2500     11.7753    162.1822
   654.5000     11.7923    163.1650
   654.7500     11.7824    163.5535
   655.0000     11.7548    163.9731
   655.2500     11.7270    163.9716
   655.5000     11.7166    162.8442
   655.7500     11.7345    161.1965
   656.0000     11.7817    158.0589
   656.2500     11.8478    156.2058
   656.5000     11.9140    154.6895
   656.7500     11.9581    154.6896
   657.0000     11.9620    156.1065
   657.2500     11.9173    157.9261
   657.5000     11.8269    161.7743
   657.7500     11.7007    164.6937
   658.0000     11.5481    168.3784
   658.2500     11.3758    169.7056
   658.5000     11.1910    169.8184
   658.7500     11.0081    169.2306
   659.0000     10.8478    168.8048
   659.2500     10.7289    169.3138
   659.5000     10.6596    171.0591
   659.7500     10.6382    172.4573
   660.0000     10.6608    174.3667
   660.2500     10.7295    175.3345
   660.5000     10.8490    175.9700
   660.7500     11.0162    175.7036
   661.0000     11.2100    174.6582
   661.2500     11.3971    174.1203
   661.5000     11.5504    174.2914
   661.7500     11.6693    174.8581
   662.0000     11.7784    175.1072
   662.2500     11.9077    174.0650
   662.5000     12.0740    169.9753
   662.7500     12.2760    165.6282
   663.0000     12.5029    157.3256
   663.2500     12.7422    151.1110
   663.5000     12.9806    141.7213
   663.7500     13.2003    136.0309
   664.0000     13.3778    129.6406
   664.2500     13.4890    127.6608
   664.5000     13.5200    129.1197
   664.7500     13.4751    132.9052
   665.0000     13.3752    141.1310
   665.2500     13.2457    146.8614
   665.5000     13.1031    153.5310
   665.7500     12.9516    155.9617
   666.0000     12.7900    156.8566
   666.2500     12.6203    156.4966
   666.5000     12.4504    156.2393
   666.7500     12.2929    156.8319
   667.0000     12.1610    158.6786
   667.2500     12.0669    159.9236
   667.5000     12.0181    160.6743
   667.7500     12.0161    160.1546
   668.0000     12.0556    158.2337
   668.2500     12.1263    156.6844
   668.5000     12.2144    154.6914
   668.7500     12.3034    153.8491
   669.0000     12.3790    153.5846
   669.2500     12.4369    154.0706
   669.5000     12.4908    155.2474
   669.7500     12.5700    155.7842
   670.0000     12.7057    155.6189
   670.2500     12.9172    155.0295
   670.5000     13.2072    154.3643
   670.7500     13.5690    154.4603
   671.0000     13.9963    155.0676
   671.2500     14.4870    155.0995
   671.5000     15.0382    153.5934
   671.7500     15.6406    151.4940
   672.0000     16.2793    147.3476
   672.2500     16.9390    144.3703
   672.5000     17.6089    140.1436
   672.7500     18.2825    137.7678
   673.0000     18.9517    135.3461
   673.2500     19.6001    134.6197
   673.5000     20.1991    134.4499
   673.7500     20.7151    134.2678
   674.0000     21.1189    132.3574
   674.2500     21.3901    129.4117
   674.5000     21.5122    122.8499
   674.7500     21.4690    117.9402
   675.0000     21.2507    111.3693
   675.2500     20.8658    108.0648
   675.5000     20.3489    105.1825
   675.7500     19.7565    104.9054
   676.0000     19.1548    107.4714
   676.2500     18.6061    111.3692
   676.5000     18.1580    120.3324
   676.7500     17.8341    127.8157
   677.0000     17.6278    139.4380
   677.2500     17.5028    146.1553
   677.5000     17.4089    153.1823
   677.7500     17.3104    155.8185
   678.0000     17.2135    157.8488
   678.2500     17.1679    158.6165
   678.5000     17.2408    159.2168
   678.7500     17.4786    159.0616
   679.0000     17.8865    157.8684
   679.2500     18.4360    156.6241
   679.5000     19.0919    154.2357
   679.7500     19.8343    151.9093
   680.0000     20.6551    146.1113
   680.2500     21.5347    140.2579
   680.5000     22.4226    128.9887
   680.7500     23.2391    120.7885
   681.0000     23.8973    109.4626
   681.2500     24.3374    103.4234
   681.5000     24.5529     97.0800
   681.7500     24.5910     94.3876
   682.0000     24.5223     91.8256
   682.2500     24.4097     90.7129
   682.5000     24.2969     89.5848
   682.7500     24.2099     89.0720
   683.0000     24.1545     88.5207
   683.2500     24.1039     88.3481
   683.5000     23.9991     88.7421
   683.7500     23.7722     89.6205
   684.0000     23.3838     91.7491
   684.2500     22.8427     93.4695
   684.5000     22.1948     96.2173
   684.7500     21.4987     98.2009
   685.0000     20.8061    101.9600
   685.2500     20.1519    105.6577
   685.5000     19.5502    114.3105
   685.7500     19.0017    122.4349
