~Version Information
VERS.                      2.0: CWLS Log ASCII Standard - VERSION 2.0
WRAP.                       NO: One line per depth step
~Well Information Block
STRT.FT               505.0000: 
STOP.FT               772.0000: 
STEP.FT                 0.2500: 
NULL.                -999.2500: 
COMP.          Pioneer Natural Resources: COMPANY
WELL.                Zed 11-23: WELL
FLD.           Purgatoire River: FIELD
LOC.           641' FNL & 952' FWL: LOCATION
CNTY.               Las Animas: COUNTY
SRVC.                Patterson: SERVICE COMPANY
DATE.          Sun Feb 26 18:39:19 2006: LOG DATE
UWI.           05 071 08702 00: UNIQUE WELL ID
STAT.                 Colorado: STATE
~Curve Information Block
DEPT.FT            0 000 00 00: Depth
SN.Ohm-m                      : IEL Short Normal
SP.mV                         : IEL Spontaneous Potential
DIR.Ohm-m                     : IEL Induction Resistivity
GR.GAPI                       : Gamma Ray
~Parameter Information Block
~A  Depth        SN          SP         DIR          GR     
# ...
   572.0000   2000.0000   2000.0000     17.6308     91.5440
   572.2500   2000.0000   2000.0000     17.9339     90.9379
   572.5000   2000.0000   2000.0000     18.2992     90.8871
   572.7500   2000.0000   2000.0000     18.6907     91.1232
   573.0000   2000.0000   2000.0000     19.0736     91.2624
   573.2500   2000.0000   2000.0000     19.4252     90.8513
   573.5000   2000.0000   2000.0000     19.7334     89.3078
   573.7500   2000.0000   2000.0000     19.9879     87.7849
   574.0000   2000.0000   2000.0000     20.1731     85.0089
   574.2500   2000.0000   2000.0000     20.2721     83.0896
   574.5000   2000.0000   2000.0000     20.2793     81.2165
   574.7500   2000.0000   2000.0000     20.2114     81.5261
   575.0000   2000.0000   2000.0000     20.1054     85.1798
   575.2500   2000.0000   2000.0000     20.0021     89.4182
   575.5000   2000.0000   2000.0000     19.9274     97.0207
   575.7500   2000.0000   2000.0000     19.8818    102.2305
   576.0000   2000.0000   2000.0000     19.8454    110.0440
   576.2500   2000.0000   2000.0000     19.7926    115.4556
   576.5000   2000.0000   2000.0000     19.7084    123.8516
   576.7500   2000.0000   2000.0000     19.5972    129.0253
   577.0000   2000.0000   2000.0000     19.4803    133.8556
   577.2500   2000.0000   2000.0000     19.3860    133.4347
   577.5000   2000.0000   2000.0000     19.3379    125.8530
   577.7500   2000.0000   2000.0000     19.3471    117.1624
   578.0000   2000.0000   2000.0000     19.4086    103.0819
   578.2500   2000.0000   2000.0000     19.5036     95.4933
   578.5000   2000.0000   2000.0000     19.6029     88.2221
   578.7500   2000.0000   2000.0000     19.6742     85.3008
   579.0000   2000.0000   2000.0000     19.6869     81.8338
   579.2500   2000.0000   2000.0000     19.6171     79.6688
   579.5000   2000.0000   2000.0000     19.4543     76.9817
   579.7500   2000.0000   2000.0000     19.2152     75.8188
   580.0000   2000.0000   2000.0000     18.9550     75.0231
   580.2500   2000.0000   2000.0000     18.7577     74.9926
   580.5000   2000.0000   2000.0000     18.7005     75.4300
   580.7500   2000.0000   2000.0000     18.8125     75.8910
   581.0000   2000.0000   2000.0000     19.0544     76.7363
   581.2500   2000.0000   2000.0000     19.3363     77.4933
   581.5000   2000.0000   2000.0000     19.5623     79.1466
   581.7500   2000.0000   2000.0000     19.6775     80.5202
   582.0000   2000.0000   2000.0000     19.6833     82.2188
   582.2500   2000.0000   2000.0000     19.6198     82.4899
   582.5000   2000.0000   2000.0000     19.5375     81.1347
   582.7500   2000.0000   2000.0000     19.4719     79.4453
   583.0000   2000.0000   2000.0000     19.4338     77.1454
   583.2500   2000.0000   2000.0000     19.4133     76.4181
   583.5000   2000.0000   2000.0000     19.3950     76.5358
   583.7500   2000.0000   2000.0000     19.3743     76.9640
   584.0000   2000.0000   2000.0000     19.3600     77.5672
   584.2500   2000.0000   2000.0000     19.3678     77.9161
   584.5000   2000.0000   2000.0000     19.4114     78.2626
   584.7500   2000.0000   2000.0000     19.4964     78.1238
   585.0000   2000.0000   2000.0000     19.6210     77.0579
   585.2500   2000.0000   2000.0000     19.7783     75.8236
   585.5000   2000.0000   2000.0000     19.9608     73.2934
   585.7500   2000.0000   2000.0000     20.1666     71.1442
   586.0000   2000.0000   2000.0000     20.4045     67.5256
   586.2500   2000.0000   2000.0000     20.6918     65.2787
   586.5000   2000.0000   2000.0000     21.0454     62.7344
   586.7500   2000.0000   2000.0000     21.4732     61.5470
   587.0000   2000.0000   2000.0000     21.9729     59.9722
   587.2500   2000.0000   2000.0000     22.5341     58.7460
   587.5000   2000.0000   2000.0000     23.1390     56.5351
   587.7500   2000.0000   2000.0000     23.7572     54.9804
   588.0000   2000.0000   2000.0000     24.3461     52.8403
   588.2500   2000.0000   2000.0000     24.8630     51.5912
   588.5000   2000.0000   2000.0000     25.2816     49.8015
   588.7500   2000.0000   2000.0000     25.5985     48.4731
   589.0000   2000.0000   2000.0000     25.8295     46.1951
   589.2500   2000.0000   2000.0000     26.0041     44.8277
   589.5000   2000.0000   2000.0000     26.1606     44.0599
   589.7500   2000.0000   2000.0000     26.3344     44.8803
   590.0000   2000.0000   2000.0000     26.5438     48.2031
   590.2500   2000.0000   2000.0000     26.7788     51.4463
   590.5000   2000.0000   2000.0000     27.0014     56.5904
   590.7500   2000.0000   2000.0000     27.1609     59.2895
   591.0000   2000.0000   2000.0000     27.2143     61.1807
   591.2500   2000.0000   2000.0000     27.1446     61.0469
   591.5000   2000.0000   2000.0000     26.9640     59.8338
   591.7500   2000.0000   2000.0000     26.7032     59.1397
   592.0000   2000.0000   2000.0000     26.3976     58.9724
   592.2500   2000.0000   2000.0000     26.0825     59.1888
   592.5000   2000.0000   2000.0000     25.7951     58.9048
   592.7500   2000.0000   2000.0000     25.5746     58.0137
   593.0000   2000.0000   2000.0000     25.4539     56.5185
   593.2500   2000.0000   2000.0000     25.4456     56.2747
   593.5000   2000.0000   2000.0000     25.5324     57.5202
   593.7500   2000.0000   2000.0000     25.6725     58.9449
   594.0000   2000.0000   2000.0000     25.8208     61.1021
   594.2500   2000.0000   2000.0000     25.9531     62.7377
   594.5000   2000.0000   2000.0000     26.0743     66.9994
   594.7500   2000.0000   2000.0000     26.2049     71.8418
   595.0000   2000.0000   2000.0000     26.3583     81.6767
   595.2500   2000.0000   2000.0000     26.5218     88.4814
   595.5000   2000.0000   2000.0000     26.6517     95.8184
   595.7500   2000.0000   2000.0000     26.6813     97.4523
   596.0000   2000.0000   2000.0000     26.5418     94.5938
   596.2500   2000.0000   2000.0000     26.1898     89.9609
   596.5000   2000.0000   2000.0000     25.6292     81.5731
   596.7500   2000.0000   2000.0000     24.9139     76.8581
   597.0000   2000.0000   2000.0000     24.1250     73.5477
   597.2500   2000.0000   2000.0000     23.3392     74.2571
   597.5000   2000.0000   2000.0000     22.6109     78.5633
   597.7500   2000.0000   2000.0000     21.9723     82.5800
   598.0000   2000.0000   2000.0000     21.4426     89.3445
   598.2500   2000.0000   2000.0000     21.0326     94.2173
   598.5000   2000.0000   2000.0000     20.7434    101.4275
   598.7500   2000.0000   2000.0000     20.5599    105.1503
   599.0000   2000.0000   2000.0000     20.4460    107.0043
   599.2500   2000.0000   2000.0000     20.3450    105.0857
   599.5000   2000.0000   2000.0000     20.1896     97.9753
   599.7500   2000.0000   2000.0000     19.9201     91.3669
   600.0000   2000.0000   2000.0000     19.5049     80.3719
   600.2500   2000.0000   2000.0000     18.9572     73.1184
   600.5000   2000.0000   2000.0000     18.3384     63.8180
   600.7500   2000.0000   2000.0000     17.7404     59.8097
   601.0000   2000.0000   2000.0000     17.2556     58.8814
   601.2500   2000.0000   2000.0000     16.9498     62.0005
   601.5000   2000.0000   2000.0000     16.8471     71.3372
   601.7500   2000.0000   2000.0000     16.9253     79.4114
   602.0000   2000.0000   2000.0000     17.1164     91.3642
   602.2500   2000.0000   2000.0000     17.3145     97.4353
   602.5000   2000.0000   2000.0000     17.4030    101.9363
   602.7500   2000.0000   2000.0000     17.2981    102.2259
   603.0000   2000.0000   2000.0000     16.9830    100.9641
   603.2500   2000.0000   2000.0000     16.5038    100.3904
   603.5000   2000.0000   2000.0000     15.9337    101.1316
   603.7500   2000.0000   2000.0000     15.3382    102.6819
   604.0000   2000.0000   2000.0000     14.7631    105.7489
   604.2500   2000.0000   2000.0000     14.2376    107.7343
   604.5000   2000.0000   2000.0000     13.7786    110.6240
   604.7500   2000.0000   2000.0000     13.3924    113.1039
   605.0000   2000.0000   2000.0000     13.0755    118.4336
   605.2500   2000.0000   2000.0000     12.8194    122.7922
