~Version Information
VERS.                      2.0: CWLS Log ASCII Standard - VERSION 2.0
WRAP.                       NO: One line per depth step
~Well Information Block
STRT.FT                 0.0000: 
STOP.FT              1538.0000: 
STEP.FT                 0.2500: 
NULL.                -999.2500: 
COMP.          Pioneer Natural Resources: COMPANY
WELL.           Butch 33-10 TR: WELL
FLD.           Purgatorie River: FIELD
LOC.           2309' FSL & 1337' FEL: LOCATION
PROV.                 Colorado: PROVINCE
CNTY.               Las Animas: COUNTRY
SRVC.                Patterson: SERVICE COMPANY
DATE.          Thu Jan 19 12:40:27 2006: LOG DATE
UWI.                          : UNIQUE WELL ID
~Curve Information Block
DEPT.FT            0 000 00 00: Depth
CCL.                          : Casing Collar Locator
TT3.usec                      : CBL 3' Travel Time
AMP3.mV                       : CBL 3' Amplitude
GR.GAPI                       : Gamma Ray
~Parameter Information Block
~A  Depth       CCL         TT3         AMP3         GR     
# ...
   904.5000      0.0000    659.5339      5.0825     54.9147
   904.7500      0.0000    634.7163      5.0486     59.9187
   905.0000      0.0000    584.1177      5.0325     63.4054
   905.2500      0.0000    519.7210      5.0333     64.3195
   905.5000      0.0000    465.8486      5.0150     62.9937
   905.7500      0.0000    436.8535      4.9506     60.6558
   906.0000      0.0000    428.9619      4.8477     58.7050
   906.2500      0.0000    432.3698      4.7245     58.2041
   906.5000      0.0000    443.3982      4.6030     59.5023
   906.7500      0.0000    469.9461      4.4837     62.1082
   907.0000      0.0000    521.7283      4.3447     65.0460
   907.2500      0.0000    586.8980      4.1975     67.6129
   907.5000      0.0000    634.6708      4.0709     69.9430
   907.7500      0.0000    648.9695      3.9581     72.6682
   908.0000      0.0000    640.7383      3.8491     75.8823
   908.2500      0.0000    627.6492      3.7554     78.8030
   908.5000      0.0000    617.8977      3.6812     80.7271
   908.7500      0.0000    612.2670      3.6297     81.9404
   909.0000      0.0000    610.1758      3.6083     83.1629
   909.2500      0.0000    612.0681      3.6086     84.2822
   909.5000      0.0000    620.3207      3.6233     84.1787
   909.7500      0.0000    636.7445      3.6623     81.8821
   910.0000      0.0000    657.3760      3.7320     77.6039
   910.2500      0.0000    674.0541      3.8460     72.6110
   910.5000      0.0000    682.5930      4.0178     68.2536
   910.7500      0.0000    684.5782      4.2076     65.0969
   911.0000      0.0000    682.2844      4.3623     62.8080
   911.2500      0.0000    676.6514      4.4858     60.7281
   911.5000      0.0000    669.3949      4.5998     58.4413
   911.7500      0.0000    663.3257      4.7139     55.9420
   912.0000      0.0000    659.9387      4.8578     53.6361
   912.2500      0.0000    658.6544      5.0445     52.3555
   912.5000      0.0000    657.7909      5.2452     52.9354
   912.7500      0.0000    654.2218      5.4797     55.3614
   913.0000      0.0000    643.3972      5.8106     58.5292
   913.2500      0.0000    624.1130      6.2117     61.1916
   913.5000      0.0000    601.5758      6.5840     63.0164
   913.7500      0.0000    579.3104      6.9129     64.4738
   914.0000      0.0000    556.1109      7.3045     65.8354
   914.2500      0.0000    535.0804      7.8661     66.5884
   914.5000      0.0000    521.1821      8.6121     65.8637
   914.7500      0.0000    509.4669      9.5046     63.3298
   915.0000      0.0000    486.2931     10.5346     59.6599
   915.2500      0.0000    448.2874     11.7153     56.1622
   915.5000      0.0000    411.1605     13.0332     53.9954
   915.7500      0.0000    388.8840     14.4574     53.6396
   916.0000      0.0000    378.2568     15.9503     54.8122
   916.2500      0.0000    368.0247     17.4367     56.7259
   916.5000      0.0000    351.3495     18.8177     58.4518
   916.7500      0.0000    330.8093     20.0138     59.1640
   917.0000      0.0000    314.3301     20.9378     58.4528
   917.2500      0.0000    306.0898     21.4710     56.7752
   917.5000      0.0000    304.9030     21.5110     55.3250
   917.7500      0.0000    309.8411     21.0159     54.9425
   918.0000      0.0000    322.0959     20.0213     55.2333
   918.2500      0.0000    340.8321     18.6558     55.1600
   918.5000      0.0000    361.2819     17.0954     54.4291
   918.7500      0.0000    380.0369     15.4491     53.9003
   919.0000      0.0000    399.0737     13.7362     54.6350
   919.2500      0.0000    423.4364     12.0589     56.8211
   919.5000      0.0000    462.2260     10.6576     59.5890
   919.7500      0.0000    523.5607      9.5571     61.6657
   920.0000      0.0000    590.9001      8.5726     62.3989
   920.2500      0.0000    631.3429      7.8142     62.4367
   920.5000      0.0000    644.9977      7.5255     63.2241
   920.7500     -2.0000    658.1831      7.6490     65.5425
   921.0000      2.0000    671.0411      7.9750     68.6740
   921.2500      0.0000    657.8054      8.4101     71.1834
   921.5000      0.0000    601.3204      8.9809     72.2879
   921.7500      0.0000    514.4490      9.8039     72.2459
   922.0000      0.0000    436.3623     11.1606     71.7576
   922.2500      0.0000    398.5735     13.1681     71.4262
   922.5000      0.0000    398.7706     15.2427     71.5866
   922.7500      0.0000    406.1681     16.8766     72.2054
   923.0000      0.0000    392.2725     18.5598     73.1059
   923.2500      0.0000    359.4385     20.6620     74.5627
   923.5000      0.0000    328.5142     22.6050     77.3887
   923.7500      0.0000    310.7017     23.8103     82.3752
   924.0000      0.0000    303.6576     24.3143     90.1183
   924.2500      0.0000    301.6526     24.4268    101.1836
   924.5000      0.0000    301.2244     24.4118    115.5205
   924.7500      0.0000    301.1588     24.4315    131.4091
   925.0000      0.0000    301.1710     24.5397    145.4474
   925.2500      0.0000    301.2155     24.7317    154.0978
   925.5000      0.0000    301.3116     24.9958    155.7630
   925.7500      0.0000    301.7958     25.2261    151.7655
   926.0000      0.0000    304.7647     25.1330    145.2194
   926.2500      0.0000    317.8888     24.3600    138.7931
   926.5000      0.0000    356.7994     22.7207    133.5190
   926.7500      0.0000    432.6122     20.3676    129.1193
   927.0000      0.0000    528.8515     17.7794    124.6001
   927.2500      0.0000    608.4972     15.4708    118.7213
   927.5000      0.0000    652.3510     13.6271    110.7947
   927.7500      0.0000    670.3966     12.1105    101.2914
   928.0000      0.0000    678.1043     10.7625     91.3279
   928.2500      0.0000    680.6107      9.5294     81.5447
   928.5000      0.0000    677.9697      8.3766     71.7529
   928.7500      0.0000    672.8787      7.2722     61.6173
   929.0000      0.0000    668.8987      6.2448     51.3849
   929.2500      0.0000    667.1941      5.3683     41.9116
   929.5000      0.0000    668.0656      4.7197     34.2670
   929.7500      0.0000    672.7336      4.3615     29.4679
   930.0000      0.0000    681.9103      4.2795     28.3529
   930.2500      0.0000    693.2055      4.3657     31.2363
   930.5000      0.0000    702.4966      4.5299     37.3590
   930.7500      0.0000    709.1324      4.7457     44.7976
   931.0000      0.0000    718.5750      4.9744     51.3262
   931.2500      0.0000    738.0287      5.1549     55.6494
   931.5000      0.0000    762.3727      5.2795     57.8334
   931.7500      0.0000    768.2682      5.3984     58.5922
   932.0000      0.0000    743.4554      5.5485     58.3310
   932.2500      0.0000    709.9659      5.7202     56.9335
   932.5000      0.0000    693.8195      5.8716     54.2418
   932.7500      0.0000    694.8743      5.9405     50.4700
   933.0000      0.0000    698.9484      5.8963     46.1930
   933.2500      0.0000    698.8884      5.7905     42.1198
   933.5000      0.0000    697.7203      5.6878     38.8338
   933.7500      0.0000    698.6802      5.6265     36.5754
   934.0000      0.0000    698.4626      5.6984     35.3739
   934.2500      0.0000    692.5095      6.0318     35.5105
   934.5000      0.0000    681.9031      6.6730     37.6859
   934.7500      0.0000    670.7288      7.5692     42.4969
   935.0000      0.0000    660.0015      8.6635     49.7785
   935.2500      0.0000    649.6998      9.9543     58.6313
   935.5000      0.0000    642.5284     11.4765     68.2208
   935.7500      0.0000    634.0910     13.3227     78.4992
   936.0000      0.0000    603.1617     15.6766     89.8923
   936.2500      0.0000    531.6636     18.6681    102.1022
   936.5000      0.0000    436.4359     22.1217    113.4830
   936.7500      0.0000    358.2168     25.4691    121.9774
   937.0000      0.0000    317.4279     27.9307    126.5524
   937.2500      0.0000    303.8392     28.9171    127.5647
   937.5000      0.0000    301.1468     28.3952    126.1889
   937.7500      0.0000    301.2603     26.8427    123.8470
