~Version Information
 VERS.                                  2.0 : CWLS LAS VERSION
 WRAP.                                   NO : WRAPING MODE
 SWARE .                 MController 2.5.0N : SOFTWARE VERSION
~Well Information
 WELL.                        Cleaver 24-12 : WELL
 COMP.    Pioneer Natural Resources USA Inc : COMPANY
 FLD.                      Purgatoire River : FIELD
 LOC.                SE/SW Sec 12 T32S R67W : LOCATION
 DATE.                         1/05-06/2006 : DATE(S) LOGGED
 SRVC.       BLANCO Geological Services LLC : SERVICE COMPANY
 STAT.                                   CO : STATE
 CNTY.                           Las Animas : COUNTY
 CTRY.                                  USA : COUNTRY
 API.                       05-071-08634-00 : API NUMBER
 STRT.FT                             461.00 : START DEPTH
 STOP.FT                            3055.00 : STOP DEPTH
 STEP.FT                               1.00 : DEPTH INCREMENT
 NULL.                                -9999 : NULL VALUE
~Curve information
 DEPTH.FT                                   :
 ROP.MIN/FT                                 :
 GAS.UNITS                                  :
~ASCII Log data
# ...
      2461.0         0.50         44.5 
      2462.0         0.43         11.9 
      2463.0         0.50         30.6 
      2464.0         0.47         12.3 
      2465.0         0.43         33.7 
      2466.0         0.30         31.7 
      2467.0         0.43         30.8 
      2468.0         0.62         34.9 
      2469.0         0.47         25.7 
      2470.0         0.57         49.2 
      2471.0         0.57         36.2 
      2472.0         0.47         44.2 
      2473.0         0.43         45.9 
      2474.0         0.42         24.5 
      2475.0         0.43         16.6 
      2476.0         0.43         29.1 
      2477.0         0.47         30.3 
      2478.0         0.43         18.9 
      2479.0         0.43         47.0 
      2480.0         0.40         30.5 
      2481.0         0.40         47.8 
      2482.0         0.45         38.6 
      2483.0         0.47         46.9 
      2484.0         0.30         60.3 
      2485.0         0.73         74.9 
      2486.0         8.48         89.0 
      2487.0         0.63         36.6 
      2488.0         0.57         34.6 
      2489.0         0.50         30.3 
      2490.0         0.47         17.7 
      2491.0         0.40         19.1 
      2492.0         0.37         21.4 
      2493.0         0.42         17.1 
      2494.0         0.47         27.2 
      2495.0         0.50         27.4 
      2496.0         0.53         23.6 
      2497.0         0.60         35.7 
      2498.0         0.57         37.5 
      2499.0         0.55         53.7 
      2500.0         0.87         64.4 
      2501.0         0.80         83.1 
      2502.0         0.53         66.9 
      2503.0         0.67         73.3 
      2504.0         0.62         77.7 
      2505.0         0.57         67.2 
      2506.0         0.60         69.9 
      2507.0         0.57         64.8 
      2508.0         0.40         72.8 
      2509.0         0.43         72.7 
      2510.0         0.47         83.4 
      2511.0         0.48         88.6 
      2512.0         0.50         74.9 
      2513.0         0.43         78.5 
      2514.0         0.33         67.6 
      2515.0         0.47         77.1 
      2516.0        13.33        232.1 
      2517.0         0.73        141.6 
      2518.0         0.68        197.1 
      2519.0         0.57        189.5 
      2520.0         0.57        131.2 
      2521.0         0.50         81.5 
      2522.0         0.47         34.7 
      2523.0         0.40         48.2 
      2524.0         0.50         38.2 
      2525.0         0.42         47.1 
      2526.0         0.43         63.1 
      2527.0         0.43         61.9 
      2528.0         0.53         74.4 
      2529.0         0.53         73.1 
      2530.0         0.50         85.9 
      2531.0         0.57         86.1 
      2532.0         0.55         78.7 
      2533.0         0.50         69.8 
      2534.0         0.47         60.0 
      2535.0         0.50         44.4 
      2536.0         0.57         36.9 
      2537.0         0.50         41.7 
      2538.0         0.43         53.6 
      2539.0         0.45         59.9 
      2540.0         0.53         71.5 
      2541.0         0.50         77.8 
      2542.0         0.30         59.1 
      2543.0         0.43        106.6 
      2544.0         0.37         83.8 
      2545.0         0.53         90.9 
      2546.0         7.92        151.4 
      2547.0         0.50        113.1 
      2548.0         0.33        118.4 
      2549.0         0.33        133.3 
      2550.0         0.63        149.2 
      2551.0         0.57         85.5 
      2552.0         0.52         52.1 
      2553.0         0.40         28.3 
      2554.0         0.33         26.5 
      2555.0         0.30         58.1 
      2556.0         0.33         46.4 
      2557.0         0.30         44.4 
      2558.0         0.57         61.0 
      2559.0         0.57         60.0 
      2560.0         0.55         56.4 
      2561.0         0.47         68.5 
      2562.0         0.40         60.0 
      2563.0         0.33         62.8 
      2564.0         0.30         61.2 
      2565.0         0.30         71.6 
      2566.0         0.30         67.0 
      2567.0         0.37         94.7 
      2568.0         0.27         63.6 
      2569.0         0.32         51.4 
      2570.0         0.30         78.7 
      2571.0         0.40         65.9 
      2572.0         1.00         68.7 
      2573.0         0.30         45.9 
      2574.0         0.30         81.9 
      2575.0         0.30         52.1 
      2576.0        13.23        197.0 
      2577.0         0.53         71.0 
      2578.0         0.48         73.0 
      2579.0         0.23         91.3 
      2580.0         0.43        104.9 
      2581.0         0.33         91.6 
      2582.0         0.33         80.0 
      2583.0         0.27         69.3 
      2584.0         0.27         63.3 
      2585.0         0.27         59.5 
      2586.0         0.27         53.6 
      2587.0         0.40         45.7 
      2588.0         0.98         58.4 
      2589.0         0.60         50.6 
      2590.0         1.37         26.8 
      2591.0         0.92         30.6 
      2592.0         0.43         33.3 
      2593.0         0.23         94.6 
      2594.0         0.20         83.4 
      2595.0         0.20         97.7 
      2596.0         0.20        119.6 
      2597.0         0.30         90.0 
      2598.0         0.40        100.0 
      2599.0         0.50         97.1 
      2600.0         0.43         81.3 
      2601.0         0.45         70.4 
      2602.0         0.30         55.4 
      2603.0         0.37        102.5 
      2604.0         0.27         93.6 
      2605.0         0.20         99.0 
      2606.0         6.30        127.6 
      2607.0         0.57         27.9 
      2608.0         0.53         23.5 
      2609.0         0.63         25.3 
      2610.0         0.57         19.7 
      2611.0         0.68         23.7 
      2612.0         0.67         40.0 
      2613.0         0.70         34.8 
      2614.0         0.60         28.1 
      2615.0         0.70         12.3 
      2616.0         0.68         10.0 
      2617.0         0.73         23.8 
      2618.0         0.33         33.9 
      2619.0         0.50         28.6 
      2620.0         0.37         27.1 
      2621.0         0.47         27.5 
      2622.0         0.27         24.3 
      2623.0         0.42         24.6 
      2624.0         0.57         30.1 
      2625.0         0.70         36.4 
      2626.0         0.63         43.3 
      2627.0         0.67         41.6 
      2628.0         0.30         14.6 
      2629.0         0.38         16.3 
      2630.0         0.43         15.1 
      2631.0         0.47         12.9 
      2632.0         0.90         19.5 
      2633.0         9.35        125.3 
      2634.0         0.80        122.3 
      2635.0         0.73        146.0 
      2636.0         3.28        144.4 
      2637.0         1.18         52.2 
      2638.0         0.97         81.3 
      2639.0         0.63         55.4 
      2640.0         0.70        105.6 
      2641.0         0.45        132.7 
      2642.0         0.60        126.1 
      2643.0         0.57         56.2 
      2644.0         0.60         34.7 
      2645.0         0.60         25.3 
      2646.0         0.63         17.2 
      2647.0         0.65         18.2 
      2648.0         0.63         27.3 
      2649.0         0.63         23.5 
      2650.0         0.63         15.9 
      2651.0         0.57         24.6 
      2652.0         0.53         35.0 
      2653.0         0.52         37.8 
      2654.0         0.47         34.2 
      2655.0         0.47         36.5 
      2656.0         0.40         19.7 
      2657.0         0.33         19.5 
      2658.0         0.40         29.2 
      2659.0         0.53         33.9 
      2660.0         0.55         26.0 
