~Version Information
VERS.                      2.0: CWLS Log ASCII Standard - VERSION 2.0
WRAP.                       NO: One line per depth step
~Well Information Block
STRT.FT                 0.0000: 
STOP.FT              1981.7500: 
STEP.FT                 0.2500: 
NULL.                -999.2500: 
COMP.          Petrogulf Corporation: COMPANY
WELL.          Collister 17-31R: WELL
FLD.           Purgatorie River: FIELD
LOC.           962' FNL & 1520' FEL: LOCATION
STAT.                 Colorado: State
CNTY.               Las Animas: COUNTY
CTRY. USA : Country
SECT. 17 : Section
TOWN. 33S : Township
RANG. 67W : Range
SRVC.                Patterson: SERVICE COMPANY
DATE.          Fri Jan 06 10:32:29 2006: LOG DATE
API. 05-071-08436                         : UNIQUE WELL ID
~Curve Information Block
DEPT.FT            0 000 00 00: Depth
CCL.                          : Casing Collar Locator
TT3.usec                      : CBL 3' Travel Time
AMP3.mV                       : CBL 3' Amplitude
GR.GAPI                       : Gamma Ray
~Parameter Information Block
~A  Depth       CCL         TT3         AMP3         GR     
# ...
   770.5000      0.0000    626.6273     11.0361     62.1968
   770.7500      0.0000    585.9443     10.6221     62.7520
   771.0000      0.0000    540.9467     10.2723     62.1005
   771.2500      0.0000    505.8105      9.8438     61.2893
   771.5000      0.0000    494.2507      9.1961     61.8602
   771.7500      0.0000    510.8146      8.4459     64.4500
   772.0000      0.0000    544.6490      7.8855     68.1250
   772.2500      0.0000    582.9061      7.5044     71.1275
   772.5000      0.0000    617.8392      7.0743     72.2615
   772.7500      0.0000    640.5615      6.6532     71.4092
   773.0000      0.0000    647.2083      6.4138     69.0404
   773.2500     -2.0000    642.7526      6.3159     65.8931
   773.5000      2.0000    633.0256      6.2514     63.0746
   773.7500      0.0000    625.5046      6.1849     61.6388
   774.0000      0.0000    628.6436      6.1126     61.6366
   774.2500      0.0000    638.7346      6.0255     62.0146
   774.5000      0.0000    640.9233      5.9489     61.8087
   774.7500      0.0000    629.8705      5.9397     61.2146
   775.0000      0.0000    615.8024      5.9516     61.2481
   775.2500      0.0000    606.0369      5.8791     62.5897
   775.5000      0.0000    593.9766      5.7477     65.0895
   775.7500      0.0000    573.1970      5.6473     68.3206
   776.0000      0.0000    548.6295      5.6066     72.2224
   776.2500      0.0000    525.3484      5.6043     76.9327
   776.5000      0.0000    500.0367      5.5976     82.0918
   776.7500      0.0000    468.7877      5.5717     86.7328
   777.0000      0.0000    435.4546      5.5589     90.1257
   777.2500      0.0000    408.5819      5.5969     92.5088
   777.5000      0.0000    392.7270      5.6945     94.6132
   777.7500      0.0000    387.7257      5.8300     96.5584
   778.0000      0.0000    392.9023      5.9769     97.6036
   778.2500      0.0000    408.3063      6.1154     97.0157
   778.5000      0.0000    433.2183      6.2288     94.8098
   778.7500      0.0000    461.9848      6.3167     91.6299
   779.0000      0.0000    486.0926      6.3722     88.2834
   779.2500      0.0000    504.7378      6.3736     85.5018
   779.5000      0.0000    526.7083      6.3382     83.7308
   779.7500      0.0000    558.5350      6.3155     82.8932
   780.0000      0.0000    592.3504      6.3279     82.5870
   780.2500      0.0000    611.2833      6.3530     82.6463
   780.5000      0.0000    614.8503      6.3515     83.2542
   780.7500      0.0000    623.2560      6.3212     84.4056
   781.0000      0.0000    644.3962      6.2950     85.5046
   781.2500      0.0000    664.5017      6.2862     85.6858
   781.5000      0.0000    675.1394      6.2946     84.5390
   781.7500      0.0000    680.4254      6.3210     82.5103
   782.0000      0.0000    681.8807      6.3437     80.5452
   782.2500      0.0000    676.3789      6.3267     79.3473
   782.5000      0.0000    665.9564      6.2450     79.0555
   782.7500      0.0000    655.4097      6.1123     79.5050
   783.0000      0.0000    642.4810      5.9859     80.4341
   783.2500      0.0000    621.8831      5.9088     81.4157
   783.5000      0.0000    593.8331      5.8842     82.0368
   783.7500      0.0000    562.3143      5.8958     82.4798
   784.0000      0.0000    528.2068      5.8996     83.5991
   784.2500      0.0000    488.2658      5.8525     86.0304
   784.5000      0.0000    444.4129      5.7686     89.2400
   784.7500      0.0000    407.2878      5.6940     91.5467
   785.0000      0.0000    385.9519      5.6616     91.2011
   785.2500      0.0000    380.2726      5.6813     87.7892
   785.5000      0.0000    382.0080      5.7235     82.7441
   785.7500      0.0000    381.4756      5.7581     78.2932
   786.0000      0.0000    375.9381      5.7956     75.7053
   786.2500      0.0000    369.4789      5.8344     74.5322
   786.5000      0.0000    365.5645      5.8455     73.4435
   786.7500      0.0000    364.0339      5.8184     71.5073
   787.0000      0.0000    363.5364      5.7556     68.6772
   787.2500      0.0000    363.3381      5.6740     65.5082
   787.5000      0.0000    363.1909      5.6332     62.7292
   787.7500      0.0000    362.9082      5.6791     60.8221
   788.0000      0.0000    362.2835      5.7856     59.5693
   788.2500      0.0000    361.2234      5.9075     58.0594
   788.5000      0.0000    359.9480      6.0218     55.5365
   788.7500      0.0000    358.9585      6.1151     52.4258
   789.0000      0.0000    358.6594      6.1976     50.3107
   789.2500      0.0000    359.0212      6.2861     50.5497
   789.5000      0.0000    359.6764      6.3681     52.7938
   789.7500      0.0000    360.2980      6.4356     54.9793
   790.0000      0.0000    360.8418      6.4967     54.9509
   790.2500      0.0000    361.6417      6.5245     52.2287
   790.5000      0.0000    363.6831      6.4904     48.2477
   790.7500      0.0000    368.8954      6.4367     44.9604
   791.0000      0.0000    379.3878      6.4164     43.3527
   791.2500      0.0000    396.4327      6.4299     43.2320
   791.5000      0.0000    422.3309      6.4756     44.0334
   791.7500      0.0000    461.9196      6.5493     45.3962
   792.0000      0.0000    514.2452      6.6036     47.0118
   792.2500      0.0000    563.1816      6.6125     48.4603
   792.5000      0.0000    592.4063      6.6085     49.5907
   792.7500      0.0000    605.0943      6.6085     50.8385
   793.0000      0.0000    608.1788      6.6075     52.7749
   793.2500      0.0000    594.2784      6.6241     55.3503
   793.5000      0.0000    557.3912      6.6548     57.8215
   793.7500      0.0000    509.8383      6.6620     59.4254
   794.0000      0.0000    472.0307      6.6589     59.9387
   794.2500      0.0000    452.4102      6.7047     59.5328
   794.5000      0.0000    445.5700      6.7949     58.3527
   794.7500      0.0000    444.9482      6.8671     56.6222
   795.0000      0.0000    450.8595      6.9124     55.0997
   795.2500      0.0000    470.0075      6.9635     54.7980
   795.5000      0.0000    507.3802      7.0009     55.9226
   795.7500      0.0000    555.6025      6.9754     57.5502
   796.0000      0.0000    598.9196      6.8872     58.6574
   796.2500      0.0000    625.5535      6.7732     59.0007
   796.5000      0.0000    624.2100      6.6707     58.8300
   796.7500      0.0000    584.7111      6.6281     58.3521
   797.0000      0.0000    518.9359      6.6750     57.7609
   797.2500      0.0000    460.0802      6.7661     57.3445
   797.5000      0.0000    434.3000      6.8361     57.1407
   797.7500      0.0000    450.0312      6.8785     56.6819
   798.0000      0.0000    501.2107      6.9068     55.5660
   798.2500      0.0000    565.2797      6.9135     54.3407
   798.5000      0.0000    615.5107      6.9225     54.3500
   798.7500      0.0000    641.4771      6.9829     56.3851
   799.0000      0.0000    648.8396      7.0776     59.6531
   799.2500      0.0000    648.2287      7.1376     62.2482
   799.5000      0.0000    648.6367      7.1371     62.6086
   799.7500      0.0000    654.0736      7.0970     60.6092
   800.0000      0.0000    661.6458      7.0343     57.5429
   800.2500      0.0000    662.9623      6.9732     55.1757
   800.5000      0.0000    653.5341      6.9478     54.5666
   800.7500      0.0000    638.6833      6.9483     55.4468
   801.0000      0.0000    629.1763      6.9301     56.6155
   801.2500      0.0000    634.4376      6.8964     56.9775
   801.5000      0.0000    653.5302      6.8994     56.2776
   801.7500      0.0000    674.4084      6.9526     55.1028
   802.0000      0.0000    686.3683      7.0125     54.2991
   802.2500      0.0000    686.5458      7.0631     54.1882
   802.5000      0.0000    675.8401      7.1428     54.1677
   802.7500      0.0000    657.8257      7.2544     53.1857
   803.0000      0.0000    639.2026      7.3347     50.7542
   803.2500      0.0000    623.9016      7.3509     47.5006
   803.5000      0.0000    612.1112      7.3404     44.7494
   803.7500      0.0000    606.7386      7.3326     43.6320
