~Version Information
VERS.                      2.0: CWLS Log ASCII Standard - VERSION 2.0
WRAP.                       NO: One line per depth step
~Well Information Block
STRT.FT                -8.7500: 
STOP.FT              1035.7500: 
STEP.FT                 0.2500: 
NULL.                -999.2500: 
COMP.          Pioneer Natural Resources: COMPANY
WELL.                Mac 22-36: WELL
FLD.           Purgatorie River: FIELD
LOC.           2545' FNL & 1398' FWL--: LOCATION
PROV.                       CO: PROVINCE
CNTY.               Las Animas: COUNTRY
SRVC.          Patterson Wireline: SERVICE COMPANY
DATE.          Thu Dec 08 13:20:05 2005: LOG DATE
UWI.           08 071 08594 00: UNIQUE WELL ID
~Curve Information Block
DEPT.FT            0 000 00 00: Depth
CCL.                          : Casing Collar Locator
TT3.usec                      : CBL 3' Travel Time
AMP3.mV                       : CBL 3' Amplitude
GR.GAPI                       : Gamma Ray
~Parameter Information Block
~A  Depth       CCL         TT3         AMP3         GR     
# ...
   862.2500      0.0000    742.3822     10.8890     53.5444
   862.5000      0.0000    745.2123     10.8771     54.8522
   862.7500      0.0000    746.7776     10.8752     56.7005
   863.0000      0.0000    742.0786     10.8672     58.2063
   863.2500      0.0000    727.5359     10.8450     58.5803
   863.5000      0.0000    706.4884     10.8073     57.7304
   863.7500      0.0000    689.9346     10.7521     56.6294
   864.0000      0.0000    687.8426     10.6718     56.7393
   864.2500      0.0000    698.2911     10.5617     58.9152
   864.5000      0.0000    707.2094     10.4338     62.7626
   864.7500      0.0000    699.8710     10.3169     66.7073
   865.0000      0.0000    672.3647     10.2403     68.6690
   865.2500      0.0000    633.2460     10.2178     67.2608
   865.5000      0.0000    595.9884     10.2489     62.8066
   865.7500      0.0000    569.7756     10.3238     57.2377
   866.0000      0.0000    555.8696     10.4225     52.9368
   866.2500      0.0000    550.6081     10.5099     51.4315
   866.5000      0.0000    550.4401     10.5416     52.7324
   866.7500      0.0000    554.7892     10.4852     55.6137
   867.0000      0.0000    565.7249     10.3464     58.5172
   867.2500      0.0000    584.9183     10.1736     60.3930
   867.5000      0.0000    609.7630     10.0313     61.1045
   867.7500      0.0000    633.3195      9.9597     61.2564
   868.0000      0.0000    650.6196      9.9545     61.4105
   868.2500      0.0000    664.7502      9.9815     61.4525
   868.5000      0.0000    683.5381     10.0089     61.0033
   868.7500      0.0000    709.7953     10.0255     60.2568
   869.0000      0.0000    737.8113     10.0316     59.9253
   869.2500      0.0000    759.7462     10.0234     60.4904
   869.5000      0.0000    772.5562      9.9965     61.8154
   869.7500      0.0000    778.3234      9.9600     63.2886
   870.0000      0.0000    780.7155      9.9343     64.1301
   870.2500      0.0000    782.6323      9.9280     63.7639
   870.5000      0.0000    785.9430      9.9249     62.1408
   870.7500      0.0000    791.5804      9.8964     59.7701
   871.0000      0.0000    798.8211      9.8262     57.5016
   871.2500      0.0000    804.2972      9.7246     56.1618
   871.5000      0.0000    802.2372      9.6220     56.1449
   871.7500      0.0000    787.0118      9.5465     57.3001
   872.0000      0.0000    757.3277      9.5077     59.2214
   872.2500      0.0000    719.5272      9.4981     61.4465
   872.5000      0.0000    686.4384      9.5056     63.2688
   872.7500      0.0000    670.4125      9.5243     63.8881
   873.0000      0.0000    674.6716      9.5590     63.3857
   873.2500      0.0000    690.0641      9.6245     63.3003
   873.5000      0.0000    700.3562      9.7372     65.4949
   873.7500      0.0000    691.6011      9.9035     70.2768
   874.0000      0.0000    658.7509     10.1173     75.8527
   874.2500      0.0000    606.7267     10.3627     79.6464
   874.5000      0.0000    547.0596     10.6127     80.1828
   874.7500      0.0000    492.3706     10.8282     78.0336
   875.0000      0.0000    451.2411     10.9672     75.2406
   875.2500      0.0000    425.7651     11.0026     73.7001
   875.5000      0.0000    412.7478     10.9314     73.6548
   875.7500      0.0000    407.1744     10.7714     73.5574
   876.0000      0.0000    405.1329     10.5493     71.5648
   876.2500      0.0000    404.7516     10.2880     67.2240
   876.5000      0.0000    406.0525     10.0005     61.7398
   876.7500      0.0000    411.1598      9.6954     56.9939
   877.0000      0.0000    425.0675      9.3871     54.5743
   877.2500      0.0000    455.0749      9.1001     55.3211
   877.5000      0.0000    506.6887      8.8596     59.0875
   877.7500      0.0000    577.2351      8.6738     64.5693
   878.0000      0.0000    653.6393      8.5182     69.6540
   878.2500      0.0000    719.1295      8.3345     72.7600
   878.5000      0.0000    764.1282      8.0624     74.2724
   878.7500      0.0000    791.1650      7.7112     75.9812
   879.0000      0.0000    809.8964      7.4154     78.5289
   879.2500      0.0000    827.5907      7.3639     80.0389
   879.5000      0.0000    843.7006      7.6247     77.9129
   879.7500      0.0000    853.1394      8.0610     71.5803
   880.0000      0.0000    854.3115      8.4462     63.0243
   880.2500      2.0000    852.2095      8.6253     55.1675
   880.5000      0.0000    852.7429      8.5662     50.2808
   880.7500      0.0000    856.0562      8.3291     49.2360
   881.0000      0.0000    857.2274      8.0328     51.2395
   881.2500      0.0000    851.8668      7.8139     54.3257
   881.5000      0.0000    839.4614      7.7685     56.7477
   881.7500      0.0000    823.0248      7.9224     57.9462
   882.0000      0.0000    807.8801      8.2419     58.0917
   882.2500      0.0000    799.9120      8.6477     57.3103
   882.5000      0.0000    802.0837      9.0341     55.9340
   882.7500      0.0000    811.5917      9.3191     54.8497
   883.0000      0.0000    821.6546      9.4867     54.6686
   883.2500      0.0000    826.7581      9.5721     54.8826
   883.5000      0.0000    826.0753      9.6147     54.6214
   883.7500      0.0000    822.4401      9.6350     53.8632
   884.0000      0.0000    818.8734      9.6416     53.2694
   884.2500      0.0000    815.7062      9.6410     53.2777
   884.5000      0.0000    810.3595      9.6370     53.9212
   884.7500      0.0000    800.3732      9.6288     55.1648
   885.0000      0.0000    787.4562      9.6146     56.8490
   885.2500      0.0000    778.0320      9.5981     58.4031
   885.5000      0.0000    778.3337      9.5918     59.1331
   885.7500      0.0000    788.6145      9.6130     58.9247
   886.0000      0.0000    803.0803      9.6735     58.3766
   886.2500      0.0000    815.2930      9.7682     58.0964
   886.5000      0.0000    822.5554      9.8705     58.0323
   886.7500      0.0000    825.5842      9.9373     57.6288
   887.0000      0.0000    825.8129      9.9249     56.4937
   887.2500      0.0000    823.6456      9.8096     54.8218
   887.5000      0.0000    818.6455      9.5979     53.3858
   887.7500      0.0000    811.1308      9.3228     53.1580
   888.0000      0.0000    803.6485      9.0305     54.5526
   888.2500      0.0000    800.0496      8.7669     56.8620
   888.5000      0.0000    801.9114      8.5662     58.5661
   888.7500      0.0000    805.7921      8.4433     58.3007
   889.0000      0.0000    803.9617      8.3922     55.8058
   889.2500      0.0000    787.6033      8.3922     52.3783
   889.5000      0.0000    751.5343      8.4166     50.3444
   889.7500      0.0000    700.6685      8.4392     51.3976
   890.0000      0.0000    653.3118      8.4387     55.1492
   890.2500      0.0000    633.0364      8.4026     59.6091
   890.5000      0.0000    651.4703      8.3321     63.0970
   890.7500      0.0000    698.0825      8.2419     65.2700
   891.0000      0.0000    748.1522      8.1524     66.4296
   891.2500      0.0000    780.0142      8.0787     66.6173
   891.5000      0.0000    785.4864      8.0218     65.8114
   891.7500      0.0000    769.6639      7.9666     64.5217
   892.0000      0.0000    746.1863      7.8908     63.4396
   892.2500      0.0000    730.3055      7.7807     62.5794
   892.5000      0.0000    730.5125      7.6435     61.3620
   892.7500      0.0000    744.5652      7.5025     59.6014
   893.0000      0.0000    763.1358      7.3804     58.0046
   893.2500      0.0000    775.8147      7.2864     57.6745
   893.5000      0.0000    775.3681      7.2178     59.2517
   893.7500      0.0000    761.5994      7.1697     62.2921
   894.0000      0.0000    742.5728      7.1382     65.2738
   894.2500      0.0000    729.3427      7.1152     66.3938
   894.5000      0.0000    728.2221      7.0874     64.6586
   894.7500      0.0000    737.6409      7.0456     60.4910
   895.0000      0.0000    750.2539      6.9975     55.6020
   895.2500      0.0000    757.2839      6.9673     52.2999
   895.5000      0.0000    753.6830      6.9812     52.3528
