~Version Information
VERS.                      2.0: CWLS Log ASCII Standard - VERSION 2.0
WRAP.                       NO: One line per depth step
~Well Information Block
STRT.FT               460.0000: 
STOP.FT              1498.0000: 
STEP.FT                 0.1000: 
NULL.                -999.2500: 
COMP.          Pioneer Natural Resources: COMPANY
WELL.           Amore 32-09 Tr: WELL
FLD.           Purgatoire River: FIELD
LOC.           1941' FNL & 2297' FEL: LOCATION
PROV.                 Colorado: PROVINCE
CNTY.               Las Animas: COUNTRY
SRVC.                Patterson: SERVICE COMPANY
DATE.          Mon Nov 14 13:24:57 2005: LOG DATE
UWI.           05 071 08584 00: UNIQUE WELL ID
~Curve Information Block
DEPT.FT            0 000 00 00: Depth
DCAL.in                       : CDL Caliper
RHOB.g/cc                     : CDL Bulk Density
RHOC.g/cc                     : CDL Density Correction
DPOR.pu                       : CDL Density Porosity
GR.GAPI                       : Gamma Ray
NPOR.pu                       : Neutron Porosity
~Parameter Information Block
~A  Depth       DCAL        RHOB        RHOC        DPOR         GR         NPOR    
   460.0000      3.3582      2.0998      0.1348     33.3480     61.9721     18.1036
   460.1000      3.3582      2.0931      0.1355     33.7517     67.8866     17.2488
   460.2000      3.3582      2.0914      0.1111     33.8566     66.9965     16.5303
   460.3000      3.3624      2.0919      0.1021     33.8256     63.4105     16.7510
   460.4000      3.3624      2.0932      0.1072     33.7437     59.5351     17.6524
   460.5000      3.3645      2.0916      0.1020     33.8431     54.6544     17.9363
   460.6000      3.3645      2.0870      0.1255     34.1189     52.1039     17.4881
   460.7000      3.3645      2.0853      0.0916     34.2254     57.0152     17.1029
   460.8000      3.3610      2.0917      0.0950     33.8334     65.3863     16.6968
   460.9000      3.3610      2.1023      0.1210     33.1915     69.0921     15.7843
   461.0000      3.3571      2.1089      0.0984     32.7951     67.4829     14.7988
   461.1000      3.3571      2.1125      0.1070     32.5783     64.5838     14.7135
   461.2000      3.3571      2.1190      0.0948     32.1839     62.1132     15.4611
   461.3000      3.3546      2.1293      0.0965     31.5601     57.6472     16.2399
   461.4000      3.3546      2.1348      0.1307     31.2254     51.6321     16.8496
   461.5000      3.3530      2.1286      0.1190     31.5993     50.6843     17.2829
   461.6000      3.3530      2.1142      0.1152     32.4706     57.9314     17.4968
   461.7000      3.3530      2.0958      0.0996     33.5881     66.9278     17.5315
   461.8000      3.3529      2.0817      0.0765     34.4427     70.4943     17.1927
   461.9000      3.3529      2.0791      0.0895     34.6001     69.3625     16.6591
   462.0000      3.3548      2.0779      0.0895     34.6748     68.9385     16.5716
   462.1000      3.3548      2.0725      0.0690     35.0005     70.7237     16.9554
   462.2000      3.3548      2.0771      0.0661     34.7208     73.2802     17.3910
   462.3000      3.3559      2.0911      0.1240     33.8701     77.5733     17.7524
   462.4000      3.3559      2.0957      0.1313     33.5946     82.0312     17.9537
   462.5000      3.3569      2.0891      0.0914     33.9913     82.6782     17.8130
   462.6000      3.3569      2.0858      0.0643     34.1963     80.1108     17.6164
   462.7000      3.3569      2.0894      0.1085     33.9769     78.8518     17.6694
   462.8000      3.3591      2.0944      0.0694     33.6714     80.0328     17.7073
   462.9000      3.3591      2.0995      0.1113     33.3654     78.0579     17.4231
   463.0000      3.3608      2.1032      0.1093     33.1377     71.1274     16.6979
   463.1000      3.3608      2.1061      0.1114     32.9645     63.4018     15.6471
   463.2000      3.3608      2.1082      0.0939     32.8351     58.7216     14.5705
   463.3000      3.3597      2.1058      0.0903     32.9846     60.2378     13.8824
   463.4000      3.3597      2.0984      0.0776     33.4327     67.2094     14.1328
   463.5000      3.3582      2.0913      0.0993     33.8578     73.2912     15.2739
   463.6000      3.3582      2.0908      0.1062     33.8896     73.8006     16.1094
   463.7000      3.3582      2.0953      0.1133     33.6210     71.2532     15.9461
   463.8000      3.3573      2.0990      0.0879     33.3915     71.4808     15.4556
   463.9000      3.3573      2.1030      0.0761     33.1528     74.0286     15.1063
   464.0000      3.3572      2.1104      0.0934     32.7013     72.0918     15.0502
   464.1000      3.3572      2.1185      0.1003     32.2093     67.0726     15.4527
   464.2000      3.3572      2.1204      0.0978     32.0954     65.6911     16.1220
   464.3000      3.3571      2.1173      0.0964     32.2870     65.9304     16.6083
   464.4000      3.3571      2.1146      0.1148     32.4487     63.4806     16.5085
   464.5000      3.3569      2.1138      0.0902     32.4963     60.1980     15.6458
   464.6000      3.3569      2.1124      0.1440     32.5848     58.7731     14.5327
   464.7000      3.3569      2.1032      0.1223     33.1386     58.7824     13.9568
   464.8000      3.3582      2.0853      0.0924     34.2259     60.7715     14.1638
   464.9000      3.3582      2.0685      0.0696     35.2421     62.9182     14.5993
   465.0000      3.3607      2.0608      0.0987     35.7115     61.3883     14.6859
   465.1000      3.3607      2.0611      0.0687     35.6923     59.0445     14.4664
   465.2000      3.3607      2.0664      0.0836     35.3701     59.8281     13.9885
   465.3000      3.3620      2.0737      0.0965     34.9273     61.2899     13.5981
   465.4000      3.3620      2.0831      0.0630     34.3549     60.9729     14.0037
   465.5000      3.3608      2.0950      0.1019     33.6374     60.3422     15.1240
   465.6000      3.3608      2.1075      0.1024     32.8815     59.6264     15.9431
   465.7000      3.3608      2.1144      0.1384     32.4592     60.4311     16.0096
   465.8000      3.3601      2.1073      0.1074     32.8915     65.7009     15.9174
   465.9000      3.3601      2.0944      0.1103     33.6739     72.1533     15.8292
   466.0000      3.3607      2.0881      0.1081     34.0561     71.5806     15.4921
   466.1000      3.3607      2.0875      0.0908     34.0891     64.6268     15.3693
   466.2000      3.3607      2.0922      0.0561     33.8033     59.4554     15.3631
   466.3000      3.3608      2.1008      0.0883     33.2855     58.4231     14.9159
   466.4000      3.3608      2.1044      0.1244     33.0637     57.0433     14.5307
   466.5000      3.3636      2.0983      0.0998     33.4335     53.3132     14.7226
   466.6000      3.3636      2.0878      0.1067     34.0717     52.2925     15.2016
   466.7000      3.3636      2.0847      0.0709     34.2615     56.7692     15.7038
   466.8000      3.3670      2.0953      0.1032     33.6205     62.3648     16.1887
   466.9000      3.3670      2.1136      0.1134     32.5104     64.5417     16.1309
   467.0000      3.3646      2.1310      0.1062     31.4536     63.9903     15.1962
   467.1000      3.3646      2.1396      0.1215     30.9352     61.7754     14.2642
   467.2000      3.3646      2.1321      0.1415     31.3889     54.4089     13.9672
   467.3000      3.3604      2.1135      0.1029     32.5151     49.9977     13.9072
   467.4000      3.3604      2.0960      0.1340     33.5755     51.3514     13.7447
   467.5000      3.3598      2.0826      0.0816     34.3892     56.9364     13.5483
   467.6000      3.3598      2.0746      0.0760     34.8707     64.7208     13.5001
   467.7000      3.3598      2.0779      0.0703     34.6740     72.8561     13.5545
   467.8000      3.3611      2.0936      0.0792     33.7208     77.0849     13.3828
   467.9000      3.3611      2.1148      0.0887     32.4392     73.7681     12.8433
   468.0000      3.3595      2.1324      0.1189     31.3710     65.9062     12.3299
   468.1000      3.3595      2.1434      0.1124     30.7053     62.9447     12.3839
   468.2000      3.3595      2.1504      0.1011     30.2811     60.7840     12.8031
   468.3000      3.3575      2.1585      0.0922     29.7880     65.0538     12.9769
   468.4000      3.3575      2.1711      0.1086     29.0248     62.0759     12.7622
   468.5000      3.3562      2.1805      0.1500     28.4535     55.8886     12.4520
   468.6000      3.3562      2.1776      0.1433     28.6296     51.5546     12.4285
   468.7000      3.3562      2.1662      0.1217     29.3203     48.3510     12.7229
   468.8000      3.3544      2.1514      0.1230     30.2186     48.2510     13.0663
   468.9000      3.3544      2.1331      0.1082     31.3302     51.5605     13.1678
   469.0000      3.3544      2.1191      0.0824     32.1736     52.9922     13.0537
   469.1000      3.3544      2.1200      0.0526     32.1219     51.0339     13.1431
   469.2000      3.3544      2.1299      0.1368     31.5200     44.4889     13.7357
   469.3000      3.3572      2.1366      0.1227     31.1140     47.2514     14.6262
   469.4000      3.3572      2.1403      0.0909     30.8914     48.4422     14.8941
   469.5000      3.3579      2.1455      0.1079     30.5746     43.9158     13.9423
