~Version Information
VERS.                      2.0: CWLS Log ASCII Standard - VERSION 2.0
WRAP.                       NO: One line per depth step
~Well Information Block
STRT.FT                 0.0000: 
STOP.FT              1193.0000: 
STEP.FT                 0.1000: 
NULL.                -999.2500: 
COMP.          Pioneer Natural Resources: COMPANY
WELL.          Big Pine 32-15 Tr: WELL
FLD.           Purgatorie River: FIELD
LOC.           2546' FNL & 1451' FEL: LOCATION
STAT.                 Colorado: State
CNTY.               Las Animas: COUNTY
CTRY. USA : Country
SECT. 15 : Section
TOWN. 33S : Township
RANG. 67W : Range
SRVC.                Patterson: SERVICE COMPANY
DATE.          Tue Nov 08 07:11:35 2005: LOG DATE
API. 05-071-08604                         : UNIQUE WELL ID
~Curve Information Block
DEPT.FT            0 000 00 00: Depth
DCAL.in                       : CDL Caliper
RHOB.g/cc                     : CDL Bulk Density
RHOC.g/cc                     : CDL Density Correction
DPOR.pu                       : CDL Density Porosity
GR.GAPI                       : Gamma Ray
NPOR.pu                       : Neutron Porosity
~Parameter Information Block
~A  Depth       DCAL        RHOB        RHOC        DPOR         GR         NPOR    
# ...
   393.6000     -2.8029      3.1369      2.0000      0.0097    130.0554     22.4495
   393.7000     -2.8029      3.1350      2.0000      0.0097    125.1769     22.4457
   393.8000     -2.8029      3.0579      2.0000      0.0082    125.9549     21.9893
   393.9000     -2.8029      2.9299      2.0000      0.0056    131.7206     21.4714
   394.0000     -2.8029      2.7867      2.0000      0.0027    135.4118     21.1847
   394.1000     -2.8029      2.6568      2.0000      0.0001    134.6847     20.9517
   394.2000     -2.8029      2.5608      2.0000     -0.0018    133.2645     20.7987
   394.3000     -2.8029      2.4919      2.0000     -0.0032    132.2355     20.9982
   394.4000     -2.8029      2.4191      2.0000     -0.0046    131.8721     21.4490
   394.5000     -2.8029      2.3608      2.0000     -0.0058    132.2947     21.7652
   394.6000     -2.8029      2.3569      2.0000     -0.0059    132.5425     21.9422
   394.7000     -2.8029      2.3842      2.0000     -0.0053    134.2545     22.0565
   394.8000     -2.8029      2.3911      2.0000     -0.0052    139.2600     22.0493
   394.9000     -2.8029      2.3697      2.0000     -0.0056    144.7791     22.1923
   395.0000     -2.8029      2.3498      2.0000     -0.0060    145.5036     22.5271
   395.1000     -2.8029      2.3430      2.0000     -0.0061    142.9074     22.6591
   395.2000     -2.8029      2.3291      2.0000     -0.0064    144.8301     22.6912
   395.3000     -2.8029      2.3215      2.0000     -0.0066    152.3014     22.8110
   395.4000     -2.8029      2.3750      2.0000     -0.0055    156.7552     22.8856
   395.5000     -2.8029      2.4869      2.0000     -0.0033    156.3453     23.0158
   395.6000     -2.8029      2.5758      2.0000     -0.0015    159.2523     23.2994
   395.7000     -2.8029      2.6014      2.0000     -0.0010    167.8788     23.7533
   395.8000     -2.8029      2.6089      2.0000     -0.0008    174.6950     24.4274
   395.9000     -2.8029      2.6397      2.0000     -0.0002    175.4163     25.0932
   396.0000     -2.8029      2.7272      2.0000      0.0015    173.3260     25.4043
   396.1000     -2.8029      2.9092      2.0000      0.0052    171.4078     25.2711
   396.2000     -2.8029      3.1850      2.0000      0.0107    169.4575     25.0400
   396.3000     -2.8029      3.5377      2.0000      0.0178    168.3616     25.1316
   396.4000     -2.8029      3.9520      2.0000      0.0261    171.4770     25.4196
   396.5000     -2.8029      4.3708      2.0000      0.0344    177.8956     25.6383
   396.6000     -2.8029      4.7068      2.0000      0.0412    181.0218     25.5868
   396.7000     -2.8029      4.9155      2.0000      0.0453    178.0565     25.3342
   396.8000     -2.8029      5.0091      2.0000      0.0472    173.5867     25.2827
   396.9000     -2.8029      5.0228      2.0000      0.0475    173.1843     25.4451
   397.0000     -2.8029      5.0176      2.0000      0.0474    175.7796     25.5508
   397.1000     -2.8029      5.0705      2.0000      0.0484    176.9884     25.4845
   397.2000     -2.8029      5.1360      2.0000      0.0497    174.6082     25.4174
   397.3000     -2.8029      5.0826      2.0000      0.0487    171.5241     25.7113
   397.4000     -2.8029      4.9475      2.0000      0.0460    172.1957     26.2772
   397.5000     -2.8029      4.8348      2.0000      0.0437    176.2768     26.6841
   397.6000     -2.8029      4.7324      2.0000      0.0417    179.5380     26.9332
   397.7000     -2.8029      4.6404      2.0000      0.0398    179.6572     27.1065
   397.8000     -2.8029      4.6811      2.0000      0.0406    177.5537     26.9189
   397.9000     -2.8029      4.8714      2.0000      0.0445    173.8306     26.5641
   398.0000     -2.8029      4.9212      2.0000      0.0454    168.4765     26.7665
   398.1000     -2.8029      4.7056      2.0000      0.0411    164.1663     27.4480
   398.2000     -2.8029      4.5373      2.0000      0.0378    163.6477     27.9339
   398.3000     -2.8029      4.6186      2.0000      0.0394    164.4921     28.0554
   398.4000     -2.8029      4.8022      2.0000      0.0431    162.8877     27.9640
   398.5000     -2.8029      4.8960      2.0000      0.0449    159.2929     27.9814
   398.6000     -2.8029      4.8761      2.0000      0.0445    156.9061     28.2059
   398.7000     -2.8029      4.8672      2.0000      0.0444    158.1992     28.2515
   398.8000     -2.8029      4.9432      2.0000      0.0459    161.2876     28.1633
   398.9000     -2.8029      5.0587      2.0000      0.0482    161.7521     28.2492
   399.0000     -2.8029      5.2667      2.0000      0.0524    158.3556     28.2652
   399.1000     -2.8029      5.6096      2.0000      0.0592    153.4481     28.1281
   399.2000     -2.8029      5.8565      2.0000      0.0642    150.5932     28.1327
   399.3000     -2.8029      5.8317      2.0000      0.0637    153.6321     28.2819
   399.4000     -2.8029      5.7581      2.0000      0.0622    161.1335     28.3836
   399.5000     -2.8029      5.8107      2.0000      0.0632    165.1218     28.2462
   399.6000     -2.8029      5.9383      2.0000      0.0658    163.3710     27.7279
   399.7000     -2.8029      6.1578      2.0000      0.0702    160.6074     27.0504
   399.8000     -2.8029      6.4968      2.0000      0.0770    159.5406     26.7071
   399.9000     -2.8029      6.8209      2.0000      0.0835    159.3006     26.9256
   400.0000     -2.8029      6.7910      2.0000      0.0829    157.4876     27.6052
   400.1000     -2.8029      6.1148      2.0000      0.0693    156.1401     28.3332
   400.2000     -2.8029      4.5478      2.0000      0.0380    160.8568     28.6428
   400.3000     -2.8029      2.3974      2.0000     -0.0051    170.0165     28.4280
   400.4000     -2.8029      0.7820      2.0000     -0.0374    175.0941     27.9106
   400.5000     -2.8029      0.1456      2.0000     -0.0501    173.6185     27.3621
   400.6000     -2.8029      0.0149      2.0000     -0.0527    169.6520     26.8623
   400.7000     -2.8029      0.0008      2.0000     -0.0530    166.3673     26.5352
   400.8000     -2.8029      0.0000      2.0000     -0.0530    165.0128     26.5165
   400.9000     -2.8029      0.0000      2.0000     -0.0530    164.0750     26.5644
   401.0000     -2.8029      0.0000      2.0000     -0.0530    160.8162     26.3558
   401.1000     -2.8029      0.0000      2.0000     -0.0530    154.2433     25.9878
   401.2000     -2.8029      0.0000      2.0000     -0.0530    146.6090     25.6633
   401.3000     -2.8029      0.0000      2.0000     -0.0530    141.6563     25.3736
   401.4000     -2.8029      0.0000      2.0000     -0.0530    139.2464     25.0849
   401.5000     -2.8029      0.0000      2.0000     -0.0530    137.1857     24.8982
   401.6000     -2.8029      0.0000      2.0000     -0.0530    137.6014     24.8473
   401.7000     -2.8029      0.0000      2.0000     -0.0530    143.1317     24.8288
   401.8000     -2.8029      0.0000      2.0000     -0.0530    151.0388     24.7966
   401.9000     -2.8029      0.0000      2.0000     -0.0530    157.6009     24.6067
   402.0000     -2.8029      0.0000      2.0000     -0.0530    160.4646     24.2951
   402.1000     -2.8029      0.0000      2.0000     -0.0530    157.7202     24.2462
   402.2000     -2.8029      0.0008      2.0000     -0.0530    152.1349     24.4332
   402.3000     -2.8029      0.0147      2.0000     -0.0527    149.0640     24.5100
   402.4000     -2.8029      0.1440      2.0000     -0.0501    148.7435     24.5402
   402.5000     -2.8029      0.7718      2.0000     -0.0376    148.0170     24.6346
   402.6000     -2.8029      2.3485      2.0000     -0.0060    146.0071     24.6021
   402.7000     -2.8029      4.3600      2.0000      0.0342    144.2433     24.4549
   402.8000     -2.8029      5.5850      2.0000      0.0587    142.9909     24.4570
   402.9000     -2.8029      5.6723      2.0000      0.0605    141.2197     24.7141
   403.0000     -2.8029      4.9483      2.0000      0.0460    139.0470     25.0025
   403.1000     -2.8029      4.2208      2.0000      0.0314    139.5650     24.9445
