~Version Information
VERS.                      2.0: CWLS Log ASCII Standard - VERSION 2.0
WRAP.                       NO: One line per depth step
~Well Information Block
STRT.FT               860.0000: 
STOP.FT              2362.5000: 
STEP.FT                 0.2500: 
NULL.                -999.2500: 
COMP.          Pioneer Natural Resources: COMPANY
WELL.            Cayenne 23-23: WELL
FLD.           Purgatoire River: FIELD
LOC.           2555' FSL & 2386' FWL: LOCATION
PROV.                 Colorado: PROVINCE
CNTY.               Las Animas: COUNTRY
SRVC.                Patterson: SERVICE COMPANY
DATE.          Wed Aug 17 06:47:40 2005: LOG DATE
UWI.           05 071 08476 00: UNIQUE WELL ID
~Curve Information Block
DEPT.FT            0 000 00 00: Depth
SN.Ohm-m                      : IEL Short Normal
SP.mV                         : IEL Spontaneous Potential
DIR.Ohm-m                     : IEL Induction Resistivity
GR.GAPI                       : Gamma Ray
~Parameter Information Block
~A  Depth        SN          SP         DIR          GR     
# ...
  2233.5000     11.2846     81.2601     10.4777     70.8081
  2233.7500     11.3375     78.6320     10.4923     68.9706
  2234.0000     11.3496     76.3343     10.4813     66.7413
  2234.2500     11.3524     74.7953     10.4496     65.8480
  2234.5000     11.3424     74.4629     10.4059     65.6141
  2234.7500     11.3041     75.5701     10.3621     66.2609
  2235.0000     11.2766     77.8873     10.3317     68.6446
  2235.2500     11.2811     80.6922     10.3278     71.3164
  2235.5000     11.2423     83.0861     10.3623     77.0985
  2235.7500     11.0813     84.4613     10.4447     82.1085
  2236.0000     10.8243     84.7348     10.5793     90.7705
  2236.2500     10.5870     84.2033     10.7619     96.4966
  2236.5000     10.4851     83.2454     10.9790    103.1493
  2236.7500     10.5429     82.1432     11.2123    105.3319
  2237.0000     10.6955     81.0644     11.4457    104.2857
  2237.2500     10.9122     80.0981     11.6696    100.7040
  2237.5000     11.2425     79.2779     11.8837     92.1332
  2237.7500     11.6745     78.6030     12.0957     85.5088
  2238.0000     12.0930     78.0712     12.3186     76.3896
  2238.2500     12.4716     77.7120     12.5674     71.6768
  2238.5000     12.9467     77.5794     12.8549     67.1698
  2238.7500     13.6654     77.7005     13.1914     65.9051
  2239.0000     14.6623     78.0252     13.5855     66.4033
  2239.2500     15.7564     78.4326     14.0433     67.9061
  2239.5000     16.5552     78.7922     14.5628     70.6828
  2239.7500     16.8242     79.0257     15.1259     72.1649
  2240.0000     16.7588     79.1290     15.6917     73.0940
  2240.2500     16.7131     79.1516     16.2007     72.7241
  2240.5000     16.8664     79.1483     16.5909     70.7942
  2240.7500     17.2073     79.1354     16.8210     68.7299
  2241.0000     17.6382     79.0799     16.8845     64.7837
  2241.2500     18.0870     78.9317     16.8096     61.9387
  2241.5000     18.5682     78.6682     16.6460     58.2802
  2241.7500     19.1124     78.3099     16.4477     56.6790
  2242.0000     19.7001     77.9063     16.2541     55.4917
  2242.2500     20.2540     77.5258     16.0746     55.1574
  2242.5000     20.6292     77.2633     15.8858     54.9847
  2242.7500     20.7224     77.2348     15.6469     55.2289
  2243.0000     20.5886     77.5315     15.3242     56.5645
  2243.2500     20.3495     78.1617     14.9126     58.2108
  2243.5000     20.0557     79.0309     14.4368     61.8621
  2243.7500     19.6380     79.9813     13.9372     65.1522
  2244.0000     18.9825     80.8540     13.4521     71.3966
  2244.2500     18.0898     81.5329     13.0085     76.2469
  2244.5000     17.1115     81.9559     12.6243     83.8932
  2244.7500     16.2188     82.0998     12.3133     88.7621
  2245.0000     15.4910     81.9539     12.0880     94.9880
  2245.2500     14.9138     81.5116     11.9581     98.2319
  2245.5000     14.4792     80.8023     11.9282    102.0588
  2245.7500     14.2541     79.9472     11.9964    104.2679
  2246.0000     14.2484     79.1756     12.1512    107.1084
  2246.2500     14.3517     78.7483     12.3701    108.1760
  2246.5000     14.5237     78.8128     12.6216    107.2800
  2246.7500     14.8610     79.3046     12.8765    104.4479
  2247.0000     15.4656     79.9938     13.1210     96.4583
  2247.2500     16.4452     80.6495     13.3682     88.8764
  2247.5000     18.0663     81.1819     13.6621     75.6516
  2247.7500     20.7470     81.6597     14.0762     67.0736
  2248.0000     24.7356     82.2201     14.7005     57.1823
  2248.2500     29.7253     82.9629     15.6139     53.5671
  2248.5000     34.8269     83.8937     16.8490     52.9758
  2248.7500     38.9768     84.9282     18.3606     55.4038
  2249.0000     41.3982     85.9382     20.0226     61.9659
  2249.2500     41.8563     86.8085     21.6659     67.1301
  2249.5000     40.7251     87.4730     23.1401     73.4370
  2249.7500     38.7745     87.9182     24.3492     75.3464
  2250.0000     36.6717     88.1644     25.2437     74.4291
  2250.2500     34.6792     88.2521     25.7943     72.4323
  2250.5000     32.8215     88.2400     25.9812     70.0149
  2250.7500     31.1407     88.2031     25.8101     69.7443
  2251.0000     29.7145     88.2141     25.3341     71.4006
  2251.2500     28.5523     88.3093     24.6525     73.2214
  2251.5000     27.5724     88.4662     23.8782     75.4622
  2251.7500     26.6465     88.6247     23.0985     75.9834
  2252.0000     25.7101     88.7396     22.3613     75.4300
  2252.2500     24.8500     88.8079     21.6871     74.8708
  2252.5000     24.1621     88.8485     21.0873     75.2192
  2252.7500     23.6118     88.8730     20.5715     76.8774
  2253.0000     23.1292     88.8809     20.1442     81.7375
  2253.2500     22.6964     88.8760     19.7982     86.0064
  2253.5000     22.2752     88.8770     19.5130     92.0593
  2253.7500     21.7777     88.9097     19.2593     94.7698
  2254.0000     21.2006     88.9831     19.0081     96.1345
  2254.2500     20.6774     89.0657     18.7413     95.6980
  2254.5000     20.2939     89.0895     18.4556     94.7689
  2254.7500     19.9959     88.9897     18.1608     95.0412
  2255.0000     19.7290     88.7465     17.8749     97.8089
  2255.2500     19.5042     88.3944     17.6209    100.9526
  2255.5000     19.3318     87.9983     17.4215    105.4738
  2255.7500     19.1988     87.6256     17.2890    106.6691
  2256.0000     19.0856     87.3277     17.2162    104.0956
  2256.2500     18.9738     87.1227     17.1775     99.9554
  2256.5000     18.8733     86.9808     17.1443     92.4906
  2256.7500     18.8430     86.8339     17.1041     87.8890
  2257.0000     18.9127     86.6183     17.0673     82.5746
  2257.2500     19.0032     86.3217     17.0558     80.3527
  2257.5000     19.0195     85.9902     17.0844     79.0234
  2257.7500     18.9795     85.6870     17.1515     79.0617
  2258.0000     18.9679     85.4395     17.2443     79.3742
  2258.2500     19.0156     85.2144     17.3477     79.3369
  2258.5000     19.0752     84.9354     17.4502     79.1057
  2258.7500     19.0714     84.5276     17.5416     79.2268
  2259.0000     18.9687     83.9607     17.6125     80.0053
  2259.2500     18.8064     83.2619     17.6565     80.5033
  2259.5000     18.6648     82.4952     17.6743     80.2863
  2259.7500     18.6254     81.7265     17.6721     79.4265
  2260.0000     18.7193     81.0006     17.6570     77.8793
  2260.2500     18.8572     80.3359     17.6337     77.2310
  2260.5000     18.9054     79.7290     17.6066     77.2176
  2260.7500     18.8392     79.1620     17.5815     77.7973
  2261.0000     18.7341     78.6102     17.5635     79.3397
  2261.2500     18.6771     78.0551     17.5524     80.6214
  2261.5000     18.7039     77.5008     17.5435     82.2579
  2261.7500     18.7574     76.9759     17.5352     82.7336
  2262.0000     18.7693     76.5110     17.5360     82.5143
  2262.2500     18.7561     76.1072     17.5619     82.2784
  2262.5000     18.7623     75.7222     17.6263     82.6183
  2262.7500     18.8090     75.2836     17.7325     83.1457
  2263.0000     18.9216     74.7146     17.8769     83.2899
  2263.2500     19.1199     73.9559     18.0571     82.5693
  2263.5000     19.3744     72.9814     18.2749     80.8529
  2263.7500     19.6277     71.8052     18.5327     80.0881
  2264.0000     19.8723     70.4861     18.8283     80.4484
  2264.2500     20.1417     69.1260     19.1530     81.5289
  2264.5000     20.4342     67.8504     19.4905     83.0604
  2264.7500     20.7329     66.7645     19.8183     83.0522
  2265.0000     21.0567     65.9124     20.1138     80.4183
  2265.2500     21.4365     65.2779     20.3652     77.0005
  2265.5000     21.8738     64.8226     20.5815     71.0010
  2265.7500     22.3664     64.5190     20.7883     67.8486
  2266.0000     22.9412     64.3465     21.0147     66.1510
  2266.2500     23.5639     64.2658     21.2811     67.0182
  2266.5000     24.1108     64.2093     21.5945     69.7835
  2266.7500     24.5326     64.1061     21.9494     71.6302
