~Version Information
VERS.                      2.0: CWLS Log ASCII Standard - VERSION 2.0
WRAP.                       NO: One line per depth step
~Well Information Block
STRT.FT               621.2500: 
STOP.FT               951.7500: 
STEP.FT                 0.2500: 
NULL.                -999.2500: 
COMP.          Pioneer Natural Resources: COMPANY
WELL.          Screamin 12-29 Tr: WELL
FLD.           Purgatoire River: FIELD
LOC.           1979' FNL & 532' FWL--: LOCATION
CNTY.               Las Animas: COUNTY
SRVC.                Patterson: SERVICE COMPANY
DATE.          Fri Mar 31 01:01:50 2006: LOG DATE
UWI.           05 071 08660 00: UNIQUE WELL ID
STAT.                 Colorado: STATE
~Curve Information Block
DEPT.FT            0 000 00 00: Depth
SN.Ohm-m                      : IEL Short Normal
SP.mV                         : IEL Spontaneous Potential
DIR.Ohm-m                     : IEL Induction Resistivity
GR.GAPI                       : Gamma Ray
~Parameter Information Block
~A  Depth        SN          SP         DIR          GR     
# ...
   822.2500    601.5111   -553.8345      7.5893    117.6793
   822.5000    601.5111   -553.8606      7.7777    116.6232
   822.7500    601.5111   -553.8860      7.9457    115.2112
   823.0000    601.5111   -553.9097      8.0738    112.7600
   823.2500    601.5111   -553.9307      8.1456    111.6312
   823.5000    601.5111   -553.9486      8.1529    111.5783
   823.7500    601.5111   -553.9630      8.0975    112.6165
   824.0000    601.5111   -553.9738      7.9899    115.0442
   824.2500    601.5111   -553.9811      7.8437    116.8679
   824.5000    601.5111   -553.9852      7.6706    119.8265
   824.7500    601.5111   -553.9863      7.4787    121.9457
   825.0000    601.5111   -553.9848      7.2735    124.8738
   825.2500    601.5111   -553.9811      7.0616    126.2971
   825.5000    601.5111   -553.9752      6.8526    127.4852
   825.7500    601.5111   -553.9672      6.6585    127.8149
   826.0000    601.5111   -553.9570      6.4912    127.8960
   826.2500    601.5111   -553.9448      6.3588    127.7433
   826.5000    601.5111   -553.9311      6.2633    127.3300
   826.7500    601.5111   -553.9167      6.2013    127.1134
   827.0000    601.5111   -553.9028      6.1665    127.4009
   827.2500    601.5111   -553.8907      6.1517    128.3199
   827.5000    601.5111   -553.8815      6.1513    130.8792
   827.7500    601.5111   -553.8759      6.1614    132.8834
   828.0000    601.5111   -553.8735      6.1796    134.7952
   828.2500    601.5111   -553.8737      6.2039    134.6657
   828.5000    601.5111   -553.8748      6.2323    132.5227
   828.7500    601.5111   -553.8749      6.2632    130.4132
   829.0000    601.5111   -553.8722      6.2951    127.1216
   829.2500    601.5111   -553.8649      6.3269    125.2071
   829.5000    601.5111   -553.8519      6.3571    123.6981
   829.7500    601.5111   -553.8328      6.3851    124.1660
   830.0000    601.5111   -553.8075      6.4124    126.8876
   830.2500    601.5111   -553.7769      6.4451    129.1512
   830.5000    601.5111   -553.7419      6.4949    131.7415
   830.7500    601.5111   -553.7045      6.5775    132.7347
   831.0000    601.5111   -553.6664      6.7091    133.2915
   831.2500    601.5111   -553.6296      6.9027    132.6946
   831.5000    601.5111   -553.5957      7.1665    128.9811
   831.7500    601.5111   -553.5661      7.5034    124.1546
   832.0000    601.5111   -553.5413      7.9111    114.1790
   832.2500    601.5111   -553.5210      8.3811    106.8466
   832.5000    601.5111   -553.5046      8.8955     96.8241
   832.7500    601.5111   -553.4911      9.4232     91.6381
   833.0000    601.5111   -553.4794      9.9194     86.8857
   833.2500    601.5111   -553.4684     10.3331     85.7776
   833.5000    601.5111   -553.4576     10.6243     86.6287
   833.7500    601.5111   -553.4464     10.7813     88.4126
   834.0000    601.5111   -553.4346     10.8263     92.4925
   834.2500    601.5111   -553.4225     10.8059     96.1391
   834.5000    601.5111   -553.4102     10.7724    102.8842
   834.7500    601.5111   -553.3984     10.7680    107.9383
   835.0000    601.5111   -553.3876     10.8182    115.7588
   835.2500    601.5111   -553.3786     10.9363    120.9336
   835.5000    601.5111   -553.3718     11.1327    128.3695
   835.7500    601.5111   -553.3677     11.4267    132.6832
   836.0000    601.5111   -553.3667     11.8529    136.8004
   836.2500    601.5111   -553.3688     12.4605    137.0571
   836.5000    601.5111   -553.3741     13.3021    132.6992
   836.7500    601.5111   -553.3823     14.4124    126.6308
   837.0000    601.5111   -553.3926     15.7702    113.9011
   837.2500    601.5111   -553.4045     17.2456    104.2128
   837.5000    601.5111   -553.4172     18.5614     90.3127
   837.7500    601.5111   -553.4301     19.3463     82.5799
   838.0000    601.5111   -553.4431     19.3279     74.1734
   838.2500    601.5111   -553.4566     18.5308     70.8521
   838.5000    601.5111   -553.4717     17.2538     69.5372
   838.7500    601.5111   -553.4891     15.8549     71.2142
   839.0000    601.5111   -553.5101     14.5823     77.3114
   839.2500    601.5111   -553.5349     13.5466     83.2804
   839.5000    601.5111   -553.5634     12.7667     93.6458
   839.7500    601.5111   -553.5950     12.2201    100.3112
   840.0000    601.5111   -553.6281     11.8732    107.6981
   840.2500    601.5111   -553.6611     11.6971    109.8488
   840.5000    601.5111   -553.6920     11.6736    108.2756
   840.7500    601.5111   -553.7186     11.7967    104.4552
   841.0000    601.5111   -553.7397     12.0707     96.4561
   841.2500    601.5111   -553.7543     12.5033     91.0258
   841.5000    601.5111   -553.7620     13.0933     84.8789
   841.7500    601.5111   -553.7637     13.8113     82.8476
   842.0000    601.5111   -553.7606     14.5791     82.9249
   842.2500    601.5111   -553.7543     15.2614     84.4222
   842.5000    601.5111   -553.7470     15.6894     87.4078
   842.7500    601.5111   -553.7405     15.7256     89.3713
   843.0000    601.5111   -553.7365     15.3331     92.1571
   843.2500    601.5111   -553.7362     14.5955     94.0276
   843.5000    601.5111   -553.7404     13.6674     97.1104
   843.7500    601.5111   -553.7493     12.7013     99.7245
   844.0000    601.5111   -553.7628     11.8006    105.5785
   844.2500    601.5111   -553.7802     11.0113    111.1110
   844.5000    601.5111   -553.7998     10.3373    120.8559
   844.7500    601.5111   -553.8194      9.7613    127.0998
   845.0000    601.5111   -553.8359      9.2621    134.6612
   845.2500    601.5111   -553.8461      8.8264    138.4810
   845.5000    601.5111   -553.8466      8.4528    142.8579
   845.7500    601.5111   -553.8350      8.1492    144.8005
   846.0000    601.5111   -553.8100      7.9254    145.3890
   846.2500    601.5111   -553.7726      7.7870    143.8225
   846.5000    601.5111   -553.7253      7.7319    139.0439
   846.7500    601.5111   -553.6724      7.7495    135.2143
   847.0000    601.5111   -553.6188      7.8218    129.9637
   847.2500    601.5111   -553.5696      7.9248    126.7612
   847.5000    601.5111   -553.5287      8.0303    120.9308
   847.7500    601.5111   -553.4988      8.1111    115.4965
   848.0000    601.5111   -553.4800      8.1477    105.1271
   848.2500    601.5111   -553.4707      8.1335     97.9812
   848.5000    601.5111   -553.4673      8.0749     90.3167
   848.7500    601.5111   -553.4656      7.9866     89.1288
   849.0000    601.5111   -553.4608      7.8839     94.5449
   849.2500    601.5111   -553.4493      7.7777    102.0821
   849.5000    601.5111   -553.4286      7.6726    115.6431
   849.7500    601.5111   -553.3984      7.5686    123.8361
   850.0000    601.5111   -553.3593      7.4633    132.1181
   850.2500    601.5111   -553.3136      7.3553    134.5666
   850.5000    601.5111   -553.2640      7.2463    134.9989
   850.7500    601.5111   -553.2139      7.1425    134.5985
   851.0000    601.5111   -553.1664      7.0536    134.9148
   851.2500    601.5111   -553.1249      6.9928    135.9091
   851.5000    601.5111   -553.0927      6.9752    137.6340
   851.7500    601.5111   -553.0721      7.0168    138.3394
   852.0000    601.5111   -553.0651      7.1312    138.1982
   852.2500    601.5111   -553.0721      7.3272    137.1460
   852.5000    601.5111   -553.0924      7.6062    133.8633
   852.7500    601.5111   -553.1237      7.9630    130.4768
   853.0000    601.5111   -553.1627      8.3868    123.7762
   853.2500    601.5111   -553.2060      8.8649    118.3513
   853.5000    601.5111   -553.2502      9.3875    108.8692
   853.7500    601.5111   -553.2930      9.9520    101.8722
   854.0000    601.5111   -553.3332     10.5659     91.5139
   854.2500    601.5111   -553.3703     11.2446     85.6920
   854.5000    601.5111   -553.4046     12.0044     80.1027
   854.7500    601.5111   -553.4363     12.8514     78.9820
   855.0000    601.5111   -553.4648     13.7723     81.3804
   855.2500    601.5111   -553.4896     14.7277     85.4113
   855.5000    601.5111   -553.5093     15.6506     93.9635
