~Version Information
VERS.                      2.0: CWLS Log ASCII Standard - VERSION 2.0
WRAP.                       NO: One line per depth step
~Well Information Block
STRT.FT               545.0000: 
STOP.FT              1452.5000: 
STEP.FT                 0.1000: 
NULL.                -999.2500: 
COMP.          Pioneer Natural Resources: COMPANY
WELL.          Parklane 43-34 Tr: WELL
FLD.           Purgatoire River: FIELD
LOC.           1643' FSL & 966' FEL: LOCATION
PROV.                 Colorado: PROVINCE
CNTY.               Las Animas: COUNTRY
SRVC.                Patterson: SERVICE COMPANY
DATE.          Fri Jul 29 07:27:28 2005: LOG DATE
UWI.           05 071 08452 00: UNIQUE WELL ID
~Curve Information Block
DEPT.FT            0 000 00 00: Depth
DCAL.in                       : CDL Caliper
RHOB.g/cc                     : CDL Bulk Density
RHOC.g/cc                     : CDL Density Correction
DPOR.pu                       : CDL Density Porosity
GR.GAPI                       : Gamma Ray
NPOR.pu                       : Neutron Porosity
~Parameter Information Block
~A  Depth       DCAL        RHOB        RHOC        DPOR         GR         NPOR    
# ...
   660.2000      7.9463      2.6122      0.0616      2.2913    107.9937     23.0528
   660.3000      7.9605      2.6177      0.0625      1.9600    106.9633     22.7276
   660.4000      7.9605      2.6040      0.0544      2.7878    104.2914     22.4913
   660.5000      7.9646      2.5826      0.0659      4.0864     99.0931     22.6531
   660.6000      7.9646      2.5460      0.1097      6.3035     95.6819     23.0424
   660.7000      7.9646      2.4974      0.0211      9.2457     93.9449     23.7007
   660.8000      7.9644      2.4710      0.0643     10.8501     89.7537     24.3034
   660.9000      7.9644      2.4893      0.0633      9.7417     86.2060     24.2576
   661.0000      7.9448      2.5422      0.0791      6.5344     88.4888     23.7432
   661.1000      7.9448      2.6091      0.1233      2.4815     92.3288     23.5056
   661.2000      7.9448      2.6814      0.1377     -1.9048     92.6940     23.6889
   661.3000      7.9224      2.7526      0.2552     -6.2186     93.2619     23.5248
   661.4000      7.9224      2.7967      0.2735     -8.8917     97.0390     22.7979
   661.5000      7.9317      2.7926      0.2665     -8.6446     99.6926     22.0934
   661.6000      7.9317      2.7493      0.2050     -6.0211     97.6075     21.3764
   661.7000      7.9317      2.6974      0.0864     -2.8701     92.3819     20.6946
   661.8000      7.9153      2.6589      0.0639     -0.5370     90.0814     20.4366
   661.9000      7.9153      2.6329      0.0610      1.0346     91.2496     20.2726
   662.0000      7.9032      2.6069      0.0802      2.6150     89.4117     19.7960
   662.1000      7.9032      2.5786      0.0784      4.3243     86.1243     19.2178
   662.2000      7.9032      2.5642      0.0467      5.1999     86.0886     18.6892
   662.3000      7.9425      2.5652      0.1438      5.1394     86.9613     17.9527
   662.4000      7.9425      2.5569      0.0961      5.6404     85.3451     17.2186
   662.5000      8.0090      2.5267      0.0294      7.4734     81.8383     16.9956
   662.6000      8.0090      2.4897      0.0177      9.7137     80.1152     17.1832
   662.7000      8.0090      2.4685      0.0052     10.9990     81.1438     17.2386
   662.8000      8.0886      2.4753     -0.0222     10.5857     82.1019     16.7876
   662.9000      8.0886      2.4981      0.0270      9.2037     81.2715     16.2791
   663.0000      8.0999      2.5054      0.0297      8.7621     81.1866     16.3101
   663.1000      8.0999      2.4847      0.0055     10.0170     83.1311     16.6869
   663.2000      8.0999      2.4581      0.0008     11.6327     81.3440     16.8177
   663.3000      8.0979      2.4474      0.0074     12.2768     74.7080     16.4516
   663.4000      8.0979      2.4535     -0.0236     11.9109     68.7148     15.8750
   663.5000      8.1022      2.4691     -0.0175     10.9645     66.3695     15.4849
   663.6000      8.1022      2.4786      0.0176     10.3894     65.7064     15.5938
   663.7000      8.1022      2.4646      0.0320     11.2347     62.8021     15.9883
   663.8000      8.1070      2.4384     -0.0181     12.8251     59.7638     16.0196
   663.9000      8.1070      2.4260     -0.0118     13.5766     62.1835     15.5975
   664.0000      8.1091      2.4363      0.0077     12.9508     65.7433     15.3349
   664.1000      8.1091      2.4617      0.0246     11.4142     63.8231     15.6226
   664.2000      8.1091      2.4827      0.0570     10.1380     60.7874     16.0715
   664.3000      8.0429      2.4860      0.0278      9.9407     58.9011     15.9876
   664.4000      8.0429      2.4824      0.0212     10.1579     55.8003     15.3293
   664.5000      8.0272      2.4858      0.0359      9.9518     52.2299     14.7087
   664.6000      8.0272      2.4872      0.1113      9.8687     49.8926     14.5893
   664.7000      8.0272      2.4754      0.0376     10.5825     49.9495     14.9058
   664.8000      8.0357      2.4613      0.0626     11.4356     50.5113     15.2296
   664.9000      8.0357      2.4545      0.0550     11.8460     49.9396     15.3193
   665.0000      8.0340      2.4564      0.0383     11.7358     50.4945     15.0537
   665.1000      8.0340      2.4635      0.0493     11.3008     51.9053     14.4509
   665.2000      8.0340      2.4666      0.0501     11.1149     51.8459     14.0419
   665.3000      7.9971      2.4600      0.0360     11.5140     49.7812     14.2069
   665.4000      7.9971      2.4416      0.0794     12.6310     46.5034     14.7279
   665.5000      7.9860      2.4136      0.0312     14.3260     43.3810     15.1629
   665.6000      7.9860      2.3866      0.0031     15.9620     42.0027     15.2907
   665.7000      7.9860      2.3744     -0.0199     16.7008     43.0038     15.3350
   665.8000      7.9968      2.3885     -0.0036     15.8459     44.4358     15.3951
   665.9000      7.9968      2.4191      0.0984     13.9948     45.1579     15.2543
   666.0000      8.0120      2.4477      0.0625     12.2590     45.0807     15.0130
   666.1000      8.0120      2.4758      0.0954     10.5596     43.5556     15.0316
   666.2000      8.0120      2.5036      0.1271      8.8748     41.6096     15.5026
   666.3000      8.0079      2.5202      0.1673      7.8674     41.0568     16.1290
   666.4000      8.0079      2.5264      0.1428      7.4883     42.4775     16.4171
   666.5000      7.9970      2.5331      0.1417      7.0827     45.1692     16.3775
   666.6000      7.9970      2.5373      0.1528      6.8285     49.6342     16.4677
   666.7000      7.9970      2.5303      0.1068      7.2547     55.1796     16.7308
   666.8000      7.9969      2.5144      0.0724      8.2184     58.4430     16.7614
   666.9000      7.9969      2.4962      0.0927      9.3218     57.5346     16.7300
   667.0000      8.0081      2.4823      0.0232     10.1615     54.5255     16.9626
   667.1000      8.0081      2.4831      0.0109     10.1146     54.4951     17.2715
   667.2000      8.0081      2.5039      0.0489      8.8571     58.6306     17.4465
   667.3000      8.0190      2.5332      0.1022      7.0761     60.6203     17.2234
   667.4000      8.0190      2.5510      0.0982      6.0004     57.9467     16.5351
   667.5000      7.9917      2.5547      0.0685      5.7741     56.8486     16.0983
   667.6000      7.9917      2.5550      0.0601      5.7551     61.6409     16.4119
   667.7000      7.9917      2.5521      0.0334      5.9313     69.8187     17.0133
   667.8000      7.9934      2.5483      0.0441      6.1631     75.3660     17.4085
   667.9000      7.9934      2.5468      0.0239      6.2520     73.2550     17.4571
   668.0000      8.0465      2.5385     -0.0008      6.7568     65.6900     17.3201
   668.1000      8.0465      2.5122      0.0506      8.3502     61.5406     17.3241
   668.2000      8.0465      2.4747     -0.0387     10.6242     63.5698     17.2229
   668.3000      8.1147      2.4550     -0.0573     11.8158     65.6932     16.7247
   668.4000      8.1147      2.4727     -0.0257     10.7458     64.1970     16.3501
   668.5000      8.1415      2.5122      0.0289      8.3522     61.4129     16.3007
   668.6000      8.1415      2.5383      0.0479      6.7694     60.1438     16.0135
   668.7000      8.1415      2.5256      0.0650      7.5384     59.9295     15.4412
   668.8000      8.1406      2.4841     -0.0106     10.0520     59.8842     15.0752
   668.9000      8.1406      2.4563     -0.0743     11.7387     61.0547     15.0832
   669.0000      8.1442      2.4635      0.0488     11.3001     61.8356     15.3490
   669.1000      8.1442      2.4896     -0.0108      9.7235     60.6115     15.6835
   669.2000      8.1442      2.5166      0.0389      8.0873     60.0712     16.0077
   669.3000      8.1365      2.5268      0.0548      7.4692     61.5515     16.2797
   669.4000      8.1365      2.5136      0.0290      8.2670     61.1861     16.3179
   669.5000      8.1300      2.4930     -0.0020      9.5149     56.9642     16.0622
   669.6000      8.1300      2.4788     -0.0227     10.3744     53.3859     15.7744
   669.7000      8.1300      2.4660      0.0138     11.1534     53.5996     15.7051
