~Version Information
VERS.                      2.0: CWLS Log ASCII Standard - VERSION 2.0
WRAP.                       NO: One line per depth step
~Well Information Block
STRT.FT               875.0000: 
STOP.FT              2947.2500: 
STEP.FT                 0.2500: 
NULL.                -999.2500: 
COMP.          Pioneer Natural Resources: COMPANY
WELL.          Hanginstone 21-27: WELL
FLD.           Purgatoire River: FIELD
LOC.           1186' FNL & 1606' FWL--: LOCATION
PROV.                 Colorado: PROVINCE
CNTY.               Las Animas: COUNTRY
SRVC.                Patterson: SERVICE COMPANY
DATE.          Sat Jan 07 09:06:14 2006: LOG DATE
UWI.           05 071 08632 00: UNIQUE WELL ID
~Curve Information Block
DEPT.FT            0 000 00 00: Depth
SN.Ohm-m                      : IEL Short Normal
SP.mV                         : IEL Spontaneous Potential
DIR.Ohm-m                     : IEL Induction Resistivity
GR.GAPI                       : Gamma Ray
~Parameter Information Block
~A  Depth        SN          SP         DIR          GR     
# ...
  2650.5000     23.1258     86.4767     20.5842     93.7047
  2650.7500     23.4187     85.8525     20.9654     90.1279
  2651.0000     23.7659     85.1835     21.3445     83.4976
  2651.2500     24.1788     84.4747     21.6955     79.1253
  2651.5000     24.6476     83.7331     22.0051     74.9238
  2651.7500     25.1333     82.9700     22.2773     74.7734
  2652.0000     25.5788     82.2021     22.5306     78.3168
  2652.2500     25.9285     81.4532     22.7866     81.6832
  2652.5000     26.1441     80.7552     23.0523     84.8771
  2652.7500     26.2082     80.1477     23.3051     84.7134
  2653.0000     26.1169     79.6757     23.4882     82.0095
  2653.2500     25.8662     79.3867     23.5229     80.1220
  2653.5000     25.4413     79.3244     23.3362     79.2424
  2653.7500     24.8232     79.5227     22.8850     80.1647
  2654.0000     24.0087     79.9988     22.1653     82.9383
  2654.2500     23.0296     80.7486     21.2121     85.1249
  2654.5000     21.9518     81.7455     20.0965     88.4892
  2654.7500     20.8543     82.9424     18.9136     90.8153
  2655.0000     19.7969     84.2777     17.7561     94.5551
  2655.2500     18.7995     85.6839     16.6862     97.3129
  2655.5000     17.8477     87.0957     15.7242    102.0523
  2655.7500     16.9198     88.4579     14.8589    105.5456
  2656.0000     16.0116     89.7293     14.0680    110.7060
  2656.2500     15.1387     90.8848     13.3351    113.8208
  2656.5000     14.3259     91.9132     12.6565    118.1727
  2656.7500     13.5983     92.8148     12.0383    121.0540
  2657.0000     12.9763     93.5965     11.4894    125.1014
  2657.2500     12.4672     94.2680     11.0159    127.2282
  2657.5000     12.0599     94.8387     10.6189    129.1643
  2657.7500     11.7318     95.3156     10.2938    129.6587
  2658.0000     11.4618     95.7030     10.0319    129.6064
  2658.2500     11.2356     96.0033      9.8224    129.4854
  2658.5000     11.0408     96.2186      9.6540    130.0138
  2658.7500     10.8646     96.3523      9.5167    130.9248
  2659.0000     10.6983     96.4113      9.4031    132.1559
  2659.2500     10.5409     96.4064      9.3078    132.1098
  2659.5000     10.3987     96.3525      9.2279    130.3920
  2659.7500     10.2833     96.2680      9.1615    128.7389
  2660.0000     10.2078     96.1722      9.1068    126.9127
  2660.2500     10.1809     96.0840      9.0613    126.5462
  2660.5000     10.1968     96.0185      9.0225    127.1455
  2660.7500     10.2297     95.9855      8.9885    128.1366
  2661.0000     10.2407     95.9880      8.9581    130.3088
  2661.2500     10.1981     96.0224      8.9302    131.8625
  2661.5000     10.0938     96.0799      8.9035    133.1691
  2661.7500      9.9433     96.1489      8.8767    132.8141
  2662.0000      9.7715     96.2178      8.8496    130.7503
  2662.2500      9.6000     96.2781      8.8234    129.0996
  2662.5000      9.4471     96.3256      8.7992    127.1341
  2662.7500      9.3317     96.3612      8.7773    126.0368
  2663.0000      9.2729     96.3896      8.7570    123.9269
  2663.2500      9.2823     96.4175      8.7378    122.0532
  2663.5000      9.3545     96.4510      8.7210    119.0980
  2663.7500      9.4656     96.4938      8.7089    117.4332
  2664.0000      9.5810     96.5456      8.7023    115.7463
  2664.2500      9.6687     96.6025      8.6977    115.4295
  2664.5000      9.7072     96.6576      8.6859    117.0457
  2664.7500      9.6853     96.7027      8.6544    119.8285
  2665.0000      9.6021     96.7306      8.5912    125.7839
  2665.2500      9.4690     96.7361      8.4891    129.9110
  2665.5000      9.3078     96.7180      8.3477    134.8023
  2665.7500      9.1449     96.6789      8.1757    136.7606
  2666.0000      9.0022     96.6256      7.9888    137.5594
  2666.2500      8.8911     96.5675      7.8059    136.7004
  2666.5000      8.8095     96.5148      7.6429    133.5969
  2666.7500      8.7420     96.4767      7.5077    130.7982
  2667.0000      8.6620     96.4587      7.3992    127.0350
  2667.2500      8.5402     96.4615      7.3099    125.6654
  2667.5000      8.3572     96.4805      7.2309    125.5472
  2667.7500      8.1167     96.5069      7.1574    126.2239
  2668.0000      7.8518     96.5297      7.0913    127.3532
  2668.2500      7.6185     96.5378      7.0402    127.8289
  2668.5000      7.4803     96.5230      7.0140    127.7280
  2668.7500      7.4889     96.4808      7.0207    126.8816
  2669.0000      7.6648     96.4112      7.0640    124.3638
  2669.2500      7.9813     96.3178      7.1418    122.3443
  2669.5000      8.3658     96.2065      7.2472    120.4323
  2669.7500      8.7295     96.0835      7.3691    120.5182
  2670.0000      9.0092     95.9536      7.4943    121.8080
  2670.2500      9.1906     95.8194      7.6108    122.1292
  2670.5000      9.3003     95.6809      7.7119    120.3620
  2670.7500      9.3821     95.5361      7.8007    118.0375
  2671.0000      9.4774     95.3816      7.8900    114.6887
  2671.2500      9.6143     95.2142      7.9982    113.4087
  2671.5000      9.8015     95.0313      8.1413    112.9993
  2671.7500     10.0271     94.8321      8.3265    113.0391
  2672.0000     10.2646     94.6166      8.5493    111.9704
  2672.2500     10.4876     94.3862      8.7958    109.9699
  2672.5000     10.6860     94.1423      9.0501    105.4846
  2672.7500     10.8709     93.8864      9.3039    102.3454
  2673.0000     11.0661     93.6195      9.5603     98.6260
  2673.2500     11.2929     93.3424      9.8318     96.8955
  2673.5000     11.5589     93.0563     10.1310     94.8849
  2673.7500     11.8545     92.7634     10.4624     93.8027
  2674.0000     12.1588     92.4670     10.8186     92.9826
  2674.2500     12.4514     92.1717     11.1816     93.1615
  2674.5000     12.7228     91.8827     11.5281     93.9960
  2674.7500     12.9746     91.6049     11.8361     94.2240
  2675.0000     13.2154     91.3411     12.0927     93.0998
  2675.2500     13.4560     91.0915     12.2980     91.4459
  2675.5000     13.7080     90.8522     12.4663     89.0227
  2675.7500     13.9836     90.6157     12.6205     88.5501
  2676.0000     14.2923     90.3710     12.7853     90.4587
  2676.2500     14.6354     90.1055     12.9808     92.9216
  2676.5000     15.0014     89.8060     13.2211     96.2807
  2676.7500     15.3686     89.4602     13.5143     97.2730
  2677.0000     15.7190     89.0577     13.8631     96.5136
  2677.2500     16.0542     88.5913     14.2634     94.9054
  2677.5000     16.4029     88.0568     14.7044     91.7583
  2677.7500     16.8087     87.4540     15.1735     89.5812
  2678.0000     17.3113     86.7867     15.6652     86.5253
  2678.2500     17.9341     86.0631     16.1896     84.5750
  2678.5000     18.6821     85.2957     16.7706     81.4361
  2678.7500     19.5421     84.5013     17.4335     79.0966
  2679.0000     20.4781     83.7005     18.1878     75.4904
  2679.2500     21.4377     82.9169     19.0165     73.2692
  2679.5000     22.3744     82.1760     19.8783     70.2384
  2679.7500     23.2712     81.5033     20.7233     68.2122
  2680.0000     24.1315     80.9226     21.5110     65.0304
  2680.2500     24.9473     80.4542     22.2189     63.1028
  2680.5000     25.6827     80.1129     22.8367     61.3892
  2680.7500     26.2873     79.9068     23.3561     61.3706
  2681.0000     26.7216     79.8371     23.7624     62.6057
  2681.2500     26.9692     79.8971     24.0391     63.5249
  2681.5000     27.0371     80.0734     24.1797     64.0142
  2681.7500     26.9541     80.3464     24.1953     63.8497
  2682.0000     26.7678     80.6920     24.1100     64.0297
  2682.2500     26.5340     81.0831     23.9480     65.0040
  2682.5000     26.2967     81.4926     23.7257     67.5649
  2682.7500     26.0721     81.8943     23.4565     69.3344
  2683.0000     25.8502     82.2656     23.1574     70.9958
  2683.2500     25.6142     82.5882     22.8500     71.2736
  2683.5000     25.3595     82.8479     22.5538     71.0470
  2683.7500     25.1005     83.0351     22.2811     71.1990
