~Version Information
VERS.                      2.0: CWLS Log ASCII Standard - VERSION 2.0
WRAP.                       NO: One line per depth step
~Well Information Block
STRT.FT               315.0000: 
STOP.FT              1292.5000: 
STEP.FT                 0.1000: 
NULL.                -999.2500: 
COMP.          Pioneer Natural Resources: COMPANY
WELL.          Hot Tomatoes 22-20: WELL
FLD.           Purgatoire River: FIELD
LOC.           2120' FNL & 2585' FWL: LOCATION
CNTY.               Las Animas: COUNTY
SRVC.                Patterson: SERVICE COMPANY
DATE.          Mon Feb 27 07:06:41 2006: LOG DATE
UWI.           05 071 08701 00: UNIQUE WELL ID
STAT.                 Colorado: STATE
~Curve Information Block
DEPT.FT            0 000 00 00: Depth
DCAL.in                       : CDL Caliper
RHOB.g/cc                     : CDL Bulk Density
RHOC.g/cc                     : CDL Density Correction
DPOR.pu                       : CDL Density Porosity
GR.GAPI                       : Gamma Ray
NPOR.pu                       : Neutron Porosity
~Parameter Information Block
~A  Depth       DCAL        RHOB        RHOC        DPOR         GR         NPOR    
# ...
   766.2000      7.9570      2.4421      0.0231     12.6014     75.5092     18.1350
   766.3000      7.9623      2.4287     -0.0299     13.4114     73.3535     18.2781
   766.4000      7.9623      2.4246     -0.0078     13.6586     70.5613     18.5815
   766.5000      7.9586      2.4280      0.0086     13.4567     68.6827     18.7637
   766.6000      7.9586      2.4289      0.0145     13.4008     66.9386     18.9503
   766.7000      7.9586      2.4243      0.0142     13.6781     67.3931     19.3048
   766.8000      7.9696      2.4180     -0.0027     14.0622     73.8859     19.3379
   766.9000      7.9696      2.4184      0.0115     14.0375     83.3146     18.8109
   767.0000      7.9611      2.4273      0.0234     13.4953     88.3564     18.2408
   767.1000      7.9611      2.4371      0.0384     12.9033     89.8748     18.0910
   767.2000      7.9611      2.4465      0.0208     12.3344     91.1754     18.3705
   767.3000      7.9440      2.4583      0.0448     11.6173     91.8241     18.6745
   767.4000      7.9440      2.4629      0.0881     11.3379     92.5868     18.6479
   767.5000      7.9367      2.4526      0.0443     11.9635     93.6890     18.3276
   767.6000      7.9367      2.4400      0.0396     12.7270     95.2813     18.0165
   767.7000      7.9367      2.4413      0.0249     12.6468     96.6520     18.0394
   767.8000      7.9425      2.4534      0.0395     11.9136     93.5859     18.2875
   767.9000      7.9425      2.4628      0.0689     11.3449     88.7309     18.4963
   768.0000      7.9367      2.4696      0.0079     10.9333     88.1749     18.6865
   768.1000      7.9367      2.4827      0.0487     10.1381     87.7555     18.8412
   768.2000      7.9367      2.5000      0.0704      9.0879     83.8444     18.8971
   768.3000      7.9387      2.5110      0.0673      8.4228     81.8621     18.8719
   768.4000      7.9387      2.5112      0.0664      8.4148     83.2008     18.9513
   768.5000      7.9427      2.5050      0.0531      8.7868     84.3763     19.1721
   768.6000      7.9427      2.4999      0.0626      9.0993     85.4434     19.0727
   768.7000      7.9427      2.4999      0.0727      9.0943     85.8085     18.6326
   768.8000      7.9430      2.5035      0.0391      8.8785     84.5883     18.5068
   768.9000      7.9430      2.5030      0.0569      8.9098     83.0056     18.8585
   769.0000      7.9443      2.4954      0.0512      9.3675     81.2032     19.2803
   769.1000      7.9443      2.4876      0.0463      9.8439     81.0310     19.3498
   769.2000      7.9443      2.4834      0.0435     10.0991     84.2017     19.1735
   769.3000      7.9448      2.4864      0.0045      9.9154     86.4127     19.0564
   769.4000      7.9448      2.4989      0.0387      9.1555     86.2098     18.8942
   769.5000      7.9502      2.5071      0.0747      8.6616     86.6595     18.5033
   769.6000      7.9502      2.4990      0.0136      9.1494     88.0675     18.2319
   769.7000      7.9502      2.4810      0.0345     10.2414     90.6490     18.3770
   769.8000      7.9496      2.4604      0.0065     11.4883     94.8395     18.5845
   769.9000      7.9496      2.4390      0.0417     12.7864     95.9998     18.5592
   770.0000      7.9529      2.4165      0.0052     14.1496     94.0300     18.4736
   770.1000      7.9529      2.3927      0.0350     15.5955     95.2388     18.3548
   770.2000      7.9529      2.3661      0.0118     17.2077     98.2624     18.1165
   770.3000      7.9517      2.3403      0.0438     18.7699     98.6419     17.8720
   770.4000      7.9517      2.3245     -0.0018     19.7289     97.6209     17.6079
   770.5000      7.9525      2.3228      0.0057     19.8324     98.6146     17.4928
   770.6000      7.9525      2.3220      0.0254     19.8790    102.1275     17.7751
   770.7000      7.9525      2.3110      0.0280     20.5482    107.4943     18.2087
   770.8000      7.9504      2.3078      0.0447     20.7381    112.9288     18.5241
   770.9000      7.9504      2.3382      0.1184     18.8982    119.5765     19.0246
   771.0000      7.9510      2.3964      0.2410     15.3685    131.3270     19.5823
   771.1000      7.9510      2.4458      0.3471     12.3782    144.7863     19.6769
   771.2000      7.9510      2.4416      0.3436     12.6333    150.8392     19.4340
   771.3000      7.9506      2.3705      0.2516     16.9390    147.5268     19.1940
   771.4000      7.9506      2.2704      0.1446     23.0072    141.8165     18.9045
   771.5000      7.9517      2.1883      0.0743     27.9823    141.0568     18.6394
   771.6000      7.9517      2.1392      0.0593     30.9557    146.5987     18.8425
   771.7000      7.9517      2.1187      0.0046     32.2016    153.0774     19.8286
   771.8000      7.9644      2.1257     -0.0086     31.7773    155.1050     21.5420
   771.9000      7.9644      2.1552      0.0606     29.9897    152.8105     23.2131
   772.0000      7.9776      2.1983      0.0009     27.3773    147.1316     23.6785
   772.1000      7.9776      2.2546      0.0821     23.9634    139.7845     23.0724
   772.2000      7.9776      2.3200      0.1151     19.9990    138.0617     22.5940
   772.3000      8.0158      2.3861      0.0953     15.9915    144.6242     22.3826
   772.4000      8.0158      2.4432      0.1420     12.5334    149.6658     22.1850
   772.5000      8.0347      2.4769      0.1188     10.4887    145.0878     22.2935
   772.6000      8.0347      2.4863      0.0847      9.9211    136.2511     22.6082
   772.7000      8.0347      2.4834      0.0673     10.0965    131.7784     22.6874
   772.8000      8.0499      2.4721      0.0131     10.7821    133.6403     22.6948
   772.9000      8.0499      2.4535      0.0178     11.9116    137.3006     23.1183
   773.0000      7.9991      2.4398     -0.0291     12.7371    136.0793     23.6245
   773.1000      7.9991      2.4390      0.0409     12.7899    130.8279     23.7566
   773.2000      7.9991      2.4424      0.0161     12.5848    128.4807     23.2390
   773.3000      7.9462      2.4461     -0.0110     12.3594    129.8743     22.1476
   773.4000      7.9462      2.4524      0.0520     11.9781    132.5113     21.4750
   773.5000      7.9402      2.4595      0.0186     11.5452    135.7189     21.5057
   773.6000      7.9402      2.4687      0.0511     10.9902    138.3818     21.8669
   773.7000      7.9402      2.4739      0.1255     10.6724    142.1129     22.4663
   773.8000      7.9337      2.4646      0.1131     11.2353    146.8311     23.0459
   773.9000      7.9337      2.4477      0.0790     12.2583    147.8872     23.1080
   774.0000      7.9416      2.4341      0.0795     13.0879    144.1184     22.2823
   774.1000      7.9416      2.4237      0.0822     13.7175    138.3725     21.3673
   774.2000      7.9416      2.4283      0.0450     13.4351    135.1036     21.3752
   774.3000      7.9358      2.4633      0.1077     11.3154    136.4973     22.0246
   774.4000      7.9358      2.5088      0.1361      8.5557    138.7672     22.7765
   774.5000      7.9352      2.5280      0.1770      7.3926    139.0740     23.7529
   774.6000      7.9352      2.5128      0.1063      8.3173    139.1646     24.8867
   774.7000      7.9352      2.4869      0.0851      9.8866    140.0589     25.5291
   774.8000      7.9409      2.4760      0.0615     10.5473    140.4815     25.2622
   774.9000      7.9409      2.4888      0.0433      9.7680    139.4523     24.5320
   775.0000      7.9342      2.5139      0.0609      8.2459    134.5025     23.9293
   775.1000      7.9342      2.5314      0.0452      7.1868    124.4760     23.4712
   775.2000      7.9342      2.5340      0.0304      7.0276    113.6596     22.8922
   775.3000      7.9271      2.5264      0.0740      7.4910    106.8937     22.0180
   775.4000      7.9271      2.5194      0.0267      7.9136    103.3022     21.5164
   775.5000      7.9267      2.5261      0.0813      7.5067     98.5209     21.9715
   775.6000      7.9267      2.5416      0.0854      6.5668     93.5941     22.4372
   775.7000      7.9267      2.5453      0.1140      6.3470     94.7816     21.9194
