~Version Information
VERS.                      2.0: CWLS Log ASCII Standard - VERSION 2.0
WRAP.                       NO: One line per depth step
~Well Information Block
STRT.FT                -3.0000: 
STOP.FT              1123.0000: 
STEP.FT                 0.2500: 
NULL.                -999.2500: 
COMP.          Pioneer Natural Resources: COMPANY
WELL.               Ryan 41-17: WELL
FLD.           Purgatoire River: FIELD
LOC.           822' FNL & 532' FEL--: LOCATION
CNTY.               Las Animas: COUNTY
SRVC.                Patterson: SERVICE COMPANY
DATE.          Mon Mar 27 14:50:31 2006: LOG DATE
UWI.           05 071 08719 00: UNIQUE WELL ID
STAT.                 Colorado: STATE
~Curve Information Block
DEPT.FT            0 000 00 00: Depth
CCL.                          : Casing Collar Locator
TT3.usec                      : CBL 3' Travel Time
AMP3.mV                       : CBL 3' Amplitude
GR.GAPI                       : Gamma Ray
~Parameter Information Block
~A  Depth       CCL         TT3         AMP3         GR     
# ...
   131.0000      0.0000    258.8857     84.1390     32.8149
   131.2500      0.0000    258.8825     84.1559     31.5380
   131.5000      0.0000    258.8812     84.1613     28.6379
   131.7500      0.0000    258.8840     84.1771     27.5233
   132.0000      0.0000    258.8962     84.2459     28.1704
   132.2500      0.0000    258.9159     84.2887     29.7682
   132.5000      0.0000    259.0193     84.1576     32.3062
   132.7500      0.0000    259.2323     83.7353     33.1951
   133.0000      0.0000    260.1100     82.1181     32.7696
   133.2500      0.0000    261.3377     80.1708     31.6501
   133.5000      0.0000    264.4227     76.1051     29.5761
   133.7500      0.0000    267.1477     73.0626     28.0991
   134.0000      0.0000    271.2834     68.7814     25.6248
   134.2500      0.0000    273.3131     66.3247     23.9152
   134.5000      0.0000    274.3262     63.3184     21.8854
   134.7500      0.0000    273.6668     61.8341     21.2189
   135.0000      0.0000    271.6812     60.4602     21.6000
   135.2500     -2.0000    270.4413     60.0117     23.0358
   135.5000      2.0000    269.5048     59.7338     27.1240
   135.7500      0.0000    269.6255     59.7088     30.5257
   136.0000      0.0000    270.7595     60.0523     34.6889
   136.2500      0.0000    271.7705     60.7947     36.2726
   136.5000      0.0000    272.4303     63.1547     38.0604
   136.7500      0.0000    271.6014     65.6219     40.0809
   137.0000      0.0000    268.3903     70.2558     45.1919
   137.2500      0.0000    265.6631     73.5633     49.5766
   137.5000      0.0000    262.1780     78.1577     56.7355
   137.7500      0.0000    260.6809     80.6324     61.6785
   138.0000      0.0000    259.5459     83.1256     68.7032
   138.2500      0.0000    259.2505     84.0164     72.2282
   138.5000      0.0000    259.1015     84.5888     74.2409
   138.7500      0.0000    259.0737     84.7189     73.3858
   139.0000      0.0000    259.0591     84.8090     70.8144
   139.2500      0.0000    259.0544     84.8542     69.9041
   139.5000      0.0000    259.0517     84.9006     71.3885
   139.7500      0.0000    259.0536     84.9102     74.0775
   140.0000      0.0000    259.0630     84.8976     79.0507
   140.2500      0.0000    259.0721     84.8874     81.9466
   140.5000      0.0000    259.0829     84.9025     84.6093
   140.7500      0.0000    259.0848     84.9381     85.2753
   141.0000      0.0000    259.0812     84.9933     85.2937
   141.2500      0.0000    259.0788     84.9966     85.0529
   141.5000      0.0000    259.0804     84.9230     84.8167
   141.7500      0.0000    259.0840     84.8370     84.9523
   142.0000      0.0000    259.0872     84.7118     85.7176
   142.2500      0.0000    259.0856     84.6568     86.5701
   142.5000      0.0000    259.0800     84.6170     88.1521
   142.7500      0.0000    259.0786     84.6022     89.0672
   143.0000      0.0000    259.0867     84.5800     89.4589
   143.2500      0.0000    259.0979     84.5734     88.9866
   143.5000      0.0000    259.1136     84.5953     88.2089
   143.7500      0.0000    259.1181     84.6243     88.5045
   144.0000      0.0000    259.1142     84.6501     90.9749
   144.2500      0.0000    259.1068     84.6385     93.8898
   144.5000      0.0000    259.0927     84.5894     99.4232
   144.7500      0.0000    259.0823     84.5590    103.2338
   145.0000      0.0000    259.0680     84.5483    107.7946
   145.2500      0.0000    259.0620     84.5629    109.5406
   145.5000      0.0000    259.0640     84.5865    110.4638
   145.7500      0.0000    259.0740     84.5856    110.5636
   146.0000      0.0000    259.0968     84.5584    110.5913
   146.2500      0.0000    259.1118     84.5379    110.2841
   146.5000      0.0000    259.1249     84.5279    108.3670
   146.7500      0.0000    259.1259     84.5336    105.9179
   147.0000      0.0000    259.1212     84.5362    101.3791
   147.2500      0.0000    259.1201     84.5269     98.6519
   147.5000      0.0000    259.1279     84.5161     95.8701
   147.7500      0.0000    259.1371     84.5298     94.9395
   148.0000      0.0000    259.1474     84.5851     95.0252
   148.2500      0.0000    259.1481     84.6263     96.3979
   148.5000      0.0000    259.1405     84.6630    100.9615
   148.7500      0.0000    259.1318     84.6713    105.4883
   149.0000      0.0000    259.1160     84.6867    112.7099
   149.2500      0.0000    259.1054     84.7129    116.0117
   149.5000      0.0000    259.0933     84.7753    115.8383
   149.7500      0.0000    259.0894     84.8185    111.9407
   150.0000      0.0000    259.0897     84.8564    102.8521
   150.2500      0.0000    259.0929     84.8544     96.9527
   150.5000      0.0000    259.1002     84.8193     91.2374
   150.7500      0.0000    259.1065     84.7902     89.9498
   151.0000      0.0000    259.1183     84.7647     91.1195
   151.2500      0.0000    259.1272     84.7669     93.2260
   151.5000      0.0000    259.1369     84.7974     96.7684
   151.7500      0.0000    259.1375     84.8301     98.4132
   152.0000      0.0000    259.1268     84.8898     98.7630
   152.2500      0.0000    259.1137     84.9380     97.4807
   152.5000      0.0000    259.0910     85.0272     93.7123
   152.7500      0.0000    259.0777     85.0920     90.5492
   153.0000      0.0000    259.0673     85.1652     86.5687
   153.2500      0.0000    259.0692     85.1782     85.5357
   153.5000      0.0000    259.0836     85.1439     86.9111
   153.7500      0.0000    259.0957     85.1092     88.7104
   154.0000      0.0000    259.1075     85.0854     89.9740
   154.2500      0.0000    259.1088     85.0900     89.1240
   154.5000      0.0000    259.1060     85.0787     86.3699
   154.7500      0.0000    259.1069     85.0285     84.5505
   155.0000      0.0000    259.1193     84.8920     82.7679
   155.2500      0.0000    259.1328     84.7957     82.5652
   155.5000      0.0000    259.1491     84.7029     84.5571
   155.7500      0.0000    259.1506     84.6784     87.4191
   156.0000      0.0000    259.1374     84.6569     92.3805
   156.2500      0.0000    259.1235     84.6325     94.9504
   156.5000      0.0000    259.1052     84.5872     97.0382
   156.7500      0.0000    259.0983     84.5694     97.3961
   157.0000      0.0000    259.0965     84.5827     95.8224
   157.2500      0.0000    259.0988     84.6188     92.5931
   157.5000      0.0000    259.1038     84.6938     84.3461
   157.7500      0.0000    259.1075     84.7361     77.7736
   158.0000      0.0000    259.1150     84.7578     69.2971
   158.2500      0.0000    259.1217     84.7438     65.8049
   158.5000      0.0000    259.1339     84.7045     63.8285
   158.7500      0.0000    259.1428     84.6778     63.5780
   159.0000      0.0000    259.1553     84.6281     62.6998
   159.2500      0.0000    259.1626     84.5633     61.5548
   159.5000      0.0000    259.1762     84.3512     60.6217
   159.7500      0.0000    259.1921     84.0983     61.6211
   160.0000      0.0000    259.2318     83.5584     65.7015
   160.2500      0.0000    259.2656     83.1536     69.1426
   160.5000      0.0000    259.3117     82.6484     73.5503
   160.7500      0.0000    259.3310     82.4594     75.7735
   161.0000      0.0000    259.3402     82.4229     78.8518
   161.2500      0.0000    259.3387     82.5122     80.9799
   161.5000      0.0000    259.3372     82.6739     83.6003
   161.7500      0.0000    259.3428     82.7265     84.4268
   162.0000      0.0000    259.3657     82.6602     84.1523
   162.2500      0.0000    259.3905     82.5105     83.3518
   162.5000      0.0000    259.4397     82.1088     82.0469
   162.7500      0.0000    259.4789     81.7038     81.3589
   163.0000      0.0000    259.5432     80.9051     80.6214
   163.2500      0.0000    259.5845     80.3166     80.2797
   163.5000      0.0000    259.6328     79.5493     79.8414
   163.7500      0.0000    259.6523     79.2092     79.3499
   164.0000      0.0000    259.6644     78.9708     77.8299
   164.2500      0.0000    259.6656     78.9179     76.3539
