~Version Information
VERS.                      2.0: CWLS Log ASCII Standard - VERSION 2.0
WRAP.                       NO: One line per depth step
~Well Information Block
STRT.FT               240.0000: 
STOP.FT              1185.5000: 
STEP.FT                 0.2500: 
NULL.                -999.2500: 
COMP.          Pioneer Natural Resources: COMPANY
WELL.          Whitecoat 14-36: WELL
FLD.           Purgatorie River: FIELD
LOC.           606' FSL & 260' FWL: LOCATION
PROV.                 Colorado: PROVINCE
CNTY.               Las Animas: COUNTRY
SRVC.                Patterson: SERVICE COMPANY
DATE.          Mon Dec 05 16:51:12 2005: LOG DATE
UWI.                          : UNIQUE WELL ID
~Curve Information Block
DEPT.FT            0 000 00 00: Depth
DIR.Ohm-m                     : IEL Induction Resistivity
GR.GAPI                       : Gamma Ray
~Parameter Information Block
~A  Depth       DIR          GR     
# ...
   351.5000      8.4464    158.0499
   351.7500      8.4072    158.8982
   352.0000      8.3656    159.1969
   352.2500      8.3159    158.4699
   352.5000      8.2547    156.5592
   352.7500      8.1816    155.4905
   353.0000      8.0980    155.0914
   353.2500      8.0073    155.5700
   353.5000      7.9170    156.6684
   353.7500      7.8380    157.2425
   354.0000      7.7807    157.5410
   354.2500      7.7514    157.4458
   354.5000      7.7513    157.4083
   354.7500      7.7768    157.7873
   355.0000      7.8215    159.0759
   355.2500      7.8769    160.1643
   355.5000      7.9344    161.4563
   355.7500      7.9879    161.7541
   356.0000      8.0379    161.2003
   356.2500      8.0923    160.2805
   356.5000      8.1658    158.1467
   356.7500      8.2753    156.0698
   357.0000      8.4354    151.7723
   357.2500      8.6541    148.2289
   357.5000      8.9306    142.3398
   357.7500      9.2563    138.3350
   358.0000      9.6181    132.9642
   358.2500     10.0017    130.4608
   358.5000     10.3938    129.3105
   358.7500     10.7818    130.3077
   359.0000     11.1530    133.3668
   359.2500     11.4942    135.6216
   359.5000     11.7935    138.4131
   359.7500     12.0409    139.6357
   360.0000     12.2296    140.2663
   360.2500     12.3551    139.8496
   360.5000     12.4153    138.2197
   360.7500     12.4111    136.7386
   361.0000     12.3467    134.4465
   361.2500     12.2280    133.1265
   361.5000     12.0611    131.6379
   361.7500     11.8532    130.9354
   362.0000     11.6138    130.3405
   362.2500     11.3553    130.4667
   362.5000     11.0905    131.9668
   362.7500     10.8316    133.9805
   363.0000     10.5889    138.1854
   363.2500     10.3690    141.2269
   363.5000     10.1743    144.8154
   363.7500     10.0039    145.8938
   364.0000      9.8562    145.3988
   364.2500      9.7311    144.2775
   364.5000      9.6312    142.9426
   364.7500      9.5604    142.8564
   365.0000      9.5221    143.7419
   365.2500      9.5176    144.3783
   365.5000      9.5444    144.3990
   365.7500      9.5982    143.6985
   366.0000      9.6747    142.2403
   366.2500      9.7719    141.4695
   366.5000      9.8895    140.9253
   366.7500     10.0266    140.8504
   367.0000     10.1802    140.9310
   367.2500     10.3464    141.1594
   367.5000     10.5232    141.9586
   367.7500     10.7145    142.6940
   368.0000     10.9311    143.3975
   368.2500     11.1875    143.1506
   368.5000     11.4964    141.5271
   368.7500     11.8630    139.9147
   369.0000     12.2815    137.4583
   369.2500     12.7347    136.1594
   369.5000     13.1999    135.2631
   369.7500     13.6600    135.6744
   370.0000     14.1159    137.9794
   370.2500     14.5882    140.3268
   370.5000     15.1021    143.8702
   370.7500     15.6686    145.4344
   371.0000     16.2747    145.5976
   371.2500     16.8868    144.1397
   371.5000     17.4530    140.1691
   371.7500     17.8989    136.8451
   372.0000     18.1363    131.6137
   372.2500     18.1023    128.3479
   372.5000     17.8073    124.4311
   372.7500     17.3411    122.7638
   373.0000     16.8246    121.8180
   373.2500     16.3540    122.0886
   373.5000     15.9762    123.2585
   373.7500     15.6956    123.9810
   374.0000     15.4913    123.9578
   374.2500     15.3323    123.0154
   374.5000     15.1875    121.2300
   374.7500     15.0302    120.9647
   375.0000     14.8399    123.5508
   375.2500     14.6070    127.2766
   375.5000     14.3386    134.3133
   375.7500     14.0622    138.7045
   376.0000     13.8199    143.1838
   376.2500     13.6530    144.4202
   376.5000     13.5821    143.9415
   376.7500     13.5954    142.3438
   377.0000     13.6504    138.1978
   377.2500     13.6945    134.3399
   377.5000     13.6917    127.4489
   377.7500     13.6366    122.6295
   378.0000     13.5434    115.8495
   378.2500     13.4249    112.0367
   378.5000     13.2865    108.3609
   378.7500     13.1371    107.9336
   379.0000     13.0003    110.6571
   379.2500     12.9111    114.0626
   379.5000     12.8997    119.5423
   379.7500     12.9775    122.4830
   380.0000     13.1324    125.4585
   380.2500     13.3339    126.9695
   380.5000     13.5441    129.8668
   380.7500     13.7302    132.9199
   381.0000     13.8729    139.6704
   381.2500     13.9681    145.1823
   381.5000     14.0245    152.7954
   381.7500     14.0615    155.8045
   382.0000     14.1078    155.5245
   382.2500     14.2002    152.3930
   382.5000     14.3773    145.1286
   382.7500     14.6711    139.5373
   383.0000     15.0992    130.6762
   383.2500     15.6582    124.6830
   383.5000     16.3192    116.7957
   383.7500     17.0259    113.4442
   384.0000     17.7047    112.9321
   384.2500     18.2960    115.7276
   384.5000     18.7929    123.0408
   384.7500     19.2509    128.4009
   385.0000     19.7515    134.6773
   385.2500     20.3510    136.9153
   385.5000     21.0534    136.9715
   385.7500     21.8205    134.6348
   386.0000     22.6020    127.0774
   386.2500     23.3641    119.3669
   386.5000     24.1018    105.2018
   386.7500     24.8268     95.4855
   387.0000     25.5321     82.9088
   387.2500     26.1497     76.7044
   387.5000     26.5343     71.2267
   387.7500     26.5116     70.2715
   388.0000     25.9861     73.0525
   388.2500     25.0157     77.4656
   388.5000     23.7738     86.1909
   388.7500     22.4414     91.7321
   389.0000     21.1402     96.7829
   389.2500     19.9347     97.0695
   389.5000     18.8573     93.3949
   389.7500     17.9218     89.6455
   390.0000     17.1210     85.4387
   390.2500     16.4284     85.2884
   390.5000     15.8060     90.4906
   390.7500     15.2145     97.3711
   391.0000     14.6220    110.8049
   391.2500     14.0150    120.0227
   391.5000     13.4055    131.1867
   391.7500     12.8284    135.8106
   392.0000     12.3247    138.4072
   392.2500     11.9244    137.7595
   392.5000     11.6380    134.2138
   392.7500     11.4583    130.7062
   393.0000     11.3644    125.0426
   393.2500     11.3246    122.0510
   393.5000     11.3015    120.6481
   393.7500     11.2591    122.4652
   394.0000     11.1725    129.0594
   394.2500     11.0348    135.1036
   394.5000     10.8572    144.5701
   394.7500     10.6605    150.0582
   395.0000     10.4650    155.6481
   395.2500     10.2828    157.1498
   395.5000     10.1178    156.1510
   395.7500      9.9688    153.8692
   396.0000      9.8322    149.3884
   396.2500      9.7025    146.4635
   396.5000      9.5736    143.1369
   396.7500      9.4403    141.9085
   397.0000      9.3013    141.5838
   397.2500      9.1586    142.2279
   397.5000      9.0155    144.1329
   397.7500      8.8763    145.8308
   398.0000      8.7470    148.6661
   398.2500      8.6372    150.4505
   398.5000      8.5578    152.3948
   398.7500      8.5162    153.0673
   399.0000      8.5116    153.3976
   399.2500      8.5353    153.3228
   399.5000      8.5768    152.6175
   399.7500      8.6310    151.5488
   400.0000      8.7004    148.7856
   400.2500      8.7922    145.9221
   400.5000      8.9134    139.1783
   400.7500      9.0680    132.4290
   401.0000      9.2571    118.6926
   401.2500      9.4789    107.9402
   401.5000      9.7273     92.3705
   401.7500      9.9879     84.3757
   402.0000     10.2328     78.3950
   402.2500     10.4215     78.7543
   402.5000     10.5114     84.6494
   402.7500     10.4764     90.9222
   403.0000     10.3213    101.7977
   403.2500     10.0803    109.1350
   403.5000      9.8010    118.9658
   403.7500      9.5271    123.7688
   404.0000      9.2883    126.3623
   404.2500      9.0981    124.2649
   404.5000      8.9565    116.1766
   404.7500      8.8530    109.3504
   405.0000      8.7701    101.2626
   405.2500      8.6888     99.3451
   405.5000      8.5965    102.9953
   405.7500      8.4931    109.2564
   406.0000      8.3923    122.1133
   406.2500      8.3161    131.3507
   406.5000      8.2859    143.5340
   406.7500      8.3155    149.3770
   407.0000      8.4084    153.8872
