~Version Information
VERS.                      2.0: CWLS Log ASCII Standard - VERSION 2.0
WRAP.                       NO: One line per depth step
~Well Information Block
STRT.FT               550.0000: 
STOP.FT              1981.5000: 
STEP.FT                 0.2500: 
NULL.                -999.2500: 
COMP.          Pioneer Natural Resources: COMPANY
WELL.          Flying Horse 12-11 Tr: WELL
FLD.           Purgatoire River: FIELD
LOC.           2459' FNL & 410' FWL: LOCATION
STAT.                 Colorado: State
CNTY.               Las Animas: COUNTY
CTRY. USA : Country
SECT. 11 : Section
TOWN. 32S : Township
RANG. 66W : Range
SRVC.                Patterson: SERVICE COMPANY
DATE.          Sat Sep 03 20:17:31 2005: LOG DATE
API.           05 071 08485 00: UNIQUE WELL ID
~Curve Information Block
DEPT.FT            0 000 00 00: Depth
SN.Ohm-m                      : IEL Short Normal
SP.mV                         : IEL Spontaneous Potential
DIR.Ohm-m                     : IEL Induction Resistivity
GR.GAPI                       : Gamma Ray
~Parameter Information Block
~A  Depth        SN          SP         DIR          GR     
# ...
  1220.0000     12.4386    174.2318     10.5093    141.4753
  1220.2500     12.0257    175.9084     10.2418    143.0440
  1220.5000     11.4914    177.5054     10.0207    144.8643
  1220.7500     10.9684    179.0718      9.8388    145.6414
  1221.0000     10.6370    180.6586      9.6831    146.4989
  1221.2500     10.5664    182.2146      9.5404    147.2074
  1221.5000     10.7040    183.5761      9.4037    148.5649
  1221.7500     10.9153    184.5554      9.2731    149.1939
  1222.0000     11.0190    185.0551      9.1528    148.5337
  1222.2500     10.9416    185.1144      9.0471    146.6589
  1222.5000     10.7442    184.8453      8.9575    142.0166
  1222.7500     10.4938    184.3219      8.8836    138.1370
  1223.0000     10.2155    183.5189      8.8257    131.6747
  1223.2500      9.9358    182.3442      8.7861    127.1847
  1223.5000      9.7550    180.7297      8.7670    120.9401
  1223.7500      9.8047    178.7095      8.7670    117.6681
  1224.0000     10.1109    176.4481      8.7787    114.4839
  1224.2500     10.5681    174.2372      8.7924    113.0434
  1224.5000     11.0665    172.4948      8.8009    110.3324
  1224.7500     11.5902    171.7211      8.8054    107.6764
  1225.0000     12.1540    172.3372      8.8171    103.7046
  1225.2500     12.7095    174.4425      8.8579    102.6921
  1225.5000     13.1889    177.6640      8.9610    105.5953
  1225.7500     13.6295    181.2441      9.1772    110.2145
  1226.0000     14.1869    184.3415      9.5906    118.7263
  1226.2500     14.9705    186.3740     10.3536    123.8778
  1226.5000     15.9222    187.2003     11.7734    129.0556
  1226.7500     17.0494    187.0629     14.5707    130.0397
  1227.0000     18.7508    186.3862     20.9593    126.1470
  1227.2500     21.5890    185.5745     42.7986    119.2890
  1227.5000     25.7476    184.8865 100000.0000    103.7069
  1227.7500     31.0398    184.3927 100000.0000     91.7538
  1228.0000     37.2134    184.0009 100000.0000     75.0167
  1228.2500     43.9827    183.5320 100000.0000     65.8646
  1228.5000     51.1459    182.8256 100000.0000     55.7530
  1228.7500     58.5371    181.8362 100000.0000     51.3290
  1229.0000     65.8715    180.6660 100000.0000     47.6554
  1229.2500     72.8291    179.5022 100000.0000     46.8063
  1229.5000     78.2475    178.4946 100000.0000     47.6041
  1229.7500     79.9273    177.6616 100000.0000     49.6988
  1230.0000     76.8272    176.8875    182.0513     55.8075
  1230.2500     70.1915    175.9962    112.1349     61.9611
  1230.5000     61.8214    174.8189    121.2375     73.7198
  1230.7500     52.7185    173.2021    924.5151     82.7541
  1231.0000     43.6104    170.9758 100000.0000     97.4657
  1231.2500     35.4720    167.9294 100000.0000    107.5058
  1231.5000     28.9621    163.8015 100000.0000    120.9228
  1231.7500     23.9420    158.2623 100000.0000    127.2868
  1232.0000     19.9909    150.9097 100000.0000    131.8126
  1232.2500     16.9706    141.3214 100000.0000    132.3399
  1232.5000     14.9234    129.1436 100000.0000    132.4466
  1232.7500     13.7896    114.1346 100000.0000    133.4941
  1233.0000     13.3096     96.1112 100000.0000    137.0894
  1233.2500     13.1394     74.8824 100000.0000    140.2051
  1233.5000     13.0389     50.3101      5.6922    144.1158
  1233.7500     12.9053     22.5331      1.6467    145.2753
  1234.0000     12.7134     -7.7482      0.8324    144.4066
  1234.2500     12.5198    -39.0709      0.5260    142.5235
  1234.5000     12.4096    -69.2430      0.3941    138.7016
  1234.7500     12.2718    -95.7298      0.3554    135.6608
  1235.0000     11.6870   -116.3101      0.3939    129.7169
  1235.2500     10.2550   -129.6634      0.5354    124.1200
  1235.5000      8.0913   -135.5387      0.8914    112.4878
  1235.7500      5.8330   -134.4288      1.9764    102.9926
  1236.0000      4.0973   -126.9858     10.6338     88.3921
  1236.2500      3.1203   -113.5672 100000.0000     79.8582
  1236.5000      2.8413    -94.2016 100000.0000     69.9191
  1236.7500      3.0202    -68.9527 100000.0000     64.8648
  1237.0000      3.3447    -38.3811 100000.0000     58.6884
  1237.2500      3.5843     -3.8000 100000.0000     55.4813
  1237.5000      3.5913     32.7492 100000.0000     53.0387
  1237.7500      3.3051     68.7316 100000.0000     53.7471
  1238.0000      2.8774    101.5363 100000.0000     59.2942
  1238.2500      2.5897    129.0672 100000.0000     66.2021
  1238.5000      2.5604    150.2991 100000.0000     80.8197
  1238.7500      2.6703    165.4498 100000.0000     92.4906
  1239.0000      2.8233    175.6369 100000.0000    110.6925
  1239.2500      3.0813    182.2894      3.1114    121.8444
  1239.5000      3.5353    186.6856      0.9885    134.8294
  1239.7500      4.3164    189.7461      0.4575    140.2807
  1240.0000      5.5803    192.0163      0.2476    143.9687
  1240.2500      7.2152    193.7514      0.1577    144.1234
  1240.5000      8.7411    195.0352      0.1275    141.9740
  1240.7500      9.7046    195.8685      0.1357    139.4740
  1241.0000     10.1315    196.2205      0.1850    135.1504
  1241.2500     10.5133    196.0768      0.3010    132.4724
  1241.5000     11.4023    195.4928      0.5493    129.2344
  1241.7500     13.0045    194.6056      1.1636    127.3716
  1242.0000     15.0841    193.5821      3.7201    123.8555
  1242.2500     17.1767    192.5468 100000.0000    120.3227
  1242.5000     18.8506    191.5498 100000.0000    113.1868
  1242.7500     19.9450    190.5842 100000.0000    108.0387
  1243.0000     20.6392    189.6148 100000.0000    101.4443
  1243.2500     21.2504    188.6008 100000.0000     98.1732
  1243.5000     22.0026    187.5299 100000.0000     94.4223
  1243.7500     22.9523    186.4653 100000.0000     92.1846
  1244.0000     24.0013    185.5490 100000.0000     88.5656
  1244.2500     24.9233    184.9288 100000.0000     85.7373
  1244.5000     25.4737    184.6698    205.1902     80.9814
  1244.7500     25.5172    184.7334     61.3030     77.9912
  1245.0000     25.1168    185.0303     50.8036     74.9322
  1245.2500     24.5580    185.4848     59.0725     74.1262
  1245.5000     24.1357    186.0638    118.1899     74.4861
  1245.7500     23.8793    186.7608 100000.0000     75.6832
  1246.0000     23.5882    187.5584 100000.0000     79.4332
  1246.2500     23.1087    188.4046 100000.0000     83.5726
  1246.5000     22.5327    189.2197 100000.0000     92.0497
  1246.7500     22.0812    189.9233 100000.0000     98.6962
  1247.0000     21.7792    190.4650 100000.0000    109.2610
  1247.2500     21.4110    190.8425 100000.0000    116.3905
  1247.5000     20.8294    191.0908 100000.0000    126.8717
  1247.7500     20.0766    191.2571 100000.0000    133.3503
  1248.0000     19.2862    191.3874 100000.0000    140.9809
  1248.2500     18.6171    191.5246     56.8381    143.7137
  1248.5000     18.1064    191.7004     22.2723    143.6603
  1248.7500     17.6157    191.9295     15.1186    141.6386
  1249.0000     17.0078    192.2252     12.3768    138.2149
  1249.2500     16.2299    192.6173     11.1434    136.8745
  1249.5000     15.3159    193.1363     10.5958    136.6051
  1249.7500     14.4058    193.7649     10.4170    136.9908
  1250.0000     13.6480    194.4148     10.4639    137.3980
  1250.2500     13.0782    194.9804     10.6569    137.5504
  1250.5000     12.6617    195.4275     10.9333    138.4893
  1250.7500     12.3765    195.8147     11.2335    140.0015
  1251.0000     12.1686    196.2261     11.5065    143.2438
  1251.2500     11.9663    196.6986     11.7210    145.4527
  1251.5000     11.7711    197.2124     11.8680    148.3325
  1251.7500     11.6381    197.7160     11.9543    150.2326
  1252.0000     11.6363    198.1517     11.9948    153.4956
  1252.2500     11.8373    198.4904     12.0082    155.5379
  1252.5000     12.2252    198.7564     12.0160    156.8754
  1252.7500     12.5772    198.9952     12.0412    156.0900
  1253.0000     12.5999    199.2104     12.1054    152.7727
  1253.2500     12.2369    199.3437     12.2260    149.6093
