~Version Information
VERS.                      2.0: CWLS Log ASCII Standard - VERSION 2.0
WRAP.                       NO: One line per depth step
~Well Information Block
STRT.FT               410.0000: 
STOP.FT              1252.0000: 
STEP.FT                 0.2500: 
NULL.                -999.2500: 
COMP.          Petrogulf Corporation: COMPANY
WELL.           Parsons 15-23R: WELL
FLD.           Purgatorie River: FIELD
LOC.           2244' FSL & 1932' FWL: LOCATION
PROV.                 Colorado: PROVINCE
CNTY.               Las Animas: COUNTRY
SRVC.                Patterson: SERVICE COMPANY
DATE.          Mon Sep 12 10:30:11 2005: LOG DATE
UWI.                          : UNIQUE WELL ID
~Curve Information Block
DEPT.FT            0 000 00 00: Depth
SP.mV                         : DIL Spontaneous Potential
RILD.Ohm-m                    : DIL Deep Resistivity
RILM.Ohm-m                    : DIL Medium Resistivity
RLL3.Ohm-m                    : DIL Shallow Resistivity
GR.GAPI                       : Gamma Ray
~Parameter Information Block
~A  Depth        SP         RILD        RILM        RLL3         GR     
# ...
   634.0000    197.0188     10.4466     11.0735     13.6234    146.1099
   634.2500    196.1619     10.5472     11.0835     13.0119    143.0396
   634.5000    195.2818     10.6324     11.2878     14.4846    157.2778
   634.7500    194.0407     10.5401     11.3006     13.7000    144.4067
   635.0000    192.5362     10.4983     11.2057     14.5838    145.9075
   635.2500    190.6945     10.3337     11.3410     13.4216    144.4148
   635.5000    188.9405     10.3497     11.3795     13.2588    153.6910
   635.7500    187.2276     10.1268     11.2739     13.3284    147.4736
   636.0000    185.5867     10.0828     11.1167     14.7445    126.8004
   636.2500    184.4007     10.0836     10.8581     13.8675    141.6232
   636.5000    183.6093      9.8492     10.5924     11.8285    159.8661
   636.7500    182.6759      9.8465     10.1961     11.5818    161.4724
   637.0000    181.7931      9.8254      9.9353     12.6746    153.4631
   637.2500    180.9575      9.7559      9.6931     12.4349    161.0264
   637.5000    180.1199      9.6996      9.5275     11.4773    153.5071
   637.7500    179.6528      9.5105      9.4729     10.3463    179.1263
   638.0000    180.1482      9.5103      9.4116      9.6391    155.8768
   638.2500    181.1871      9.6299      9.3503      9.9139    146.6179
   638.5000    182.0861      9.7409      9.4182      8.9683    148.0303
   638.7500    183.6950      9.6765      9.6436      9.5936    140.3533
   639.0000    185.1175      9.6766      9.7577     13.5840    138.4169
   639.2500    186.1659      9.8767      9.7443     13.3329    145.3111
   639.5000    187.2236     10.0897      9.9456     13.1842    145.8592
   639.7500    188.1031     10.1707     10.0458     13.3563    134.7836
   640.0000    189.0592     10.3143     10.2165     13.2068    149.4650
   640.2500    189.4562     10.7851     10.6483     13.8401    146.1199
   640.5000    190.1962     11.3871     10.9207     15.0637    153.1202
   640.7500    190.3106     11.8309     11.3543     16.7701    145.3957
   641.0000    189.8913     12.3811     12.0293     16.9778    129.8756
   641.2500    189.1183     13.0074     12.9972     17.1125    140.7375
   641.5000    188.4103     13.6056     14.1071     16.9617    118.0531
   641.7500    187.4140     14.2297     15.2357     20.3509    102.7767
   642.0000    188.2538     15.2769     16.2624     26.7004     78.4970
   642.2500    188.8339     16.2626     17.8485     42.3839     67.6093
   642.5000    189.6451     16.8869     19.4805     51.3193     77.4769
   642.7500    189.4482     17.3795     21.4253     51.3307     89.4478
   643.0000    189.0211     18.8674     21.6276     44.1382     89.6396
   643.2500    188.4847     19.7750     22.6212     39.3664     86.5457
   643.5000    187.7598     21.1122     24.8151     37.2699     77.5643
   643.7500    187.8989     22.2673     28.1654     38.7002     78.7106
   644.0000    188.1353     22.7824     30.4094     47.7643     78.7465
   644.2500    187.9712     24.1934     32.4073     61.3289     72.0116
   644.5000    187.9548     26.1116     35.4974     73.0579     67.0646
   644.7500    187.3767     25.8182     36.5812     77.7394     68.8804
   645.0000    187.2459     26.6746     37.5966     78.8164     70.0557
   645.2500    186.0813     27.2713     37.5323     80.7887     78.3720
   645.5000    185.7230     27.2553     38.7137     77.6479     89.6716
   645.7500    185.3260     27.0673     37.3507     67.5676     85.7910
   646.0000    185.5930     27.6957     35.5481     59.5161     86.0907
   646.2500    185.4064     27.5357     36.5875     53.5199     86.5551
   646.5000    185.2067     28.8316     36.2680     46.3331     91.5905
   646.7500    185.3139     28.4734     35.5804     45.9190     91.0196
   647.0000    185.4172     28.7384     37.2375     48.9633     74.2171
   647.2500    185.1427     27.7055     38.8993     51.7133     85.8668
   647.5000    185.2231     28.1944     37.3083     56.8052     90.1591
   647.7500    185.3892     28.6133     40.4263     69.2337     90.4958
   648.0000    187.1296     26.9632     40.4962     82.0514     74.1915
   648.2500    189.3024     26.2851     37.5284     82.1004     65.4440
   648.5000    191.7834     26.9021     37.5536     75.5498     76.0854
   648.7500    193.5874     26.6770     35.7010     63.3344     82.0987
   649.0000    195.8369     26.7145     33.5824     52.9309     79.2174
   649.2500    197.2909     26.4748     33.9226     50.8494     83.9876
   649.5000    198.2675     25.8450     34.8468     52.6397     90.7739
   649.7500    199.3674     24.7166     34.1917     56.3449     90.4806
   650.0000    201.1600     24.3085     32.9272     56.4445     84.7272
   650.2500    202.5605     24.6919     30.3144     47.7677     97.0854
   650.5000    204.1495     24.7845     28.9400     36.4496    114.4123
   650.7500    205.1802     24.3343     26.9757     30.4780    106.2102
   651.0000    205.8815     24.0998     26.6453     29.1929    123.7143
   651.2500    206.5774     24.5995     25.1258     26.6096    107.2305
   651.5000    207.0957     24.5612     24.5990     23.6672    117.7666
   651.7500    207.3479     24.8278     26.5615     22.2408    114.5659
   652.0000    207.6145     25.2317     27.7845     23.3417    131.0289
   652.2500    208.4130     25.1076     27.7830     28.0176    134.6885
   652.5000    210.2014     25.2720     28.7343     33.7670    101.6118
   652.7500    212.0016     25.7011     30.0886     42.1816     98.3089
   653.0000    214.0625     25.7793     30.9945     50.7026     98.2363
   653.2500    215.6867     25.8752     33.1453     52.2181     93.3598
   653.5000    217.4733     25.5462     35.3024     56.8239     60.8219
   653.7500    219.1419     24.7137     36.2696     65.2672     57.1696
   654.0000    220.6711     26.1677     33.5567     68.1373     77.9763
   654.2500    221.7161     24.8522     33.6020     64.8131     93.8731
   654.5000    222.6515     25.3588     32.0814     54.3352     94.2508
   654.7500    224.0042     24.6808     31.3292     43.3144     94.0285
   655.0000    224.9050     24.2259     28.8870     37.9888    117.8586
   655.2500    225.7294     22.9557     27.8804     35.6252    127.0764
   655.5000    226.2081     22.6683     26.2339     30.6979    104.5220
   655.7500    226.6659     21.8212     25.1530     24.1674    124.7042
   656.0000    226.8936     20.7271     23.2568     22.1006    147.0769
   656.2500    227.2598     19.7834     21.6322     21.2167    123.4327
   656.5000    227.0581     19.0466     20.7113     20.6272    126.8051
   656.7500    226.8553     18.0944     19.8421     20.7447    133.6531
   657.0000    226.4027     17.4404     18.8287     20.1308    135.1819
   657.2500    226.1136     16.9974     17.8971     20.2010    145.1713
   657.5000    225.7552     16.6364     17.1916     17.6971    144.5707
   657.7500    225.3999     16.2271     16.3880     16.8007    132.1032
   658.0000    225.4048     15.5921     16.1261     17.4138    141.1951
   658.2500    225.3663     15.1841     15.6078     17.8633    136.1044
   658.5000    225.4972     15.0008     15.4395     17.6894    136.8767
   658.7500    225.5323     14.8594     14.9747     17.7911    128.9093
   659.0000    225.4308     14.7466     14.9254     17.3211    135.4755
   659.2500    224.8085     14.4671     14.5221     16.1241    143.4212
   659.5000    223.7945     14.5324     14.3200     16.6577    137.7792
   659.7500    222.7562     14.4385     14.0825     16.0579    134.4438
   660.0000    221.7534     14.2028     14.1137     15.5727    134.7279
   660.2500    220.9982     14.4407     14.1035     15.8391    128.6394
   660.5000    219.9674     14.6031     14.2914     16.3986    132.8291
   660.7500    219.0448     14.4103     14.7479     16.3740    118.9392
   661.0000    217.6365     14.7678     14.8852     16.6325    129.4747
   661.2500    216.0473     14.9528     14.9959     18.5860     99.2572
   661.5000    214.2588     14.8560     15.2995     22.1169    101.7020
   661.7500    212.5402     14.8662     16.0739     22.1128    101.1981
