~Version Information
VERS.                      2.0: CWLS Log ASCII Standard - VERSION 2.0
WRAP.                       NO: One line per depth step
~Well Information Block
STRT.FT               875.0000: 
STOP.FT              2947.2500: 
STEP.FT                 0.2500: 
NULL.                -999.2500: 
COMP.          Pioneer Natural Resources: COMPANY
WELL.          Hanginstone 21-27: WELL
FLD.           Purgatoire River: FIELD
LOC.           1186' FNL & 1606' FWL--: LOCATION
PROV.                 Colorado: PROVINCE
CNTY.               Las Animas: COUNTRY
SRVC.                Patterson: SERVICE COMPANY
DATE.          Sat Jan 07 09:06:14 2006: LOG DATE
UWI.           05 071 08632 00: UNIQUE WELL ID
~Curve Information Block
DEPT.FT            0 000 00 00: Depth
SN.Ohm-m                      : IEL Short Normal
SP.mV                         : IEL Spontaneous Potential
DIR.Ohm-m                     : IEL Induction Resistivity
GR.GAPI                       : Gamma Ray
~Parameter Information Block
~A  Depth        SN          SP         DIR          GR     
# ...
  2784.5000      1.7269   -244.5208      0.2470     46.9932
  2784.7500      1.7178   -244.1096      0.6109     48.5026
  2785.0000      1.7113   -243.0163      1.4577     50.6021
  2785.2500      1.7085   -240.9358      3.0516     51.4553
  2785.5000      1.7106   -237.3996      3.2658     52.6279
  2785.7500      1.7231   -231.8012      1.8757     54.5170
  2786.0000      1.7555   -223.4615      1.0135     61.0534
  2786.2500      1.8219   -211.7395      0.6097     68.3334
  2786.5000      1.9507   -196.1791      0.4160     82.5845
  2786.7500      2.2016   -176.6539      0.3281     92.8468
  2787.0000      2.6730   -153.4728      0.3067    106.5003
  2787.2500      3.4707   -127.4015      0.3412    113.0722
  2787.5000      4.6346    -99.5814      0.4415    117.8457
  2787.7500      6.0764    -71.3598      0.6462    117.7109
  2788.0000      7.5978    -44.0763      1.0670    114.3450
  2788.2500      8.9955    -18.8652      2.0862    111.6853
  2788.5000     10.1658      3.4775      5.7984    109.1802
  2788.7500     11.1287     22.5367 100000.0000    108.4950
  2789.0000     11.9760     38.2409 100000.0000    107.5701
  2789.2500     12.8061     50.7746 100000.0000    106.4963
  2789.5000     13.6872     60.4779 100000.0000    104.4750
  2789.7500     14.6487     67.7621 100000.0000    103.1677
  2790.0000     15.6856     73.0545 100000.0000    101.0305
  2790.2500     16.7752     76.7691 100000.0000     98.9344
  2790.5000     17.9026     79.2946    163.9731     94.0883
  2790.7500     19.0734     80.9878     20.3262     89.9392
  2791.0000     20.2926     82.1661     11.4097     83.5182
  2791.2500     21.5270     83.0980      8.6976     79.7053
  2791.5000     22.6877     83.9943      7.8025     75.2038
  2791.7500     23.6524     85.0037      7.8194     73.3461
  2792.0000     24.3069     86.2139      8.5619     73.1572
  2792.2500     24.5762     87.6548     10.2174     75.0302
  2792.5000     24.4393     89.3104     13.4901     80.0229
  2792.7500     23.9346     91.1310     20.3853     83.7993
  2793.0000     23.1585     93.0471     37.6234     89.0132
  2793.2500     22.2491     94.9813     98.2900     92.3512
  2793.5000     21.3551     96.8574    554.2344     97.8697
  2793.7500     20.5993     98.6068    655.3936    101.8443
  2794.0000     20.0507    100.1703    125.7618    107.6382
  2794.2500     19.7122    101.4977     53.2103    111.3731
  2794.5000     19.5321    102.5460     31.8937    117.3375
  2794.7500     19.4381    103.2792     23.1257    121.5299
  2795.0000     19.3717    103.6701     18.9107    127.0307
  2795.2500     19.2965    103.7075     16.7672    129.5356
  2795.5000     19.1799    103.4050     15.7114    131.4639
  2795.7500     18.9800    102.8086     15.2797    131.6267
  2796.0000     18.6622    101.9989     15.2208    129.3596
  2796.2500     18.2335    101.0850     15.3797    125.4585
  2796.5000     17.7630    100.1893     15.6453    116.4402
  2796.7500     17.3643     99.4262     15.9267    109.8434
  2797.0000     17.1506     98.8794     16.1467    102.1024
  2797.2500     17.1898     98.5858     16.2496     99.3171
  2797.5000     17.4831     98.5295     16.2104     98.4908
  2797.7500     17.9689     98.6503     16.0361     99.3321
  2798.0000     18.5462     98.8632     15.7560    100.8298
  2798.2500     19.1064     99.0846     15.4120    101.2556
  2798.5000     19.5609     99.2580     15.0498    101.2209
  2798.7500     19.8521     99.3708     14.7124    101.4064
  2799.0000     19.9419     99.4577     14.4325    102.6185
  2799.2500     19.7913     99.5893     14.2245    103.7787
  2799.5000     19.3527     99.8502     14.0798    105.1163
  2799.7500     18.5936    100.3126     13.9683    105.2389
  2800.0000     17.5418    101.0157     13.8495    103.5377
  2800.2500     16.3149    101.9556     13.6896    101.0186
  2800.5000     15.1024    103.0869     13.4777     96.2668
  2800.7500     14.1051    104.3361     13.2291     93.7599
  2801.0000     13.4669    105.6182     12.9729     92.9446
  2801.2500     13.2351    106.8533     12.7334     94.6961
  2801.5000     13.3576    107.9783     12.5161     99.8570
  2801.7500     13.7115    108.9529     12.3062    103.8713
  2802.0000     14.1510    109.7589     12.0782    108.7106
  2802.2500     14.5560    110.3974     11.8139    110.5201
  2802.5000     14.8578    110.8817     11.5156    111.4911
  2802.7500     15.0376    111.2317     11.2066    111.5878
  2803.0000     15.1083    111.4670     10.9186    111.5318
  2803.2500     15.0969    111.6026     10.6770    111.4174
  2803.5000     15.0329    111.6464     10.4920    111.3470
  2803.7500     14.9415    111.5993     10.3595    111.7795
  2804.0000     14.8387    111.4581     10.2680    114.0634
  2804.2500     14.7316    111.2200     10.2067    116.9342
  2804.5000     14.6267    110.8870     10.1716    122.5258
  2804.7500     14.5407    110.4688     10.1656    125.9942
  2805.0000     14.5013    109.9839     10.1955    128.8779
  2805.2500     14.5306    109.4581     10.2681    128.9116
  2805.5000     14.6221    108.9207     10.3866    127.0446
  2805.7500     14.7316    108.3997     10.5496    125.2021
  2806.0000     14.8005    107.9184     10.7508    121.8915
  2806.2500     14.7994    107.4912     10.9788    119.2869
  2806.5000     14.7578    107.1223     11.2182    115.3100
  2806.7500     14.7495    106.8044     11.4502    113.2081
  2807.0000     14.8411    106.5187     11.6528    111.3728
  2807.2500     15.0436    106.2369     11.8005    110.7397
  2807.5000     15.3042    105.9240     11.8666    109.8977
  2807.7500     15.5455    105.5425     11.8311    109.3697
  2808.0000     15.7177    105.0584     11.6928    109.4836
  2808.2500     15.8204    104.4475     11.4755    110.6478
  2808.5000     15.8812    103.7013     11.2218    113.7498
  2808.7500     15.9170    102.8301     10.9789    116.0038
  2809.0000     15.9158    101.8643     10.7849    118.6000
  2809.2500     15.8489    100.8503     10.6626    119.6390
  2809.5000     15.6914     99.8446     10.6198    120.2297
  2809.7500     15.4315     98.9045     10.6520    119.8496
  2810.0000     15.0681     98.0795     10.7465    117.5172
  2810.2500     14.6103     97.4043     10.8868    114.5339
  2810.5000     14.0888     96.8957     11.0561    108.2685
  2810.7500     13.5759     96.5536     11.2390    103.6345
  2811.0000     13.1918     96.3645     11.4200     97.6863
  2811.2500     13.0818     96.3059     11.5821     95.1925
  2811.5000     13.3615     96.3507     11.7060     94.1899
  2811.7500     14.0536     96.4685     11.7697     95.2664
  2812.0000     15.0499     96.6267     11.7509     99.1304
  2812.2500     16.1358     96.7906     11.6316    102.8230
  2812.5000     17.0762     96.9261     11.4082    108.8164
  2812.7500     17.7130     97.0030     11.0994    112.2428
  2813.0000     18.0133     97.0002     10.7465    115.6003
  2813.2500     18.0496     96.9086     10.4030    116.7275
  2813.5000     17.9459     96.7321     10.1195    117.7386
  2813.7500     17.8226     96.4853      9.9326    118.5387
  2814.0000     17.7537     96.1892      9.8604    119.6264
  2814.2500     17.7366     95.8677      9.9033    119.0850
  2814.5000     17.6931     95.5463     10.0465    114.1850
  2814.7500     17.5131     95.2527     10.2638    108.1941
  2815.0000     17.1309     95.0192     10.5210     97.9695
  2815.2500     16.5844     94.8814     10.7814     92.6602
  2815.5000     16.0103     94.8744     11.0086     89.8098
  2815.7500     15.5734     95.0236     11.1680     91.6438
  2816.0000     15.3766     95.3358     11.2269     98.2003
  2816.2500     15.4126     95.7911     11.1583    103.2802
  2816.5000     15.5844     96.3417     10.9502    109.3297
  2816.7500     15.7727     96.9172     10.6175    111.7689
  2817.0000     15.9014     97.4351     10.2058    113.4864
  2817.2500     15.9588     97.8138      9.7799    113.7213
  2817.5000     15.9695     97.9850      9.4040    112.8361
  2817.7500     15.9503     97.9028      9.1251    111.3330
