~Version Information
VERS.                      2.0: CWLS Log ASCII Standard - VERSION 2.0
WRAP.                       NO: One line per depth step
~Well Information Block
STRT.FT               520.0000: 
STOP.FT              1373.0000: 
STEP.FT                 0.1000: 
NULL.                -999.2500: 
COMP.          Pioneer Natural Resources: COMPANY
WELL.            Gamma 13-3 Tr: WELL
FLD.           Purgatoire River: FIELD
LOC.           2127' FSL & 738' FWL: LOCATION
STAT.                 Colorado: State
CNTY.               Las Animas: COUNTY
CTRY.                      USA: Country
SECT.                        3: Section
TOWN.                       33S: Township
RANG.                       67W: Range
SRVC.                Patterson: SERVICE COMPANY
DATE.          Mon Sep 19 09:58:04 2005: LOG DATE
API.           05 071 08524 00: API
~Curve Information Block
DEPT.FT            0 000 00 00: Depth
DPOR.pu                       : CDL Density Porosity
GR.GAPI                       : Gamma Ray
NPOR.pu                       : Neutron Porosity
RHOB.g/cc                     : CDL Bulk Density
RHOC.g/cc                     : CDL Density Correction
DCAL.in                       : CDL Caliper
~Parameter Information Block
~A  Depth       DPOR         GR         NPOR        RHOB        RHOC        DCAL    
# ...
  1355.2000      6.6535    122.5179     23.3588      2.5402      0.1080      7.9416
  1355.3000      7.0824    122.1175     23.4286      2.5331      0.0764      7.9382
  1355.4000      7.7526    121.5257     23.6798      2.5221      0.0602      7.9382
  1355.5000      8.2931    114.9219     24.0098      2.5132      0.0260      7.9242
  1355.6000      8.4260     89.1638     24.2993      2.5110      0.0656      7.9242
  1355.7000      8.6261     47.7167     24.6233      2.5077      0.0246      7.9242
  1355.8000      9.0964     15.5741     24.9887      2.4999      0.0392      7.9144
  1355.9000      9.0865      2.8921     25.6707      2.5001      0.0461      7.9144
  1356.0000      8.0280      0.2944     26.1082      2.5175      0.0277      7.9194
  1356.1000      7.0218      0.0158     25.6027      2.5341      0.1388      7.9194
  1356.2000      7.8285      0.0000     25.0132      2.5208      0.1058      7.9194
  1356.3000     10.0555   -999.2500     25.4156      2.4841      0.0668      7.9257
  1356.4000     11.8208   -999.2500     26.6886      2.4550      0.0224      7.9257
  1356.5000     12.0058   -999.2500     28.0281      2.4519      0.0029      7.9198
  1356.6000     10.7216   -999.2500     28.6370      2.4731      0.0333      7.9198
  1356.7000      8.6673   -999.2500     28.3572      2.5070      0.0895      7.9198
  1356.8000      6.0137   -999.2500     27.9015      2.5508      0.0972      7.9132
  1356.9000      2.6522   -999.2500     28.0133      2.6062      0.1750      7.9132
  1357.0000     -0.5867   -999.2500     28.2411      2.6597      0.2011      7.9070
  1357.1000     -2.3850   -999.2500     27.7980      2.6894      0.2370      7.9070
  1357.2000     -2.5162   -999.2500     26.8597      2.6915      0.1205      7.9070
  1357.3000     -1.8293   -999.2500     26.0035      2.6802      0.1127      7.9032
  1357.4000     -0.5188   -999.2500     25.3822      2.6586      0.1154      7.9032
  1357.5000      1.2725   -999.2500     24.8430      2.6290      0.0674      7.9035
  1357.6000      2.3231   -999.2500     24.5225      2.6117      0.0051      7.9035
  1357.7000      1.8051   -999.2500     24.3856      2.6202      0.0418      7.9035
  1357.8000      0.7842   -999.2500     24.2664      2.6371      0.0852      7.9131
  1357.9000      0.6615   -999.2500     24.1791      2.6391      0.0484      7.9131
  1358.0000      1.6714   -999.2500     24.3210      2.6224      0.0490      7.9474
  1358.1000      3.4484   -999.2500     26.3397      2.5931      0.0202      7.9474
  1358.2000      5.2041   -999.2500     32.7565      2.5641      0.0196      7.9474
  1358.3000      6.2423   -999.2500     41.9835      2.5470      0.0448      7.9905
  1358.4000      6.6839   -999.2500     48.3352      2.5397      0.0528      7.9905
  1358.5000      7.0168   -999.2500     50.5953      2.5342      0.0410      8.0083
  1358.6000      7.2158   -999.2500     51.0364      2.5309      0.0244      8.0083
  1358.7000      7.0334   -999.2500     51.0829      2.5339      0.0245      8.0083
  1358.8000      6.3112   -999.2500     51.0856      2.5459      0.0383      8.0071
  1358.9000      5.3278   -999.2500   -999.2500      2.5621      0.0896      8.0071
  1359.0000      5.1049   -999.2500   -999.2500      2.5658      0.1210      8.0005
  1359.1000      6.0261   -999.2500   -999.2500      2.5506      0.1100      8.0005
  1359.2000      7.2121   -999.2500   -999.2500      2.5310      0.1044      8.0005
  1359.3000      7.4977   -999.2500   -999.2500      2.5263      0.0673      7.9780
  1359.4000      6.5802   -999.2500   -999.2500      2.5414      0.1094      7.9780
  1359.5000      5.4539   -999.2500   -999.2500      2.5600      0.1658      7.9423
  1359.6000      5.2370   -999.2500   -999.2500      2.5636      0.1685      7.9423
  1359.7000      6.1285   -999.2500   -999.2500      2.5489      0.1045      7.9423
  1359.8000      7.5848   -999.2500   -999.2500      2.5249      0.1045      7.9276
  1359.9000      8.4849   -999.2500   -999.2500      2.5100      0.0495      7.9276
  1360.0000      8.0142   -999.2500   -999.2500      2.5178      0.0519      7.9414
  1360.1000      7.2918   -999.2500   -999.2500      2.5297      0.1214      7.9414
  1360.2000      7.8119   -999.2500   -999.2500      2.5211      0.0459      7.9414
  1360.3000      8.6193   -999.2500   -999.2500      2.5078     -0.0357      7.9628
  1360.4000      8.2349   -999.2500   -999.2500      2.5141      0.0526      7.9628
  1360.5000      7.0700   -999.2500   -999.2500      2.5333      0.0438      7.9859
  1360.6000      6.0281   -999.2500   -999.2500      2.5505      0.0647      7.9859
  1360.7000      5.4069   -999.2500   -999.2500      2.5608      0.0733      7.9859
  1360.8000      5.0701   -999.2500   -999.2500      2.5663      0.0624      7.9990
  1360.9000      5.0783   -999.2500   -999.2500      2.5662      0.0752      7.9990
  1361.0000      5.5040   -999.2500   -999.2500      2.5592      0.0419      7.9850
  1361.1000      5.8925   -999.2500   -999.2500      2.5528      0.0537      7.9850
  1361.2000      6.0743   -999.2500   -999.2500      2.5498      0.0451      7.9850
  1361.3000      6.2786   -999.2500   -999.2500      2.5464      0.0478      7.9658
  1361.4000      6.5569   -999.2500   -999.2500      2.5418      0.0594      7.9658
  1361.5000      6.7908   -999.2500   -999.2500      2.5380      0.0285      7.9594
  1361.6000      6.5959   -999.2500   -999.2500      2.5412     -0.0182      7.9594
  1361.7000      5.8615   -999.2500   -999.2500      2.5533      0.0307      7.9594
  1361.8000      5.2179   -999.2500   -999.2500      2.5639      0.0890      7.9612
  1361.9000      4.7671   -999.2500   -999.2500      2.5713      0.0522      7.9612
  1362.0000      4.1059   -999.2500   -999.2500      2.5823      0.0762      7.9610
  1362.1000      3.6246   -999.2500   -999.2500      2.5902      0.0889      7.9610
  1362.2000      3.7689   -999.2500   -999.2500      2.5878      0.0628      7.9610
  1362.3000      4.5610   -999.2500   -999.2500      2.5747      0.0630      7.9555
  1362.4000      5.9089   -999.2500   -999.2500      2.5525      0.0230      7.9555
  1362.5000      7.1044   -999.2500   -999.2500      2.5328      0.0101      7.9564
  1362.6000      7.7111   -999.2500   -999.2500      2.5228      0.0302      7.9564
  1362.7000      8.0533   -999.2500   -999.2500      2.5171      0.0141      7.9564
  1362.8000      8.2621   -999.2500   -999.2500      2.5137      0.0007      7.9634
  1362.9000      8.3401   -999.2500   -999.2500      2.5124      0.0032      7.9634
  1363.0000      8.3493   -999.2500   -999.2500      2.5122      0.0197      7.9730
  1363.1000      8.5109   -999.2500   -999.2500      2.5096      0.0485      7.9730
  1363.2000      8.7744   -999.2500   -999.2500      2.5052     -0.0072      7.9730
  1363.3000      8.6744   -999.2500   -999.2500      2.5069      0.0333      7.9899
  1363.4000      8.4265   -999.2500   -999.2500      2.5110      0.0322      7.9899
  1363.5000      8.2755   -999.2500   -999.2500      2.5135      0.0501      8.0025
  1363.6000      7.6460   -999.2500   -999.2500      2.5238     -0.0115      8.0025
  1363.7000      6.7042   -999.2500   -999.2500      2.5394      0.0454      8.0025
  1363.8000      7.0005   -999.2500   -999.2500      2.5345      0.0451      8.0023
  1363.9000      8.9923   -999.2500   -999.2500      2.5016      0.0232      8.0023
  1364.0000     11.1617   -999.2500   -999.2500      2.4658      0.0246      7.9958
  1364.1000     12.6240   -999.2500   -999.2500      2.4417      0.0687      7.9958
  1364.2000     13.7924   -999.2500   -999.2500      2.4224      0.0299      7.9958
  1364.3000     14.5760   -999.2500   -999.2500      2.4095      0.0179      7.9822
  1364.4000     14.2737   -999.2500   -999.2500      2.4145      0.0311      7.9822
  1364.5000     12.2871   -999.2500   -999.2500      2.4473     -0.0013      7.9598
  1364.6000      8.7754   -999.2500   -999.2500      2.5052      0.1028      7.9598
  1364.7000      5.3983   -999.2500   -999.2500      2.5609      0.1771      7.9598
