~Version Information
VERS.                      2.0: CWLS Log ASCII Standard - VERSION 2.0
WRAP.                       NO: One line per depth step
~Well Information Block
STRT.FT               240.0000: 
STOP.FT              1677.0000: 
STEP.FT                 0.1000: 
NULL.                -999.2500: 
COMP.          Pioneer Natural Resources: COMPANY
WELL.          Lorencito 8-1-34-67: WELL
FLD.           Purgatoire River: FIELD
LOC.           1567' FNL & 500' FEL: LOCATION
STAT.                 Colorado: State
CTRY. USA : Country 
CNTY.               Las Animas: COUNTY
SECT. 1 : Section 
TOWN. 34S : Township
RANG. 67W : Range
SRVC.                Patterson: SERVICE COMPANY
DATE.          Fri Aug 26 09:30:14 2005: LOG DATE
API.           05 071 08506 00: UNIQUE WELL ID
~Curve Information Block
DEPT.FT            0 000 00 00: Depth
DCAL.in                       : CDL Caliper
RHOB.g/cc                     : CDL Bulk Density
RHOC.g/cc                     : CDL Density Correction
DPOR.pu                       : CDL Density Porosity
GR.GAPI                       : Gamma Ray
NPOR.pu                       : Neutron Porosity
~Parameter Information Block
~A  Depth       DCAL        RHOB        RHOC        DPOR         GR         NPOR    
# ...
   806.4000      8.3124      2.0742      0.2445     34.8979     98.6465     23.5611
   806.5000      8.1789      2.2139      0.3488     26.4287     91.2945     23.7227
   806.6000      8.1789      2.3343      0.3541     19.1350     85.2835     23.1631
   806.7000      8.1789      2.4292      0.3698     13.3813     82.9086     22.4224
   806.8000      8.1286      2.5021      0.3267      8.9652     80.5114     22.0903
   806.9000      8.1286      2.5499      0.2895      6.0643     76.9693     22.3493
   807.0000      8.0347      2.5600      0.1613      5.4516     73.1344     22.8384
   807.1000      8.0347      2.5386      0.0702      6.7541     68.9722     22.7948
   807.2000      8.0347      2.5215      0.0634      7.7878     65.1656     22.1104
   807.3000      8.0201      2.5246      0.0531      7.5976     64.8878     21.4134
   807.4000      8.0201      2.5227      0.0971      7.7161     71.0980     20.7737
   807.5000      8.0356      2.5026      0.0222      8.9342     81.1448     19.9977
   807.6000      8.0356      2.4895      0.0174      9.7280     87.8146     19.5145
   807.7000      8.0356      2.4981      0.0506      9.2078     85.4320     19.5470
   807.8000      8.0269      2.5103      0.0730      8.4684     76.6418     19.8530
   807.9000      8.0269      2.5182      0.0184      7.9890     68.4024     20.0687
   808.0000      8.0396      2.5340      0.0460      7.0314     65.8399     19.9575
   808.1000      8.0396      2.5537      0.0647      5.8385     67.9752     19.7208
   808.2000      8.0396      2.5655      0.0238      5.1183     70.7686     19.5814
   808.3000      8.0633      2.5745     -0.0120      4.5734     75.2139     19.5060
   808.4000      8.0633      2.5850      0.0315      3.9419     82.6211     19.3783
   808.5000      8.0590      2.5884      0.0534      3.7324     92.3998     19.1844
   808.6000      8.0590      2.5794      0.0463      4.2784    105.1594     19.1626
   808.7000      8.0590      2.5585      0.0391      5.5449    116.1817     19.3935
   808.8000      8.1030      2.5303      0.0043      7.2537    118.1547     19.6376
   808.9000      8.1030      2.5109     -0.0173      8.4300    113.4110     19.9295
   809.0000      8.1151      2.5128      0.0120      8.3151    110.1658     20.4795
   809.1000      8.1151      2.5318     -0.0396      7.1615    115.4602     21.0514
   809.2000      8.1151      2.5583      0.0162      5.5586    131.0069     21.4411
   809.3000      8.1169      2.5772      0.0241      4.4096    147.5517     21.8303
   809.4000      8.1169      2.5729      0.0376      4.6719    155.1577     22.2966
   809.5000      8.1341      2.5527     -0.0106      5.8988    153.7486     22.7477
   809.6000      8.1341      2.5384     -0.0087      6.7646    149.7686     23.1191
   809.7000      8.1341      2.5299      0.0306      7.2762    146.5362     23.3637
   809.8000      8.1670      2.5219     -0.0045      7.7647    144.2793     23.7000
   809.9000      8.1670      2.5162      0.0246      8.1094    148.2377     24.0683
   810.0000      8.2198      2.5087     -0.0050      8.5611    155.8982     24.1252
   810.1000      8.2198      2.5077     -0.0191      8.6236    156.1898     24.0725
   810.2000      8.2198      2.5229     -0.0044      7.7045    149.8276     24.2571
   810.3000      8.1813      2.5448      0.0134      6.3779    145.0256     24.6088
   810.4000      8.1813      2.5604     -0.0264      5.4281    144.0400     25.0722
   810.5000      8.1716      2.5645      0.0273      5.1838    144.0001     25.6206
   810.6000      8.1716      2.5620      0.0031      5.3355    143.2892     25.9034
   810.7000      8.1716      2.5596      0.0379      5.4758    140.0731     25.7521
   810.8000      8.1735      2.5511      0.0067      5.9926    133.1314     25.4125
   810.9000      8.1735      2.5360      0.0088      6.9061    124.6183     25.0930
   811.0000      8.1527      2.5248     -0.0060      7.5894    119.7108     24.9909
   811.1000      8.1527      2.5224     -0.0177      7.7363    122.5155     25.0526
   811.2000      8.1527      2.5269      0.0253      7.4580    129.6900     24.8888
   811.3000      8.1386      2.5321      0.0274      7.1428    133.8138     24.5873
   811.4000      8.1386      2.5272      0.0108      7.4441    132.8049     24.5238
   811.5000      8.1510      2.5065     -0.0102      8.6968    130.0096     24.5435
   811.6000      8.1510      2.4836      0.0152     10.0872    127.6462     24.3757
   811.7000      8.1510      2.4738      0.0204     10.6813    126.3053     24.2868
   811.8000      8.1361      2.4770      0.0335     10.4845    128.7267     24.3711
   811.9000      8.1361      2.4847      0.0516     10.0202    134.6128     24.3458
   812.0000      8.0965      2.4907      0.0456      9.6562    139.2274     24.4193
   812.1000      8.0965      2.5007      0.0062      9.0515    142.4214     24.8257
   812.2000      8.0965      2.5221      0.0663      7.7522    147.4735     25.0470
   812.3000      8.0663      2.5481      0.1099      6.1786    150.9607     24.9414
   812.4000      8.0663      2.5737      0.1207      4.6240    146.6592     25.1692
   812.5000      8.0016      2.6020      0.1777      2.9064    136.7999     25.6766
   812.6000      8.0016      2.6302      0.1809      1.2025    125.7947     25.4766
   812.7000      8.0016      2.6513      0.1682     -0.0795    115.8207     24.6851
   812.8000      7.9953      2.6602      0.1551     -0.6175    110.3609     24.1820
   812.9000      7.9953      2.6584      0.1308     -0.5082    108.5876     23.9970
   813.0000      7.9956      2.6551      0.0850     -0.3067    107.9876     23.8725
   813.1000      7.9956      2.6486      0.1154      0.0833    108.6939     23.8927
   813.2000      7.9956      2.6141      0.1332      2.1752    109.9578     24.0493
   813.3000      8.0460      2.5508      0.0045      6.0094    112.9220     24.1262
   813.4000      8.0460      2.5042      0.0245      8.8343    118.7118     24.1431
   813.5000      8.0302      2.5024      0.0634      8.9426    126.6752     24.0403
   813.6000      8.0302      2.5161      0.1036      8.1141    136.7333     23.7486
   813.7000      8.0302      2.5108      0.0520      8.4381    147.0373     23.4828
   813.8000      8.0236      2.4995      0.0102      9.1241    156.0237     23.3123
   813.9000      8.0236      2.5074      0.0923      8.6442    162.3024     23.2633
   814.0000      8.0308      2.5296      0.1516      7.2983    163.7935     23.4925
   814.1000      8.0308      2.5492      0.1616      6.1080    161.2547     23.9102
   814.2000      8.0308      2.5595      0.2025      5.4875    155.1172     24.2289
   814.3000      8.0299      2.5661      0.0822      5.0861    147.3613     24.3861
   814.4000      8.0299      2.5802      0.1368      4.2326    142.3065     24.6208
   814.5000      8.0544      2.5941      0.1647      3.3887    139.7262     24.8796
   814.6000      8.0544      2.5908      0.1534      3.5891    140.1732     24.9558
   814.7000      8.0544      2.5742      0.0796      4.5970    143.9440     24.9960
   814.8000      8.1275      2.5587      0.0898      5.5331    147.1396     25.1119
   814.9000      8.1275      2.5528      0.0097      5.8892    147.4170     25.1197
   815.0000      8.1655      2.5583      0.0337      5.5562    146.1022     25.0128
   815.1000      8.1655      2.5628      0.0414      5.2861    142.7577     24.9682
   815.2000      8.1655      2.5583      0.0030      5.5554    135.7533     24.9366
   815.3000      8.1751      2.5490      0.0487      6.1191    129.2335     24.6928
   815.4000      8.1751      2.5365     -0.0192      6.8802    126.1106     24.4507
   815.5000      8.1724      2.5320     -0.0267      7.1522    126.1085     24.6652
   815.6000      8.1724      2.5457      0.0073      6.3223    131.2260     25.2975
   815.7000      8.1724      2.5689     -0.0054      4.9139    138.4219     26.0044
   815.8000      8.1397      2.5901      0.0034      3.6282    140.5353     26.3563
   815.9000      8.1397      2.6011      0.0467      2.9610    133.4367     26.1085
