~Version Information
VERS.                      2.0: CWLS Log ASCII Standard - VERSION 2.0
WRAP.                       NO: One line per depth step
~Well Information Block
STRT.FT               550.0000: 
STOP.FT              1981.5000: 
STEP.FT                 0.2500: 
NULL.                -999.2500: 
COMP.          Pioneer Natural Resources: COMPANY
WELL.          Flying Horse 12-11 Tr: WELL
FLD.           Purgatoire River: FIELD
LOC.           2459' FNL & 410' FWL: LOCATION
STAT.                 Colorado: State
CNTY.               Las Animas: COUNTY
CTRY. USA : Country
SECT. 11 : Section
TOWN. 32S : Township
RANG. 66W : Range
SRVC.                Patterson: SERVICE COMPANY
DATE.          Sat Sep 03 20:17:31 2005: LOG DATE
API.           05 071 08485 00: UNIQUE WELL ID
~Curve Information Block
DEPT.FT            0 000 00 00: Depth
SN.Ohm-m                      : IEL Short Normal
SP.mV                         : IEL Spontaneous Potential
DIR.Ohm-m                     : IEL Induction Resistivity
GR.GAPI                       : Gamma Ray
~Parameter Information Block
~A  Depth        SN          SP         DIR          GR     
# ...
   818.0000   2000.0000   2000.0000     26.8788    130.7167
   818.2500   2000.0000   2000.0000     26.6851    129.6207
   818.5000   2000.0000   2000.0000     26.4502    126.6438
   818.7500   2000.0000   2000.0000     26.0920    124.0198
   819.0000   2000.0000   2000.0000     25.5634    119.0443
   819.2500   2000.0000   2000.0000     24.8733    115.2898
   819.5000   2000.0000   2000.0000     24.0843    110.5276
   819.7500   2000.0000   2000.0000     23.2846    109.0205
   820.0000   2000.0000   2000.0000     22.5509    110.1180
   820.2500   2000.0000   2000.0000     21.9244    112.7029
   820.5000   2000.0000   2000.0000     21.4095    117.8238
   820.7500   2000.0000   2000.0000     20.9834    121.2172
   821.0000   2000.0000   2000.0000     20.6078    125.2659
   821.2500   2000.0000   2000.0000     20.2407    126.8062
   821.5000   2000.0000   2000.0000     19.8532    126.7691
   821.7500   2000.0000   2000.0000     19.4433    125.1925
   822.0000   2000.0000   2000.0000     19.0376    121.5279
   822.2500   2000.0000   2000.0000     18.6747    119.2584
   822.5000   2000.0000   2000.0000     18.3787    117.7537
   822.7500   2000.0000   2000.0000     18.1427    118.4005
   823.0000   2000.0000   2000.0000     17.9315    121.3693
   823.2500   2000.0000   2000.0000     17.7024    124.1757
   823.5000   2000.0000   2000.0000     17.4305    129.1460
   823.7500   2000.0000   2000.0000     17.1209    132.7947
   824.0000   2000.0000   2000.0000     16.8024    138.0322
   824.2500   2000.0000   2000.0000     16.5116    140.8119
   824.5000   2000.0000   2000.0000     16.2798    143.6641
   824.7500   2000.0000   2000.0000     16.1288    145.0514
   825.0000   2000.0000   2000.0000     16.0702    147.0696
   825.2500   2000.0000   2000.0000     16.1027    148.4949
   825.5000   2000.0000   2000.0000     16.2077    150.5200
   825.7500   2000.0000   2000.0000     16.3515    151.5507
   826.0000   2000.0000   2000.0000     16.4979    152.1871
   826.2500   2000.0000   2000.0000     16.6241    151.8978
   826.5000   2000.0000   2000.0000     16.7277    150.6988
   826.7500   2000.0000   2000.0000     16.8232    149.7228
   827.0000   2000.0000   2000.0000     16.9336    148.2952
   827.2500   2000.0000   2000.0000     17.0832    147.2519
   827.5000   2000.0000   2000.0000     17.2900    145.0882
   827.7500   2000.0000   2000.0000     17.5569    143.0215
   828.0000   2000.0000   2000.0000     17.8628    138.8966
   828.2500   2000.0000   2000.0000     18.1632    135.6669
   828.5000   2000.0000   2000.0000     18.4040    131.0272
   828.7500   2000.0000   2000.0000     18.5432    128.8316
   829.0000   2000.0000   2000.0000     18.5686    127.7405
   829.2500   2000.0000   2000.0000     18.5015    128.2951
   829.5000   2000.0000   2000.0000     18.3837    129.8213
   829.7500   2000.0000   2000.0000     18.2578    130.6683
   830.0000   2000.0000   2000.0000     18.1476    131.6603
   830.2500   2000.0000   2000.0000     18.0471    132.6679
   830.5000   2000.0000   2000.0000     17.9242    135.5394
   830.7500   2000.0000   2000.0000     17.7447    138.2752
   831.0000   2000.0000   2000.0000     17.5027    142.4099
   831.2500   2000.0000   2000.0000     17.2353    144.3187
   831.5000   2000.0000   2000.0000     17.0072    145.2089
   831.7500   2000.0000   2000.0000     16.8792    144.7655
   832.0000   2000.0000   2000.0000     16.8825    143.6512
   832.2500   2000.0000   2000.0000     17.0068    143.0029
   832.5000   2000.0000   2000.0000     17.2005    141.6965
   832.7500   2000.0000   2000.0000     17.3885    139.8511
   833.0000   2000.0000   2000.0000     17.5087    134.5707
   833.2500   2000.0000   2000.0000     17.5531    129.2985
   833.5000   2000.0000   2000.0000     17.5725    119.4919
   833.7500   2000.0000   2000.0000     17.6366    112.5336
   834.0000   2000.0000   2000.0000     17.7842    103.7434
   834.2500   2000.0000   2000.0000     18.0052    100.5008
   834.5000   2000.0000   2000.0000     18.2597    100.7997
   834.7500   2000.0000   2000.0000     18.5078    103.7661
   835.0000   2000.0000   2000.0000     18.7217    109.9592
   835.2500   2000.0000   2000.0000     18.8750    114.1947
   835.5000   2000.0000   2000.0000     18.9321    119.7946
   835.7500   2000.0000   2000.0000     18.8577    122.5342
   836.0000   2000.0000   2000.0000     18.6418    124.5135
   836.2500   2000.0000   2000.0000     18.3128    124.6725
   836.5000   2000.0000   2000.0000     17.9234    124.4500
   836.7500   2000.0000   2000.0000     17.5216    124.5633
   837.0000   2000.0000   2000.0000     17.1336    125.4609
   837.2500   2000.0000   2000.0000     16.7675    126.6647
   837.5000   2000.0000   2000.0000     16.4288    129.4079
   837.7500   2000.0000   2000.0000     16.1317    131.4528
   838.0000   2000.0000   2000.0000     15.8976    133.5314
   838.2500   2000.0000   2000.0000     15.7418    133.6743
   838.5000   2000.0000   2000.0000     15.6643    132.0461
   838.7500   2000.0000   2000.0000     15.6510    130.1763
   839.0000   2000.0000   2000.0000     15.6890    126.9826
   839.2500   2000.0000   2000.0000     15.7807    124.9714
   839.5000   2000.0000   2000.0000     15.9435    122.8399
   839.7500   2000.0000   2000.0000     16.1930    122.2866
   840.0000   2000.0000   2000.0000     16.5276    122.3373
   840.2500   2000.0000   2000.0000     16.9261    122.2484
   840.5000   2000.0000   2000.0000     17.3624    120.9076
   840.7500   2000.0000   2000.0000     17.8239    119.0539
   841.0000   2000.0000   2000.0000     18.3240    114.9741
   841.2500   2000.0000   2000.0000     18.8988    111.4871
   841.5000   2000.0000   2000.0000     19.5906    105.5319
   841.7500   2000.0000   2000.0000     20.4252    101.5767
   842.0000   2000.0000   2000.0000     21.3936     96.4410
   842.2500   2000.0000   2000.0000     22.4463     93.6642
   842.5000   2000.0000   2000.0000     23.5123     90.3110
   842.7500   2000.0000   2000.0000     24.5364     88.6829
   843.0000   2000.0000   2000.0000     25.5144     87.7698
   843.2500   2000.0000   2000.0000     26.4945     88.4918
   843.5000   2000.0000   2000.0000     27.5329     91.0026
   843.7500   2000.0000   2000.0000     28.6321     92.5925
   844.0000   2000.0000   2000.0000     29.7089     93.1236
   844.2500   2000.0000   2000.0000     30.6353     92.0013
   844.5000   2000.0000   2000.0000     31.3370     89.0369
   844.7500   2000.0000   2000.0000     31.8515     87.0177
   845.0000   2000.0000   2000.0000     32.2676     84.9842
   845.2500   2000.0000   2000.0000     32.6012     84.5093
   845.5000   2000.0000   2000.0000     32.7472     84.5831
   845.7500   2000.0000   2000.0000     32.5555     84.4660
   846.0000   2000.0000   2000.0000     31.9554     83.2960
   846.2500   2000.0000   2000.0000     31.0035     82.2590
   846.5000   2000.0000   2000.0000     29.8383     82.2600
   846.7500   2000.0000   2000.0000     28.6203     84.3662
   847.0000   2000.0000   2000.0000     27.5058     91.1392
   847.2500   2000.0000   2000.0000     26.6250     97.5235
   847.5000   2000.0000   2000.0000     26.0496    108.4729
   847.7500   2000.0000   2000.0000     25.7650    115.9319
   848.0000   2000.0000   2000.0000     25.6770    126.1957
   848.2500   2000.0000   2000.0000     25.6551    131.5965
   848.5000   2000.0000   2000.0000     25.5912    135.6368
   848.7500   2000.0000   2000.0000     25.4313    134.5157
   849.0000   2000.0000   2000.0000     25.1592    126.5968
   849.2500   2000.0000   2000.0000     24.7680    118.2783
   849.5000   2000.0000   2000.0000     24.2656    104.8634
   849.7500   2000.0000   2000.0000     23.7104     97.1083
   850.0000   2000.0000   2000.0000     23.2224     88.3020
   850.2500   2000.0000   2000.0000     22.9399     84.1534
   850.5000   2000.0000   2000.0000     22.9554     80.5714
   850.7500   2000.0000   2000.0000     23.2742     80.4732
   851.0000   2000.0000   2000.0000     23.8156     84.9135
   851.2500   2000.0000   2000.0000     24.4510     91.2062
