~Version Information
 VERS.                                  2.0 : CWLS LAS VERSION
 WRAP.                                   NO : WRAPING MODE
 SWARE .                 MController 2.5.0J : SOFTWARE VERSION
~Well Information
 WELL.                     Montoya 18-11V B : WELL
 COMP.                 Petrogulf Corporation: COMPANY
 FLD.                      Purgatoire River : FIELD
 LOC.                NW/NW Sec 18 T33S R67W : LOCATION
 DATE.                            10/3-4/05 : DATE(S) LOGGED
 SRVC.       BLANCO Geological Services LLC : SERVICE COMPANY
 STAT.                                   CO : STATE
 CNTY.                           Las Animas : COUNTY
 CTRY.                                  USA : COUNTRY
 API.                       05-071-08539-00 : API NUMBER
 STRT.FT                              86.00 : START DEPTH
 STOP.FT                            2495.00 : STOP DEPTH
 STEP.FT                               1.00 : DEPTH INCREMENT
 NULL.                                9999 : NULL VALUE
~Curve information
 DEPTH.FT                                   :
 ROP.MIN/FT                                 :
 GAS.UNITS                                  :
~ASCII Log data 
# ...
       286.0         0.23         15.3 
       287.0         0.27         15.5 
       288.0         0.47         15.9 
       289.0         0.20         16.6 
       290.0         0.23         16.6 
       291.0         0.20         16.4 
       292.0         0.27         15.6 
       293.0         0.25         15.8 
       294.0         0.23         15.9 
       295.0         0.23         15.8 
       296.0         1.07         16.2 
       297.0         0.30         16.3 
       298.0         0.27         16.1 
       299.0         0.23         16.3 
       300.0         0.27         16.5 
       301.0         0.38         16.2 
       302.0         0.40         16.5 
       303.0         0.37         16.4 
       304.0         0.27         16.4 
       305.0         0.23         15.6 
       306.0         0.23         16.4 
       307.0         0.23         16.2 
       308.0         0.23         16.5 
       309.0         0.23         16.3 
       310.0         0.23         15.7 
       311.0         0.27         16.5 
       312.0         0.23         16.6 
       313.0         0.32         16.4 
       314.0         0.27         17.0 
       315.0         0.43         17.0 
       316.0         0.20         16.3 
       317.0         0.27         16.8 
       318.0         0.23         16.5 
       319.0         0.17         16.6 
       320.0         0.13         17.1 
       321.0         0.13         17.3 
       322.0         0.20         17.3 
       323.0         0.20         16.7 
       324.0         0.20         16.8 
       325.0         0.20         16.9 
       326.0         1.55         17.4 
       327.0         0.17         16.0 
       328.0         0.13         16.7 
       329.0         0.17         16.6 
       330.0         0.23         16.6 
       331.0         0.20         16.6 
       332.0         0.20         16.2 
       333.0         0.20         15.7 
       334.0         0.20         16.4 
       335.0         0.20         15.2 
       336.0         0.20         15.8 
       337.0         0.20         15.8 
       338.0         0.25         16.3 
       339.0         0.20         15.6 
       340.0         0.20         16.1 
       341.0         0.23         15.5 
       342.0         0.20         16.3 
       343.0         0.20         16.2 
       344.0         0.17         16.4 
       345.0         0.20         16.6 
       346.0         0.23         16.6 
       347.0         0.20         16.5 
       348.0         0.23         16.7 
       349.0         0.20         16.0 
       350.0         0.17         16.5 
       351.0         0.17         16.8 
       352.0         0.13         16.6 
       353.0         0.10         17.0 
       354.0         0.23         17.0 
       355.0         0.35         16.9 
       356.0         1.67         17.1 
       357.0         0.27         16.3 
       358.0         0.13         16.3 
       359.0         0.17         15.9 
       360.0         0.17         16.6 
       361.0         0.27         16.6 
       362.0         0.38         16.7 
       363.0         0.30         16.7 
       364.0         0.40         16.3 
       365.0         0.33         16.1 
       366.0         0.40         16.1 
       367.0         0.47         16.3 
       368.0         0.37         16.6 
       369.0         0.17         16.8 
       370.0         0.17         15.7 
       371.0         0.13         16.2 
       372.0         0.10         16.3 
       373.0         0.10         16.6 
       374.0         0.23         16.6 
       375.0         0.25         16.4 
       376.0         0.23         16.2 
       377.0         0.23         16.8 
       378.0         0.27         17.2 
       379.0         0.27         17.9 
       380.0         0.20         18.0 
       381.0         0.23         17.6 
       382.0         0.27         17.9 
       383.0         0.20         17.8 
       384.0         0.17         17.6 
       385.0         0.27         17.5 
       386.0         1.32         18.8 
       387.0         0.17         18.2 
       388.0         0.17         18.0 
       389.0         0.17         18.6 
       390.0         0.13         18.5 
       391.0         0.13         18.7 
       392.0         0.20         18.4 
       393.0         0.17         18.6 
       394.0         0.17         18.7 
       395.0         0.17         18.8 
       396.0         0.10         18.2 
       397.0         0.17         18.7 
       398.0         0.13         18.8 
       399.0         0.13         18.6 
       400.0         0.20         18.7 
       401.0         0.23         18.8 
       402.0         0.30         18.6 
       403.0         0.25         18.7 
       404.0         0.23         18.7 
       405.0         0.20         18.5 
       406.0         0.20         18.6 
       407.0         0.27         18.6 
       408.0         0.33         18.5 
       409.0         0.30         17.8 
       410.0         0.23         17.8 
       411.0         0.23         18.0 
       412.0         0.20         18.2 
       413.0         0.23         18.2 
       414.0         0.20         17.3 
       415.0         0.27         17.9 
       416.0         1.28         18.2 
       417.0         0.23         18.1 
       418.0         0.27         18.2 
       419.0         0.20         17.8 
       420.0         0.23         17.4 
       421.0         0.37         17.9 
       422.0         0.27         17.4 
       423.0         0.30         17.5 
       424.0         0.23         17.5 
       425.0         0.25         17.6 
       426.0         0.27         17.8 
       427.0         0.33         17.3 
       428.0         0.37         17.7 
       429.0         0.33         17.7 
       430.0         0.37         17.7 
       431.0         0.53         17.6 
       432.0         0.30         17.6 
       433.0         0.27         17.4 
       434.0         0.27         17.4 
       435.0         0.35         17.4 
       436.0         0.33         17.3 
       437.0         0.33         17.0 
       438.0         0.30         17.0 
       439.0         0.33         17.6 
       440.0         0.37         17.6 
       441.0         0.30         17.3 
       442.0         0.27         17.8 
       443.0         0.27         18.2 
       444.0         0.30         18.4 
       445.0         0.27         17.9 
       446.0         1.88         18.6 
       447.0         0.33         18.4 
       448.0         0.30         18.2 
       449.0         0.17         17.7 
       450.0         0.23         18.0 
       451.0         0.22         18.1 
       452.0         0.17         18.2 
       453.0         0.13         18.2 
       454.0         0.17         18.5 
       455.0         0.17         18.2 
       456.0         0.20         18.3 
       457.0         0.27         18.6 
       458.0         0.20         17.9 
       459.0         0.23         17.9 
       460.0         0.17         18.4 
       461.0         0.20         18.7 
       462.0         0.23         18.8 
       463.0         0.30         18.7 
       464.0         0.27         18.7 
       465.0         0.30         18.7 
       466.0         0.35         18.7 
       467.0         0.43         18.8 
       468.0         0.60         18.7 
       469.0         0.63         18.5 
       470.0         0.57         18.5 
       471.0         0.43         18.5 
       472.0         0.38         18.7 
       473.0         0.40         18.6 
       474.0         0.33         19.0 
       475.0         0.33         19.0 
       476.0         1.50         18.7 
       477.0         0.53         18.2 
       478.0         0.52         18.0 
       479.0         0.50         18.2 
       480.0         0.33         18.0 
       481.0         0.20         17.9 
       482.0         0.23         17.4 
       483.0         0.27         17.9 
       484.0         0.27         17.8 
       485.0         0.33         18.0 
