~Version Information
VERS.                      2.0: CWLS Log ASCII Standard - VERSION 2.0
WRAP.                       NO: One line per depth step
~Well Information Block
STRT.FT                -8.0000: 
STOP.FT               918.7500: 
STEP.FT                 0.2500: 
NULL.                -999.2500: 
COMP.          Pioneer Natural Resources: COMPANY
WELL.          Sculpin 32-30 Tr: WELL
FLD.           Purgatorie River: FIELD
LOC.           1600' FNL & 1857' FEL--: LOCATION
CNTY.               Las Animas: COUNTY
SRVC.          Patterson Wireline: SERVICE COMPANY
DATE.          Thu Aug 03 08:40:45 2006: LOG DATE
UWI.           05 071 08706 00: UNIQUE WELL ID
STAT.                       CO: STATE
~Curve Information Block
DEPT.FT            0 000 00 00: Depth
CCL.                          : Casing Collar Locator
TT3.usec                      : CBL 3' Travel Time
AMP3.mV                       : CBL 3' Amplitude
GR.GAPI                       : Gamma Ray
~Parameter Information Block
~A  Depth       CCL         TT3         AMP3         GR     
# ...
   461.0000      0.0000    673.2408      2.4526     96.1975
   461.2500      0.0000    671.2688      2.6457     93.0599
   461.5000      0.0000    671.9443      2.8419     90.0459
   461.7500      0.0000    676.7783      2.9662     87.5788
   462.0000      0.0000    685.9479      2.9975     85.6736
   462.2500      0.0000    696.9411      2.9652     83.8644
   462.5000      0.0000    705.8293      2.9066     81.6601
   462.7500     -2.0000    709.9842      2.8446     79.2460
   463.0000      2.0000    708.6200      2.7966     77.4434
   463.2500      0.0000    701.5574      2.7857     76.9056
   463.5000      0.0000    689.6652      2.8341     77.6502
   463.7500      0.0000    676.5121      2.9392     79.3981
   464.0000      0.0000    667.1887      3.0534     81.9154
   464.2500      0.0000    664.3786      3.1042     84.8158
   464.5000      0.0000    666.6301      3.0543     87.3902
   464.7500      0.0000    670.8935      2.9360     89.0295
   465.0000      0.0000    675.6410      2.8159     89.8532
   465.2500      0.0000    681.1927      2.7364     90.5338
   465.5000      0.0000    687.9712      2.7000     91.2839
   465.7500      0.0000    695.2483      2.6923     91.4271
   466.0000      0.0000    701.5424      2.7026     90.4797
   466.2500      0.0000    705.8105      2.7259     89.4159
   466.5000      0.0000    708.0592      2.7564     90.2075
   466.7500      0.0000    708.9774      2.7861     93.8890
   467.0000      0.0000    709.2854      2.8083     99.2321
   467.2500      0.0000    709.4118      2.8212    103.3810
   467.5000      0.0000    709.5125      2.8253    103.8754
   467.7500      0.0000    709.6016      2.8200    100.4733
   468.0000      0.0000    709.6564      2.8038     95.2549
   468.2500      0.0000    709.6736      2.7767     90.8901
   468.5000      0.0000    709.6851      2.7410     88.7431
   468.7500      0.0000    709.7385      2.6991     88.5684
   469.0000      0.0000    709.8528      2.6513     89.6023
   469.2500      0.0000    709.9864      2.5992     91.3205
   469.5000      0.0000    710.0538      2.5481     93.1434
   469.7500      0.0000    709.9857      2.5066     94.1918
   470.0000      0.0000    709.7849      2.4813     93.9423
   470.2500      0.0000    709.5404      2.4751     92.8234
   470.5000      0.0000    709.3950      2.4859     91.7566
   470.7500      0.0000    709.5262      2.5066     91.2516
   471.0000      0.0000    710.2839      2.5275     91.1941
   471.2500      0.0000    712.5275      2.5411     91.1745
   471.5000      0.0000    717.8681      2.5471     90.6266
   471.7500      0.0000    727.9858      2.5511     88.9468
   472.0000      0.0000    742.5041      2.5596     86.1007
   472.2500      0.0000    756.8884      2.5757     83.1524
   472.5000      0.0000    763.6129      2.5977     81.6028
   472.7500      0.0000    757.7314      2.6206     82.0592
   473.0000      0.0000    742.4196      2.6387     83.8678
   473.2500      0.0000    727.9916      2.6474     85.8687
   473.5000      0.0000    723.7888      2.6458     87.0532
   473.7500      0.0000    730.3070      2.6394     86.7569
   474.0000      0.0000    739.1705      2.6413     84.8445
   474.2500      0.0000    740.2755      2.6699     81.7055
   474.5000      0.0000    728.7761      2.7376     77.7479
   474.7500      0.0000    706.5900      2.8399     73.2000
   475.0000      0.0000    679.5699      2.9556     68.8074
   475.2500      0.0000    654.4432      3.0622     66.2039
   475.5000      0.0000    637.1440      3.1492     66.9478
   475.7500      0.0000    631.5154      3.2183     71.3658
   476.0000      0.0000    638.4348      3.2755     78.5901
   476.2500      0.0000    656.1611      3.3272     87.2040
   476.5000      0.0000    680.7642      3.3808     95.4406
   476.7500      0.0000    705.5155      3.4437    101.3246
   477.0000      0.0000    721.8726      3.5190    103.4792
   477.2500      0.0000    724.5437      3.6001    102.1352
   477.5000      0.0000    716.7053      3.6707     99.1279
   477.7500      0.0000    708.1594      3.7116     96.6949
   478.0000      0.0000    706.5314      3.7118     96.2342
   478.2500      0.0000    710.6637      3.6765     98.0500
   478.5000      0.0000    713.3782      3.6237    101.7699
   478.7500      0.0000    709.7820      3.5722    106.4708
   479.0000      0.0000    701.5973      3.5328    110.4212
   479.2500      0.0000    694.0098      3.5055    111.6079
   479.5000      0.0000    690.3280      3.4846    109.4007
   479.7500      0.0000    690.2104      3.4659    105.4567
   480.0000      0.0000    691.4885      3.4499    102.3743
   480.2500      0.0000    692.3602      3.4387    101.7030
   480.5000      0.0000    692.0513      3.4310    103.5151
   480.7500      0.0000    690.3171      3.4201    107.1098
   481.0000      0.0000    687.1123      3.3998    111.4228
   481.2500      0.0000    682.8242      3.3720    115.2131
   481.5000      0.0000    678.4557      3.3483    117.6068
   481.7500      0.0000    675.1855      3.3438    118.5517
   482.0000      0.0000    673.8381      3.3670    118.5529
   482.2500      0.0000    674.7635      3.4165    118.0804
   482.5000      0.0000    677.7164      3.4854    117.4496
   482.7500      0.0000    681.3949      3.5688    117.1331
   483.0000      0.0000    683.2226      3.6632    117.6911
   483.2500      0.0000    680.3223      3.7603    119.1834
   483.5000      0.0000    671.6892      3.8467    120.9034
   483.7500      0.0000    659.8552      3.9107    121.9984
   484.0000      0.0000    649.7776      3.9500    122.3693
   484.2500      0.0000    645.2345      3.9709    122.7221
   484.5000      0.0000    646.7362      3.9821    123.5020
   484.7500      0.0000    652.8942      3.9897    123.9425
   485.0000      0.0000    662.0754      3.9973    122.6049
   485.2500      0.0000    671.5931      4.0088    119.0282
   485.5000      0.0000    677.1270      4.0273    114.5079
   485.7500      0.0000    675.2514      4.0508    110.9662
   486.0000      0.0000    666.8526      4.0732    109.2813
   486.2500      0.0000    657.4013      4.0884    108.9145
   486.5000      0.0000    653.9385      4.0952    108.8222
   486.7500      0.0000    661.4371      4.0967    108.3376
   487.0000      0.0000    680.1871      4.0968    107.4402
   487.2500      0.0000    705.3601      4.0971    106.5956
   487.5000      0.0000    729.8433      4.0961    106.2194
   487.7500      0.0000    748.5442      4.0891    106.0869
   488.0000      0.0000    759.9600      4.0696    105.4980
   488.2500      0.0000    764.5508      4.0320    104.4600
   488.5000      0.0000    764.0411      3.9748    104.6062
   488.7500      0.0000    762.5775      3.9016    108.1266
   489.0000      0.0000    765.0110      3.8203    115.3542
   489.2500      0.0000    771.1884      3.7403    124.0134
   489.5000      0.0000    774.1249      3.6689    131.3451
   489.7500      0.0000    766.7664      3.6079    136.4245
   490.0000      0.0000    749.7407      3.5552    139.8850
   490.2500      0.0000    730.4175      3.5084    142.1153
   490.5000      0.0000    715.2700      3.4666    142.7372
   490.7500      0.0000    705.1583      3.4290    141.6811
   491.0000      0.0000    697.4901      3.3940    139.9919
   491.2500      0.0000    690.5665      3.3626    139.2960
   491.5000      0.0000    684.9722      3.3408    140.6526
   491.7500      0.0000    681.9939      3.3362    143.8917
   492.0000      0.0000    681.7852      3.3509    147.7794
   492.2500      0.0000    682.9452      3.3762    150.7367
   492.5000      0.0000    683.4605      3.3963    151.6547
   492.7500      0.0000    682.1627      3.3977    150.4242
   493.0000      0.0000    679.4117      3.3779    148.0069
   493.2500      0.0000    676.4609      3.3464    145.9098
   493.5000      0.0000    674.4396      3.3179    145.2564
   493.7500      0.0000    674.0792      3.3035    146.1938
   494.0000      0.0000    676.0226      3.3061    148.0727
   494.2500      0.0000    680.7783      3.3216    149.7359
