~Version Information
VERS.                      2.0: CWLS Log ASCII Standard - VERSION 2.0
WRAP.                       NO: One line per depth step
~Well Information Block
STRT.FT               875.0000: 
STOP.FT              2053.0000: 
STEP.FT                 0.1000: 
NULL.                -999.2500: 
COMP.          Pioneer Natural Resources: COMPANY
WELL.          Woodstock 43-19: WELL
FLD.           Purgatoire River: FIELD
LOC.           2195' FSL & 250' FEL: LOCATION
CNTY.               Las Animas: COUNTY
SRVC.                Patterson: SERVICE COMPANY
DATE.          Thu Feb 02 12:45:04 2006: LOG DATE
UWI.           05 071 08677 00: UNIQUE WELL ID
STAT.                 Colorado: STATE
~Curve Information Block
DEPT.FT            0 000 00 00: Depth
DCAL.in                       : CDL Caliper
RHOB.g/cc                     : CDL Bulk Density
RHOC.g/cc                     : CDL Density Correction
DPOR.pu                       : CDL Density Porosity
GR.GAPI                       : Gamma Ray
NPOR.pu                       : Neutron Porosity
~Parameter Information Block
~A  Depth       DCAL        RHOB        RHOC        DPOR         GR         NPOR    
# ...
  1959.8000      7.8573      2.5026      0.0097      8.9315     63.0357     20.8979
  1959.9000      7.8573      2.5213      0.0249      7.7994     62.9516     21.9878
  1960.0000      7.8736      2.5473      0.0447      6.2251     66.0992     22.9161
  1960.1000      7.8736      2.5719      0.0649      4.7335     73.4457     22.8515
  1960.2000      7.8736      2.5809      0.0898      4.1907     80.8491     22.4369
  1960.3000      7.8794      2.5703      0.0239      4.8273     82.5880     22.9139
  1960.4000      7.8794      2.5505      0.0435      6.0323     79.1114     23.8187
  1960.5000      7.8784      2.5342      0.0053      7.0175     76.2000     23.6562
  1960.6000      7.8784      2.5265      0.0405      7.4877     73.4248     22.6064
  1960.7000      7.8784      2.5234      0.0103      7.6723     67.8723     21.7032
  1960.8000      7.8860      2.5208      0.0142      7.8293     64.3057     21.1103
  1960.9000      7.8860      2.5156      0.0444      8.1447     66.1889     20.6755
  1961.0000      7.8804      2.5139      0.0229      8.2508     70.2059     20.6340
  1961.1000      7.8804      2.5253      0.0589      7.5560     71.7506     20.9645
  1961.2000      7.8804      2.5430      0.0425      6.4844     70.5252     21.3675
  1961.3000      7.8512      2.5535      0.0753      5.8499     71.7381     22.0662
  1961.4000      7.8512      2.5610      0.0319      5.3910     74.8028     23.1724
  1961.5000      7.8343      2.5762      0.0949      4.4749     73.7714     23.7160
  1961.6000      7.8343      2.5924      0.0221      3.4887     69.3885     22.8444
  1961.7000      7.8343      2.6016      0.0677      2.9350     66.5098     21.3446
  1961.8000      7.8325      2.6016      0.0390      2.9363     66.7891     20.2377
  1961.9000      7.8325      2.5978      0.0307      3.1639     68.6255     19.7753
  1962.0000      7.8307      2.5968      0.0359      3.2262     70.3303     19.9826
  1962.1000      7.8307      2.5968      0.0516      3.2238     71.3058     20.1971
  1962.2000      7.8307      2.6038     -0.0399      2.8018     69.8923     19.7559
  1962.3000      7.8401      2.6245      0.0469      1.5456     66.4483     19.3017
  1962.4000      7.8401      2.6450      0.0069      0.3042     64.7939     19.8037
  1962.5000      7.8494      2.6480      0.0440      0.1215     64.5354     20.4556
  1962.6000      7.8494      2.6316      0.0516      1.1141     63.1109     19.7493
  1962.7000      7.8494      2.6107     -0.0126      2.3841     63.3384     18.3121
  1962.8000      7.8527      2.5970      0.0297      3.2094     65.4850     17.4357
  1962.9000      7.8527      2.5844      0.0171      3.9759     66.1852     17.1000
  1963.0000      7.8380      2.5728     -0.0592      4.6789     65.5938     16.7346
  1963.1000      7.8380      2.5779     -0.0349      4.3677     65.6397     16.5580
  1963.2000      7.8380      2.6021      0.0071      2.9011     65.6680     17.4376
  1963.3000      7.8407      2.6227      0.0484      1.6540     63.6085     19.1535
  1963.4000      7.8407      2.6206      0.0275      1.7810     60.2855     20.2452
  1963.5000      7.8441      2.6053     -0.0046      2.7106     57.6657     20.0667
  1963.6000      7.8441      2.5970     -0.0075      3.2123     56.4109     19.3591
  1963.7000      7.8441      2.6014     -0.0083      2.9469     56.2129     18.9854
  1963.8000      7.8418      2.6138      0.0008      2.1940     57.4386     18.8950
  1963.9000      7.8418      2.6211      0.1037      1.7534     61.6163     18.3472
  1964.0000      7.8365      2.6118      0.0441      2.3133     67.6619     17.6060
  1964.1000      7.8365      2.6026     -0.0154      2.8709     71.0788     17.6376
  1964.2000      7.8365      2.6142      0.0006      2.1696     70.0394     18.2278
  1964.3000      7.8536      2.6402      0.0379      0.5948     70.9809     18.6496
  1964.4000      7.8536      2.6644      0.0751     -0.8752     77.0566     19.2958
  1964.5000      7.8519      2.6731      0.1067     -1.4028     79.5793     20.2732
  1964.6000      7.8519      2.6567      0.0636     -0.4073     73.9130     20.7369
  1964.7000      7.8519      2.6193      0.0812      1.8630     67.4385     20.5331
  1964.8000      7.8448      2.5794      0.0559      4.2795     64.6555     19.9303
  1964.9000      7.8448      2.5612      0.0423      5.3799     65.5802     19.3271
  1965.0000      7.8359      2.5667      0.0596      5.0484     70.0242     19.3862
  1965.1000      7.8359      2.5729      0.1090      4.6707     75.0025     20.0787
  1965.2000      7.8359      2.5738      0.0447      4.6173     77.7024     20.7629
  1965.3000      7.8467      2.5864      0.0724      3.8524     78.1028     21.1918
  1965.4000      7.8467      2.6053      0.1120      2.7075     77.1607     21.4680
  1965.5000      7.8508      2.6047      0.0809      2.7455     74.8739     21.5838
  1965.6000      7.8508      2.5896      0.0473      3.6576     72.7309     21.3362
  1965.7000      7.8508      2.5880      0.0646      3.7550     76.1560     20.5701
  1965.8000      7.8626      2.5954      0.1184      3.3094     84.0390     19.5949
  1965.9000      7.8626      2.5798      0.1095      4.2524     87.9018     19.1000
  1966.0000      7.8657      2.5399      0.0352      6.6733     87.8933     19.5053
  1966.1000      7.8657      2.5124     -0.0061      8.3422     89.6387     20.5302
  1966.2000      7.8657      2.5236     -0.0261      7.6618     91.8171     21.8109
  1966.3000      7.8660      2.5619      0.0492      5.3392     90.6638     22.6066
  1966.4000      7.8660      2.5892      0.1154      3.6838     87.5254     22.3551
  1966.5000      7.8525      2.5844      0.0787      3.9734     83.2781     21.9730
  1966.6000      7.8525      2.5692      0.0384      4.8985     78.4406     22.2148
  1966.7000      7.8525      2.5657      0.0649      5.1093     75.9809     22.5276
  1966.8000      7.8428      2.5686      0.0960      4.9342     76.4894     22.2686
  1966.9000      7.8428      2.5699      0.0491      4.8566     80.3588     21.8066
  1967.0000      7.8532      2.5718      0.0338      4.7402     86.6199     21.6842
  1967.1000      7.8532      2.5710      0.1219      4.7881     89.9332     21.9113
  1967.2000      7.8532      2.5610      0.0690      5.3940     88.4717     22.6012
  1967.3000      7.8526      2.5546      0.0471      5.7819     85.3240     23.2543
  1967.4000      7.8526      2.5652      0.0666      5.1389     82.5642     22.8216
  1967.5000      7.8644      2.5874      0.0688      3.7959     78.7295     21.5756
  1967.6000      7.8644      2.6159      0.0479      2.0686     73.2290     20.6203
  1967.7000      7.8644      2.6447      0.1173      0.3241     69.3623     20.5041
  1967.8000      7.8454      2.6590      0.0938     -0.5462     68.8306     21.2073
  1967.9000      7.8454      2.6487      0.0923      0.0766     70.4679     22.3464
  1968.0000      7.8534      2.6193      0.0539      1.8596     70.6612     23.2081
  1968.1000      7.8534      2.5851      0.0367      3.9340     67.0577     23.3301
  1968.2000      7.8534      2.5527      0.0538      5.8959     64.6023     22.9562
  1968.3000      7.8541      2.5261     -0.0327      7.5076     66.5355     22.0102
  1968.4000      7.8541      2.5118      0.0081      8.3736     69.0885     20.1734
  1968.5000      7.8520      2.5102     -0.0102      8.4737     70.7052     18.4710
  1968.6000      7.8520      2.5196      0.0362      7.9061     71.7918     18.2899
  1968.7000      7.8520      2.5363      0.0080      6.8919     71.7416     19.3100
  1968.8000      7.8572      2.5502      0.0634      6.0513     71.5854     20.2149
  1968.9000      7.8572      2.5530      0.0725      5.8784     71.3828     20.6516
  1969.0000      7.8673      2.5619     -0.0218      5.3410     69.7895     20.8716
  1969.1000      7.8673      2.5942      0.0453      3.3809     69.6199     20.7674
  1969.2000      7.8673      2.6269      0.1246      1.4017     75.8438     20.1056
  1969.3000      7.8708      2.6286      0.1100      1.2960     86.8974     19.3539
