~Version Information
VERS.                      2.0: CWLS Log ASCII Standard - VERSION 2.0
WRAP.                       NO: One line per depth step
~Well Information Block
STRT.FT               -10.0000: 
STOP.FT              2073.0000: 
STEP.FT                 0.2500: 
NULL.                -999.2500: 
COMP.          Pioneer Natural Resources: COMPANY
WELL.              Joplin 44-5: WELL
FLD.           Purgatorie River: FIELD
LOC.           262' FSL & 418' FEL--: LOCATION
PROV.                       CO: PROVINCE
CNTY.               Las Animas: COUNTRY
SRVC.          Patterson Wireline: SERVICE COMPANY
DATE.          Mon Dec 19 09:21:33 2005: LOG DATE
UWI.           05 071 08623 00: UNIQUE WELL ID
~Curve Information Block
DEPT.FT            0 000 00 00: Depth
CCL.                          : Casing Collar Locator
TT3.usec                      : CBL 3' Travel Time
AMP3.mV                       : CBL 3' Amplitude
GR.GAPI                       : Gamma Ray
~Parameter Information Block
~A  Depth       CCL         TT3         AMP3         GR     
# ...
  1899.5000      0.0000    548.6711      3.8877     61.8060
  1899.7500      0.0000    586.8941      3.8168     62.7614
  1900.0000      0.0000    622.4759      3.7738     62.8162
  1900.2500      0.0000    652.2329      3.7650     62.0477
  1900.5000      0.0000    674.5549      3.7886     61.0654
  1900.7500      0.0000    691.2742      3.8390     60.6793
  1901.0000      0.0000    707.8760      3.9049     61.3809
  1901.2500      0.0000    730.3170      3.9694     63.1531
  1901.5000      0.0000    760.3694      4.0197     65.7250
  1901.7500      0.0000    792.7653      4.0578     68.7704
  1902.0000      0.0000    817.2045      4.0959     71.8348
  1902.2500      0.0000    824.6137      4.1406     74.3807
  1902.5000      0.0000    812.2082      4.1804     76.1604
  1902.7500      0.0000    782.5043      4.1935     77.3766
  1903.0000      0.0000    738.7775      4.1673     78.2459
  1903.2500      0.0000    683.2173      4.1105     78.5436
  1903.5000      0.0000    619.6135      4.0475     77.8668
  1903.7500      0.0000    555.9888      4.0026     76.2838
  1904.0000      0.0000    502.4020      3.9852     74.5308
  1904.2500      0.0000    465.3383      3.9896     73.5023
  1904.5000      0.0000    444.5796      4.0062     73.4601
  1904.7500      0.0000    435.2755      4.0315     73.7371
  1905.0000      0.0000    432.1782      4.0653     73.3533
  1905.2500      0.0000    432.1978      4.1035     71.8765
  1905.5000      0.0000    434.4746      4.1370     69.6186
  1905.7500      0.0000    439.0440      4.1593     67.2327
  1906.0000      0.0000    445.2506      4.1720     65.2912
  1906.2500      0.0000    451.2333      4.1840     63.9847
  1906.5000      0.0000    455.5956      4.2046     63.0937
  1906.7500      0.0000    460.5262      4.2351     62.3710
  1907.0000      0.0000    472.9679      4.2652     61.8879
  1907.2500      0.0000    500.4347      4.2798     61.7524
  1907.5000      0.0000    543.0102      4.2704     61.6634
  1907.7500      0.0000    589.6024      4.2438     61.2209
  1908.0000      0.0000    624.7368      4.2230     60.6971
  1908.2500      0.0000    639.6082      4.2352     61.0723
  1908.5000      0.0000    634.8752      4.2905     63.1429
  1908.7500      0.0000    614.9053      4.3701     66.9225
  1909.0000      0.0000    585.5074      4.4407     72.0565
  1909.2500      0.0000    557.9526      4.4797     78.2754
  1909.5000      0.0000    547.6553      4.4881     84.9050
  1909.7500      0.0000    563.1443      4.4828     90.3228
  1910.0000      0.0000    597.9711      4.4800     92.6905
  1910.2500      0.0000    636.2519      4.4860     91.3183
  1910.5000      0.0000    665.2145      4.5020     87.0928
  1910.7500      0.0000    681.6046      4.5308     81.7925
  1911.0000      0.0000    688.8070      4.5720     77.2567
  1911.2500      0.0000    691.3194      4.6147     74.8174
  1911.5000      0.0000    691.9851      4.6403     74.9659
  1911.7500      0.0000    692.0342      4.6368     77.3479
  1912.0000      0.0000    691.9188      4.6085     80.9921
  1912.2500      0.0000    691.8436      4.5736     84.5100
  1912.5000      0.0000    691.9488      4.5491     86.5448
  1912.7500      0.0000    692.2921      4.5392     86.5792
  1913.0000      0.0000    692.8159      4.5339     85.2234
  1913.2500      0.0000    693.3358      4.5156     83.4043
  1913.5000      0.0000    693.5770      4.4648     81.3939
  1913.7500      0.0000    693.2783      4.3594     78.7955
  1914.0000      0.0000    692.2846      4.1792     75.2688
  1914.2500      0.0000    690.4861      3.9201     71.0866
  1914.5000      0.0000    687.5604      3.6084     67.0879
  1914.7500      0.0000    682.7905      3.3032     64.2962
  1915.0000      0.0000    675.5851      3.0824     63.6882
  1915.2500      0.0000    666.8409      3.0120     66.1882
  1915.5000      0.0000    659.6685      3.1114     72.3268
  1915.7500      0.0000    657.5718      3.3431     81.3311
  1916.0000      0.0000    661.1623      3.6437     90.7207
  1916.2500      0.0000    667.2671      3.9567     97.5190
  1916.5000      0.0000    671.9450      4.2313    100.1621
  1916.7500      2.0000    674.0848      4.4124     99.1479
  1917.0000     -2.0000    675.5369      4.4557     96.2452
  1917.2500      0.0000    677.9197      4.3531     93.4630
  1917.5000      0.0000    680.2926      4.1479     92.3089
  1917.7500      0.0000    680.7686      3.9318     93.2164
  1918.0000      0.0000    679.6729      3.8029     95.2614
  1918.2500      0.0000    679.6512      3.7930     96.4791
  1918.5000      0.0000    682.4860      3.8430     95.0226
  1918.7500      0.0000    686.9381      3.8734     90.8064
  1919.0000      0.0000    690.2940      3.8626     85.9180
  1919.2500      0.0000    691.2313      3.8363     82.7898
  1919.5000      0.0000    690.4874      3.8076     82.0729
  1919.7500      0.0000    689.3923      3.7598     82.7032
  1920.0000      0.0000    688.6520      3.6757     83.5478
  1920.2500      0.0000    688.3458      3.5610     84.2484
  1920.5000      0.0000    688.3693      3.4412     84.7606
  1920.7500      0.0000    688.5985      3.3455     84.9392
  1921.0000      0.0000    688.8491      3.2897     84.7412
  1921.2500      0.0000    688.9156      3.2691     84.4412
  1921.5000      0.0000    688.6985      3.2675     84.6291
  1921.7500      0.0000    688.2677      3.2733     86.1856
  1922.0000      0.0000    687.7797      3.2880     89.8469
  1922.2500      0.0000    687.3567      3.3185     95.0975
  1922.5000      0.0000    687.0254      3.3661     99.5526
  1922.7500      0.0000    686.7383      3.4230    100.2294
  1923.0000      0.0000    686.4472      3.4758     95.8924
  1923.2500      0.0000    686.1544      3.5140     87.9527
  1923.5000      0.0000    685.8904      3.5348     78.9674
  1923.7500      0.0000    685.6586      3.5392     70.7730
  1924.0000      0.0000    685.4185      3.5246     64.2369
  1924.2500      0.0000    685.0997      3.4829     59.8908
  1924.5000      0.0000    684.6306      3.4104     57.9173
  1924.7500      0.0000    683.9591      3.3167     57.7077
  1925.0000      0.0000    683.0412      3.2210     57.9977
  1925.2500      0.0000    681.7520      3.1424     57.5818
  1925.5000      0.0000    679.8859      3.0939     56.0336
  1925.7500      0.0000    677.4963      3.0835     54.0110
  1926.0000      0.0000    675.3465      3.1148     52.7533
  1926.2500      0.0000    674.6667      3.1815     53.0237
  1926.5000      0.0000    676.0551      3.2627     54.6658
  1926.7500      0.0000    678.7759      3.3307     57.2348
  1927.0000      0.0000    681.4556      3.3691     60.6328
  1927.2500      0.0000    683.2938      3.3825     64.9011
  1927.5000      0.0000    684.3918      3.3885     69.8348
  1927.7500      0.0000    685.2027      3.4020     75.1892
  1928.0000      0.0000    686.0090      3.4263     80.9183
  1928.2500      0.0000    686.8168      3.4576     86.6648
  1928.5000      0.0000    687.4005      3.4960     91.1613
  1928.7500      0.0000    687.2665      3.5496     92.9435
  1929.0000      0.0000    685.7307      3.6247     91.9280
  1929.2500      0.0000    682.4482      3.7141     89.7269
  1929.5000      0.0000    678.2056      3.8006     88.1995
  1929.7500      0.0000    674.9700      3.8734     88.1963
  1930.0000      0.0000    674.3370      3.9334     89.6613
  1930.2500      0.0000    675.4851      3.9824     92.1734
  1930.5000      0.0000    674.6124      4.0123     95.0285
  1930.7500      0.0000    666.8535      4.0105     97.2860
  1931.0000      0.0000    649.8140      3.9741     98.2227
  1931.2500      0.0000    626.6996      3.9156     97.8443
  1931.5000      0.0000    606.1521      3.8547     96.8978
  1931.7500      0.0000    597.6398      3.8074     96.2200
  1932.0000      0.0000    605.4363      3.7806     95.8860
  1932.2500      0.0000    625.8660      3.7715     95.0530
  1932.5000      0.0000    649.9665      3.7687     92.9258
  1932.7500      0.0000    669.5073      3.7572     89.9929
