~Version Information
VERS.                      2.0: CWLS Log ASCII Standard - VERSION 2.0
WRAP.                       NO: One line per depth step
~Well Information Block
STRT.FT                 0.0000: 
STOP.FT              2072.7500: 
STEP.FT                 0.2500: 
NULL.                -999.2500: 
COMP.          Pioneer Natural Resources: COMPANY
WELL.          Greenwood 43-29 Tr: WELL
FLD.           Purgatorie River: FIELD
LOC.           1478' FSL & 744' FEL: LOCATION
STAT.                 Colorado: State
CNTY.               Las Animas: COUNTY
CTRY. USA : Country
SECT. 29 : Section
TOWN. 32S : Township
RANG. 67W : Range
SRVC.                Patterson: SERVICE COMPANY
DATE.          Tue Sep 06 12:54:40 2005: LOG DATE
API. 05-071-08478                          : UNIQUE WELL ID
~Curve Information Block
DEPT.FT            0 000 00 00: Depth
GR.GAPI                       : Gamma Ray
CCL.                          : Casing Collar Locator
TT3.usec                      : CBL 3' Travel Time
AMP3.mV                       : CBL 3' Amplitude
~Parameter Information Block
~A  Depth        GR         CCL         TT3         AMP3    
# ...
   670.0000     42.2427      0.0000    921.2056      9.8951
   670.2500     40.7051      0.0000    920.8052      9.8975
   670.5000     38.1331      0.0000    920.5057      9.9138
   670.7500     35.6203      0.0000    920.2871      9.9334
   671.0000     34.1167      0.0000    920.1268      9.9358
   671.2500     34.0054      0.0000    920.0090      9.9133
   671.5000     35.1514      0.0000    919.9033      9.8750
   671.7500     37.1664      0.0000    919.6224      9.8345
   672.0000     39.7992      0.0000    918.3070      9.8096
   672.2500     43.2015      0.0000    914.0745      9.8217
   672.5000     47.8729      0.0000    905.6310      9.8765
   672.7500     54.3230      0.0000    895.1873      9.9533
   673.0000     62.5869      0.0000    887.8732     10.0260
   673.2500     71.8936      0.0000    887.4346     10.0812
   673.5000     80.9091      0.0000    893.1658     10.1166
   673.7500     88.4901      0.0000    899.4127     10.1311
   674.0000     94.2221      0.0000    899.6209     10.1219
   674.2500     98.2188      0.0000    893.5004     10.0960
   674.5000    100.6640      0.0000    887.0804     10.0659
   674.7500    101.7802      0.0000    885.3895     10.0314
   675.0000    101.9781      0.0000    888.0141      9.9832
   675.2500    101.5577      0.0000    890.8487      9.9118
   675.5000    100.3494      0.0000    891.6782      9.8144
   675.7500     98.1412      0.0000    891.8945      9.7043
   676.0000     95.4158      0.0000    891.3347      9.5989
   676.2500     93.2914      0.0000    888.1532      9.5013
   676.5000     92.6594      0.0000    883.6559      9.4080
   676.7500     93.4100      0.0000    880.6203      9.3215
   677.0000     94.4010      0.0000    879.5374      9.2455
   677.2500     94.2482      0.0000    879.4048      9.1856
   677.5000     92.3967      0.0000    879.4860      9.1459
   677.7500     89.5991      0.0000    879.5428      9.1182
   678.0000     87.2183      0.0000    879.5684      9.0957
   678.2500     85.9236      0.0000    879.6091      9.0931
   678.5000     85.2436      0.0000    879.6439      9.1364
   678.7500     84.3793      0.0000    879.7992      9.2304
   679.0000     83.1411      0.0000    880.8593      9.3438
   679.2500     82.0948      0.0000    883.9780      9.4414
   679.5000     82.0356      0.0000    888.7222      9.5191
   679.7500     83.3472      0.0000    892.4323      9.5934
   680.0000     85.6758      0.0000    894.5189      9.6722
   680.2500     88.0683      0.0000    898.3398      9.7492
   680.5000     89.4480      0.0000    904.4119      9.8219
   680.7500     89.2271      0.0000    907.2619      9.8951
   681.0000     87.6873      0.0000    902.6035      9.9623
   681.2500     85.7018      0.0000    892.9426     10.0115
   681.5000     83.9881      0.0000    884.1413     10.0452
   681.7500     82.6417      0.0000    879.1886     10.0790
   682.0000     81.2404      0.0000    877.2124     10.1250
   682.2500     79.2045      0.0000    876.4752     10.1808
   682.5000     76.3206      0.0000    876.1293     10.2344
   682.7500     73.3391      0.0000    876.0406     10.2745
   683.0000     71.9535      0.0000    876.4683     10.2849
   683.2500     73.6923      0.0000    878.3248     10.2485
   683.5000     78.6239      0.0000    883.3605     10.1676
   683.7500     85.1834      0.0000    892.4935     10.0661
   684.0000     91.1275      0.0000    902.6754      9.9691
   684.2500     94.6823      0.0000    907.8008      9.8845
   684.5000     95.2353      0.0000    905.4207      9.7909
   684.7500     93.5086      0.0000    901.0486      9.6501
   685.0000     91.1652      0.0000    903.6599      9.4416
   685.2500     89.7121      0.0000    918.9395      9.1982
   685.5000     89.3528      0.0000    949.4641      9.0009
   685.7500     89.0534      0.0000    993.3385      8.8706
   686.0000     87.8696      0.0000   1040.7872      8.6423
   686.2500     85.8169      0.0000   1085.8838      8.0439
   686.5000     83.2573      0.0000   1130.4340      7.0479
   686.7500     79.9745      0.0000   1168.2271      6.0659
   687.0000     75.3854      0.0000   1190.0253      5.5349
   687.2500     69.4822      0.0000   1197.9352      5.4481
   687.5000     63.1444      0.0000   1199.6958      5.5293
   687.7500     57.5356      1.0000   1199.6229      5.6091
   688.0000     53.4188      0.0000   1197.2435      5.6648
   688.2500     51.0322      0.0000   1185.8438      5.7554
   688.5000     50.4242      0.0000   1151.1520      6.0817
   688.7500     51.8029      0.0000   1083.4030      6.8883
   689.0000     55.3803      0.0000    998.4527      8.0646
   689.2500     60.7561      0.0000    929.9542      9.0971
   689.5000     66.7125      0.0000    894.2514      9.6571
   689.7500     71.9660      0.0000    882.0571      9.8614
   690.0000     76.1203      0.0000    879.3543      9.8922
   690.2500     79.7314      0.0000    879.2168      9.8025
   690.5000     83.4278      0.0000    879.6000      9.6486
   690.7500     87.0198      0.0000    880.0258      9.5155
   691.0000     89.5731      0.0000    880.4219      9.4441
   691.2500     90.4586      0.0000    880.7232      9.4252
   691.5000     90.1975      0.0000    880.8101      9.4336
   691.7500     90.0443      0.0000    880.6511      9.4445
   692.0000     90.6967      0.0000    880.3228      9.4535
   692.2500     91.5954      0.0000    879.9726      9.4817
   692.5000     91.6503      0.0000    879.8273      9.5413
   692.7500     90.5950      0.0000    880.2351      9.6188
   693.0000     89.4734      0.0000    881.9973      9.6988
   693.2500     89.7862      0.0000    886.5943      9.7694
   693.5000     92.1170      0.0000    894.2682      9.8202
   693.7500     95.3688      0.0000    900.9490      9.8520
   694.0000     97.3702      0.0000    900.9048      9.8750
   694.2500     96.5641      0.0000    894.2260      9.8947
   694.5000     93.1317      0.0000    886.9296      9.9144
   694.7500     88.4618      0.0000    883.8983      9.9356
   695.0000     83.9581      0.0000    886.4637      9.9472
   695.2500     80.4268      0.0000    893.6652      9.9416
   695.5000     77.9852      0.0000    901.3879      9.9331
   695.7500     76.2630      0.0000    904.5546      9.9320
   696.0000     74.9598      0.0000    902.3987      9.9286
   696.2500     74.1632      0.0000    897.4273      9.9209
   696.5000     73.9939      0.0000    892.2133      9.9204
   696.7500     74.3278      0.0000    890.5535      9.9301
   697.0000     75.1169      0.0000    895.3673      9.9445
   697.2500     76.5687      0.0000    903.7422      9.9612
   697.5000     78.6601      0.0000    908.9147      9.9741
   697.7500     80.7509      0.0000    907.7399      9.9713
   698.0000     82.0279      0.0000    902.9091      9.9487
   698.2500     82.2943      0.0000    897.9094      9.9136
   698.5000     82.0512      0.0000    894.5276      9.8762
   698.7500     81.7418      0.0000    894.2034      9.8456
   699.0000     81.2269      0.0000    896.4060      9.8252
   699.2500     80.2868      0.0000    898.7002      9.8182
   699.5000     79.4375      0.0000    899.8134      9.8321
   699.7500     79.8029      0.0000    899.3398      9.8629
   700.0000     82.1374      0.0000    896.3530      9.8942
   700.2500     86.2628      0.0000    890.7706      9.9152
   700.5000     91.4151      0.0000    884.8853      9.9257
   700.7500     96.5358      0.0000    881.0976      9.9322
   701.0000    100.1084      0.0000    879.5085      9.9451
   701.2500    100.5675      0.0000    879.0080      9.9670
   701.5000     97.5940      0.0000    878.8467      9.9849
   701.7500     92.7279      0.0000    878.8686      9.9817
   702.0000     88.2039      0.0000    879.3631      9.9510
   702.2500     85.2685      0.0000    881.0883      9.8981
   702.5000     83.6664      0.0000    884.9949      9.8318
   702.7500     82.3898      0.0000    890.9662      9.7660
   703.0000     80.8091      0.0000    897.4233      9.7174
   703.2500     79.3301      0.0000    903.5356      9.6788
