~Version Information
VERS.                      2.0: CWLS Log ASCII Standard - VERSION 2.0
WRAP.                       NO: One line per depth step
~Well Information Block
STRT.FT                10.0000: 
STOP.FT              1187.0000: 
STEP.FT                 0.1000: 
NULL.                -999.2500: 
COMP.          Pioneer Natural Resources: COMPANY
WELL.          Whitecoat 14-36: WELL
FLD.           Purgatorie River: FIELD
LOC.           606' FSL & 260' FWL: LOCATION
PROV.                 Colorado: PROVINCE
CNTY.               Las Animas: COUNTRY
SRVC.                Patterson: SERVICE COMPANY
DATE.          Tue Dec 06 07:14:37 2005: LOG DATE
UWI.                          : UNIQUE WELL ID
~Curve Information Block
DEPT.FT            0 000 00 00: Depth
DCAL.in                       : CDL Caliper
RHOB.g/cc                     : CDL Bulk Density
RHOC.g/cc                     : CDL Density Correction
DPOR.pu                       : CDL Density Porosity
GR.GAPI                       : Gamma Ray
NPOR.pu                       : Neutron Porosity
~Parameter Information Block
~A  Depth       DCAL        RHOB        RHOC        DPOR         GR         NPOR    
# ...
   710.8000      7.9898      2.5744      0.0875      4.5844    156.0306     25.4962
   710.9000      7.9898      2.5753      0.0430      4.5254    164.0355     26.1244
   711.0000      7.9959      2.5885      0.0764      3.7278    173.3867     26.2555
   711.1000      7.9959      2.6070      0.1414      2.6036    179.1734     26.2257
   711.2000      7.9959      2.6231      0.1114      1.6284    179.6014     26.3965
   711.3000      8.0106      2.6360      0.1820      0.8494    177.4845     26.6155
   711.4000      8.0106      2.6399      0.1456      0.6107    175.1431     26.9467
   711.5000      7.9910      2.6352      0.1486      0.8942    171.7756     27.3484
   711.6000      7.9910      2.6299      0.1235      1.2189    166.4221     27.5680
   711.7000      7.9910      2.6258      0.1046      1.4652    159.4510     27.6219
   711.8000      7.9823      2.6142      0.1114      2.1688    152.8706     27.6201
   711.9000      7.9823      2.5886      0.0512      3.7226    148.0149     27.4663
   712.0000      7.9776      2.5629      0.0214      5.2806    143.3401     27.0602
   712.1000      7.9776      2.5506      0.0369      6.0217    136.4032     26.5282
   712.2000      7.9776      2.5488      0.0334      6.1343    127.5838     26.0991
   712.3000      7.9713      2.5490      0.0556      6.1193    120.0487     25.7491
   712.4000      7.9713      2.5465      0.0293      6.2739    116.1566     25.3454
   712.5000      7.9290      2.5470      0.0379      6.2408    116.6571     24.9234
   712.6000      7.9290      2.5566      0.0264      5.6599    120.2412     24.4750
   712.7000      7.9290      2.5666      0.0875      5.0525    123.2820     24.1681
   712.8000      7.9231      2.5690      0.0588      4.9096    126.3079     24.1464
   712.9000      7.9231      2.5728      0.1019      4.6796    131.4362     24.2398
   713.0000      7.9121      2.5861      0.0479      3.8706    136.4303     24.3699
   713.1000      7.9121      2.6055      0.0745      2.6943    138.0779     24.5070
   713.2000      7.9121      2.6177      0.1323      1.9583    135.5799     24.5117
   713.3000      7.9116      2.6189      0.0547      1.8831    130.4545     24.5034
   713.4000      7.9116      2.6224      0.0572      1.6737    125.8799     24.7922
   713.5000      7.9431      2.6269      0.0522      1.4026    123.8276     25.2926
   713.6000      7.9431      2.6215      0.0362      1.7273    121.1876     25.7869
   713.7000      7.9431      2.6052      0.0688      2.7145    116.3093     26.1760
   713.8000      7.9188      2.5833      0.0175      4.0424    112.2728     26.4066
   713.9000      7.9188      2.5679     -0.0037      4.9733    111.8958     26.5086
   714.0000      7.9048      2.5642      0.0195      5.2017    114.0384     26.4275
   714.1000      7.9048      2.5622      0.0103      5.3205    116.2306     26.0826
   714.2000      7.9048      2.5579     -0.0216      5.5823    118.8226     25.6882
   714.3000      7.8964      2.5513      0.0216      5.9795    122.8221     25.5132
   714.4000      7.8964      2.5414     -0.0271      6.5800    128.1509     25.4134
   714.5000      7.8930      2.5365      0.0023      6.8770    133.0290     25.1767
   714.6000      7.8930      2.5424      0.0050      6.5239    136.8933     24.9788
   714.7000      7.8930      2.5544      0.0569      5.7935    142.1325     25.1017
   714.8000      7.9056      2.5630      0.0651      5.2753    148.8320     25.4195
   714.9000      7.9056      2.5661      0.0397      5.0860    154.2472     25.5995
   715.0000      7.9290      2.5732      0.0199      4.6556    158.1914     25.6348
   715.1000      7.9290      2.5844      0.0915      3.9774    161.8826     25.6077
   715.2000      7.9290      2.5902      0.1106      3.6268    164.5321     25.4941
   715.3000      7.9605      2.5938      0.0579      3.4067    167.1642     25.3313
   715.4000      7.9605      2.6018      0.0908      2.9211    170.3245     25.3352
   715.5000      7.9940      2.6068      0.1074      2.6156    172.4324     25.6537
   715.6000      7.9940      2.6063      0.0845      2.6473    174.9285     26.0906
   715.7000      7.9940      2.6033      0.1268      2.8326    177.4827     26.4319
   715.8000      8.0157      2.5950      0.0864      3.3351    178.3584     26.8405
   715.9000      8.0157      2.5884      0.0632      3.7363    178.6694     27.5171
   716.0000      8.0402      2.5913      0.0214      3.5550    177.6245     28.3197
   716.1000      8.0402      2.5960      0.0372      3.2744    174.2379     28.8404
   716.2000      8.0402      2.5892      0.0741      3.6823    172.7220     28.9481
   716.3000      8.0969      2.5754     -0.0532      4.5238    175.4110     28.9314
   716.4000      8.0969      2.5694      0.0029      4.8848    178.2128     29.0191
   716.5000      8.0877      2.5626     -0.0072      5.2964    176.4117     29.2050
   716.6000      8.0877      2.5422     -0.0318      6.5348    168.7667     29.3678
   716.7000      8.0877      2.5204      0.0016      7.8523    157.2675     29.3871
   716.8000      8.0856      2.5139     -0.0069      8.2478    147.4226     29.3456
   716.9000      8.0856      2.5211     -0.0167      7.8135    143.6499     29.3419
   717.0000      8.0630      2.5266      0.0128      7.4790    144.1533     29.1804
   717.1000      8.0630      2.5327     -0.0809      7.1111    144.4135     28.6410
   717.2000      8.0630      2.5574     -0.0088      5.6104    143.9373     27.7741
   717.3000      8.0254      2.5936      0.0944      3.4198    144.7194     27.0255
   717.4000      8.0254      2.6183      0.1341      1.9215    145.9535     26.8119
   717.5000      7.9881      2.6306      0.1334      1.1763    144.9087     26.8031
   717.6000      7.9881      2.6378      0.1995      0.7414    141.2283     26.5835
   717.7000      7.9881      2.6269      0.2224      1.4007    136.3919     26.4295
   717.8000      7.9099      2.5919      0.1046      3.5204    132.2718     26.5138
   717.9000      7.9099      2.5605      0.0368      5.4212    130.8308     26.5570
   718.0000      7.8390      2.5574      0.0421      5.6142    130.2888     26.3825
   718.1000      7.8390      2.5755      0.0778      4.5167    127.1299     26.0999
   718.2000      7.8390      2.6010      0.0406      2.9719    121.9205     25.9192
   718.3000      7.8523      2.6239      0.1187      1.5814    119.2374     25.9441
   718.4000      7.8523      2.6316      0.0941      1.1157    120.2774     26.1531
   718.5000      7.9181      2.6268      0.0876      1.4051    121.1319     26.3694
   718.6000      7.9181      2.6222      0.0854      1.6869    122.0766     26.3384
   718.7000      7.9181      2.6189      0.0794      1.8849    125.1087     26.3354
   718.8000      7.9271      2.6162      0.0793      2.0515    128.1271     26.7475
   718.9000      7.9271      2.6203      0.0744      1.7973    127.5871     27.2353
   719.0000      7.9111      2.6362      0.1002      0.8376    122.9420     27.3097
   719.1000      7.9111      2.6657      0.0748     -0.9518    117.1766     27.0286
   719.2000      7.9111      2.7068      0.0870     -3.4447    112.8317     26.7191
   719.3000      7.9107      2.7354      0.1796     -5.1738    112.8788     26.6423
   719.4000      7.9107      2.7291      0.1083     -4.7956    119.3138     26.7087
   719.5000      7.8801      2.7057      0.1060     -3.3755    127.9134     26.6519
   719.6000      7.8801      2.6896      0.1081     -2.4020    133.5970     26.3772
   719.7000      7.8801      2.6818      0.0931     -1.9292    136.6063     26.0489
   719.8000      7.8970      2.6712      0.1214     -1.2839    138.3694     25.9876
   719.9000      7.8970      2.6518      0.0615     -0.1065    140.1936     26.0186
   720.0000      7.8953      2.6313      0.0430      1.1313    144.1693     25.7637
   720.1000      7.8953      2.6161      0.0643      2.0557    150.8849     25.5061
   720.2000      7.8953      2.6057      0.0676      2.6866    159.6039     25.6015
   720.3000      7.9284      2.5969      0.1339      3.2177    168.3536     25.8508
