~Version Information
VERS.                      2.0: CWLS Log ASCII Standard - VERSION 2.0
WRAP.                       NO: One line per depth step
~Well Information Block
STRT.FT               645.0000: 
STOP.FT              2131.0000: 
STEP.FT                 0.1000: 
NULL.                -999.2500: 
COMP.          Pioneer Natural Resources: COMPANY
WELL.          Gunslinger 13-24: WELL
FLD.           Purgatoire River: FIELD
LOC.           1968' FSL & 633' FWL: LOCATION
PROV.                 Colorado: PROVINCE
CNTY.               Las Animas: COUNTRY
SRVC.                Patterson: SERVICE COMPANY
DATE.          Sat Jul 30 08:07:53 2005: LOG DATE
UWI.           05 071 08442 00: UNIQUE WELL ID
~Curve Information Block
DEPT.FT            0 000 00 00: Depth
DCAL.in                       : CDL Caliper
RHOB.g/cc                     : CDL Bulk Density
RHOC.g/cc                     : CDL Density Correction
DPOR.pu                       : CDL Density Porosity
GR.GAPI                       : Gamma Ray
NPOR.pu                       : Neutron Porosity
~Parameter Information Block
~A  Depth       DCAL        RHOB        RHOC        DPOR         GR         NPOR    
# ...
  1720.2000      7.9934      2.2988      0.0163     21.2822     43.5135     11.7703
  1720.3000      8.0128      2.2919      0.0127     21.7004     38.9578     12.1884
  1720.4000      8.0128      2.2871      0.0156     21.9935     37.2872     11.9818
  1720.5000      8.0228      2.2885      0.0010     21.9114     35.9364     11.3717
  1720.6000      8.0228      2.2974      0.0202     21.3683     34.1022     10.8351
  1720.7000      8.0228      2.3132      0.0326     20.4116     34.3909     10.7744
  1720.8000      8.0402      2.3257      0.0186     19.6567     37.8671     10.9232
  1720.9000      8.0402      2.3193      0.0318     20.0422     40.1493     10.7084
  1721.0000      8.0412      2.2954      0.0555     21.4883     37.7575     10.1839
  1721.1000      8.0412      2.2750      0.0140     22.7290     34.8021     10.0064
  1721.2000      8.0412      2.2707      0.0159     22.9901     34.2821     10.4527
  1721.3000      8.0415      2.2688      0.0340     23.1013     35.4933     11.2582
  1721.4000      8.0415      2.2608     -0.0479     23.5869     38.3584     11.6951
  1721.5000      8.0388      2.2632      0.0004     23.4434     41.8376     11.1403
  1721.6000      8.0388      2.2860      0.0067     22.0590     43.2996     10.0540
  1721.7000      8.0388      2.3182      0.0467     20.1092     43.1362      9.4979
  1721.8000      8.0450      2.3441      0.0433     18.5397     43.1674      9.9487
  1721.9000      8.0450      2.3567      0.0684     17.7736     41.7904     11.0534
  1722.0000      8.0782      2.3523      0.0430     18.0399     39.5804     11.7666
  1722.1000      8.0782      2.3301      0.0836     19.3881     40.0928     11.6903
  1722.2000      8.0782      2.3036      0.0186     20.9918     43.7648     11.7382
  1722.3000      8.1184      2.2915      0.0353     21.7251     46.4718     12.3353
  1722.4000      8.1184      2.2966     -0.0032     21.4179     45.7999     12.9783
  1722.5000      8.1321      2.3167      0.0404     20.2020     43.8970     13.2887
  1722.6000      8.1321      2.3507      0.0232     18.1394     43.4733     13.4727
  1722.7000      8.1321      2.3825      0.0842     16.2122     45.4119     13.7705
  1722.8000      8.1227      2.3986      0.0290     15.2369     48.7322     14.1258
  1722.9000      8.1227      2.4144      0.0150     14.2759     50.8896     14.2830
  1723.0000      8.0287      2.4427      0.0604     12.5636     51.6873     13.9603
  1723.1000      8.0287      2.4692      0.0943     10.9599     55.4162     13.5338
  1723.2000      8.0287      2.4860      0.0392      9.9371     64.4071     13.9162
  1723.3000      8.0983      2.5091      0.0001      8.5419     74.2721     15.1804
  1723.4000      8.0983      2.5411      0.1047      6.5982     80.0593     16.3114
  1723.5000      8.1001      2.5607      0.0879      5.4131     80.2667     16.9136
  1723.6000      8.1001      2.5537      0.0570      5.8360     78.5989     17.3920
  1723.7000      8.1001      2.5257      0.0234      7.5321     82.1351     17.6796
  1723.8000      8.1019      2.4904      0.0383      9.6747     92.6399     17.6747
  1723.9000      8.1019      2.4521      0.0166     11.9915    104.8816     17.3383
  1724.0000      8.0929      2.4175     -0.0602     14.0897    110.6845     17.0875
  1724.1000      8.0929      2.4050     -0.0347     14.8482    106.9599     17.3875
  1724.2000      8.0929      2.4198      0.0233     13.9501     99.7213     17.4219
  1724.3000      8.0818      2.4470      0.0476     12.3060     96.1213     16.6114
  1724.4000      8.0818      2.4678      0.0541     11.0430     94.9927     15.7172
  1724.5000      8.0928      2.4766      0.0105     10.5102     92.7848     14.9129
  1724.6000      8.0928      2.4826      0.0043     10.1480     93.1896     14.1387
  1724.7000      8.0928      2.4855      0.0465      9.9721     97.2855     13.9221
  1724.8000      8.0945      2.4717      0.0399     10.8076     95.9128     14.0887
  1724.9000      8.0945      2.4431      0.0215     12.5406     87.0210     13.8400
  1725.0000      8.0923      2.4173      0.0058     14.1047     78.7756     13.5450
  1725.1000      8.0923      2.3963      0.0466     15.3780     73.8539     13.8553
  1725.2000      8.0923      2.3726     -0.0108     16.8094     73.1706     14.0229
  1725.3000      8.0491      2.3540     -0.0560     17.9367     79.2379     13.4849
  1725.4000      8.0491      2.3453     -0.0386     18.4642     86.7090     12.8869
  1725.5000      8.0192      2.3375     -0.0232     18.9368     88.0947     12.6229
  1725.6000      8.0192      2.3253      0.0217     19.6783     84.7427     12.3805
  1725.7000      8.0192      2.3100     -0.0072     20.6071     80.9384     11.9078
  1725.8000      8.0326      2.2929      0.0299     21.6407     76.7644     11.6409
  1725.9000      8.0326      2.2783     -0.0151     22.5248     71.7681     11.8990
  1726.0000      7.9925      2.2821     -0.0605     22.2995     67.0771     12.2548
  1726.1000      7.9925      2.3072      0.0280     20.7775     60.3886     12.4262
  1726.2000      7.9925      2.3248      0.0536     19.7086     49.8587     12.4857
  1726.3000      8.0101      2.3194      0.0317     20.0336     40.1124     12.1624
  1726.4000      8.0101      2.3121      0.0067     20.4762     34.3544     11.6273
  1726.5000      8.0200      2.3199      0.0471     20.0062     32.9873     11.2846
  1726.6000      8.0200      2.3325      0.0487     19.2423     36.4096     10.8271
  1726.7000      8.0200      2.3354      0.0635     19.0641     41.4570     10.1941
  1726.8000      8.0204      2.3338      0.0096     19.1626     42.4117      9.9313
  1726.9000      8.0204      2.3464      0.0383     18.3993     39.7685     10.3586
  1727.0000      8.0300      2.3681      0.0732     17.0879     39.1238     11.2865
  1727.1000      8.0300      2.3754      0.0483     16.6398     40.1240     12.1509
  1727.2000      8.0300      2.3656      0.0918     17.2387     38.8958     12.6044
  1727.3000      8.0296      2.3515      0.0440     18.0893     36.8997     12.7091
  1727.4000      8.0296      2.3488     -0.0117     18.2566     37.8257     12.4560
  1727.5000      8.0184      2.3575      0.0950     17.7275     40.7522     11.8674
  1727.6000      8.0184      2.3644      0.0032     17.3114     43.1618     11.4372
  1727.7000      8.0184      2.3677      0.0226     17.1082     44.3546     11.7192
  1727.8000      8.0014      2.3657      0.0185     17.2298     45.0352     12.6377
  1727.9000      8.0014      2.3553      0.0126     17.8618     47.4743     13.3698
  1728.0000      8.0029      2.3404      0.0305     18.7628     51.7463     13.3808
  1728.1000      8.0029      2.3260     -0.0113     19.6334     55.3008     13.0045
  1728.2000      8.0029      2.3225     -0.0145     19.8502     57.8712     12.6979
  1728.3000      7.9958      2.3371     -0.0104     18.9651     59.8123     12.5451
  1728.4000      7.9958      2.3563      0.0618     17.7972     59.4035     12.3898
  1728.5000      7.9907      2.3605      0.0219     17.5429     55.3866     12.0478
  1728.6000      7.9907      2.3565      0.0025     17.7888     51.0574     11.6629
  1728.7000      7.9907      2.3604      0.0077     17.5492     49.4206     11.5513
  1728.8000      7.9734      2.3682      0.0371     17.0758     50.2022     11.7141
  1728.9000      7.9734      2.3737      0.0234     16.7474     53.2312     11.8425
  1729.0000      7.9908      2.3878      0.0155     15.8928     56.2353     11.7775
  1729.1000      7.9908      2.4127      0.0583     14.3796     55.7657     11.6649
  1729.2000      7.9908      2.4249      0.0898     13.6432     52.9018     11.7343
  1729.3000      7.9998      2.4115      0.0561     14.4540     51.4343     12.0941
  1729.4000      7.9998      2.4015      0.0065     15.0623     50.3493     12.4094
  1729.5000      8.0011      2.4248      0.0350     13.6465     46.5845     12.6441
  1729.6000      8.0011      2.4701      0.0621     10.9057     42.8530     13.1608
  1729.7000      8.0011      2.5006      0.1360      9.0538     43.9556     13.6700
