~Version Information
VERS.                      2.0: CWLS Log ASCII Standard - VERSION 2.0
WRAP.                       NO: One line per depth step
~Well Information Block
STRT.FT               575.0000: 
STOP.FT              1558.5000: 
STEP.FT                 0.2500: 
NULL.                -999.2500: 
COMP.          Pioneer Natural Resources: COMPANY
WELL.          McClaren 13-34 Tr: WELL
FLD.           Purgatoire River: FIELD
LOC.           1934' FSL & 826' FWL: LOCATION
PROV.                 Colorado: PROVINCE
CNTY.               Las Animas: COUNTRY
SRVC.                Patterson: SERVICE COMPANY
DATE.          Mon Jul 11 20:01:13 2005: LOG DATE
UWI.           05 071 08437 00: UNIQUE WELL ID
~Curve Information Block
DEPT.FT            0 000 00 00: Depth
SN.Ohm-m                      : IEL Short Normal
SP.mV                         : IEL Spontaneous Potential
DIR.Ohm-m                     : IEL Induction Resistivity
GR.GAPI                       : Gamma Ray
~Parameter Information Block
~A  Depth        SN          SP         DIR          GR     
# ...
   642.0000   2000.0000   2000.0000     23.0243    122.5697
   642.2500   2000.0000   2000.0000     22.1862    122.0420
   642.5000   2000.0000   2000.0000     21.4142    121.6107
   642.7500   2000.0000   2000.0000     20.7725    121.0029
   643.0000   2000.0000   2000.0000     20.3002    118.8707
   643.2500   2000.0000   2000.0000     20.0056    116.6474
   643.5000   2000.0000   2000.0000     19.8684    112.9154
   643.7500   2000.0000   2000.0000     19.8509    110.8346
   644.0000   2000.0000   2000.0000     19.9130    109.1066
   644.2500   2000.0000   2000.0000     20.0285    108.8225
   644.5000   2000.0000   2000.0000     20.1915    108.6224
   644.7500   2000.0000   2000.0000     20.4081    107.6950
   645.0000   2000.0000   2000.0000     20.6784    103.8387
   645.2500   2000.0000   2000.0000     20.9847     99.6490
   645.5000   2000.0000   2000.0000     21.2935     92.8744
   645.7500   2000.0000   2000.0000     21.5730     89.9475
   646.0000   2000.0000   2000.0000     21.8102     90.8664
   646.2500   2000.0000   2000.0000     22.0173     95.5975
   646.5000   2000.0000   2000.0000     22.2205    107.4771
   646.7500   2000.0000   2000.0000     22.4430    116.8103
   647.0000   2000.0000   2000.0000     22.6969    129.4270
   647.2500   2000.0000   2000.0000     22.9842    135.1675
   647.5000   2000.0000   2000.0000     23.3014    138.2819
   647.7500   2000.0000   2000.0000     23.6387    137.0664
   648.0000   2000.0000   2000.0000     23.9789    132.5922
   648.2500   2000.0000   2000.0000     24.3018    129.2733
   648.5000   2000.0000   2000.0000     24.5917    125.1156
   648.7500   2000.0000   2000.0000     24.8442    123.0575
   649.0000   2000.0000   2000.0000     25.0731    121.2203
   649.2500   2000.0000   2000.0000     25.3158    121.1011
   649.5000   2000.0000   2000.0000     25.6236    122.7732
   649.7500   2000.0000   2000.0000     26.0319    124.6927
   650.0000   2000.0000   2000.0000     26.5259    127.2683
   650.2500   2000.0000   2000.0000     27.0346    127.9157
   650.5000   2000.0000   2000.0000     27.4695    126.6046
   650.7500   2000.0000   2000.0000     27.7824    124.4790
   651.0000   2000.0000   2000.0000     27.9935    120.8377
   651.2500   2000.0000   2000.0000     28.1688    119.0991
   651.5000   2000.0000   2000.0000     28.3730    118.6190
   651.7500   2000.0000   2000.0000     28.6289    119.7370
   652.0000   2000.0000   2000.0000     28.9041    122.5823
   652.2500   2000.0000   2000.0000     29.1311    124.3095
   652.5000   2000.0000   2000.0000     29.2537    124.9562
   652.7500   2000.0000   2000.0000     29.2749    123.3975
   653.0000   2000.0000   2000.0000     29.2637    118.0482
   653.2500   2000.0000   2000.0000     29.3109    113.3863
   653.5000   2000.0000   2000.0000     29.4694    107.3636
   653.7500   2000.0000   2000.0000     29.7245    105.2418
   654.0000   2000.0000   2000.0000     30.0112    105.2365
   654.2500   2000.0000   2000.0000     30.2608    106.6566
   654.5000   2000.0000   2000.0000     30.4298    109.4826
   654.7500   2000.0000   2000.0000     30.4854    111.2350
   655.0000   2000.0000   2000.0000     30.3820    113.0537
   655.2500   2000.0000   2000.0000     30.0805    113.6538
   655.5000   2000.0000   2000.0000     29.6003    114.1143
   655.7500   2000.0000   2000.0000     29.0318    114.5452
   656.0000   2000.0000   2000.0000     28.4824    115.6951
   656.2500   2000.0000   2000.0000     28.0042    116.6438
   656.5000   2000.0000   2000.0000     27.5658    117.8887
   656.7500   2000.0000   2000.0000     27.0818    118.5615
   657.0000   2000.0000   2000.0000     26.4803    119.7625
   657.2500   2000.0000   2000.0000     25.7583    120.8181
   657.5000   2000.0000   2000.0000     24.9823    122.2036
   657.7500   2000.0000   2000.0000     24.2310    122.5387
   658.0000   2000.0000   2000.0000     23.5364    122.3744
   658.2500   2000.0000   2000.0000     22.8745    122.6245
   658.5000   2000.0000   2000.0000     22.2043    124.8699
   658.7500   2000.0000   2000.0000     21.5132    127.6395
   659.0000   2000.0000   2000.0000     20.8295    132.4205
   659.2500   2000.0000   2000.0000     20.2012    135.1696
   659.5000   2000.0000   2000.0000     19.6728    138.0546
   659.7500   2000.0000   2000.0000     19.2741    139.3139
   660.0000   2000.0000   2000.0000     19.0189    140.7106
   660.2500   2000.0000   2000.0000     18.9024    141.5307
   660.5000   2000.0000   2000.0000     18.8973    142.7973
   660.7500   2000.0000   2000.0000     18.9576    143.6567
   661.0000   2000.0000   2000.0000     19.0339    144.5732
   661.2500   2000.0000   2000.0000     19.0936    144.4719
   661.5000   2000.0000   2000.0000     19.1285    142.4166
   661.7500   2000.0000   2000.0000     19.1442    139.5640
   662.0000   2000.0000   2000.0000     19.1426    133.4558
   662.2500   2000.0000   2000.0000     19.1149    128.7361
   662.5000   2000.0000   2000.0000     19.0480    121.8663
   662.7500   2000.0000   2000.0000     18.9328    118.0899
   663.0000   2000.0000   2000.0000     18.7657    114.5887
   663.2500   2000.0000   2000.0000     18.5476    114.0395
   663.5000   2000.0000   2000.0000     18.2842    115.9731
   663.7500   2000.0000   2000.0000     17.9927    118.8791
   664.0000   2000.0000   2000.0000     17.7042    124.9903
   664.2500   2000.0000   2000.0000     17.4618    129.6881
   664.5000   2000.0000   2000.0000     17.3100    136.5085
   664.7500   2000.0000   2000.0000     17.2803    140.1912
   665.0000   2000.0000   2000.0000     17.3803    143.3970
   665.2500   2000.0000   2000.0000     17.5952    143.6247
   665.5000   2000.0000   2000.0000     17.8994    141.0697
   665.7500   2000.0000   2000.0000     18.2704    137.8342
   666.0000   2000.0000   2000.0000     18.6928    131.8672
   666.2500   2000.0000   2000.0000     19.1506    127.8803
   666.5000   2000.0000   2000.0000     19.6231    122.9327
   666.7500   2000.0000   2000.0000     20.0938    120.8210
   667.0000   2000.0000   2000.0000     20.5667    120.0646
   667.2500   2000.0000   2000.0000     21.0733    121.3039
   667.5000   2000.0000   2000.0000     21.6638    125.4930
   667.7500   2000.0000   2000.0000     22.3909    129.3708
   668.0000   2000.0000   2000.0000     23.2969    135.4652
   668.2500   2000.0000   2000.0000     24.4081    138.6898
   668.5000   2000.0000   2000.0000     25.7344    140.6641
   668.7500   2000.0000   2000.0000     27.2677    139.5984
   669.0000   2000.0000   2000.0000     28.9721    134.7520
   669.2500   2000.0000   2000.0000     30.7745    130.1882
   669.5000   2000.0000   2000.0000     32.5702    123.3785
   669.7500   2000.0000   2000.0000     34.2620    119.7823
   670.0000   2000.0000   2000.0000     35.8107    115.9439
   670.2500   2000.0000   2000.0000     37.2440    113.8469
   670.5000   2000.0000   2000.0000     38.5974    110.4167
   670.7500   2000.0000   2000.0000     39.8283    107.6643
   671.0000   2000.0000   2000.0000     40.7832    102.8380
   671.2500   2000.0000   2000.0000     41.2702     99.5308
   671.5000   2000.0000   2000.0000     41.1923     95.8598
   671.7500   2000.0000   2000.0000     40.6161     95.1923
   672.0000   2000.0000   2000.0000     39.7112     97.5382
   672.2500   2000.0000   2000.0000     38.6373    101.0529
   672.5000   2000.0000   2000.0000     37.4848    108.3333
   672.7500   2000.0000   2000.0000     36.2823    114.0895
   673.0000   2000.0000   2000.0000     35.0283    123.2645
   673.2500   2000.0000   2000.0000     33.7193    129.0492
   673.5000   2000.0000   2000.0000     32.3693    136.2133
   673.7500   2000.0000   2000.0000     31.0201    139.8947
   674.0000   2000.0000   2000.0000     29.7316    144.3033
   674.2500   2000.0000   2000.0000     28.5598    146.7705
   674.5000   2000.0000   2000.0000     27.5378    149.9371
   674.7500   2000.0000   2000.0000     26.6799    151.8507
   675.0000   2000.0000   2000.0000     25.9922    154.8996
   675.2500   2000.0000   2000.0000     25.4796    157.1731
