~Version Information
VERS.                      2.0: CWLS Log ASCII Standard - VERSION 2.0
WRAP.                       NO: One line per depth step
~Well Information Block
STRT.FT               460.0000: 
STOP.FT              1498.0000: 
STEP.FT                 0.1000: 
NULL.                -999.2500: 
COMP.          Pioneer Natural Resources: COMPANY
WELL.           Amore 32-09 Tr: WELL
FLD.           Purgatoire River: FIELD
LOC.           1941' FNL & 2297' FEL: LOCATION
PROV.                 Colorado: PROVINCE
CNTY.               Las Animas: COUNTRY
SRVC.                Patterson: SERVICE COMPANY
DATE.          Mon Nov 14 13:24:57 2005: LOG DATE
UWI.           05 071 08584 00: UNIQUE WELL ID
~Curve Information Block
DEPT.FT            0 000 00 00: Depth
DCAL.in                       : CDL Caliper
RHOB.g/cc                     : CDL Bulk Density
RHOC.g/cc                     : CDL Density Correction
DPOR.pu                       : CDL Density Porosity
GR.GAPI                       : Gamma Ray
NPOR.pu                       : Neutron Porosity
~Parameter Information Block
~A  Depth       DCAL        RHOB        RHOC        DPOR         GR         NPOR    
# ...
   527.2000      8.0140      2.5387     -0.0042      6.7464    116.7974     24.4483
   527.3000      8.0146      2.5362      0.0721      6.8945    115.9692     24.2102
   527.4000      8.0146      2.5295      0.0236      7.3033    117.1708     23.8303
   527.5000      8.0152      2.5209      0.0254      7.8247    115.9843     23.5908
   527.6000      8.0152      2.5224      0.0427      7.7320    110.4445     23.6708
   527.7000      8.0152      2.5386      0.0125      6.7499    104.8159     23.8274
   527.8000      8.0154      2.5630      0.0769      5.2742    103.9474     23.3061
   527.9000      8.0154      2.5807      0.1009      4.2018    107.4169     22.0589
   528.0000      8.0150      2.5842      0.1012      3.9866    110.0640     20.8100
   528.1000      8.0150      2.5748      0.1131      4.5604    108.4346     19.9987
   528.2000      8.0150      2.5626      0.0365      5.2946    106.9426     19.6793
   528.3000      8.0150      2.5594      0.0767      5.4918    111.4396     19.5220
   528.4000      8.0150      2.5597      0.0333      5.4731    117.1597     19.3966
   528.5000      8.0157      2.5560      0.0479      5.6996    116.4725     19.7551
   528.6000      8.0157      2.5482      0.0534      6.1702    111.5828     20.3284
   528.7000      8.0157      2.5408      0.0100      6.6210    108.9003     20.4345
   528.8000      8.0158      2.5417      0.0307      6.5617    111.8233     20.3305
   528.9000      8.0158      2.5549      0.0547      5.7665    116.7834     20.4016
   529.0000      8.0154      2.5698      0.1010      4.8627    119.7301     20.5206
   529.1000      8.0154      2.5740      0.0498      4.6065    121.7827     20.4129
   529.2000      8.0154      2.5717      0.0688      4.7437    125.2952     20.1409
   529.3000      8.0156      2.5740      0.0413      4.6048    132.8399     19.9192
   529.4000      8.0156      2.5802      0.0863      4.2313    140.2513     19.7344
   529.5000      8.0160      2.5779      0.0475      4.3727    138.2155     19.7573
   529.6000      8.0160      2.5614      0.0630      5.3727    127.4466     19.9138
   529.7000      8.0160      2.5399      0.0067      6.6698    118.6059     19.7271
   529.8000      8.0157      2.5287      0.0180      7.3493    118.3205     19.3038
   529.9000      8.0157      2.5318      0.0293      7.1640    123.1646     19.1588
   530.0000      8.0152      2.5464      0.0062      6.2773    126.4413     19.5832
   530.1000      8.0152      2.5625      0.0931      5.3032    125.6076     20.5591
   530.2000      8.0152      2.5624      0.0583      5.3087    121.3599     21.7963
   530.3000      8.0151      2.5525      0.0303      5.9069    116.9969     22.3971
   530.4000      8.0151      2.5571      0.0534      5.6303    117.8186     21.8784
   530.5000      8.0148      2.5781      0.0890      4.3553    121.7943     21.5213
   530.6000      8.0148      2.5958      0.1171      3.2862    120.9798     22.5637
   530.7000      8.0148      2.5987      0.0898      3.1115    115.2973     24.3206
   530.8000      8.0137      2.5935      0.0493      3.4271    111.9865     25.3157
   530.9000      8.0137      2.5859      0.0735      3.8843    114.4685     24.8708
   531.0000      8.0131      2.5768      0.0536      4.4346    118.2848     23.7203
   531.1000      8.0131      2.5704      0.0542      4.8232    123.0955     23.2273
   531.2000      8.0131      2.5707      0.0497      4.8068    131.6311     23.9133
   531.3000      8.0135      2.5785      0.0449      4.3335    136.0828     25.0876
   531.4000      8.0135      2.5880      0.0408      3.7566    130.3200     25.4673
   531.5000      8.0143      2.5906      0.0408      3.6020    122.4319     24.4656
   531.6000      8.0143      2.5840      0.0265      4.0003    118.7621     23.1109
   531.7000      8.0143      2.5727      0.0347      4.6849    119.0823     22.4098
   531.8000      8.0147      2.5625      0.0214      5.3034    123.7575     21.9545
   531.9000      8.0147      2.5562     -0.0044      5.6874    128.3942     21.7988
   532.0000      8.0146      2.5554     -0.0112      5.7319    127.4070     22.1705
   532.1000      8.0146      2.5573      0.0465      5.6168    125.3912     22.2398
   532.2000      8.0146      2.5514      0.0158      5.9781    129.6754     21.7735
   532.3000      8.0146      2.5409     -0.0325      6.6131    136.0462     21.4530
   532.4000      8.0146      2.5380      0.0159      6.7857    137.3506     21.5398
   532.5000      8.0151      2.5397      0.0485      6.6823    135.0196     21.6025
   532.6000      8.0151      2.5392      0.0127      6.7178    134.3669     21.2891
   532.7000      8.0151      2.5375      0.0250      6.8168    133.5864     21.1173
   532.8000      8.0158      2.5366      0.0400      6.8733    130.1850     21.5552
   532.9000      8.0158      2.5344      0.0423      7.0078    130.3948     22.1965
   533.0000      8.0157      2.5299      0.0335      7.2811    132.7614     22.5793
   533.1000      8.0157      2.5294      0.0488      7.3066    127.1544     22.6149
   533.2000      8.0157      2.5344      0.0572      7.0077    118.1515     22.0684
   533.3000      8.0148      2.5342      0.0759      7.0166    117.1157     21.1724
   533.4000      8.0148      2.5325      0.0245      7.1217    123.8804     20.9636
   533.5000      8.0126      2.5474      0.0586      6.2169    129.5984     21.4367
   533.6000      8.0126      2.5749      0.0830      4.5505    128.5231     21.4552
   533.7000      8.0126      2.5903      0.1352      3.6201    127.0544     20.8896
   533.8000      8.0109      2.5870      0.1011      3.8188    130.3534     20.5638
   533.9000      8.0109      2.5853      0.0719      3.9205    133.3912     20.8162
   534.0000      8.0126      2.5920      0.1278      3.5137    130.9641     21.3883
   534.1000      8.0126      2.5934      0.1099      3.4302    122.3423     21.9138
   534.2000      8.0126      2.5902      0.0659      3.6229    112.3297     22.0505
   534.3000      8.0149      2.5898      0.0929      3.6499    107.6972     22.0299
   534.4000      8.0149      2.5859      0.0572      3.8871    111.8725     22.5118
   534.5000      8.0173      2.5749      0.0861      4.5523    120.4263     23.0338
   534.6000      8.0173      2.5676      0.0200      4.9919    126.3284     22.7917
   534.7000      8.0173      2.5700      0.0594      4.8473    127.9712     22.4331
   534.8000      8.0188      2.5683      0.0443      4.9521    123.7063     22.6849
   534.9000      8.0188      2.5610      0.0078      5.3912    113.5893     23.0420
   535.0000      8.0168      2.5664      0.0287      5.0687    104.3564     22.9368
   535.1000      8.0168      2.5866      0.0643      3.8424    100.5459     22.5901
   535.2000      8.0168      2.5985      0.0864      3.1199    100.8410     22.4594
   535.3000      8.0147      2.5856      0.0340      3.9018    102.4359     22.5030
   535.4000      8.0147      2.5640     -0.0372      5.2115    106.4977     22.4262
   535.5000      8.0138      2.5580     -0.0177      5.5739    114.7505     22.1078
   535.6000      8.0138      2.5693     -0.0037      4.8913    123.3863     21.5947
   535.7000      8.0138      2.5821      0.0118      4.1167    126.7091     21.4644
   535.8000      8.0128      2.5896      0.0134      3.6580    125.5037     21.9996
   535.9000      8.0128      2.5978      0.0317      3.1660    128.7306     22.4941
   536.0000      8.0125      2.6012      0.0436      2.9580    139.0395     22.4452
   536.1000      8.0125      2.5953      0.0124      3.3150    146.5732     22.1760
   536.2000      8.0125      2.5849      0.0295      3.9473    143.8414     22.1600
   536.3000      8.0127      2.5719      0.0121      4.7337    135.4557     22.5750
   536.4000      8.0127      2.5663      0.0120      5.0756    128.6339     23.0733
   536.5000      8.0129      2.5766      0.0051      4.4495    122.7550     22.9024
   536.6000      8.0129      2.5846      0.0530      3.9634    117.4868     22.3014
   536.7000      8.0129      2.5717     -0.0188      4.7479    118.3911     21.8536
