~Version Information
VERS.                      2.0: CWLS Log ASCII Standard - VERSION 2.0
WRAP.                       NO: One line per depth step
~Well Information Block
STRT.FT               770.0000: 
STOP.FT              2171.0000: 
STEP.FT                 0.1000: 
NULL.                -999.2500: 
COMP.          Pioneer Natural Resources: COMPANY
WELL.              Kermit 32-7: WELL
FLD.           Purgatoire River: FIELD
LOC.           2002' FNL & 2103' FEL: LOCATION
PROV.                 Colorado: PROVINCE
CNTY.               Las Animas: COUNTRY
SRVC.                Patterson: SERVICE COMPANY
DATE.          Thu Jan 12 03:02:28 2006: LOG DATE
UWI.           05 071 08647 00: UNIQUE WELL ID
~Curve Information Block
DEPT.FT            0 000 00 00: Depth
DCAL.in                       : CDL Caliper
RHOB.g/cc                     : CDL Bulk Density
RHOC.g/cc                     : CDL Density Correction
DPOR.pu                       : CDL Density Porosity
GR.GAPI                       : Gamma Ray
NPOR.pu                       : Neutron Porosity
~Parameter Information Block
~A  Depth       DCAL        RHOB        RHOC        DPOR         GR         NPOR    
# ...
  1134.8000      8.0192      2.6775      0.0351     -1.6667     91.5491     26.0098
  1134.9000      8.0192      2.6675      0.0719     -1.0587     90.1923     25.6256
  1135.0000      7.9832      2.6722      0.0149     -1.3429     89.6358     25.2673
  1135.1000      7.9832      2.6837      0.0697     -2.0426     85.4480     24.9186
  1135.2000      7.9832      2.6939      0.0973     -2.6583     80.1366     24.9584
  1135.3000      7.9737      2.6978      0.1090     -2.8948     78.2390     25.3595
  1135.4000      7.9737      2.7012      0.1200     -3.1020     79.0843     25.7718
  1135.5000      7.9947      2.7052      0.1132     -3.3431     78.8809     25.8933
  1135.6000      7.9947      2.6938      0.1514     -2.6525     75.0612     25.7475
  1135.7000      7.9947      2.6584      0.1009     -0.5119     70.7988     25.5204
  1135.8000      7.9510      2.6252      0.0393      1.5055     71.5655     25.1722
  1135.9000      7.9510      2.6256      0.0215      1.4783     77.9309     24.8520
  1136.0000      7.9494      2.6513      0.0716     -0.0768     86.5825     24.7419
  1136.1000      7.9494      2.6630      0.1164     -0.7882     92.4912     24.4886
  1136.2000      7.9494      2.6479      0.0858      0.1300     91.7920     24.0794
  1136.3000      7.9554      2.6378      0.0849      0.7418     85.5161     24.0368
  1136.4000      7.9554      2.6517      0.1278     -0.1020     79.9325     24.1712
  1136.5000      7.9615      2.6692      0.1452     -1.1610     78.3039     24.0286
  1136.6000      7.9615      2.6666      0.1441     -1.0052     79.0571     23.8756
  1136.7000      7.9615      2.6513      0.0517     -0.0781     79.6358     24.2199
  1136.8000      7.9284      2.6556      0.0303     -0.3377     78.2566     24.9456
  1136.9000      7.9284      2.6815      0.1214     -1.9117     78.2805     25.3093
  1137.0000      7.9496      2.6909      0.1290     -2.4760     82.6369     25.1646
  1137.1000      7.9496      2.6715      0.0908     -1.3011     86.1829     24.9702
  1137.2000      7.9496      2.6468      0.0642      0.1949     86.2283     24.7567
  1137.3000      7.9774      2.6249      0.0800      1.5202     85.8940     24.5539
  1137.4000      7.9774      2.6020      0.0219      2.9121     86.1524     24.4461
  1137.5000      7.9899      2.5832      0.0426      4.0467     85.8232     24.1007
  1137.6000      7.9899      2.5689      0.0255      4.9143     82.9005     23.3211
  1137.7000      7.9899      2.5508      0.0671      6.0103     78.1783     22.4513
  1137.8000      7.9913      2.5238      0.0363      7.6495     74.6279     21.7998
  1137.9000      7.9913      2.4894      0.0456      9.7353     74.7434     21.4406
  1138.0000      8.0142      2.4475      0.0612     12.2747     79.7565     21.5024
  1138.1000      8.0142      2.3988      0.0059     15.2230     85.8809     22.1409
  1138.2000      8.0142      2.3624     -0.0448     17.4320     86.1338     23.3006
  1138.3000      7.9880      2.3599     -0.0101     17.5843     81.8150     24.6930
  1138.4000      7.9880      2.3810      0.0662     16.3013     80.8901     25.9140
  1138.5000      7.9629      2.4020      0.0671     15.0290     83.4769     26.6688
  1138.6000      7.9629      2.4278      0.0206     13.4685     84.0949     26.9317
  1138.7000      7.9629      2.4753      0.0968     10.5874     82.9079     26.9693
  1138.8000      7.9824      2.5289      0.2151      7.3391     85.5978     27.2333
  1138.9000      7.9824      2.5601      0.1621      5.4463     94.1903     27.7706
  1139.0000      7.9984      2.5662      0.1680      5.0787    102.6921     28.3182
  1139.1000      7.9984      2.5632      0.1123      5.2614    106.1290     28.6351
  1139.2000      7.9984      2.5667      0.1247      5.0476    108.2804     28.5611
  1139.3000      7.9906      2.5766      0.1175      4.4492    114.0670     28.2464
  1139.4000      7.9906      2.5846      0.0722      3.9627    118.9141     27.9918
  1139.5000      7.9967      2.5827      0.1322      4.0811    117.4192     27.9879
  1139.6000      7.9967      2.5702      0.0653      4.8346    114.9080     28.2076
  1139.7000      7.9967      2.5636      0.0864      5.2346    115.6133     28.3622
  1139.8000      8.0078      2.5694      0.0794      4.8868    116.9485     28.3124
  1139.9000      8.0078      2.5723      0.1050      4.7083    119.3055     28.4074
  1140.0000      8.0096      2.5606      0.1113      5.4189    125.2551     28.7789
  1140.1000      8.0096      2.5411      0.0663      6.5973    130.4242     29.0249
  1140.2000      8.0096      2.5207      0.0834      7.8365    129.0499     29.0694
  1140.3000      8.0096      2.4992     -0.0107      9.1402    126.1883     29.5094
  1140.4000      8.0096      2.4864      0.0348      9.9169    127.9220     30.4936
  1140.5000      8.0121      2.4868      0.0835      9.8917    130.6808     31.3020
  1140.6000      8.0121      2.4985      0.0416      9.1796    131.2515     31.4194
  1140.7000      8.0121      2.5309      0.0444      7.2168    129.9162     30.9197
  1140.8000      8.0325      2.5905      0.1181      3.6070    125.9525     30.0858
  1140.9000      8.0325      2.6772      0.1460     -1.6493    118.1934     29.3540
  1141.0000      8.0211      2.7875      0.1514     -8.3350    109.7270     29.0151
  1141.1000      8.0211      2.8913      0.2681    -14.6236    105.5817     28.7824
  1141.2000      8.0211      2.9432      0.2983    -17.7687    103.3483     28.4108
  1141.3000      7.9515      2.9324      0.2622    -17.1156    100.0374     28.1459
  1141.4000      7.9515      2.8873      0.1884    -14.3795    100.2465     28.1377
  1141.5000      7.9243      2.8306      0.1955    -10.9433    101.4489     27.9532
  1141.6000      7.9243      2.7679      0.0816     -7.1444     96.5231     27.0688
  1141.7000      7.9243      2.7136      0.0466     -3.8525     88.7588     25.7776
  1141.8000      7.9218      2.6801     -0.0013     -1.8233     81.9497     24.8065
  1141.9000      7.9218      2.6622     -0.0049     -0.7424     76.3080     24.2814
  1142.0000      7.9369      2.6446      0.0146      0.3283     75.1552     23.8093
  1142.1000      7.9369      2.6165     -0.0036      2.0325     79.2587     23.3952
  1142.2000      7.9369      2.5879     -0.0715      3.7662     84.4619     23.3930
  1142.3000      8.0101      2.5735      0.0274      4.6345     88.9465     23.7781
  1142.4000      8.0101      2.5667      0.0662      5.0488     93.1909     24.1182
  1142.5000      8.0879      2.5531      0.0219      5.8754     95.6665     24.2936
  1142.6000      8.0879      2.5270      0.0991      7.4548     95.2543     24.7227
  1142.7000      8.0879      2.4961      0.0262      9.3247     92.8622     25.3444
  1142.8000      8.0896      2.4765      0.0945     10.5168     91.5992     25.4896
  1142.9000      8.0896      2.4735      0.0874     10.6992     93.8564     25.1158
  1143.0000      8.0947      2.4792      0.0866     10.3535    100.5331     24.8456
  1143.1000      8.0947      2.4769      0.0832     10.4895    112.4170     24.5914
  1143.2000      8.0947      2.4611      0.0475     11.4491    124.7121     23.8103
  1143.3000      8.1091      2.4417      0.0161     12.6214    130.5017     22.4168
  1143.4000      8.1091      2.4199      0.1424     13.9454    131.7513     20.7966
  1143.5000      8.1180      2.3813      0.1640     16.2823    135.6801     19.5169
  1143.6000      8.1180      2.3188      0.1153     20.0710    143.0877     18.6530
  1143.7000      8.1180      2.2342      0.1618     25.2025    149.5566     17.7662
  1143.8000      8.1223      2.1312      0.1107     31.4447    153.3099     16.8291
  1143.9000      8.1223      2.0214      0.0541     38.0952    154.4521     16.2184
  1144.0000      8.1368      1.9106      0.0252     44.8130    153.4875     15.6566
  1144.1000      8.1368      1.7985      0.0203     51.6080    149.6643     14.8893
  1144.2000      8.1368      1.7025      0.0018     57.4240    142.9252     14.3447
  1144.3000      8.1184      1.6356      0.0703     61.4782    136.1197     14.1594
