~Version Information
VERS.                      2.0: CWLS Log ASCII Standard - VERSION 2.0
WRAP.                       NO: One line per depth step
~Well Information Block
STRT.FT                10.0000: 
STOP.FT              1360.0000: 
STEP.FT                 0.1000: 
NULL.                -999.2500: 
COMP.          Pioneer Natural Resources: COMPANY
WELL.              Geyser 41-2: WELL
FLD.           Purgatorie River: FIELD
LOC.           506' FNL & 1127' FEL: LOCATION
PROV.                 Colorado: PROVINCE
CNTY.               Las Animas: COUNTRY
SRVC.                Patterson: SERVICE COMPANY
DATE.          Thu Dec 01 07:38:14 2005: LOG DATE
UWI.                          : UNIQUE WELL ID
~Curve Information Block
DEPT.FT            0 000 00 00: Depth
DCAL.in                       : CDL Caliper
RHOB.g/cc                     : CDL Bulk Density
RHOC.g/cc                     : CDL Density Correction
DPOR.pu                       : CDL Density Porosity
GR.GAPI                       : Gamma Ray
NPOR.pu                       : Neutron Porosity
~Parameter Information Block
~A  Depth       DCAL        RHOB        RHOC        DPOR         GR         NPOR    
# ...
  1258.0000      7.8376      2.5328      0.0694      7.1023     95.4144     20.7513
  1258.1000      7.8376      2.5327      0.0448      7.1070     98.2430     20.8519
  1258.2000      7.8376      2.5292     -0.0021      7.3235     99.5766     20.8830
  1258.3000      7.8346      2.5330      0.0238      7.0915     99.3092     21.1087
  1258.4000      7.8346      2.5457      0.0644      6.3208     98.1942     21.3561
  1258.5000      7.8010      2.5531      0.0954      5.8700     97.4607     21.3116
  1258.6000      7.8010      2.5402      0.0541      6.6556     97.7686     21.0686
  1258.7000      7.8010      2.5115      0.0493      8.3940     96.6762     20.8020
  1258.8000      7.8002      2.4778      0.0257     10.4359     91.9077     20.4543
  1258.9000      7.8002      2.4503      0.0029     12.1027     85.9912     20.0978
  1259.0000      7.7986      2.4432     -0.0020     12.5306     82.4179     19.8948
  1259.1000      7.7986      2.4542      0.0487     11.8646     82.3824     19.8862
  1259.2000      7.7986      2.4687      0.0322     10.9860     84.3488     19.9503
  1259.3000      7.7980      2.4800      0.0876     10.3021     86.4492     19.8774
  1259.4000      7.7980      2.4850      0.0519      9.9999     89.0247     19.7381
  1259.5000      7.8028      2.4880      0.0225      9.8175     91.8327     19.7097
  1259.6000      7.8028      2.4944      0.0473      9.4319     92.7115     19.7735
  1259.7000      7.8028      2.5010      0.0314      9.0285     90.3521     19.9930
  1259.8000      7.8021      2.5031      0.0452      8.9019     87.7875     20.6049
  1259.9000      7.8021      2.5021      0.0380      8.9627     90.2961     21.4034
  1260.0000      7.7998      2.5087      0.0125      8.5652     96.9775     21.7770
  1260.1000      7.7998      2.5285      0.0253      7.3641    100.0485     21.6796
  1260.2000      7.7998      2.5520      0.0649      5.9368     97.7941     21.5353
  1260.3000      7.8044      2.5655      0.0938      5.1198     95.8791     21.2951
  1260.4000      7.8044      2.5709      0.0318      4.7927     95.2356     20.8217
  1260.5000      7.7891      2.5828      0.0610      4.0730     93.1569     20.3398
  1260.6000      7.7891      2.5973      0.0764      3.1940     90.6392     19.8976
  1260.7000      7.7891      2.5955      0.0852      3.3058     88.8539     19.5354
  1260.8000      7.7895      2.5751      0.0316      4.5417     87.7373     19.3172
  1260.9000      7.7895      2.5547      0.0205      5.7762     88.9337     19.1665
  1261.0000      7.7924      2.5511      0.0646      5.9940     92.7758     19.1307
  1261.1000      7.7924      2.5639      0.0864      5.2193     96.4072     19.3643
  1261.2000      7.7924      2.5800      0.0505      4.2394     97.1324     20.0332
  1261.3000      7.7830      2.5847      0.1050      3.9553     95.2088     20.9996
  1261.4000      7.7830      2.5728      0.0476      4.6799     94.1784     21.7878
  1261.5000      7.7948      2.5582      0.0535      5.5644     96.9047     22.1562
  1261.6000      7.7948      2.5479      0.0676      6.1901    102.7079     22.2303
  1261.7000      7.7948      2.5340      0.0863      7.0286    107.5603     22.3215
  1261.8000      7.8152      2.5208      0.0511      7.8306    108.8203     22.5570
  1261.9000      7.8152      2.5190      0.0802      7.9415    108.5008     22.7389
  1262.0000      7.7902      2.5266      0.0573      7.4787    108.4353     22.7987
  1262.1000      7.7902      2.5362      0.1011      6.8997    109.1085     23.0167
  1262.2000      7.7902      2.5422      0.1087      6.5319    110.0900     23.4590
  1262.3000      7.7844      2.5422      0.0620      6.5352    110.2053     23.8689
  1262.4000      7.7844      2.5377      0.0611      6.8036    111.2353     24.3744
  1262.5000      7.7785      2.5319      0.0573      7.1565    115.2807     25.1384
  1262.6000      7.7785      2.5280      0.0597      7.3923    118.6171     25.7613
  1262.7000      7.7785      2.5280      0.0649      7.3962    117.1820     25.8715
  1262.8000      7.7885      2.5331      0.0649      7.0848    112.1087     25.6600
  1262.9000      7.7885      2.5496      0.0470      6.0856    107.5436     25.4617
  1263.0000      7.7971      2.5762      0.0561      4.4758    106.7275     25.1956
  1263.1000      7.7971      2.5953      0.0911      3.3172    106.5850     24.8282
  1263.2000      7.7971      2.5956      0.0553      3.2999    102.7870     24.5279
  1263.3000      7.8111      2.5853      0.0838      3.9203     97.0367     24.0382
  1263.4000      7.8111      2.5777      0.0489      4.3826     92.6843     23.1809
  1263.5000      7.8044      2.5833      0.0039      4.0410     89.9375     22.3008
  1263.6000      7.8044      2.5964      0.0644      3.2495     86.7241     21.5913
  1263.7000      7.8044      2.5938      0.0565      3.4045     82.3849     20.8964
  1263.8000      7.8000      2.5714      0.0422      4.7628     78.3534     20.0892
  1263.9000      7.8000      2.5523      0.0308      5.9232     75.9096     19.3210
  1264.0000      7.7994      2.5516      0.0277      5.9659     75.0994     18.7871
  1264.1000      7.7994      2.5578      0.0620      5.5889     75.9591     18.5058
  1264.2000      7.7994      2.5539      0.0503      5.8267     78.6358     18.4250
  1264.3000      7.8051      2.5412      0.0490      6.5915     82.8531     18.4836
  1264.4000      7.8051      2.5383     -0.0152      6.7714     87.7727     18.7427
  1264.5000      7.8048      2.5560      0.0629      5.6941     91.5691     19.3012
  1264.6000      7.8048      2.5805      0.0921      4.2096     92.9839     20.0521
  1264.7000      7.8048      2.5921      0.1097      3.5114     94.4079     20.6154
  1264.8000      7.8167      2.5863      0.1210      3.8593     95.6096     20.8881
  1264.9000      7.8167      2.5780      0.0607      4.3625     93.0756     21.1238
  1265.0000      7.8020      2.5775      0.0743      4.3935     89.6019     21.4115
  1265.1000      7.8020      2.5676      0.0863      4.9967     89.5149     21.7930
  1265.2000      7.8020      2.5431      0.0192      6.4804     91.1143     22.0722
  1265.3000      7.7933      2.5253      0.0636      7.5601     92.0770     22.0115
  1265.4000      7.7933      2.5195      0.0497      7.9102     93.2815     21.9967
  1265.5000      7.8035      2.5211      0.0580      7.8133     94.1503     22.3503
  1265.6000      7.8035      2.5343      0.0389      7.0110     92.4531     22.7661
  1265.7000      7.8035      2.5564      0.1137      5.6750     89.7870     22.9573
  1265.8000      7.7961      2.5729      0.1058      4.6699     89.6238     22.8349
  1265.9000      7.7961      2.5752      0.0979      4.5345     91.0302     22.5083
  1266.0000      7.7893      2.5694      0.0602      4.8872     90.4800     22.3855
  1266.1000      7.7893      2.5673      0.0442      5.0152     87.1352     22.5665
  1266.2000      7.7893      2.5651      0.0571      5.1446     83.6681     22.5001
  1266.3000      7.7918      2.5547      0.0276      5.7732     81.9241     21.8331
  1266.4000      7.7918      2.5480      0.0181      6.1831     81.4962     20.9700
  1266.5000      7.7857      2.5512      0.0664      5.9872     82.9411     20.2654
  1266.6000      7.7857      2.5435      0.0595      6.4565     86.4770     19.8095
  1266.7000      7.7857      2.5153      0.0022      8.1620     92.3274     19.6341
  1266.8000      7.7815      2.4918     -0.0083      9.5879     99.8878     19.7773
  1266.9000      7.7815      2.4957     -0.0107      9.3526    104.5499     20.4187
  1267.0000      7.7772      2.5155      0.0811      8.1530    104.5477     21.6913
  1267.1000      7.7772      2.5288      0.0717      7.3470    104.6189     23.2665
  1267.2000      7.7772      2.5363      0.0605      6.8889    105.9124     24.4251
  1267.3000      7.7640      2.5448      0.1003      6.3772    103.0306     24.7720
  1267.4000      7.7640      2.5536      0.0606      5.8433     97.4293     24.6273
  1267.5000      7.7671      2.5673      0.0900      5.0129     95.9744     24.4266
