~Version Information
VERS.                      2.0: CWLS Log ASCII Standard - VERSION 2.0
WRAP.                       NO: One line per depth step
~Well Information Block
STRT.FT               670.0000: 
STOP.FT              2108.5000: 
STEP.FT                 0.1000: 
NULL.                -999.2500: 
COMP.          Petrogulf Corporation: COMPANY
WELL.           Montoya 12-44R: WELL
FLD.           Purgatorie River: FIELD
LOC.           713' FSL & 798' FEL: LOCATION
PROV.                 Colorado: PROVINCE
CNTY.               Las Animas: COUNTRY
SRVC.                Patterson: SERVICE COMPANY
DATE.          Mon Oct 03 07:50:59 2005: LOG DATE
UWI.           05-071-08538               : UNIQUE WELL ID
~Curve Information Block
DEPT.FT            0 000 00 00: Depth
DCAL.in                       : CDL Caliper
RHOB.g/cc                     : CDL Bulk Density
RHOC.g/cc                     : CDL Density Correction
DPOR.pu                       : CDL Density Porosity
GR.GAPI                       : Gamma Ray
NPOR.pu                       : Neutron Porosity
~Parameter Information Block
~A  Depth       DCAL        RHOB        RHOC        DPOR         GR         NPOR    
# ...
   958.0000      8.2876      2.5250      0.0442      7.5780    167.1355      3.1817
   958.1000      8.2876      2.5082      0.0080      8.5924    165.3455      3.1497
   958.2000      8.2876      2.5036      0.0063      8.8736    162.6963      3.1130
   958.3000      8.2918      2.5076      0.0178      8.6311    161.2323      3.0279
   958.4000      8.2918      2.5046      0.0690      8.8096    162.7142      2.8432
   958.5000      8.2894      2.4836      0.0168     10.0831    164.9799      2.6064
   958.6000      8.2894      2.4613     -0.0258     11.4371    163.8896      2.4681
   958.7000      8.2894      2.4565      0.0371     11.7303    160.5127      2.4550
   958.8000      8.2885      2.4691     -0.0098     10.9621    160.9633      2.4196
   958.9000      8.2885      2.4986      0.0421      9.1774    168.1884      2.2599
   959.0000      8.2852      2.5392      0.0689      6.7138    177.5134      2.1166
   959.1000      8.2852      2.5762      0.1554      4.4732    181.6716      2.2789
   959.2000      8.2852      2.5919      0.1760      3.5200    180.3203      2.7102
   959.3000      8.2841      2.5844      0.1318      3.9769    176.7839      3.0857
   959.4000      8.2841      2.5737      0.1063      4.6225    173.4124      3.2764
   959.5000      8.2918      2.5713      0.1278      4.7716    172.1603      3.2623
   959.6000      8.2918      2.5623      0.1319      5.3173    172.7093      3.0321
   959.7000      8.2918      2.5384      0.0534      6.7633    171.1101      2.8135
   959.8000      8.2739      2.5183      0.0081      7.9817    164.6765      2.8102
   959.9000      8.2739      2.5181      0.0102      7.9952    159.7812      2.9200
   960.0000      8.2583      2.5315      0.0184      7.1802    161.1753      2.9420
   960.1000      8.2583      2.5501     -0.0030      6.0523    161.1829      2.8297
   960.2000      8.2583      2.5729      0.0484      4.6729    155.5663      2.6697
   960.3000      8.2495      2.5938      0.0499      3.4061    148.7534      2.6137
   960.4000      8.2495      2.6085      0.0540      2.5122    141.7250      2.6350
   960.5000      8.2416      2.6227      0.0340      1.6521    134.9373      2.5024
   960.6000      8.2416      2.6326      0.0987      1.0545    130.8487      2.1474
   960.7000      8.2416      2.6249      0.0872      1.5219    127.6131      1.6574
   960.8000      8.2339      2.6055      0.0404      2.6964    123.1303      1.0070
   960.9000      8.2339      2.5868      0.0338      3.8324    117.6965      0.1528
   961.0000      8.2286      2.5720      0.0424      4.7302    109.4945     -0.6394
   961.1000      8.2286      2.5648      0.0212      5.1618     98.8336     -0.9313
   961.2000      8.2286      2.5618      0.0280      5.3464     91.0486     -0.9084
   961.3000      8.2325      2.5470      0.0323      6.2404     89.7478     -1.0939
   961.4000      8.2325      2.5235     -0.0097      7.6693     92.1346     -1.5009
   961.5000      8.2285      2.5146      0.0012      8.2076     93.0259     -1.8120
   961.6000      8.2285      2.5198      0.0523      7.8913     89.9036     -2.0495
   961.7000      8.2285      2.5233      0.0186      7.6798     84.1617     -2.4381
   961.8000      8.2236      2.5246      0.0323      7.5974     78.4912     -2.8225
   961.9000      8.2236      2.5215      0.0343      7.7895     76.0600     -2.9495
   962.0000      8.2220      2.5058      0.0277      8.7365     78.5180     -2.8858
   962.1000      8.2220      2.4829      0.0099     10.1276     83.2730     -2.7901
   962.2000      8.2220      2.4703     -0.0036     10.8933     86.2697     -2.8266
   962.3000      8.2209      2.4770      0.0304     10.4849     86.0851     -3.0398
   962.4000      8.2209      2.4921      0.0389      9.5672     84.7922     -3.2521
   962.5000      8.2152      2.5047      0.0387      8.8061     85.7199     -3.2694
   962.6000      8.2152      2.5140      0.0585      8.2441     89.2212     -3.0796
   962.7000      8.2152      2.5125      0.0660      8.3321     91.2911     -2.9450
   962.8000      8.2248      2.4947      0.0332      9.4148     88.9604     -3.0636
   962.9000      8.2248      2.4768      0.0120     10.4971     85.5386     -3.3456
   963.0000      8.2202      2.4738      0.0390     10.6806     85.5505     -3.5446
   963.1000      8.2202      2.4730      0.0571     10.7289     87.0239     -3.5303
   963.2000      8.2202      2.4623      0.0149     11.3770     85.6423     -3.5786
   963.3000      8.2207      2.4541      0.0325     11.8707     82.0147     -4.0305
   963.4000      8.2207      2.4610      0.0317     11.4567     79.4660     -4.5721
   963.5000      8.2229      2.4737      0.0673     10.6861     79.3015     -4.7877
   963.6000      8.2229      2.4781      0.0208     10.4207     80.5837     -4.9428
   963.7000      8.2229      2.4777      0.0288     10.4403     82.0866     -5.2802
   963.8000      8.2229      2.4797      0.0048     10.3237     82.4838     -5.5512
   963.9000      8.2229      2.4823      0.0365     10.1660     81.4652     -5.5828
   964.0000      8.2209      2.4847      0.0198     10.0200     80.6052     -5.5724
   964.1000      8.2209      2.4905      0.0418      9.6663     81.1218     -5.5692
   964.2000      8.2209      2.4998      0.0746      9.1022     83.3391     -5.2250
   964.3000      8.2209      2.5046      0.0510      8.8107     85.6660     -4.6166
   964.4000      8.2209      2.5004      0.0524      9.0662     85.2545     -4.2980
   964.5000      8.2238      2.4936      0.0295      9.4771     81.9174     -4.3669
   964.6000      8.2238      2.4983      0.0179      9.1920     78.1770     -4.4113
   964.7000      8.2238      2.5237      0.0227      7.6517     77.3186     -4.1797
   964.8000      8.2294      2.5534      0.0600      5.8559     80.5660     -3.9230
   964.9000      8.2294      2.5602      0.0606      5.4426     84.9563     -3.8490
   965.0000      8.2260      2.5505     -0.0216      6.0282     88.3812     -3.7424
   965.1000      8.2260      2.5464      0.0662      6.2763     91.4575     -3.4074
   965.2000      8.2260      2.5465      0.0690      6.2716     94.4061     -3.0032
   965.3000      8.2408      2.5458      0.0307      6.3134     97.6865     -2.7493
   965.4000      8.2408      2.5548      0.0311      5.7722    101.5347     -2.5981
   965.5000      8.2521      2.5835      0.0222      4.0308    104.2337     -2.3802
   965.6000      8.2521      2.6225      0.0943      1.6696    106.1437     -2.0818
   965.7000      8.2521      2.6468      0.1159      0.1912    109.9618     -1.8330
   965.8000      8.2610      2.6504      0.0746     -0.0227    116.1181     -1.7081
   965.9000      8.2610      2.6455      0.0804      0.2729    120.3530     -1.6448
   966.0000      8.2592      2.6308      0.1045      1.1646    118.6937     -1.5814
   966.1000      8.2592      2.5983      0.0698      3.1305    113.4248     -1.6458
   966.2000      8.2592      2.5572      0.0179      5.6267    110.0386     -1.8482
   966.3000      8.2674      2.5236     -0.0086      7.6618    108.6784     -1.8841
   966.4000      8.2674      2.5030      0.0283      8.9105    106.5523     -1.7033
   966.5000      8.2633      2.4887      0.0379      9.7776    104.7073     -1.6534
   966.6000      8.2633      2.4735      0.0129     10.6964    103.1489     -2.0465
   966.7000      8.2633      2.4630      0.0259     11.3349     98.5956     -2.7291
   966.8000      8.2531      2.4637      0.0554     11.2906     91.6299     -3.0923
   966.9000      8.2531      2.4699      0.0293     10.9178     87.7207     -2.9566
   967.0000      8.2497      2.4716      0.0482     10.8114     88.1091     -2.8137
   967.1000      8.2497      2.4650      0.0261     11.2134     88.0434     -2.8457
   967.2000      8.2497      2.4540      0.0211     11.8805     86.0878     -2.8744
   967.3000      8.2485      2.4463     -0.0190     12.3477     83.9839     -2.9643
   967.4000      8.2485      2.4431      0.0257     12.5396     80.5388     -3.2416
   967.5000      8.2529      2.4391      0.0073     12.7802     76.1493     -3.6462
