~Version Information
VERS.                      2.0: CWLS Log ASCII Standard - VERSION 2.0
WRAP.                       NO: One line per depth step
~Well Information Block
STRT.FT               575.0000: 
STOP.FT              1558.5000: 
STEP.FT                 0.2500: 
NULL.                -999.2500: 
COMP.          Pioneer Natural Resources: COMPANY
WELL.          McClaren 13-34 Tr: WELL
FLD.           Purgatoire River: FIELD
LOC.           1934' FSL & 826' FWL: LOCATION
PROV.                 Colorado: PROVINCE
CNTY.               Las Animas: COUNTRY
SRVC.                Patterson: SERVICE COMPANY
DATE.          Mon Jul 11 20:01:13 2005: LOG DATE
UWI.           05 071 08437 00: UNIQUE WELL ID
~Curve Information Block
DEPT.FT            0 000 00 00: Depth
SN.Ohm-m                      : IEL Short Normal
SP.mV                         : IEL Spontaneous Potential
DIR.Ohm-m                     : IEL Induction Resistivity
GR.GAPI                       : Gamma Ray
~Parameter Information Block
~A  Depth        SN          SP         DIR          GR     
# ...
  1446.0000     22.5534    168.0184     20.8203    134.7748
  1446.2500     20.5566    169.1061     20.0596    133.8756
  1446.5000     18.6498    170.2368     19.4750    130.8245
  1446.7500     17.2890    171.3895     19.0425    129.3820
  1447.0000     16.8210    172.5527     18.7309    129.4968
  1447.2500     17.2063    173.7147     18.5310    130.9216
  1447.5000     18.0277    174.8390     18.4643    133.6360
  1447.7500     18.8558    175.8597     18.5627    134.7104
  1448.0000     19.5938    176.7117     18.8384    133.3483
  1448.2500     20.3852    177.3707     19.2660    129.5449
  1448.5000     21.3504    177.8634     19.7866    118.7684
  1448.7500     22.5200    178.2426     20.3321    108.7179
  1449.0000     23.9912    178.5546     20.8583     91.9889
  1449.2500     26.1153    178.8245     21.3685     81.7146
  1449.5000     29.3672    179.0552     21.9127     70.2985
  1449.7500     33.7660    179.2334     22.5592     66.1849
  1450.0000     38.3954    179.3381     23.3584     65.7036
  1450.2500     41.8630    179.3529     24.3175     68.9485
  1450.5000     43.4035    179.2774     25.4015     77.7473
  1450.7500     43.2363    179.1340     26.5543     84.8888
  1451.0000     42.0066    178.9653     27.7265     95.1924
  1451.2500     40.3887    178.8271     28.8864    100.9007
  1451.5000     38.9751    178.7744     30.0067    107.1342
  1451.7500     38.0464    178.8437     31.0375    109.6451
  1452.0000     37.5272    179.0357     31.9005    110.6224
  1452.2500     37.2884    179.3113     32.5233    109.1339
  1452.5000     37.3251    179.6130     32.8939    103.6883
  1452.7500     37.6451    179.9032     33.0811     98.4616
  1453.0000     38.1923    180.1879     33.1944     89.9027
  1453.2500     38.8721    180.4998     33.3219     84.7936
  1453.5000     39.5708    180.8658     33.4958     79.3538
  1453.7500     40.2093    181.2914     33.7012     77.3746
  1454.0000     40.7938    181.7681     33.9105     76.1412
  1454.2500     41.3890    182.2823     34.1218     75.8683
  1454.5000     42.0689    182.8170     34.3740     75.7034
  1454.7500     42.8739    183.3487     34.7318     75.7242
  1455.0000     43.7753    183.8425     35.2436     76.0300
  1455.2500     44.7013    184.2488     35.8971     76.3176
  1455.5000     45.6019    184.5126     36.6108     76.2713
  1455.7500     46.4812    184.5982     37.2779     75.4712
  1456.0000     47.3643    184.5076     37.8331     72.8828
  1456.2500     48.2144    184.2781     38.2835     70.6275
  1456.5000     48.9878    183.9657     38.6777     67.4883
  1456.7500     49.7639    183.6307     39.0530     65.8664
  1457.0000     50.6258    183.3270     39.4111     63.8909
  1457.2500     51.4921    183.0906     39.7298     62.6000
  1457.5000     52.2351    182.9274     39.9927     60.7960
  1457.7500     52.8478    182.8109     40.2161     60.1737
  1458.0000     53.3581    182.6937     40.4557     60.9706
  1458.2500     53.7015    182.5250     40.7787     62.5755
  1458.5000     53.7756    182.2675     41.2058     65.1846
  1458.7500     53.5549    181.9115     41.6581     66.0311
  1459.0000     53.1077    181.4835     41.9574     65.2194
  1459.2500     52.4839    181.0439     41.9036     63.8017
  1459.5000     51.6264    180.6669     41.3920     62.4736
  1459.7500     50.4882    180.4103     40.4802     63.3989
  1460.0000     49.1834    180.2939     39.3398     68.1259
  1460.2500     47.8901    180.2957     38.1437     72.5132
  1460.5000     46.6862    180.3690     36.9820     78.0953
  1460.7500     45.5328    180.4677     35.8460     80.0321
  1461.0000     44.2597    180.5630     34.6625     80.4183
  1461.2500     42.5931    180.6396     33.3449     79.9360
  1461.5000     40.3401    180.6769     31.8365     79.9141
  1461.7500     37.5224    180.6435     30.1326     81.1980
  1462.0000     34.3947    180.5182     28.2789     86.0599
  1462.2500     31.4130    180.3165     26.3529     91.4632
  1462.5000     28.9526    180.0932     24.4404    102.0691
  1462.7500     26.9625    179.9174     22.6156    109.8028
  1463.0000     25.1200    179.8360     20.9292    120.6761
  1463.2500     23.2492    179.8516     19.4060    126.9303
  1463.5000     21.3976    179.9246     18.0501    134.8074
  1463.7500     19.6864    180.0004     16.8555    139.2545
  1464.0000     18.2058    180.0408     15.8135    144.9403
  1464.2500     16.9707    180.0420     14.9157    148.0696
  1464.5000     15.9349    180.0281     14.1520    151.6194
  1464.7500     15.0186    180.0296     13.5082    153.0848
  1465.0000     14.1483    180.0658     12.9649    153.7028
  1465.2500     13.3303    180.1447     12.4981    153.1555
  1465.5000     12.6242    180.2758     12.0841    151.8675
  1465.7500     12.0347    180.4763     11.7055    151.5177
  1466.0000     11.5361    180.7649     11.3571    152.5210
  1466.2500     11.1517    181.1522     11.0454    154.0229
  1466.5000     10.9311    181.6379     10.7830    156.7060
  1466.7500     10.9037    182.2111     10.5800    158.3765
  1467.0000     11.0666    182.8489     10.4389    160.1436
  1467.2500     11.3549    183.5161     10.3539    160.5643
  1467.5000     11.6177    184.1709     10.3144    160.1307
  1467.7500     11.7084    184.7742     10.3084    159.6285
  1468.0000     11.5962    185.2980     10.3244    159.7555
  1468.2500     11.3555    185.7344     10.3520    160.9016
  1468.5000     11.1241    186.0996     10.3810    164.0988
  1468.7500     11.0875    186.4289     10.4037    166.5318
  1469.0000     11.3467    186.7624     10.4171    168.8899
  1469.2500     11.7953    187.1313     10.4263    168.8250
  1469.5000     12.2566    187.5532     10.4430    166.3627
  1469.7500     12.6547    188.0345     10.4791    164.0899
  1470.0000     12.9556    188.5730     10.5389    161.9551
  1470.2500     13.1026    189.1562     10.6157    162.2070
  1470.5000     13.0849    189.7602     10.6975    164.6263
  1470.7500     12.9214    190.3558     10.7746    166.4783
  1471.0000     12.5891    190.9221     10.8447    168.1053
  1471.2500     12.1043    191.4562     10.9103    168.4730
  1471.5000     11.5989    191.9720     10.9757    168.9265
  1471.7500     11.2123    192.4868     11.0457    169.4280
  1472.0000     11.0016    193.0097     11.1261    169.9668
  1472.2500     10.9805    193.5364     11.2222    169.7750
  1472.5000     11.1282    194.0497     11.3342    168.5838
  1472.7500     11.3813    194.5256     11.4546    167.4265
  1473.0000     11.6985    194.9530     11.5688    165.1730
  1473.2500     12.0734    195.3631     11.6586    162.7926
  1473.5000     12.4450    195.8400     11.7082    156.4507
  1473.7500     12.7175    196.4833     11.7108    149.7840
  1474.0000     12.8327    197.3339     11.6719    136.3465
  1474.2500     12.7416    198.3247     11.6053    126.0428
  1474.5000     12.4230    199.3098     11.5238    111.3723
  1474.7500     11.9700    200.1495     11.4323    104.0734
  1475.0000     11.6005    200.7793     11.3298     99.2515
  1475.2500     11.5212    201.2179     11.2156    100.1823
  1475.5000     11.7471    201.5245     11.0928    105.6422
  1475.7500     12.0953    201.7488     10.9658    110.2365
  1476.0000     12.3427    201.9062     10.8357    116.2074
  1476.2500     12.3967    201.9883     10.6981    118.9061
  1476.5000     12.3114    201.9867     10.5465    121.0122
  1476.7500     12.1259    201.9050     10.3784    121.5522
  1477.0000     11.8045    201.7525     10.1989    121.9984
  1477.2500     11.3550    201.5325     10.0200    122.4727
  1477.5000     10.9032    201.2418      9.8546    123.7805
  1477.7500     10.6124    200.8852      9.7124    124.9541
  1478.0000     10.5267    200.4869      9.5975    126.4794
  1478.2500     10.5549    200.0815      9.5106    126.8952
  1478.5000     10.6186    199.6890      9.4524    126.5155
  1478.7500     10.7164    199.3025      9.4258    125.9082
  1479.0000     10.8446    198.9046      9.4345    124.8046
  1479.2500     10.9624    198.4893      9.4795    123.7734
