~Version Information
VERS.                      2.0: CWLS Log ASCII Standard - VERSION 2.0
WRAP.                       NO: One line per depth step
~Well Information Block
STRT.FT               970.0000: 
STOP.FT              1882.0000: 
STEP.FT                 0.2500: 
NULL.                -999.2500: 
COMP.          Petrogulf Corporation: COMPANY
WELL.             Norton 9-14R: WELL
FLD.           Purgatorie River: FIELD
LOC.           725' FSL & 1103' FWL: LOCATION
PROV.                 Colorado: PROVINCE
CNTY.               Las Animas: COUNTRY
SRVC.                Patterson: SERVICE COMPANY
DATE.          Thu Oct 06 16:10:47 2005: LOG DATE
UWI.                          : UNIQUE WELL ID
~Curve Information Block
DEPT.FT            0 000 00 00: Depth
SP.mV                         : DIL Spontaneous Potential
RILD.Ohm-m                    : DIL Deep Resistivity
RILM.Ohm-m                    : DIL Medium Resistivity
RLL3.Ohm-m                    : DIL Shallow Resistivity
GR.GAPI                       : Gamma Ray
~Parameter Information Block
~A  Depth        SP         RILD        RILM        RLL3         GR     
# ...
  1754.0000    157.0495     19.3161     21.9726     22.2892     43.1910
  1754.2500    156.2668     19.5703     22.3873     22.8425     42.6251
  1754.5000    155.5617     19.8711     22.7868     23.4489     40.7317
  1754.7500    154.8487     20.2101     23.1654     23.8976     39.5035
  1755.0000    154.0619     20.5695     23.5243     24.0439     38.8231
  1755.2500    153.1754     20.9271     23.8710     23.9040     39.1730
  1755.5000    152.1959     21.2635     24.2147     23.6588     39.9388
  1755.7500    151.1562     21.5684     24.5608     23.5631     40.0414
  1756.0000    150.1152     21.8432     24.9063     23.8083     39.5878
  1756.2500    149.1521     22.0963     25.2390     24.4315     39.3329
  1756.5000    148.3409     22.3366     25.5393     25.3304     39.4771
  1756.7500    147.7165     22.5686     25.7870     26.3405     39.6914
  1757.0000    147.2559     22.7927     25.9682     27.2820     39.4180
  1757.2500    146.8956     23.0099     26.0810     27.9546     38.5714
  1757.5000    146.5714     23.2244     26.1378     28.1565     36.4711
  1757.7500    146.2485     23.4423     26.1623     27.7747     34.9449
  1758.0000    145.9201     23.6695     26.1852     26.8833     33.3641
  1758.2500    145.5874     23.9109     26.2388     25.7422     33.0600
  1758.5000    145.2413     24.1741     26.3535     24.6773     33.5278
  1758.7500    144.8597     24.4689     26.5560     23.9382     34.1649
  1759.0000    144.4181     24.8001     26.8687     23.6311     35.2634
  1759.2500    143.9129     25.1558     27.3080     23.7400     36.0145
  1759.5000    143.3814     25.4971     27.8814     24.1993     37.1061
  1759.7500    142.9013     25.7585     28.5802     24.9786     37.7424
  1760.0000    142.5681     25.8562     29.3676     26.1361     38.2939
  1760.2500    142.4713     25.7053     30.1627     27.7861     38.2188
  1760.5000    142.6843     25.2384     30.8234     29.9896     37.4846
  1760.7500    143.2626     24.4230     31.1436     32.6532     36.9395
  1761.0000    144.2360     23.2736     30.8845     35.5316     36.9379
  1761.2500    145.5971     21.8555     29.8559     38.3200     37.8053
  1761.5000    147.2966     20.2758     28.0203     40.7022     40.2937
  1761.7500    149.2566     18.6591     25.5444     42.2413     42.5211
  1762.0000    151.3899     17.1144     22.7404     42.2348     46.6126
  1762.2500    153.6095     15.7121     19.9366     39.8821     49.8618
  1762.5000    155.8166     14.4792     17.3721     34.8832     55.3453
  1762.7500    157.8847     13.4107     15.1670     27.9833     59.3531
  1763.0000    159.6659     12.4849     13.3464     20.7869     66.3885
  1763.2500    161.0304     11.6749     11.8808     14.8685     72.3526
  1763.5000    161.9145     10.9558     10.7175     10.9684     84.2173
  1763.7500    162.3392     10.3074      9.8003      8.9037     94.2662
  1764.0000    162.3886      9.7171      9.0781      8.0368    111.2130
  1764.2500    162.1687      9.1806      8.5082      7.7622    121.8890
  1764.5000    161.7786      8.7008      8.0572      7.7138    133.4862
  1764.7500    161.3027      8.2851      7.6998      7.7402    137.2912
  1765.0000    160.8101      7.9405      7.4178      7.8012    137.9083
  1765.2500    160.3483      7.6705      7.1986      7.8830    136.3008
  1765.5000    159.9326      7.4739      7.0340      7.9636    133.5729
  1765.7500    159.5417      7.3456      6.9188      8.0186    132.8567
  1766.0000    159.1244      7.2779      6.8500      8.0410    134.2713
  1766.2500    158.6186      7.2621      6.8254      8.0495    136.3319
  1766.5000    157.9751      7.2884      6.8431      8.0768    139.4777
  1766.7500    157.1712      7.3464      6.9007      8.1478    141.1327
  1767.0000    156.2071      7.4252      6.9950      8.2730    143.1794
  1767.2500    155.0906      7.5142      7.1211      8.4680    144.3667
  1767.5000    153.8208      7.6042      7.2723      8.7719    145.4075
  1767.7500    152.3814      7.6886      7.4400      9.2251    145.2902
  1768.0000    150.7477      7.7641      7.6142      9.8117    143.9360
  1768.2500    148.9077      7.8310      7.7838     10.4253    142.4067
  1768.5000    146.8866      7.8920      7.9387     10.9095    139.2333
  1768.7500    144.7572      7.9511      8.0705     11.1464    136.6388
  1769.0000    142.6272      8.0114      8.1744     11.1168    132.8509
  1769.2500    140.6083      8.0741      8.2498     10.8921    131.1712
  1769.5000    138.7782      8.1372      8.2998     10.5769    131.1476
  1769.7500    137.1512      8.1964      8.3298     10.2561    132.9969
  1770.0000    135.6759      8.2462      8.3459      9.9895    137.4254
  1770.2500    134.2636      8.2818      8.3535      9.8415    140.2331
  1770.5000    132.8294      8.3010      8.3561      9.8773    142.6815
  1770.7500    131.3180      8.3053      8.3555     10.1028    143.0268
  1771.0000    129.7061      8.2999      8.3522     10.4229    141.8911
  1771.2500    127.9934      8.2933      8.3471     10.6933    139.9173
  1771.5000    126.1980      8.2966      8.3424     10.8254    134.9675
  1771.7500    124.3547      8.3225      8.3426     10.8403    130.9365
  1772.0000    122.5096      8.3847      8.3555     10.8267    126.0397
  1772.2500    120.7106      8.4961      8.3918     10.8475    124.7786
  1772.5000    118.9986      8.6663      8.4647     10.8768    126.3899
  1772.7500    117.4020      8.8991      8.5898     10.8288    129.0520
  1773.0000    115.9354      9.1908      8.7840     10.7013    133.4278
  1773.2500    114.6040      9.5305      9.0648     10.8121    135.7014
  1773.5000    113.4159      9.9014      9.4485     12.0894    137.6447
  1773.7500    112.3940     10.2842      9.9481     16.3282    137.9754
  1774.0000    111.5810     10.6602     10.5697     26.1132    136.2826
  1774.2500    111.0326     11.0159     11.3064     43.8213    132.5267
  1774.5000    110.7999     11.3461     12.1333     69.4013    121.0103
  1774.7500    110.9043     11.6578     13.0030     98.0421    109.4902
  1775.0000    111.3133     11.9692     13.8488    120.3976     89.4201
  1775.2500    111.9333     12.3030     14.5975    127.0746     76.8419
  1775.5000    112.6281     12.6767     15.1906    114.9203     63.3249
  1775.7500    113.2541     13.0927     15.6025     89.5513     59.3596
  1776.0000    113.6902     13.5343     15.8449     61.4173     61.5922
  1776.2500    113.8554     13.9675     15.9556     39.0692     67.8747
  1776.5000    113.7169     14.3484     15.9803     25.4668     82.2598
  1776.7500    113.2913     14.6314     15.9571     19.0398     93.7071
  1777.0000    112.6366     14.7789     15.9088     16.7525    111.5667
  1777.2500    111.8332     14.7707     15.8425     16.2337    122.8777
  1777.5000    110.9616     14.6147     15.7530     16.3142    137.0658
  1777.7500    110.0864     14.3466     15.6282     16.6967    143.7371
  1778.0000    109.2525     14.0179     15.4547     17.4280    149.2106
  1778.2500    108.4883     13.6771     15.2226     18.4494    150.4843
  1778.5000    107.8065     13.3575     14.9299     19.3781    150.3755
  1778.7500    107.1992     13.0763     14.5843     19.6520    149.5589
  1779.0000    106.6351     12.8410     14.2019     18.9534    147.9796
  1779.2500    106.0676     12.6558     13.8043     17.5018    147.3355
  1779.5000    105.4490     12.5241     13.4136     15.8811    147.7619
  1779.7500    104.7423     12.4452     13.0487     14.5779    148.5288
  1780.0000    103.9276     12.4107     12.7229     13.7168    148.4671
  1780.2500    102.9991     12.4040     12.4438     13.1783    146.9227
  1780.5000    101.9556     12.4056     12.2147     12.8478    142.9292
  1780.7500    100.7924     12.4019     12.0359     12.7053    139.9354
  1781.0000     99.5010     12.3912     11.9070     12.7403    135.8104
  1781.2500     98.0784     12.3807     11.8283     12.8614    133.5707
  1781.5000     96.5406     12.3781     11.8011     12.9159    131.5960
  1781.7500     94.9327     12.3848     11.8274     12.8037    131.5927
