~Version Information
VERS.                      2.0: CWLS Log ASCII Standard - VERSION 2.0
WRAP.                       NO: One line per depth step
~Well Information Block
STRT.FT                -8.0000: 
STOP.FT              2135.0000: 
STEP.FT                 0.2500: 
NULL.                -999.2500: 
COMP.          Pioneer Natural Resources: COMPANY
WELL.             AMX 13-13 Tr: WELL
FLD.           Purgatorie River: FIELD
LOC.           2401' FSL & 895' FWL--: LOCATION
PROV.                       CO: PROVINCE
CNTY.               Las Animas: COUNTRY
SRVC.          Patterson Wireline: SERVICE COMPANY
DATE.          Thu Jan 05 10:37:28 2006: LOG DATE
UWI.           05 071 08631 00: UNIQUE WELL ID
~Curve Information Block
DEPT.FT            0 000 00 00: Depth
CCL.                          : Casing Collar Locator
TT3.usec                      : CBL 3' Travel Time
AMP3.mV                       : CBL 3' Amplitude
GR.GAPI                       : Gamma Ray
~Parameter Information Block
~A  Depth       CCL         TT3         AMP3         GR     
# ...
   427.5000      0.0000    344.1902     18.0177    107.2905
   427.7500      0.0000    344.1278     18.0566    114.5686
   428.0000      0.0000    344.0544     18.0647    117.9087
   428.2500      0.0000    343.9764     18.0506    117.1683
   428.5000      0.0000    343.8901     18.0269    113.3779
   428.7500      0.0000    343.7950     18.0026    108.2946
   429.0000      0.0000    343.7007     17.9817    103.6857
   429.2500      0.0000    343.6190     17.9700    100.4032
   429.5000      0.0000    343.5498     17.9792     98.0863
   429.7500      0.0000    343.4803     18.0224     95.9362
   430.0000      0.0000    343.3967     18.1002     93.7492
   430.2500      0.0000    343.3010     18.1945     92.2338
   430.5000      0.0000    343.2151     18.2810     92.4978
   430.7500      0.0000    343.1651     18.3530     94.9790
   431.0000      0.0000    343.1621     18.4320     98.7039
   431.2500      0.0000    343.1993     18.5459    101.9625
   431.5000      0.0000    343.2650     18.6955    103.9374
   431.7500      0.0000    343.3535     18.8413    105.4148
   432.0000      0.0000    343.4672     18.9270    107.6736
   432.2500      0.0000    343.6119     18.9157    110.7291
   432.5000      0.0000    343.7901     18.8066    112.8562
   432.7500      0.0000    343.9979     18.6211    111.9371
   433.0000      0.0000    344.2207     18.3817    107.0792
   433.2500      0.0000    344.4316     18.1095     98.8998
   433.5000      0.0000    344.5988     17.8359     88.8091
   433.7500      0.0000    344.7036     17.6078     78.4474
   434.0000      0.0000    344.7491     17.4702     69.4500
   434.2500      0.0000    344.7516     17.4423     63.1044
   434.5000      0.0000    344.7232     17.5069     59.9894
   434.7500      0.0000    344.6643     17.6228     59.8846
   435.0000      0.0000    344.5695     17.7498     61.9877
   435.2500      0.0000    344.4403     17.8641     65.3298
   435.5000      0.0000    344.2864     17.9574     69.1819
   435.7500      0.0000    344.1130     18.0333     73.1209
   436.0000      0.0000    343.9156     18.1038     76.8904
   436.2500      0.0000    343.6966     18.1843     80.3330
   436.5000      0.0000    343.4833     18.2838     83.2389
   436.7500      0.0000    343.3199     18.3961     85.1956
   437.0000      0.0000    343.2340     18.4999     85.9150
   437.2500      0.0000    343.2119     18.5661     85.8767
   437.5000      0.0000    343.2103     18.5692     86.2701
   437.7500      0.0000    343.1930     18.4989     87.8257
   438.0000      0.0000    343.1544     18.3701     89.6674
   438.2500      0.0000    343.1145     18.2177     89.6701
   438.5000      0.0000    343.0989     18.0754     86.2511
   438.7500      0.0000    343.1577     17.9577     79.8049
   439.0000      0.0000    343.4160     17.8605     72.3854
   439.2500      0.0000    344.4235     17.7716     66.1866
   439.5000      0.0000    347.8893     17.6713     62.3384
   439.7500      0.0000    357.4665     17.5261     60.7283
   440.0000      0.0000    378.0166     17.2989     60.6135
   440.2500      0.0000    411.8804     16.9951     61.3231
   440.5000      0.0000    455.4661     16.6869     62.3870
   440.7500      0.0000    502.7858     16.4227     63.2675
   441.0000      0.0000    553.6227     16.0968     63.4714
   441.2500      0.0000    612.9735     15.5194     62.9929
   441.5000      0.0000    679.6340     14.6778     62.3352
   441.7500      0.0000    741.2533     13.8208     62.0750
   442.0000      0.0000    784.5709     13.2215     62.6181
   442.2500      0.0000    806.3276     12.9438     64.4089
   442.5000      0.0000    811.4733     12.8834     68.2451
   442.7500      0.0000    803.1376     12.9589     75.0868
   443.0000      0.0000    776.1093     13.2379     85.0763
   443.2500      0.0000    720.9499     13.9096     96.5164
   443.5000      0.0000    636.4821     15.0932    106.2135
   443.7500      0.0000    538.1501     16.6015    111.2745
   444.0000      0.0000    450.6632     17.9590    110.6093
   444.2500      0.0000    391.0781     18.7647    104.8368
   444.5000      0.0000    360.1431     18.9968     95.3833
   444.7500      0.0000    348.0461     18.9094     84.0072
   445.0000      0.0000    344.5712     18.7374     72.6974
   445.2500      0.0000    343.8848     18.5797     63.3937
   445.5000      0.0000    343.8334     18.4607     57.4855
   445.7500      0.0000    343.8854     18.3903     55.2709
   446.0000      0.0000    343.9429     18.3706     55.7757
   446.2500      0.0000    343.9757     18.3891     57.3866
   446.5000      0.0000    343.9863     18.4204     58.8645
   446.7500      0.0000    344.0219     18.4307     59.7576
   447.0000      0.0000    344.2402     18.3881     60.2259
   447.2500      0.0000    345.3175     18.2718     60.8716
   447.5000      0.0000    349.5251     18.0786     62.4534
   447.7500      0.0000    362.4380     17.8220     65.2372
   448.0000      0.0000    393.3575     17.5220     68.5856
   448.2500      0.0000    450.9514     17.1904     71.2649
   448.5000      0.0000    534.2232     16.8261     72.1404
   448.7500      0.0000    627.3230     16.4269     70.7694
   449.0000      0.0000    707.1491     16.0042     67.6720
   449.2500      0.0000    758.6439     15.5865     64.0694
   449.5000      0.0000    782.4200     15.2104     61.1513
   449.7500      0.0000    789.0174     14.9087     59.4899
   450.0000      0.0000    788.9312     14.7005     58.9339
   450.2500      0.0000    787.8860     14.5870     58.7787
   450.5000      0.0000    787.7781     14.5557     58.2251
   450.7500      0.0000    788.6732     14.5927     57.1080
   451.0000      0.0000    788.7517     14.6951     56.0646
   451.2500      0.0000    782.2572     14.8734     55.7205
   451.5000      0.0000    758.6033     15.1407     55.9265
   451.7500      0.0000    707.1827     15.5031     56.0013
   452.0000      0.0000    627.3619     15.9524     55.5555
   452.2500      0.0000    534.1914     16.4633     54.9573
   452.5000      0.0000    450.7685     16.9962     55.0823
   452.7500      0.0000    392.9698     17.5079     56.6357
   453.0000      0.0000    361.8603     17.9636     59.7427
   453.2500      0.0000    348.8395     18.3420     64.2362
   453.5000      0.0000    344.6232     18.6365     70.3440
   453.7500      0.0000    343.6042     18.8520     78.8930
   454.0000      0.0000    343.4729     18.9994     90.3644
   454.2500      0.0000    343.5381     19.0901    103.4160
   454.5000      0.0000    343.6403     19.1353    114.4859
   454.7500      0.0000    343.7238     19.1470    119.3994
   455.0000      0.0000    343.7648     19.1370    115.9689
   455.2500      0.0000    343.7574     19.1123    105.5025
   455.5000      0.0000    343.7191     19.0728     92.1540
   455.7500      0.0000    343.6788     19.0152     80.7625
   456.0000      0.0000    343.6570     18.9391     74.5205
   456.2500      0.0000    343.6577     18.8490     73.8099
   456.5000      0.0000    343.6781     18.7532     76.8987
   456.7500      0.0000    343.7191     18.6611     81.6282
   457.0000      0.0000    343.7799     18.5830     86.4285
   457.2500      0.0000    343.8409     18.5327     90.2545
   457.5000      0.0000    343.8620     18.5288     92.3697
   457.7500      0.0000    343.8085     18.5893     92.4604
   458.0000      0.0000    343.6805     18.7181     90.7032
   458.2500      0.0000    343.5120     18.8985     87.6534
   458.5000      0.0000    343.3418     19.1041     84.2124
   458.7500      0.0000    343.1885     19.3160     81.5083
   459.0000      0.0000    343.0485     19.5310     80.3476
   459.2500      0.0000    342.9060     19.7530     80.5537
   459.5000      0.0000    342.7444     19.9763     80.9545
   459.7500      0.0000    342.5604     20.1758     80.1915
   460.0000      0.0000    342.3731     20.3162     77.7253
   460.2500      0.0000    342.2128     20.3752     74.3306
   460.5000      0.0000    342.0986     20.3604     71.6189
   460.7500      0.0000    342.0297     20.3016     70.6384
