~Version Information
VERS.                      2.0: CWLS Log ASCII Standard - VERSION 2.0
WRAP.                       NO: One line per depth step
~Well Information Block
STRT.FT                -7.5000: 
STOP.FT              1572.0000: 
STEP.FT                 0.2500: 
NULL.                -999.2500: 
COMP.          Pioneer Natural Resources: COMPANY
WELL.          Galloway 32-13 Tr: WELL
FLD.           Purgatoire River: FIELD
LOC.           --1910' FNL & 2002' FEL----: LOCATION
PROV.                       CO: PROVINCE
CNTY.               Las Animas: COUNTRY
SRVC.          Patterson Wireline: SERVICE COMPANY
DATE.          Thu Nov 17 12:46:45 2005: LOG DATE
UWI.           05 071 08608 00: UNIQUE WELL ID
~Curve Information Block
DEPT.FT            0 000 00 00: Depth
CCL.                          : Casing Collar Locator
TT3.usec                      : CBL 3' Travel Time
AMP3.mV                       : CBL 3' Amplitude
GR.GAPI                       : Gamma Ray
~Parameter Information Block
~A  Depth       CCL         TT3         AMP3         GR     
# ...
    93.0000      0.0000    322.2575     27.4060     93.1126
    93.2500      0.0000    322.1493     27.7355     86.1619
    93.5000      0.0000    322.0634     28.0381     79.7272
    93.7500      0.0000    321.9949     28.2972     75.7387
    94.0000      0.0000    321.9475     28.4827     75.7968
    94.2500      0.0000    321.9332     28.5697     79.8220
    94.5000      0.0000    321.9623     28.5454     85.2989
    94.7500      0.0000    322.0361     28.4102     88.8006
    95.0000      0.0000    322.1432     28.1919     88.6401
    95.2500      0.0000    322.2618     27.9508     85.8617
    95.5000      0.0000    322.3687     27.7504     82.7755
    95.7500      0.0000    322.4520     27.6132     80.9356
    96.0000      0.0000    322.5154     27.5130     80.4223
    96.2500      0.0000    322.5697     27.4065     80.3924
    96.5000      0.0000    322.6203     27.2633     79.8588
    96.7500      0.0000    322.6628     27.0778     78.2907
    97.0000      0.0000    322.6873     26.8694     76.0706
    97.2500      0.0000    322.6882     26.6733     74.4370
    97.5000      0.0000    322.6699     26.5171     74.6452
    97.7500      0.0000    322.6465     26.3994     77.1011
    98.0000      0.0000    322.6331     26.2901     81.3370
    98.2500      0.0000    322.6388     26.1532     86.4320
    98.5000      0.0000    322.6660     25.9694     91.1507
    98.7500      0.0000    322.7133     25.7431     94.0476
    99.0000      0.0000    322.7768     25.4949     94.0815
    99.2500      0.0000    322.8501     25.2426     91.4523
    99.5000      0.0000    322.9279     24.9852     87.8311
    99.7500      0.0000    323.0070     24.7119     85.4904
   100.0000      0.0000    323.0809     24.4360     85.7555
   100.2500      0.0000    323.1387     24.2053     88.0747
   100.5000      0.0000    323.1727     24.0634     90.7532
   100.7500      0.0000    323.1873     23.9993     92.6683
   101.0000      0.0000    323.1975     23.9470     93.9769
   101.2500      0.0000    323.2179     23.8377     95.1938
   101.5000      0.0000    323.2537     23.6542     96.3095
   101.7500      0.0000    323.2978     23.4408     97.0851
   102.0000      0.0000    323.3380     23.2625     97.3947
   102.2500      0.0000    323.3668     23.1552     96.8367
   102.5000      0.0000    323.3858     23.1099     94.8259
   102.7500      0.0000    323.4038     23.0964     91.5788
   103.0000      0.0000    323.4288     23.0960     88.3986
   103.2500      0.0000    323.4624     23.1156     86.4904
   103.5000      0.0000    323.4976     23.1779     85.8017
   103.7500      0.0000    323.5210     23.3012     85.3134
   104.0000      0.0000    323.5175     23.4877     84.2712
   104.2500      0.0000    323.4773     23.7271     82.9563
   104.5000      0.0000    323.4030     24.0062     82.2315
   104.7500      0.0000    323.3111     24.3101     82.4213
   105.0000      0.0000    323.2238     24.6195     82.7760
   105.2500      0.0000    323.1570     24.9207     82.0787
   105.5000      0.0000    323.1120     25.2173     79.6703
   105.7500      0.0000    323.0777     25.5204     75.8575
   106.0000      0.0000    323.0420     25.8242     71.4298
   106.2500      0.0000    323.0038     26.1002     66.9559
   106.5000      0.0000    322.9713     26.3267     62.6724
   106.7500      0.0000    322.9480     26.5164     58.8855
   107.0000      0.0000    322.9263     26.7056     56.0448
   107.2500      0.0000    322.8931     26.9226     54.2928
   107.5000      0.0000    322.8386     27.1772     53.4026
   107.7500      0.0000    322.7573     27.4788     53.3616
   108.0000      0.0000    322.6485     27.8487     54.5578
   108.2500      0.0000    322.5202     28.3020     57.0317
   108.5000      0.0000    322.3914     28.8113     59.7007
   108.7500      0.0000    322.2853     29.2908     60.7205
   109.0000      0.0000    322.2177     29.6397     58.8982
   109.2500      0.0000    322.1900     29.8182     54.8596
   109.5000      0.0000    322.1906     29.8763     50.7547
   109.7500      0.0000    322.2013     29.8931     48.7506
   110.0000      0.0000    322.2069     29.8927     49.6622
   110.2500      0.0000    322.2028     29.8311     52.7076
   110.5000      0.0000    322.1938     29.6582     56.2764
   110.7500      0.0000    322.1901     29.3732     59.0050
   111.0000      0.0000    322.2006     29.0291     60.4384
   111.2500      0.0000    322.2270     28.7112     60.8065
   111.5000      0.0000    322.2614     28.5126     60.2634
   111.7500      0.0000    322.2901     28.5063     58.5917
   112.0000      0.0000    322.3009     28.7217     55.7230
   112.2500      0.0000    322.2854     29.1362     52.1932
   112.5000      0.0000    322.2406     29.6728     48.8448
   112.7500      0.0000    322.1737     30.2111     46.1936
   113.0000      0.0000    322.1037     30.6300     44.2554
   113.2500      0.0000    322.0526     30.8641     42.9284
   113.5000      0.0000    322.0334     30.9240     42.2308
   113.7500      0.0000    322.0458     30.8655     42.0796
   114.0000      0.0000    322.0826     30.7416     42.1287
   114.2500      0.0000    322.1386     30.5723     42.0036
   114.5000      0.0000    322.2176     30.3364     41.5217
   114.7500      0.0000    322.3306     29.9832     40.6260
   115.0000      0.0000    322.4852     29.4627     39.3685
   115.2500      0.0000    322.6748     28.7624     38.0652
   115.5000      0.0000    322.8759     27.9312     37.2526
   115.7500      0.0000    323.0583     27.0713     37.2974
   116.0000      0.0000    323.2018     26.2968     38.1461
   116.2500      0.0000    323.3045     25.6824     39.5495
   116.5000      0.0000    323.3905     25.2384     41.4254
   116.7500      0.0000    323.5228     24.9230     43.8439
   117.0000      0.0000    323.9320     24.6658     46.6557
   117.2500      0.0000    325.3581     24.3739     49.2609
   117.5000      0.0000    329.4688     23.9228     50.8658
   117.7500      0.0000    338.8488     23.1819     50.9747
   118.0000      0.0000    355.8187     22.1241     49.7178
   118.2500      0.0000    381.0023     20.9445     47.9405
   118.5000      0.0000    413.7880     19.9806     47.0259
   118.7500      0.0000    454.2303     19.4054     48.2108
   119.0000      0.0000    503.4256     19.0614     51.6061
   119.2500      0.0000    563.1823     18.7074     55.9154
   119.5000      0.0000    637.0190     18.3348     59.4126
   119.7500      0.0000    727.3342     18.1105     61.3320
   120.0000      0.0000    825.9709     18.0969     62.4676
   120.2500      2.0000    910.1365     18.1754     64.6313
   120.5000     -2.0000    954.4147     18.2057     69.3727
   120.7500      0.0000    947.8735     18.1923     76.8208
   121.0000      0.0000    898.3829     18.3215     85.6059
   121.2500      0.0000    822.6988     18.8504     93.9210
   121.5000      0.0000    735.2704     19.9072    100.6370
   121.7500      0.0000    644.6514     21.3887    105.5172
   122.0000      0.0000    555.9707     23.0720    108.5835
   122.2500      0.0000    474.9200     24.7501    109.4309
   122.5000      0.0000    409.0024     26.2274    107.3827
   122.7500      0.0000    363.8629     27.3229    102.2612
   123.0000      0.0000    338.8850     27.9761     94.6865
   123.2500      0.0000    327.9805     28.2881     85.9244
   123.5000      0.0000    324.2592     28.4175     78.0004
   123.7500      0.0000    323.2589     28.4642     73.3789
   124.0000      0.0000    323.0365     28.4462     73.3661
   124.2500      0.0000    322.9656     28.3570     76.7845
   124.5000      0.0000    322.9178     28.2250     80.8559
   124.7500      0.0000    322.8585     28.1153     83.4312
   125.0000      0.0000    322.7968     28.0833     84.0881
   125.2500      0.0000    322.7462     28.1574     83.3115
   125.5000      0.0000    322.7134     28.3551     81.4464
   125.7500      0.0000    322.6934     28.6787     78.9915
   126.0000      0.0000    322.6741     29.0873     77.2421
   126.2500      0.0000    322.6463     29.4983     77.5000
