~Version Information
VERS.                      2.0: CWLS Log ASCII Standard - VERSION 2.0
WRAP.                       NO: One line per depth step
~Well Information Block
STRT.FT               970.0000: 
STOP.FT              1882.0000: 
STEP.FT                 0.2500: 
NULL.                -999.2500: 
COMP.          Petrogulf Corporation: COMPANY
WELL.             Norton 9-14R: WELL
FLD.           Purgatorie River: FIELD
LOC.           725' FSL & 1103' FWL: LOCATION
PROV.                 Colorado: PROVINCE
CNTY.               Las Animas: COUNTRY
SRVC.                Patterson: SERVICE COMPANY
DATE.          Thu Oct 06 16:10:47 2005: LOG DATE
UWI.                          : UNIQUE WELL ID
~Curve Information Block
DEPT.FT            0 000 00 00: Depth
SP.mV                         : DIL Spontaneous Potential
RILD.Ohm-m                    : DIL Deep Resistivity
RILM.Ohm-m                    : DIL Medium Resistivity
RLL3.Ohm-m                    : DIL Shallow Resistivity
GR.GAPI                       : Gamma Ray
~Parameter Information Block
~A  Depth        SP         RILD        RILM        RLL3         GR     
# ...
  1390.0000    161.2810     29.6334     42.1960     54.1045     48.9967
  1390.2500    161.9893     29.4762     42.2646     55.8198     47.0847
  1390.5000    162.8668     29.0400     41.5778     58.7371     46.3567
  1390.7500    163.9082     28.3833     40.1231     62.0465     47.4021
  1391.0000    165.0788     27.6066     38.0144     64.1670     50.5796
  1391.2500    166.3255     26.8270     35.4821     63.6348     53.2816
  1391.5000    167.5951     26.1476     32.8126     59.8348     57.7338
  1391.7500    168.8534     25.6343     30.2712     53.0904     60.8505
  1392.0000    170.0908     25.3031     28.0503     44.3914     65.7411
  1392.2500    171.3084     25.1185     26.2563     35.1821     69.4624
  1392.5000    172.5002     25.0034     24.9235     27.1285     77.0373
  1392.7500    173.6495     24.8595     24.0356     21.7017     84.1963
  1393.0000    174.7401     24.5971     23.5424     19.8274     98.0069
  1393.2500    175.7710     24.1630     23.3687     21.8443    107.8417
  1393.5000    176.7659     23.5566     23.4182     27.5322    119.1339
  1393.7500    177.7730     22.8255     23.5790     35.8824    121.7347
  1394.0000    178.8501     22.0459     23.7357     44.8077    116.4166
  1394.2500    180.0398     21.2989     23.7904     51.4445    107.9845
  1394.5000    181.3498     20.6526     23.6833     53.3697     92.9377
  1394.7500    182.7509     20.1521     23.4044     50.0766     84.3665
  1395.0000    184.1886     19.8157     22.9868     43.3973     77.2094
  1395.2500    185.5966     19.6333     22.4873     36.2359     76.8148
  1395.5000    186.9081     19.5683     21.9655     30.6177     81.2130
  1395.7500    188.0679     19.5638     21.4687     26.8130     85.6191
  1396.0000    189.0467     19.5546     21.0259     24.0824     91.8450
  1396.2500    189.8444     19.4798     20.6465     21.8844     95.4603
  1396.5000    190.4809     19.2927     20.3221     20.2678    100.9629
  1396.7500    190.9779     18.9654     20.0282     19.4577    104.7843
  1397.0000    191.3448     18.4930     19.7268     19.4620    109.4137
  1397.2500    191.5813     17.8958     19.3716     20.1273    110.9142
  1397.5000    191.6906     17.2178     18.9174     21.3637    110.7712
  1397.7500    191.6895     16.5198     18.3333     23.1459    109.7294
  1398.0000    191.6041     15.8654     17.6164     25.2668    107.4962
  1398.2500    191.4630     15.3089     16.7966     27.1233    105.5130
  1398.5000    191.2944     14.8870     15.9317     27.8199    101.9387
  1398.7500    191.1160     14.6176     15.0914     26.6478     99.8868
  1399.0000    190.9124     14.5020     14.3412     23.6271     99.2889
  1399.2500    190.6250     14.5274     13.7322     19.6143    101.4810
  1399.5000    190.1750     14.6682     13.2984     15.8199    108.9060
  1399.7500    189.5081     14.8889     13.0589     13.1618    115.8801
  1400.0000    188.6226     15.1489     13.0231     12.0009    127.3060
  1400.2500    187.5658     15.4133     13.1946     12.3363    134.3302
  1400.5000    186.4137     15.6633     13.5743     14.0941    141.9345
  1400.7500    185.2523     15.9024     14.1617     17.1814    143.8308
  1401.0000    184.1612     16.1537     14.9563     21.3549    140.3761
  1401.2500    183.1992     16.4499     15.9572     26.2072    133.8999
  1401.5000    182.4020     16.8208     17.1628     31.4300    120.0013
  1401.7500    181.7940     17.2824     18.5678     37.1167    109.8809
  1402.0000    181.4053     17.8281     20.1558     43.7077     96.3658
  1402.2500    181.2753     18.4202     21.8830     51.5170     89.2634
  1402.5000    181.4375     18.9848     23.6531     60.2604     81.1088
  1402.7500    181.8985     19.4166     25.2891     69.0269     76.6858
  1403.0000    182.6295     19.6029     26.5267     76.6150     70.9505
  1403.2500    183.5733     19.4649     27.0656     81.7834     67.8720
  1403.5000    184.6552     18.9914     26.6924     83.2808     64.9706
  1403.7500    185.7914     18.2415     25.4091     80.0396     64.4387
  1404.0000    186.8934     17.3161     23.4521     71.7796     66.0334
  1404.2500    187.8739     16.3204     21.1752     59.5938     68.8540
  1404.5000    188.6486     15.3395     18.8990     45.8151     75.8603
  1404.7500    189.1404     14.4300     16.8310     33.0619     82.3320
  1405.0000    189.2935     13.6244     15.0663     23.1410     94.5854
  1405.2500    189.0973     12.9379     13.6234     16.5607    104.2999
  1405.5000    188.6025     12.3745     12.4820     12.8012    120.0668
  1405.7500    187.9117     11.9305     11.6079     10.9302    129.8805
  1406.0000    187.1523     11.5969     10.9662     10.1053    140.5563
  1406.2500    186.4450     11.3619     10.5274      9.7967    144.1660
  1406.5000    185.8755     11.2142     10.2690      9.8291    145.4043
  1406.7500    185.4688     11.1457     10.1747     10.4014    144.7768
  1407.0000    185.1814     11.1528     10.2335     12.1237    143.3326
  1407.2500    184.9288     11.2364     10.4371     15.9351    142.1528
  1407.5000    184.6377     11.4002     10.7781     22.6868    138.4263
  1407.7500    184.2861     11.6488     11.2487     32.3694    132.9212
  1408.0000    183.9075     11.9881     11.8396     43.4256    118.1803
  1408.2500    183.5694     12.4270     12.5407     52.8937    104.7733
  1408.5000    183.3477     12.9789     13.3437     57.6826     83.6216
  1408.7500    183.3015     13.6612     14.2451     56.2807     71.6883
  1409.0000    183.4414     14.4885     15.2490     49.6533     60.0874
  1409.2500    183.7096     15.4586     16.3666     40.6786     57.0480
  1409.5000    183.9933     16.5348     17.6104     32.6266     59.1133
  1409.7500    184.1774     17.6302     18.9816     27.8036     64.0710
  1410.0000    184.2017     18.6119     20.4521     27.1244     73.8862
  1410.2500    184.0869     19.3349     21.9418     30.4670     79.6643
  1410.5000    183.9218     19.6967     23.3046     37.0642     84.5259
  1410.7500    183.8272     19.6787     24.3391     45.4647     85.3731
  1411.0000    183.9122     19.3437     24.8422     53.3956     84.7961
  1411.2500    184.2341     18.7975     24.6935     58.1999     83.6848
  1411.5000    184.7811     18.1435     23.9171     57.9337     80.7376
  1411.7500    185.4843     17.4536     22.6702     52.3954     78.3047
  1412.0000    186.2466     16.7615     21.1680     43.2504     76.4675
  1412.2500    186.9718     16.0720     19.6030     33.1503     78.1852
  1412.5000    187.5872     15.3782     18.1039     24.5034     86.3671
  1412.7500    188.0587     14.6763     16.7343     18.6361     94.6963
  1413.0000    188.3931     13.9740     15.5122     15.6217    108.0046
  1413.2500    188.6237     13.2899     14.4317     14.6340    115.1551
  1413.5000    188.7842     12.6481     13.4796     14.5286    120.9961
  1413.7500    188.8890     12.0721     12.6452     14.3783    121.8706
  1414.0000    188.9335     11.5793     11.9228     13.7595    121.3967
  1414.2500    188.9137     11.1778     11.3111     12.7226    121.9309
  1414.5000    188.8446     10.8656     10.8103     11.5569    126.0972
  1414.7500    188.7645     10.6311     10.4190     10.5549    130.8520
  1415.0000    188.7246     10.4562     10.1327      9.9067    138.6158
  1415.2500    188.7733     10.3213      9.9432      9.7017    142.8871
  1415.5000    188.9389     10.2103      9.8387      9.9452    147.2188
  1415.7500    189.2160     10.1147      9.8051     10.5488    148.9622
  1416.0000    189.5610     10.0349      9.8271     11.3219    149.8534
  1416.2500    189.9004      9.9774      9.8904     12.0202    148.8509
  1416.5000    190.1501      9.9518      9.9831     12.4600    144.8581
  1416.7500    190.2344      9.9677     10.0969     12.6296    141.4529
  1417.0000    190.1021     10.0324     10.2276     12.6864    137.2796
  1417.2500    189.7379     10.1491     10.3743     12.8046    135.3441
  1417.5000    189.1699     10.3148     10.5381     12.9966    132.1432
  1417.7500    188.4670     10.5180     10.7206     13.0963    129.0916
