~Version Information
VERS.                      2.0: CWLS Log ASCII Standard - VERSION 2.0
WRAP.                       NO: One line per depth step
~Well Information Block
STRT.FT                10.0000: 
STOP.FT              1350.5000: 
STEP.FT                 0.1000: 
NULL.                -999.2500: 
COMP.          Pioneer Natural Resources: COMPANY
WELL.              Dicks 32-5R: WELL
FLD.           Purgatorie River: FIELD
LOC.           1485' FNL & 1684' FEL: LOCATION
PROV.                 Colorado: PROVINCE
CNTY.               Las Animas: COUNTRY
SRVC.                Patterson: SERVICE COMPANY
DATE.          Fri Dec 09 10:06:15 2005: LOG DATE
UWI.                          : UNIQUE WELL ID
~Curve Information Block
DEPT.FT            0 000 00 00: Depth
DCAL.in                       : CDL Caliper
RHOB.g/cc                     : CDL Bulk Density
RHOC.g/cc                     : CDL Density Correction
DPOR.pu                       : CDL Density Porosity
GR.GAPI                       : Gamma Ray
NPOR.pu                       : Neutron Porosity
~Parameter Information Block
~A  Depth       DCAL        RHOB        RHOC        DPOR         GR         NPOR    
# ...
   365.2000     -3.1029      2.3857      2.4286     -0.0053    103.1620     22.9184
   365.3000     -3.1029      2.3866      2.4164     -0.0053    105.8896     21.9491
   365.4000     -3.1029      2.3855      2.4278     -0.0053    106.7012     21.2045
   365.5000     -3.1029      2.3866      2.4723     -0.0053    106.9878     20.9432
   365.6000     -3.1029      2.3880      2.4052     -0.0052    106.4664     21.0482
   365.7000     -3.1029      2.3911      2.4209     -0.0052    105.3318     21.3565
   365.8000     -3.1029      2.3975      2.4064     -0.0051    104.0464     21.8881
   365.9000     -3.1029      2.4090      2.4442     -0.0048    101.4926     22.3349
   366.0000     -3.1029      2.4220      2.4749     -0.0046     96.7391     22.3542
   366.1000     -3.1029      2.4267      2.4647     -0.0045     94.9869     22.0556
   366.2000     -3.1029      2.4218      2.4418     -0.0046     98.6663     21.5853
   366.3000     -3.1029      2.4129      2.4629     -0.0047    100.6455     21.1388
   366.4000     -3.1029      2.4048      2.4439     -0.0049     97.9100     21.0030
   366.5000     -3.1029      2.4042      2.4448     -0.0049     94.5997     21.0489
   366.6000     -3.1029      2.4074      2.4787     -0.0049     94.6189     21.0076
   366.7000     -3.1029      2.4020      2.4380     -0.0050     97.5065     20.8312
   366.8000     -3.1029      2.3859      2.4437     -0.0053     97.1212     20.6355
   366.9000     -3.1029      2.3661      2.4474     -0.0057     92.0204     20.5183
   367.0000     -3.1029      2.3473      2.4517     -0.0061     88.1505     20.3321
   367.1000     -3.1029      2.3315      2.4089     -0.0064     87.6700     20.0043
   367.2000     -3.1029      2.3212      2.4452     -0.0066     88.5833     19.8522
   367.3000     -3.1029      2.3155      2.4262     -0.0067     89.3656     20.0649
   367.4000     -3.1029      2.3137      2.4320     -0.0067     90.1342     20.3174
   367.5000     -3.1029      2.3136      2.4553     -0.0067     91.8357     20.4361
   367.6000     -3.1029      2.3078      2.4237     -0.0068     94.3091     20.4889
   367.7000     -3.1029      2.2948      2.4052     -0.0071     97.0761     20.3833
   367.8000     -3.1029      2.2820      2.4091     -0.0074     99.3542     20.1564
   367.9000     -3.1029      2.2759      2.4144     -0.0075     99.4867     19.9313
   368.0000     -3.1029      2.2793      2.3746     -0.0074     97.3165     19.8258
   368.1000     -3.1029      2.2869      2.4213     -0.0073     95.5469     19.8674
   368.2000     -3.1029      2.2894      2.4207     -0.0072     95.7730     19.7580
   368.3000     -3.1029      2.2897      2.3842     -0.0072     97.4943     19.2876
   368.4000     -3.1029      2.2963      2.4133     -0.0071    100.1682     18.8058
   368.5000     -3.1029      2.3068      2.4180     -0.0069    102.0866     18.7209
   368.6000     -3.1029      2.3158      2.4203     -0.0067    101.0712     18.9675
   368.7000     -3.1029      2.3207      2.4212     -0.0066     98.1869     19.3505
   368.8000     -3.1029      2.3224      2.4379     -0.0066     96.1340     19.5270
   368.9000     -3.1029      2.3242      2.4210     -0.0065     95.5274     19.3394
   369.0000     -3.1029      2.3245      2.4513     -0.0065     95.0896     19.1681
   369.1000     -3.1029      2.3144      2.4224     -0.0067     94.0336     19.4745
   369.2000     -3.1029      2.2938      2.3953     -0.0071     93.9965     20.2276
   369.3000     -3.1029      2.2766      2.3796     -0.0075     95.6350     20.6520
   369.4000     -3.1029      2.2767      2.3694     -0.0075     96.8474     20.3870
   369.5000     -3.1029      2.2882      2.4199     -0.0072     95.2202     20.0235
   369.6000     -3.1029      2.2905      2.4176     -0.0072     92.3758     19.9796
   369.7000     -3.1029      2.2816      2.3685     -0.0074     93.7345     19.9725
   369.8000     -3.1029      2.2824      2.3858     -0.0074     98.9646     19.7088
   369.9000     -3.1029      2.3053      2.4214     -0.0069    101.8416     19.3429
   370.0000     -3.1029      2.3347      2.4916     -0.0063     99.8336     18.9835
   370.1000     -3.1029      2.3454      2.4858     -0.0061     96.2025     18.6716
   370.2000     -3.1029      2.3361      2.4520     -0.0063     94.0466     18.3246
   370.3000     -3.1029      2.3200      2.4518     -0.0066     93.1653     17.8804
   370.4000     -3.1029      2.3046      2.3991     -0.0069     93.5314     17.5262
   370.5000     -3.1029      2.2971      2.3923     -0.0071     95.9814     17.4902
   370.6000     -3.1029      2.2963      2.4272     -0.0071     98.0743     17.8518
   370.7000     -3.1029      2.2973      2.3611     -0.0071     95.5195     18.4230
   370.8000     -3.1029      2.3107      2.3880     -0.0068     90.0664     19.1201
   370.9000     -3.1029      2.3430      2.4193     -0.0061     88.6683     19.9305
   371.0000     -3.1029      2.3773      2.4566     -0.0055     91.9847     20.4476
   371.1000     -3.1029      2.3944      2.4651     -0.0051     94.8036     20.2713
   371.2000     -3.1029      2.3907      2.4475     -0.0052     94.5117     19.7899
   371.3000     -3.1029      2.3715      2.4919     -0.0056     92.0304     19.6526
   371.4000     -3.1029      2.3516      2.3823     -0.0060     90.4612     19.7435
   371.5000     -3.1029      2.3497      2.4204     -0.0060     92.0225     19.7090
   371.6000     -3.1029      2.3627      2.4176     -0.0057     94.7854     19.5154
   371.7000     -3.1029      2.3741      2.4416     -0.0055     95.1034     19.2667
   371.8000     -3.1029      2.3734      2.4320     -0.0055     93.2527     19.0503
   371.9000     -3.1029      2.3608      2.4349     -0.0058     91.7868     18.9283
   372.0000     -3.1029      2.3454      2.4386     -0.0061     91.4327     18.7139
   372.1000     -3.1029      2.3361      2.4101     -0.0063     92.1215     18.2641
   372.2000     -3.1029      2.3343      2.4230     -0.0063     93.7794     18.0895
   372.3000     -3.1029      2.3375      2.4016     -0.0063     95.5205     18.6724
   372.4000     -3.1029      2.3410      2.4373     -0.0062     96.0914     19.5736
   372.5000     -3.1029      2.3435      2.3988     -0.0061     95.3705     20.1356
   372.6000     -3.1029      2.3528      2.3956     -0.0059     94.2161     20.2500
   372.7000     -3.1029      2.3670      2.4407     -0.0057     92.9220     20.1570
   372.8000     -3.1029      2.3678      2.4322     -0.0056     91.3680     20.1559
   372.9000     -3.1029      2.3555      2.3996     -0.0059     89.8278     20.2218
   373.0000     -3.1029      2.3551      2.4034     -0.0059     89.9556     20.1221
   373.1000     -3.1029      2.3802      2.4076     -0.0054     92.6765     19.8668
   373.2000     -3.1029      2.4153      2.4866     -0.0047     96.6104     19.5959
   373.3000     -3.1029      2.4338      2.4865     -0.0043    100.0399     19.5086
   373.4000     -3.1029      2.4287      2.4581     -0.0044    100.7517     19.7283
   373.5000     -3.1029      2.4163      2.4547     -0.0047    100.1374     20.0225
   373.6000     -3.1029      2.4091      2.4520     -0.0048    101.9389     20.3291
   373.7000     -3.1029      2.4071      2.4568     -0.0049    103.4139     20.6526
   373.8000     -3.1029      2.4120      2.4476     -0.0048    100.8217     20.4889
   373.9000     -3.1029      2.4248      2.4623     -0.0045     97.4966     19.7061
   374.0000     -3.1029      2.4325      2.5083     -0.0044     97.4017     19.2410
   374.1000     -3.1029      2.4234      2.4425     -0.0045     98.5639     19.6725
   374.2000     -3.1029      2.4069      2.4302     -0.0049     99.3045     20.0293
   374.3000     -3.1029      2.4014      2.4038     -0.0050    101.8197     19.4555
   374.4000     -3.1029      2.4120      2.4503     -0.0048    105.9629     18.4945
   374.5000     -3.1029      2.4295      2.4374     -0.0044    110.6650     18.0580
   374.6000     -3.1029      2.4411      2.4740     -0.0042    114.5711     18.4038
   374.7000     -3.1029      2.4362      2.5008     -0.0043    113.2342     19.1691
