~Version Information
VERS.                      2.0: CWLS Log ASCII Standard - VERSION 2.0
WRAP.                       NO: One line per depth step
~Well Information Block
STRT.FT                -7.0000: 
STOP.FT              2517.5000: 
STEP.FT                 0.2500: 
NULL.                -999.2500: 
COMP.          Pioneer Natural Resources: COMPANY
WELL.          Horsefeathers 24-34: WELL
FLD.           Purgatoire River: FIELD
LOC.           183' FSL & 1570' FWL: LOCATION
CNTY.               Las Animas: COUNTY
SRVC.                         : SERVICE COMPANY
DATE.          Fri Mar 17 10:06:37 2006: LOG DATE
UWI.           05 071 08675 00: UNIQUE WELL ID
STAT.                       CO: STATE
~Curve Information Block
DEPT.FT            0 000 00 00: Depth
GR.GAPI                       : Gamma Ray
CCL.                          : Casing Collar Locator
TT3.usec                      : CBL 3' Travel Time
AMP3.mV                       : CBL 3' Amplitude
~Parameter Information Block
~A  Depth        GR         CCL         TT3         AMP3    
# ...
  1467.0000    121.7412      0.0000    680.9605      5.8433
  1467.2500    124.7818      0.0000    684.0145      5.9268
  1467.5000    128.4526      0.0000    687.3267      5.9727
  1467.7500    132.9934      0.0000    691.2762      5.9383
  1468.0000    138.8857      0.0000    695.7994      5.8000
  1468.2500    145.9872      0.0000    700.0256      5.5682
  1468.5000    152.6395      0.0000    703.0560      5.2865
  1468.7500    156.2103      0.0000    704.7853      5.0165
  1469.0000    155.0659      0.0000    705.7335      4.8119
  1469.2500    150.1637      0.0000    706.2516      4.6922
  1469.5000    144.5705      0.0000    706.2730      4.6372
  1469.7500    141.1868      0.0000    706.1531      4.6126
  1470.0000    140.6647      0.0000    707.3748      4.6049
  1470.2500    141.2333      0.0000    711.2618      4.6353
  1470.5000    140.4925      0.0000    716.6255      4.7441
  1470.7500    137.5435      0.0000    719.9280      4.9711
  1471.0000    133.6172      0.0000    718.9388      5.3525
  1471.2500    130.8803      0.0000    716.0428      5.9345
  1471.5000    130.5482      0.0000    717.3370      6.7775
  1471.7500    131.8937      0.0000    728.6836      7.9276
  1472.0000    133.0426      0.0000    753.0381      9.3626
  1472.2500    132.8553      0.0000    790.2992     10.9592
  1472.5000    131.9635      0.0000    836.8184     12.5218
  1472.7500    131.8638      0.0000    884.4675     13.8446
  1473.0000    133.0760      0.0000    923.3551     14.7468
  1473.2500    134.5517      0.0000    947.4228     15.0762
  1473.5000    134.9779      0.0000    956.1349     14.7373
  1473.7500    134.3930      0.0000    950.7170     13.7600
  1474.0000    134.2514      0.0000    931.3693     12.3354
  1474.2500    135.8543      0.0000    899.1794     10.7566
  1474.5000    138.8694      0.0000    859.0561      9.2949
  1474.7500    141.6004      0.0000    819.1595      8.1005
  1475.0000    142.5645      0.0000    786.9639      7.1839
  1475.2500    141.5103      0.0000    765.5720      6.4730
  1475.5000    139.2965      0.0000    753.2928      5.8922
  1475.7500    137.4944      0.0000    746.1582      5.4037
  1476.0000    137.7700      0.0000    740.6541      4.9990
  1476.2500    140.7792      0.0000    734.8508      4.6737
  1476.5000    145.6375      0.0000    727.8972      4.4176
  1476.7500    150.6641      0.0000    718.7006      4.2212
  1477.0000    154.3050      0.0000    704.5809      4.0786
  1477.2500    155.4161      0.0000    680.8354      3.9850
  1477.5000    153.5256      0.0000    642.6764      3.9392
  1477.7500    149.2792      0.0000    589.7474      3.9472
  1478.0000    144.2315      0.0000    529.4309      4.0152
  1478.2500    139.9943      0.0000    474.0852      4.1326
  1478.5000    137.6499      0.0000    433.7998      4.2654
  1478.7500    137.5802      0.0000    411.9099      4.3729
  1479.0000    139.0533      0.0000    406.4595      4.4329
  1479.2500    139.9720      0.0000    414.0903      4.4529
  1479.5000    138.0723      0.0000    431.9695      4.4592
  1479.7500    133.0824      0.0000    456.8499      4.4765
  1480.0000    127.2949      0.0000    483.7573      4.5158
  1480.2500    123.5074      0.0000    507.6678      4.5741
  1480.5000    122.6271      0.0000    526.8920      4.6387
  1480.7500    123.5419      0.0000    542.4237      4.6934
  1481.0000    124.9661      0.0000    553.9973      4.7243
  1481.2500    126.6994      0.0000    561.1523      4.7226
  1481.5000    128.9321      0.0000    568.3939      4.6829
  1481.7500    130.8312      0.0000    583.2770      4.6053
  1482.0000    130.5135      0.0000    607.4022      4.5004
  1482.2500    126.7210      0.0000    633.6774      4.3883
  1482.5000    120.3203      0.0000    653.8071      4.2913
  1482.7500    113.8378      0.0000    665.3602      4.2224
  1483.0000    109.4982      0.0000    671.1620      4.1809
  1483.2500    107.8169      0.0000    674.9271      4.1561
  1483.5000    107.8568      0.0000    678.5992      4.1397
  1483.7500    108.4542      0.0000    682.2804      4.1380
  1484.0000    109.1652      0.0000    685.1774      4.1752
  1484.2500    110.2042      0.0000    686.4941      4.2844
  1484.5000    111.4690      0.0000    686.0566      4.4962
  1484.7500    111.7965      0.0000    684.5043      4.8314
  1485.0000    109.6186      0.0000    682.8464      5.2949
  1485.2500    104.3072      0.0000    681.8944      5.8741
  1485.5000     96.6777      0.0000    682.3798      6.5408
  1485.7500     88.5995      0.0000    685.0556      7.2499
  1486.0000     82.4955      0.0000    689.6765      7.9354
  1486.2500     80.4385      0.0000    694.0591      8.5174
  1486.5000     82.8386      0.0000    695.4236      8.9233
  1486.7500     88.0259      0.0000    693.2529      9.1036
  1487.0000     93.4196      0.0000    690.0467      9.0354
  1487.2500     97.1753      0.0000    688.6137      8.7235
  1487.5000     98.9962      0.0000    689.0534      8.1995
  1487.7500     99.7270      0.0000    689.0038      7.5169
  1488.0000    100.2161      0.0000    686.4683      6.7474
  1488.2500    100.6020      0.0000    681.2730      5.9784
  1488.5000    100.6352      0.0000    673.1425      5.2966
  1488.7500    100.2834      0.0000    659.2361      4.7645
  1489.0000     99.8152      0.0000    635.7386      4.4040
  1489.2500     99.6069      0.0000    603.0052      4.2005
  1489.5000    100.0877      0.0000    567.4224      4.1156
  1489.7500    101.5231      0.0000    536.0159      4.1020
  1490.0000    103.5858      0.0000    511.3465      4.1171
  1490.2500    105.4137      0.0000    494.6467      4.1356
  1490.5000    106.4674      0.0000    490.4382      4.1519
  1490.7500    107.0976      0.0000    501.9955      4.1718
  1491.0000    107.8258      0.0000    523.6559      4.1996
  1491.2500    108.2797      0.0000    543.7793      4.2306
  1491.5000    107.5273      0.0000    556.2787      4.2520
  1491.7500    105.5001      0.0000    565.1927      4.2493
  1492.0000    103.4649      0.0000    577.0431      4.2143
  1492.2500    102.7966      0.0000    592.6796      4.1466
  1492.5000    103.6060      0.0000    608.5106      4.0455
  1492.7500    104.9062      0.0000    622.4432      3.9017
  1493.0000    105.9711      0.0000    635.6383      3.7122
  1493.2500    107.1129      0.0000    649.1149      3.5117
  1493.5000    109.0083      0.0000    660.5789      3.3741
  1493.7500    111.5573      0.0000    664.7811      3.3633
  1494.0000    113.6508      0.0000    656.6180      3.4854
  1494.2500    113.9746      0.0000    634.2670      3.6979
  1494.5000    112.0067      0.0000    600.2889      3.9489
  1494.7500    108.4400      0.0000    559.7856      4.1929
  1495.0000    104.6911      0.0000    517.4433      4.3917
  1495.2500    101.8803     -2.0000    477.1186      4.5234
  1495.5000    100.3502      1.1691    443.8672      4.5854
  1495.7500    100.1448      0.0000    424.3415      4.5844
  1496.0000    101.5032      0.0000    424.1833      4.5309
  1496.2500    104.4354      0.0000    444.3552      4.4422
  1496.5000    107.9636      0.0000    477.6490      4.3384
  1496.7500    110.4356      0.0000    508.3033      4.2425
  1497.0000    110.9171      0.0000    519.1568      4.1842
  1497.2500    109.9216      0.0000    503.5232      4.1868
  1497.5000    108.4746      0.0000    470.8181      4.2380
  1497.7500    106.8072      0.0000    440.0202      4.2932
  1498.0000    104.4063      0.0000    427.9294      4.3126
  1498.2500    101.2165      0.0000    441.6447      4.2884
  1498.5000     98.2960      0.0000    477.0513      4.2393
  1498.7500     97.1456      0.0000    520.9835      4.1919
  1499.0000     98.5136      0.0000    557.0497      4.1668
  1499.2500    101.7768      0.0000    574.6624      4.1721
  1499.5000    105.3042      0.0000    576.2080      4.2038
  1499.7500    107.6257      0.0000    575.6853      4.2514
  1500.0000    108.5013      0.0000    587.4114      4.3030
  1500.2500    108.7072      0.0000    613.7484      4.3498
