~Version Information
VERS.                      2.0: CWLS Log ASCII Standard - VERSION 2.0
WRAP.                       NO: One line per depth step
~Well Information Block
STRT.FT                10.0000: 
STOP.FT               959.2500: 
STEP.FT                 0.2500: 
NULL.                -999.2500: 
COMP.          XTO Energy Inc.: COMPANY
WELL.          Golden Eagle 20-04: WELL
FLD.           Purgatrorie River: FIELD
LOC.           702' FNL & 487' FWL--: LOCATION
STAT.                       CO: State
CNTY.               Las Animas: COUNTY
CTRY. USA : Country
SECT. 20 : Section
TOWN. 33S : Township
RANG. 67W : Range
SRVC.          Patterson Wireline: SERVICE COMPANY
DATE.          Mon Dec 05 08:42:44 2005: LOG DATE
API.           05 071 08599 00: UNIQUE WELL ID
~Curve Information Block
DEPT.FT            0 000 00 00: Depth
TEMP.degF                     : Downhole Temperature
DTMP.degF                     : Delta Temperature
~Parameter Information Block
~A  Depth       TEMP        DTMP    
# ...
   902.0000     72.7348      0.0406
   902.2500     72.7456      0.0394
   902.5000     72.7566      0.0395
   902.7500     72.7648      0.0397
   903.0000     72.7757      0.0412
   903.2500     72.7840      0.0399
   903.5000     72.7950      0.0400
   903.7500     72.8061      0.0414
   904.0000     72.8171      0.0415
   904.2500     72.8255      0.0416
   904.5000     72.8365      0.0417
   904.7500     72.8477      0.0418
   905.0000     72.8588      0.0405
   905.2500     72.8672      0.0419
   905.5000     72.8785      0.0420
   905.7500     72.8897      0.0421
   906.0000     72.8982      0.0407
   906.2500     72.9094      0.0421
   906.5000     72.9206      0.0420
   906.7500     72.9319      0.0406
   907.0000     72.9403      0.0418
   907.2500     72.9514      0.0417
   907.5000     72.9625      0.0402
   907.7500     72.9708      0.0399
   908.0000     72.9818      0.0411
   908.2500     72.9928      0.0408
   908.5000     73.0009      0.0392
   908.7500     73.0117      0.0403
   909.0000     73.0224      0.0399
   909.2500     73.0331      0.0395
   909.5000     73.0410      0.0392
   909.7500     73.0514      0.0387
   910.0000     73.0617      0.0382
   910.2500     73.0717      0.0365
   910.5000     73.0793      0.0372
   910.7500     73.0892      0.0365
   911.0000     73.0989      0.0346
   911.2500     73.1061      0.0337
   911.5000     73.1154      0.0338
   911.7500     73.1244      0.0326
   912.0000     73.1309      0.0303
   912.2500     73.1392      0.0298
   912.5000     73.1470      0.0274
   912.7500     73.1543      0.0255
   913.0000     73.1595      0.0246
   913.2500     73.1658      0.0225
   913.5000     73.1702      0.0200
   913.7500     73.1754      0.0179
   914.0000     73.1801      0.0167
   914.2500     73.1842      0.0146
   914.5000     73.1870      0.0131
   914.7500     73.1902      0.0112
   915.0000     73.1928      0.0093
   915.2500     73.1950      0.0075
   915.5000     73.1964      0.0062
   915.7500     73.1978      0.0045
   916.0000     73.1988      0.0026
   916.2500     73.1993      0.0009
   916.5000     73.1995     -0.0012
   916.7500     73.1991     -0.0039
   917.0000     73.1980     -0.0062
   917.2500     73.1967     -0.0096
   917.5000     73.1940     -0.0124
   917.7500     73.1901     -0.0165
   918.0000     73.1864     -0.0209
   918.2500     73.1802     -0.0259
   918.5000     73.1748     -0.0292
   918.7500     73.1662     -0.0340
   919.0000     73.1562     -0.0395
   919.2500     73.1449     -0.0443
   919.5000     73.1357     -0.0500
   919.7500     73.1221     -0.0522
   920.0000     73.1074     -0.0564
   920.2500     73.0916     -0.0577
   920.5000     73.0748     -0.0629
   920.7500     73.0618     -0.0663
   921.0000     73.0435     -0.0669
   921.2500     73.0294     -0.0699
   921.5000     73.0099     -0.0730
   921.7500     72.9895     -0.0785
   922.0000     72.9737     -0.0785
   922.2500     72.9518     -0.0842
   922.5000     72.9289     -0.0875
   922.7500     72.9049     -0.0873
   923.0000     72.8865     -0.0933
   923.2500     72.8611     -0.0965
   923.5000     72.8348     -0.0998
   923.7500     72.8148     -0.0989
   924.0000     72.7871     -0.1051
   924.2500     72.7588     -0.1081
   924.5000     72.7293     -0.1111
   924.7500     72.7070     -0.1132
   925.0000     72.6763     -0.1159
   925.2500     72.6448     -0.1140
   925.5000     72.6127     -0.1159
   925.7500     72.5883     -0.1214
   926.0000     72.5554     -0.1224
   926.2500     72.5308     -0.1190
   926.5000     72.4975     -0.1192
   926.7500     72.4643     -0.1229
   927.0000     72.4315     -0.1182
   927.2500     72.4068     -0.1213
   927.5000     72.3744     -0.1198
   927.7500     72.3425     -0.1179
   928.0000     72.3190     -0.1122
   928.2500     72.2881     -0.1138
   928.5000     72.2580     -0.1110
   928.7500     72.2285     -0.1049
   929.0000     72.2071     -0.1057
   929.2500     72.1792     -0.1025
   929.5000     72.1524     -0.0991
   929.7500     72.1327     -0.0930
   930.0000     72.1075     -0.0933
   930.2500     72.0831     -0.0873
   930.5000     72.0597     -0.0841
   930.7500     72.0425     -0.0841
   931.0000     72.0206     -0.0787
   931.2500     72.0047     -0.0757
   931.5000     71.9842     -0.0727
   931.7500     71.9644     -0.0726
   932.0000     71.9501     -0.0678
   932.2500     71.9317     -0.0676
   932.5000     71.9142     -0.0647
   932.7500     71.8973     -0.0600
   933.0000     71.8850     -0.0594
   933.2500     71.8695     -0.0561
   933.5000     71.8548     -0.0514
   933.7500     71.8444     -0.0478
   934.0000     71.8314     -0.0458
   934.2500     71.8196     -0.0415
   934.5000     71.8114     -0.0369
   934.7500     71.8018     -0.0335
   935.0000     71.7935     -0.0284
   935.2500     71.7865     -0.0231
   935.5000     71.7809     -0.0188
   935.7500     71.7775     -0.0125
   936.0000     71.7746     -0.0064
   936.2500     71.7734      0.0013
   936.5000     71.7738      0.0098
   936.7500     71.7769      0.0191
   937.0000     71.7808      0.0298
   937.2500     71.7890      0.0383
   937.5000     71.8006      0.0505
   937.7500     71.8157      0.0593
   938.0000     71.8341      0.0731
   938.2500     71.8501      0.0864
   938.5000     71.8749      0.1000
   938.7500     71.8955      0.1080
   939.0000     71.9269      0.1210
   939.2500     71.9619      0.1370
   939.5000     72.0006      0.1505
   939.7500     72.0317      0.3971
   940.0000     72.0762      0.5518
   940.2500     72.1241      0.7289
   940.5000     72.1759      0.8400
   940.7500     72.6897      0.9756
   941.0000     73.0305      1.3233
   941.2500     73.4196      1.5418
   941.5000     73.6805      1.7906
   941.7500     73.9829      1.7694
   942.0000     74.7227      1.8002
   942.2500     75.2077      1.7396
   942.5000     75.7571      1.7647
   942.7500     76.2286      1.7490
   943.0000     76.6308      1.4987
   943.2500     76.8987      1.3621
   943.5000     77.2099      1.1608
   943.7500     77.4808      1.2213
   944.0000     77.7201      1.2170
   944.2500     77.9318      1.3038
   944.5000     78.0788      1.3353
   944.7500     78.6712      1.3598
   945.0000     79.0647      1.3462
   945.2500     79.5063      1.3616
   945.5000     79.8806      1.3924
   945.7500     80.2005      1.1665
   946.0000     80.4125      1.0509
   946.2500     80.6550      0.9014
   946.5000     80.8636      0.7628
   946.7500     81.0043      0.6598
   947.0000     81.1664      0.6050
   947.2500     81.3091      0.5299
   947.5000     81.4061      0.4677
   947.7500     81.5201      0.4268
   948.0000     81.6225      0.3818
   948.2500     81.7148      0.3443
   948.5000     81.7991      0.3273
   948.7500     81.8578      0.2931
   949.0000     81.9301      0.2707
   949.2500     81.9977      0.2521
   949.5000     82.0607      0.2298
   949.7500     82.1063      0.2262
   950.0000     82.1639      0.2151
   950.2500     82.2189      0.1997
   950.5000     82.2587      0.1922
   950.7500     82.3102      0.1929
   951.0000     82.3602      0.1814
   951.2500     82.3971      0.1767
   951.5000     82.4452      0.1793
   951.7500     82.4920      0.1702
   952.0000     82.5267      0.1673
   952.2500     82.5722      0.1707
   952.5000     82.6173      0.1682
   952.7500     82.6507      0.1662
   953.0000     82.6948      0.1648
   953.2500     82.7385      0.1632
   953.5000     82.7815      0.1617
   953.7500     82.8244      0.1658
   954.0000     82.8564      0.1644
   954.2500     82.8987      0.1579
   954.5000     82.9406      0.1569
   954.7500     82.9823      0.1557
   955.0000     83.0236      0.1547
   955.2500     83.0543      0.1537
   955.5000     83.0953      0.1477
   955.7500     83.1358      0.1467
   956.0000     83.1659      0.1456
   956.2500     83.2062      0.1498
   956.5000     83.2361      0.1438
   956.7500     83.2756      0.1428
   957.0000     83.3148      0.1421
   957.2500     83.3539      0.1410
   957.5000     83.3830      0.1448
