~Version Information
VERS.                      2.0: CWLS Log ASCII Standard - VERSION 2.0
WRAP.                       NO: One line per depth step
~Well Information Block
STRT.FT                15.0000: 
STOP.FT              1532.0000: 
STEP.FT                 0.2500: 
NULL.                -999.2500: 
COMP.          Pioneer Natural Resources: COMPANY
WELL.           Bobsy 34-11 Tr: WELL
FLD.           Purgatoire River: FIELD
LOC.           514' FSL & 1784' FEL: LOCATION
PROV.                 Colorado: PROVINCE
CNTY.               Las Animas: COUNTRY
SRVC.                Patterson: SERVICE COMPANY
DATE.          Fri Jul 22 12:22:14 2005: LOG DATE
UWI.           05 071 08438 00: UNIQUE WELL ID
~Curve Information Block
DEPT.FT            0 000 00 00: Depth
GR.GAPI                       : Gamma Ray
CCL.                          : Casing Collar Locator
TT3.usec                      : CBL 3' Travel Time
AMP3.mV                       : CBL 3' Amplitude
~Parameter Information Block
~A  Depth        GR         CCL         TT3         AMP3    
# ...
  1187.5000    144.1157      0.0000    386.8453     10.9317
  1187.7500    139.8592      0.0000    386.6411     10.8803
  1188.0000    134.6270      0.0000    386.8179     10.8294
  1188.2500    129.3208      0.0000    387.8939     10.7931
  1188.5000    125.6708      0.0000    390.5994     10.7785
  1188.7500    125.4629      0.0000    395.2158     10.7842
  1189.0000    129.0844      0.0000    400.7214     10.8065
  1189.2500    134.7160      0.0000    404.7972     10.8430
  1189.5000    139.2368      0.0000    405.4331     10.8871
  1189.7500    140.3504      0.0000    402.9903     10.9211
  1190.0000    138.0565      0.0000    400.6407     10.9175
  1190.2500    134.2459      0.0000    403.1094     10.8494
  1190.5000    131.0744      0.0000    415.2345     10.6993
  1190.7500    129.7072      0.0000    440.7508     10.4568
  1191.0000    130.3390      0.0000    480.5172     10.0985
  1191.2500    132.9831      0.0000    530.5936      9.5774
  1191.5000    137.6989      0.0000    582.2029      8.8536
  1191.7500    143.7731      0.0000    625.2798      7.9572
  1192.0000    148.9572      0.0000    654.3818      7.0142
  1192.2500    150.1814      0.0000    672.2298      6.1883
  1192.5000    145.5070      0.0000    687.2085      5.5809
  1192.7500    135.4494      0.0000    706.8229      5.1787
  1193.0000    122.4150      0.0000    732.1277      4.8877
  1193.2500    109.1168      0.0000    756.5341      4.6087
  1193.5000     97.4047      0.0000    770.2209      4.2937
  1193.7500     87.9488      0.0000    767.8077      3.9525
  1194.0000     80.5737      0.0000    752.7700      3.6322
  1194.2500     74.9081      0.0000    734.5120      3.3920
  1194.5000     70.7728      0.0000    721.6102      3.2834
  1194.7500     68.1698      0.0000    717.5794      3.3329
  1195.0000     67.4230      0.0000    721.1680      3.5327
  1195.2500     69.5332      0.0000    729.0716      3.8447
  1195.5000     75.8561      0.0000    738.4142      4.2157
  1195.7500     86.7722      0.0000    747.6594      4.5984
  1196.0000    100.6031      0.0000    756.0989      4.9734
  1196.2500    114.4088      0.0000    762.5623      5.3623
  1196.5000    126.2604      0.0000    763.6155      5.8205
  1196.7500    136.2762      0.0000    752.2697      6.4096
  1197.0000    144.9616      0.0000    719.8878      7.1599
  1197.2500    151.2522      0.0000    662.2609      8.0405
  1197.5000    153.1202      0.0000    585.5223      8.9584
  1197.7500    149.7682      0.0000    505.2930      9.7975
  1198.0000    142.5246      0.0000    438.3789     10.4741
  1198.2500    133.8911      0.0000    394.3450     10.9617
  1198.5000    126.3027      0.0000    373.6733     11.2733
  1198.7500    121.4527      0.0000    371.6451     11.4298
  1199.0000    119.9119      0.0000    383.0811     11.4503
  1199.2500    121.0512      0.0000    405.4928     11.3597
  1199.5000    123.5409      0.0000    440.1916     11.1971
  1199.7500    126.0175      0.0000    490.0898     11.0118
  1200.0000    127.3876      0.0000    554.0355     10.8484
  1200.2500    127.0161      0.0000    622.4794     10.7284
  1200.5000    125.1560      0.0000    680.7007     10.6443
  1200.7500    123.1522      0.0000    717.9539     10.5738
  1201.0000    122.8006      0.0000    733.4447     10.5006
  1201.2500    125.1495      0.0000    734.0112     10.4257
  1201.5000    129.6977      0.0000    727.5911     10.3645
  1201.7500    134.7028      0.0000    718.9714     10.3380
  1202.0000    138.3703      0.0000    709.9525     10.3585
  1202.2500    139.8269      0.0000    701.5345     10.4183
  1202.5000    138.9892      0.0000    695.0927     10.4895
  1202.7500    135.8014      0.0000    691.9351     10.5383
  1203.0000    130.0980      0.0000    692.6026     10.5455
  1203.2500    122.2928      0.0000    696.9701     10.5170
  1203.5000    113.6844      0.0000    704.8295     10.4757
  1203.7500    105.6199      0.0000    715.9575     10.4436
  1204.0000     98.5078      0.0000    729.1247     10.4307
  1204.2500     92.0671      0.0000    741.1097     10.4375
  1204.5000     86.5153      0.0000    747.5502     10.4588
  1204.7500     83.0328      0.0000    745.7985     10.4828
  1205.0000     82.7718      0.0000    737.5934     10.4928
  1205.2500     85.5225      0.0000    728.7766     10.4793
  1205.5000     89.5707      0.0000    725.3239     10.4479
  1205.7500     92.9353      0.0000    728.8845     10.4136
  1206.0000     94.7530      0.0000    736.2625     10.3875
  1206.2500     95.5097      0.0000    742.8244     10.3693
  1206.5000     96.0407      0.0000    745.5565     10.3548
  1206.7500     96.5446      0.0000    743.3506     10.3443
  1207.0000     96.7427      0.0000    736.1486     10.3423
  1207.2500     96.8235      0.0000    725.0468     10.3511
  1207.5000     97.7815      0.0000    713.0331     10.3714
  1207.7500    100.7035      0.0000    704.2562     10.4051
  1208.0000    105.9744      0.0000    701.3561     10.4545
  1208.2500    113.0985      0.0000    703.6001     10.5195
  1208.5000    120.8900      0.0000    708.3974     10.5949
  1208.7500    127.9275      0.0000    714.6210     10.6580
  1209.0000    133.2589      0.0000    723.4680     10.6505
  1209.2500    136.8296      0.0000    735.8685     10.4783
  1209.5000    139.2822      0.0000    750.2225     10.0458
  1209.7500    141.4999      0.0000    763.3221      9.3278
  1210.0000    144.1165      0.0000    772.7307      8.4439
  1210.2500    146.8533      0.0000    778.0530      7.6376
  1210.5000    148.2504      0.0000    780.7352      7.1126
  1210.7500    146.7130      0.0000    782.7647      6.8781
  1211.0000    142.1421      0.0000    784.5737      6.8002
  1211.2500    136.2388      0.0000    784.1129      6.7750
  1211.5000    131.1897      0.0000    779.3895      6.7875
  1211.7500    128.4539      0.0000    772.5319      6.8352
  1212.0000    128.5648     -3.0000    769.6332      6.8791
  1212.2500    131.2410      0.0000    774.7206      6.8732
  1212.5000    135.3636      0.0000    785.1755      6.8219
  1212.7500    139.3265      0.0000    795.0865      6.8146
  1213.0000    141.8697      0.0000    801.1363      6.9862
  1213.2500    142.5765      0.0000    802.3964      7.3938
  1213.5000    141.6185      0.0000    797.0604      7.9391
  1213.7500    139.4148      0.0000    784.1398      8.4610
  1214.0000    136.7097      0.0000    767.3764      8.8885
  1214.2500    134.5990      0.0000    753.6098      9.2494
  1214.5000    134.0352      0.0000    747.3547      9.5662
  1214.7500    135.2638      0.0000    748.5147      9.8141
  1215.0000    137.8340      0.0000    754.0349      9.9688
  1215.2500    141.0969      0.0000    760.2603     10.0419
  1215.5000    144.5701      0.0000    764.3926     10.0627
  1215.7500    147.8611      0.0000    765.0428     10.0544
  1216.0000    150.3195      0.0000    762.1540     10.0335
  1216.2500    150.9207      0.0000    756.8182     10.0106
  1216.5000    148.7056      0.0000    751.1505      9.9807
  1216.7500    143.4392      0.0000    747.7048      9.9201
  1217.0000    135.8592      0.0000    748.2362      9.8007
  1217.2500    127.4147      0.0000    752.5148      9.6109
  1217.5000    119.8371      0.0000    758.4034      9.3636
  1217.7500    114.7184      0.0000    763.4601      9.0926
  1218.0000    113.0850      0.0000    766.5247      8.8354
  1218.2500    114.9494      0.0000    767.8357      8.6133
  1218.5000    119.1029      0.0000    768.1371      8.4195
  1218.7500    123.6178      0.0000    767.9980      8.2287
  1219.0000    126.9834      0.0000    767.6966      8.0185
  1219.2500    128.8169      0.0000    767.3221      7.7894
  1219.5000    129.3070      0.0000    766.8221      7.5716
  1219.7500    128.2693      0.0000    766.0113      7.4126
  1220.0000    125.3702      0.0000    764.6543      7.3469
  1220.2500    121.2190      0.0000    762.7733      7.3712
  1220.5000    117.4317      0.0000    760.9517      7.4479
  1220.7500    115.3419      0.0000    760.1014      7.5308
