~Version Information
VERS.                      2.0: CWLS Log ASCII Standard - VERSION 2.0
WRAP.                       NO: One line per depth step
~Well Information Block
STRT.FT               660.0000: 
STOP.FT              2491.0000: 
STEP.FT                 0.2500: 
NULL.                -999.2500: 
COMP.          Petrogulf Corporation: COMPANY
WELL.          Montoya 18-11V-B: WELL
FLD.           Purgatorie River: FIELD
LOC.           848' FNL & 619' FWL: LOCATION
PROV.                 Colorado: PROVINCE
CNTY.               Las Animas: COUNTRY
SRVC.                Patterson: SERVICE COMPANY
DATE.          Wed Oct 05 04:34:17 2005: LOG DATE
UWI.                          : UNIQUE WELL ID
~Curve Information Block
DEPT.FT            0 000 00 00: Depth
SP.mV                         : DIL Spontaneous Potential
RILD.Ohm-m                    : DIL Deep Resistivity
RILM.Ohm-m                    : DIL Medium Resistivity
RLL3.Ohm-m                    : DIL Shallow Resistivity
GR.GAPI                       : Gamma Ray
~Parameter Information Block
~A  Depth        SP         RILD        RILM        RLL3         GR     
# ...
  1024.0000   2000.0000     29.9286     32.5345   2000.0000    105.5612
  1024.2500   2000.0000     30.6664     33.3866   2000.0000    100.7594
  1024.5000   2000.0000     31.2755     33.9700   2000.0000     97.0237
  1024.7500   2000.0000     31.7262     34.2775   2000.0000     97.6881
  1025.0000   2000.0000     31.9943     34.3250   2000.0000    102.1755
  1025.2500   2000.0000     32.0668     34.1478   2000.0000    105.9147
  1025.5000   2000.0000     31.9485     33.7937   2000.0000    110.5987
  1025.7500   2000.0000     31.6610     33.3135   2000.0000    112.8045
  1026.0000   2000.0000     31.2354     32.7521   2000.0000    115.1658
  1026.2500   2000.0000     30.7063     32.1411   2000.0000    116.3678
  1026.5000   2000.0000     30.1110     31.4958   2000.0000    117.7324
  1026.7500   2000.0000     29.4914     30.8167   2000.0000    118.3301
  1027.0000   2000.0000     28.8923     30.0957   2000.0000    118.6701
  1027.2500   2000.0000     28.3535     29.3255   2000.0000    118.4125
  1027.5000   2000.0000     27.8994     28.5089   2000.0000    117.1833
  1027.7500   2000.0000     27.5319     27.6652   2000.0000    116.0038
  1028.0000   2000.0000     27.2339     26.8305   2000.0000    114.5821
  1028.2500   2000.0000     26.9861     26.0526   2000.0000    114.4527
  1028.5000   2000.0000     26.7844     25.3826   2000.0000    116.0489
  1028.7500   2000.0000     26.6441     24.8665   2000.0000    118.2695
  1029.0000   2000.0000     26.5830     24.5392   2000.0000    122.8303
  1029.2500   2000.0000     26.6004     24.4217   2000.0000    126.3016
  1029.5000   2000.0000     26.6676     24.5197   2000.0000    131.3327
  1029.7500   2000.0000     26.7370     24.8242   2000.0000    133.8835
  1030.0000   2000.0000     26.7592     25.3110   2000.0000    135.1646
  1030.2500   2000.0000     26.7000     25.9410   2000.0000    133.9491
  1030.5000   2000.0000     26.5502     26.6600   2000.0000    129.8374
  1030.7500   2000.0000     26.3247     27.3995   2000.0000    126.5788
  1031.0000   2000.0000     26.0524     28.0795   2000.0000    122.2429
  1031.2500   2000.0000     25.7604     28.6130   2000.0000    119.9238
  1031.5000   2000.0000     25.4632     28.9144   2000.0000    116.9670
  1031.7500   2000.0000     25.1617     28.9124   2000.0000    115.0504
  1032.0000   2000.0000     24.8486     28.5644   2000.0000    112.0773
  1032.2500   2000.0000     24.5140     27.8714   2000.0000    110.3073
  1032.5000   2000.0000     24.1467     26.8825   2000.0000    108.9078
  1032.7500   2000.0000     23.7340     25.6862   2000.0000    109.2418
  1033.0000   2000.0000     23.2652     24.3898   2000.0000    111.6730
  1033.2500   2000.0000     22.7393     23.0960   2000.0000    114.2143
  1033.5000   2000.0000     22.1718     21.8861   2000.0000    118.5405
  1033.7500   2000.0000     21.5946     20.8136   2000.0000    121.3338
  1034.0000   2000.0000     21.0472     19.9069   2000.0000    125.0349
  1034.2500   2000.0000     20.5683     19.1761   2000.0000    127.2513
  1034.5000   2000.0000     20.1914     18.6212   2000.0000    130.6286
  1034.7500   2000.0000     19.9457     18.2392   2000.0000    133.1392
  1035.0000   2000.0000     19.8567     18.0287   2000.0000    137.3302
  1035.2500   2000.0000     19.9438     17.9928   2000.0000    140.1748
  1035.5000   2000.0000     20.2174     18.1405   2000.0000    143.7893
  1035.7500   2000.0000     20.6766     18.4861   2000.0000    145.3817
  1036.0000   2000.0000     21.3128     19.0481   2000.0000    146.4431
  1036.2500   2000.0000     22.1141     19.8472   2000.0000    146.3967
  1036.5000   2000.0000     23.0688     20.9031   2000.0000    144.8722
  1036.7500   2000.0000     24.1661     22.2299   2000.0000    142.2284
  1037.0000   2000.0000     25.3937     23.8308   2000.0000    134.8799
  1037.2500   2000.0000     26.7338     25.6905   2000.0000    127.9958
  1037.5000   2000.0000     28.1550     27.7666   2000.0000    116.7999
  1037.7500   2000.0000     29.6038     29.9797   2000.0000    110.3196
  1038.0000   2000.0000     30.9954     32.2037   2000.0000    103.6010
  1038.2500   2000.0000     32.2104     34.2616   2000.0000    100.8330
  1038.5000   2000.0000     33.1050     35.9332   2000.0000     97.4230
  1038.7500   2000.0000     33.5444     36.9887   2000.0000     94.8105
  1039.0000   2000.0000     33.4550     37.2491   2000.0000     90.7395
  1039.2500   2000.0000     32.8632     36.6544   2000.0000     88.9248
  1039.5000   2000.0000     31.8853     35.2984   2000.0000     88.7493
  1039.7500   2000.0000     30.6723     33.4010   2000.0000     90.0574
  1040.0000   2000.0000     29.3526     31.2312   2000.0000     92.8588
  1040.2500   2000.0000     28.0036     29.0294   2000.0000     95.0430
  1040.5000   2000.0000     26.6559     26.9623   2000.0000     99.8248
  1040.7500   2000.0000     25.3149     25.1170   2000.0000    104.6918
  1041.0000   2000.0000     23.9827     23.5164   2000.0000    114.1005
  1041.2500   2000.0000     22.6698     22.1428   2000.0000    120.6544
  1041.5000   2000.0000     21.3974     20.9574   2000.0000    129.2151
  1041.7500   2000.0000     20.1926     19.9156   2000.0000    133.9286
  1042.0000   2000.0000     19.0835     18.9778   2000.0000    139.9602
  1042.2500   2000.0000     18.0933     18.1142   2000.0000    143.1091
  1042.5000   2000.0000     17.2345     17.3070   2000.0000    145.2921
  1042.7500   2000.0000     16.5055     16.5483   2000.0000    144.6401
  1043.0000   2000.0000     15.8915     15.8369   2000.0000    141.5836
  1043.2500   2000.0000     15.3695     15.1743   2000.0000    139.5507
  1043.5000   2000.0000     14.9158     14.5626   2000.0000    138.5503
  1043.7500   2000.0000     14.5128     14.0033   2000.0000    139.6824
  1044.0000   2000.0000     14.1527     13.4976   2000.0000    143.5525
  1044.2500   2000.0000     13.8387     13.0477   2000.0000    146.7018
  1044.5000   2000.0000     13.5821     12.6573   2000.0000    150.1657
  1044.7500   2000.0000     13.3980     12.3328   2000.0000    150.6234
  1045.0000   2000.0000     13.3025     12.0837   2000.0000    148.3562
  1045.2500   2000.0000     13.3102     11.9228   2000.0000    145.5562
  1045.5000   2000.0000     13.4337     11.8656   2000.0000    140.5253
  1045.7500   2000.0000     13.6831     11.9311   2000.0000    136.8947
  1046.0000   2000.0000     14.0663     12.1409   2000.0000    131.4438
  1046.2500   2000.0000     14.5882     12.5197   2000.0000    128.0555
  1046.5000   2000.0000     15.2499     13.0959   2000.0000    123.1066
  1046.7500   2000.0000     16.0478     13.9014   2000.0000    119.2556
  1047.0000   2000.0000     16.9759     14.9727   2000.0000    111.3844
  1047.2500   2000.0000     18.0324     16.3510   2000.0000    104.2742
  1047.5000   2000.0000     19.2313     18.0827   2000.0000     90.6470
  1047.7500   2000.0000     20.6129     20.2206   2000.0000     79.8984
  1048.0000   2000.0000     22.2450     22.8256   2000.0000     62.7253
  1048.2500   2000.0000     24.2108     25.9690   2000.0000     51.8237
  1048.5000   2000.0000     26.5849     29.7330   2000.0000     38.1030
  1048.7500   2000.0000     29.4006     34.2038   2000.0000     31.0911
  1049.0000   2000.0000     32.6124     39.4498   2000.0000     23.4182
  1049.2500   2000.0000     36.0629     45.4717   2000.0000     19.8319
  1049.5000   2000.0000     39.4713     52.1155   2000.0000     16.3732
  1049.7500   2000.0000     42.4694     58.9594   2000.0000     15.2784
  1050.0000   2000.0000     44.6899     65.2361   2000.0000     15.3039
  1050.2500   2000.0000     45.8768     69.9154   2000.0000     16.1980
  1050.5000   2000.0000     45.9593     72.0474   2000.0000     18.3175
  1050.7500   2000.0000     45.0585     71.2271   2000.0000     20.0708
  1051.0000   2000.0000     43.4263     67.8142   2000.0000     23.4252
  1051.2500   2000.0000     41.3470     62.6995   2000.0000     26.6061
  1051.5000   2000.0000     39.0502     56.8512   2000.0000     33.9548
  1051.7500   2000.0000     36.6761     50.9948   2000.0000     41.0982
