~Version Information
VERS.                      2.0: CWLS Log ASCII Standard - VERSION 2.0
WRAP.                       NO: One line per depth step
~Well Information Block
STRT.FT               400.0000: 
STOP.FT              2232.0000: 
STEP.FT                 0.2500: 
NULL.                -999.2500: 
COMP.          Evergreen Operating Corporation: COMPANY
WELL.                Croc 42-9: WELL
FLD.           Purgatorie River: FIELD
LOC.           2262' FNL & 238' FEL: LOCATION
STAT.                 Colorado: State
CNTY.               Las Animas: COUNTY
CTRY. USA : Country
SECT. 9 : Section
TOWN. 32S : Township
RANG. 66W : Range
SRVC.                Patterson: SERVICE COMPANY
DATE.          Wed Jul 21 23:25:54 2004: LOG DATE
API.           05 071 08106 00: UNIQUE WELL ID
~Curve Information Block
DEPT.FT            0 000 00 00: Depth
SN.Ohm-m                      : IEL Short Normal
SP.mV                         : IEL Spontaneous Potential
DIR.Ohm-m                     : IEL Induction Resistivity
GR.GAPI                       : Gamma Ray
~Parameter Information Block
~A  Depth        SN          SP         DIR          GR     
# ...
   534.0000     38.3149     17.4764     35.4590    108.1717
   534.2500     38.6675     17.4690     35.8073    106.8522
   534.5000     39.4724     17.4616     36.6510    104.7769
   534.7500     40.7142     17.4538     37.9885    103.5795
   535.0000     42.2653     17.4260     39.7229    102.9000
   535.2500     43.9820     17.3646     41.6412    103.4641
   535.5000     45.8686     17.2768     43.4459    104.8741
   535.7500     48.0621     17.1886     44.8571    104.7978
   536.0000     50.6702     17.1325     45.7310    100.9063
   536.2500     53.6396     17.1327     46.0959     95.6578
   536.5000     56.6839     17.1951     46.0770     86.1890
   536.7500     59.2916     17.3062     45.7861     80.9111
   537.0000     60.8858     17.4403     45.2654     77.0097
   537.2500     61.0475     17.5757     44.5075     77.2183
   537.5000     59.6231     17.7103     43.5025     80.4724
   537.7500     56.7485     17.8612     42.2588     83.8263
   538.0000     52.8562     18.0471     40.7838     89.8588
   538.2500     48.5444     18.2721     39.0708     94.1032
   538.5000     44.3521     18.5223     37.1223     99.7887
   538.7500     40.6516     18.7760     34.9855    102.8329
   539.0000     37.6287     19.0131     32.7627    106.9669
   539.2500     35.2601     19.2164     30.5870    110.1365
   539.5000     33.3789     19.3653     28.5835    115.8923
   539.7500     31.8197     19.4359     26.8409    119.9753
   540.0000     30.4954     19.4163     25.4008    125.5135
   540.2500     29.3585     19.3277     24.2639    128.5648
   540.5000     28.3552     19.2259     23.4032    132.1368
   540.7500     27.4529     19.1759     22.7768    133.7111
   541.0000     26.6525     19.2147     22.3363    134.4815
   541.2500     25.9323     19.3339     22.0351    134.0378
   541.5000     25.2217     19.4940     21.8371    132.9144
   541.7500     24.4650     19.6535     21.7199    132.3191
   542.0000     23.7010     19.7865     21.6676    131.1641
   542.2500     23.0784     19.8865     21.6573    129.4117
   542.5000     22.7957     19.9684     21.6538    124.4641
   542.7500     23.0224     20.0580     21.6210    119.8268
   543.0000     23.8447     20.1649     21.5424    111.8946
   543.2500     25.1753     20.2661     21.4321    106.5744
   543.5000     26.6636     20.3299     21.3274     99.5971
   543.7500     27.8215     20.3509     21.2687     96.2491
   544.0000     28.3380     20.3546     21.2825     93.8795
   544.2500     28.2438     20.3697     21.3745     94.0403
   544.5000     27.7811     20.4024     21.5334     96.3261
   544.7500     27.1769     20.4349     21.7371     98.7581
   545.0000     26.5144     20.4472     21.9571    102.8416
   545.2500     25.7705     20.4340     22.1589    105.3461
   545.5000     24.9401     20.4021     22.3062    108.3637
   545.7500     24.0919     20.3584     22.3717    109.9217
   546.0000     23.3430     20.3035     22.3512    111.7417
   546.2500     22.8274     20.2321     22.2721    112.6493
   546.5000     22.6674     20.1378     22.1864    113.6059
   546.7500     22.9521     20.0233     22.1548    114.0028
   547.0000     23.7222     19.9066     22.2288    114.1125
   547.2500     24.9053     19.8108     22.4440    113.6386
   547.5000     26.2360     19.7470     22.8213    111.8145
   547.7500     27.3544     19.7082     23.3725    110.1342
   548.0000     28.0655     19.6795     24.1033    108.3002
   548.2500     28.4390     19.6469     25.0053    108.3221
   548.5000     28.6665     19.6009     26.0331    110.3355
   548.7500     28.8953     19.5449     27.0716    112.2831
   549.0000     29.1793     19.5073     27.9259    114.4678
   549.2500     29.5178     19.5348     28.3853    114.6895
   549.5000     29.9099     19.6652     28.3515    112.6447
   549.7500     30.3605     19.9028     27.9128    109.9197
   550.0000     30.8227     20.2188     27.2743    105.1332
   550.2500     31.1608     20.5686     26.6218    102.5657
   550.5000     31.2094     20.9102     26.0487    101.1685
   550.7500     30.8742     21.2172     25.5696    102.2159
   551.0000     30.1745     21.4813     25.1632    106.3362
   551.2500     29.2196     21.7039     24.8022    110.1085
   551.5000     28.1602     21.8799     24.4614    115.8192
   551.7500     27.1306     21.9939     24.1187    118.8621
   552.0000     26.2127     22.0337     23.7581    121.5428
   552.2500     25.4295     22.0095     23.3716    122.1741
   552.5000     24.7646     21.9550     22.9557    122.3440
   552.7500     24.2144     21.9064     22.5092    122.6880
   553.0000     23.8173     21.8799     22.0379    124.4331
   553.2500     23.6135     21.8695     21.5667    126.2996
   553.5000     23.5939     21.8650     21.1433    128.8072
   553.7500     23.6904     21.8691     20.8216    129.3969
   554.0000     23.8078     21.8931     20.6370    128.2525
   554.2500     23.8741     21.9380     20.5907    126.6529
   554.5000     23.8768     21.9842     20.6565    124.2223
   554.7500     23.8419     22.0037     20.7999    122.9635
   555.0000     23.7795     21.9808     20.9920    121.4778
   555.2500     23.6961     21.9216     21.2106    120.4143
   555.5000     23.6313     21.8440     21.4347    118.2583
   555.7500     23.6220     21.7618     21.6435    116.5955
   556.0000     23.6602     21.6818     21.8216    114.9077
   556.2500     23.7225     21.6153     21.9661    115.0754
   556.5000     23.7998     21.5823     22.0819    117.4065
   556.7500     23.8604     21.5974     22.1601    119.5396
   557.0000     23.8257     21.6530     22.1543    121.7251
   557.2500     23.6609     21.7210     21.9815    121.8344
   557.5000     23.4405     21.7735     21.5719    120.0152
   557.7500     23.2438     21.7984     20.9350    118.0957
   558.0000     23.0464     21.7962     20.1712    115.7462
   558.2500     22.7546     21.7716     19.4141    115.3122
   558.5000     22.2937     21.7352     18.7608    116.6029
   558.7500     21.6626     21.7083     18.2483    118.2880
   559.0000     20.9407     21.7195     17.8702    120.9865
   559.2500     20.2513     21.7835     17.6043    122.4561
   559.5000     19.7014     21.8798     17.4316    123.7590
   559.7500     19.3004     21.9573     17.3388    123.8764
   560.0000     18.9391     21.9750     17.3137    122.7028
   560.2500     18.5618     21.9401     17.3415    121.0678
   560.5000     18.2958     21.8978     17.4084    118.0661
   560.7500     18.2845     21.8818     17.5074    116.2552
   561.0000     18.5280     21.8839     17.6413    113.9518
   561.2500     18.9454     21.8754     17.8187    112.2014
   561.5000     19.4705     21.8500     18.0430    108.7648
   561.7500     20.0739     21.8399     18.3033    106.5063
   562.0000     20.7326     21.8873     18.5720    104.9861
   562.2500     21.3978     22.0005     18.8173    105.7723
   562.5000     22.0032     22.1386     19.0222    108.7778
   562.7500     22.4939     22.2414     19.1951    110.7954
   563.0000     22.8348     22.2759     19.3589    112.0953
   563.2500     23.0027     22.2557     19.5271    111.6114
   563.5000     22.9751     22.2196     19.6843    110.1431
   563.7500     22.7336     22.1954     19.7860    109.8846
   564.0000     22.3048     22.1799     19.7797    111.7983
   564.2500     21.7918     22.1477     19.6356    114.2241
   564.5000     21.3005     22.0810     19.3660    117.8047
   564.7500     20.8526     21.9911     19.0168    119.5213
   565.0000     20.4232     21.9107     18.6369    121.5008
   565.2500     20.0087     21.8656     18.2516    122.8422
   565.5000     19.6264     21.8613     17.8588    124.4591
   565.7500     19.2979     21.8873     17.4466    124.4807
   566.0000     19.0395     21.9258     17.0139    122.0335
   566.2500     18.8534     21.9570     16.5771    118.9660
   566.5000     18.7258     21.9721     16.1615    113.6372
   566.7500     18.6208     21.9918     15.7885    110.6870
   567.0000     18.4898     22.0603     15.4695    108.6441
   567.2500     18.3068     22.2082     15.2074    109.0083
