~Version Information
VERS.                      2.0: CWLS Log ASCII Standard - VERSION 2.0
WRAP.                       NO: One line per depth step
~Well Information Block
STRT.FT                -8.0000: 
STOP.FT               918.7500: 
STEP.FT                 0.2500: 
NULL.                -999.2500: 
COMP.          Pioneer Natural Resources: COMPANY
WELL.          Sculpin 32-30 Tr: WELL
FLD.           Purgatorie River: FIELD
LOC.           1600' FNL & 1857' FEL--: LOCATION
CNTY.               Las Animas: COUNTY
SRVC.          Patterson Wireline: SERVICE COMPANY
DATE.          Thu Aug 03 08:40:45 2006: LOG DATE
UWI.           05 071 08706 00: UNIQUE WELL ID
STAT.                       CO: STATE
~Curve Information Block
DEPT.FT            0 000 00 00: Depth
CCL.                          : Casing Collar Locator
TT3.usec                      : CBL 3' Travel Time
AMP3.mV                       : CBL 3' Amplitude
GR.GAPI                       : Gamma Ray
~Parameter Information Block
~A  Depth       CCL         TT3         AMP3         GR     
# ...
   528.0000      0.0000    626.2162      3.6051    138.2310
   528.2500      0.0000    628.6768      3.6357    136.6589
   528.5000      0.0000    634.0466      3.6359    133.4592
   528.7500      0.0000    646.3279      3.5987    130.9857
   529.0000      0.0000    665.4331      3.5350    131.3494
   529.2500      0.0000    687.1803      3.4646    134.9281
   529.5000      0.0000    706.3719      3.4018    139.8161
   529.7500      0.0000    720.7857      3.3508    143.0910
   530.0000      0.0000    733.0540      3.3134    143.0144
   530.2500      0.0000    747.5269      3.2931    139.8256
   530.5000      0.0000    764.8588      3.2901    134.8140
   530.7500      0.0000    781.3268      3.2969    129.4603
   531.0000      0.0000    793.4645      3.3026    125.2082
   531.2500      0.0000    801.4686      3.3006    123.0706
   531.5000      0.0000    807.5729      3.2918    123.1814
   531.7500      0.0000    812.4897      3.2819    124.9818
   532.0000      0.0000    813.9913      3.2755    127.8233
   532.2500      0.0000    808.6092      3.2748    131.3551
   532.5000      0.0000    794.6973      3.2802    135.4355
   532.7500      0.0000    774.3087      3.2900    139.7295
   533.0000      0.0000    752.4186      3.2983    143.4720
   533.2500      0.0000    734.1174      3.2973    145.7686
   533.5000      0.0000    721.9988      3.2857    146.0851
   533.7500      0.0000    715.6630      3.2710    144.3742
   534.0000      0.0000    713.1694      3.2633    141.0810
   534.2500      0.0000    712.6451      3.2645    137.3074
   534.5000      0.0000    712.8922      3.2680    134.5008
   534.7500      0.0000    713.2665      3.2667    133.4404
   535.0000      0.0000    713.4628      3.2601    133.5339
   535.2500      0.0000    713.3997      3.2521    133.2476
   535.5000      0.0000    713.1254      3.2445    131.4078
   535.7500      0.0000    712.7494      3.2374    128.3670
   536.0000      0.0000    712.4072      3.2341    125.9459
   536.2500      0.0000    712.2288      3.2398    126.0235
   536.5000      0.0000    712.2666      3.2555    128.9024
   536.7500      0.0000    712.4482      3.2768    132.9206
   537.0000      0.0000    712.6296      3.2983    135.8163
   537.2500      0.0000    712.7143      3.3180    136.6860
   537.5000      0.0000    712.7113      3.3354    136.4585
   537.7500      0.0000    712.6912      3.3468    136.4776
   538.0000      0.0000    712.7134      3.3458    137.3002
   538.2500      0.0000    712.7910      3.3289    138.9827
   538.5000      0.0000    712.8855      3.3046    141.4705
   538.7500      0.0000    712.9227      3.2925    144.1904
   539.0000      0.0000    712.8423      3.3087    146.0047
   539.2500      0.0000    712.6556      3.3501    146.1672
   539.5000      0.0000    712.4138      3.3973    145.0982
   539.7500      0.0000    712.0330      3.4318    143.8317
   540.0000      0.0000    711.0435      3.4482    142.7170
   540.2500      0.0000    708.5193      3.4500    141.1852
   540.5000      0.0000    703.3851      3.4416    139.1180
   540.7500      0.0000    694.9954      3.4259    137.8241
   541.0000      0.0000    683.2931      3.4056    138.9274
   541.2500      0.0000    668.3217      3.3844    142.5687
   541.5000      0.0000    649.9501      3.3666    147.2690
   541.7500      0.0000    628.5247      3.3539    151.3212
   542.0000      0.0000    605.6595      3.3448    153.6040
   542.2500      0.0000    584.4794      3.3432    153.2026
   542.5000      0.0000    569.4727      3.3707    149.3692
   542.7500      0.0000    565.1390      3.4571    142.3878
   543.0000      0.0000    572.5818      3.6009    133.7309
   543.2500      0.0000    587.0317      3.7499    124.7839
   543.5000      0.0000    600.2148      3.8446    115.7845
   543.7500      0.0000    606.2824      3.8735    106.3357
   544.0000      0.0000    606.0009      3.8710     96.6295
   544.2500      0.0000    605.9744      3.8723     88.0414
   544.5000     -2.0000    613.7442      3.8866     82.7459
   544.7500      2.0000    631.7642      3.9053     82.5586
   545.0000      0.0000    654.8340      3.9245     87.5254
   545.2500      0.0000    674.5431      3.9547     95.3956
   545.5000      0.0000    686.7778      4.0043    102.8320
   545.7500      0.0000    693.5251      4.0505    107.5904
   546.0000      0.0000    697.7892      4.0482    109.6836
   546.2500      0.0000    699.4207      3.9813    110.6240
   546.5000      0.0000    696.0499      3.8864    111.9546
   546.7500      0.0000    685.3940      3.8127    114.5554
   547.0000      0.0000    665.6871      3.7760    118.6543
   547.2500      0.0000    636.1158      3.7616    123.8806
   547.5000      0.0000    598.8790      3.7489    129.4478
   547.7500      0.0000    560.3249      3.7249    134.5025
   548.0000      0.0000    528.2205      3.6863    138.1969
   548.2500      0.0000    507.2563      3.6385    139.6421
   548.5000      0.0000    497.4634      3.5910    138.1854
   548.7500      0.0000    496.3037      3.5523    133.7116
   549.0000      0.0000    501.2243      3.5315    126.5129
   549.2500      0.0000    510.4091      3.5386    116.9882
   549.5000      0.0000    522.3620      3.5777    105.7005
   549.7500      0.0000    535.9985      3.6400     93.8599
   550.0000      0.0000    551.8925      3.7061     83.5929
   550.2500      0.0000    572.6299      3.7537     77.3936
   550.5000      0.0000    599.7931      3.7655     77.0097
   550.7500      0.0000    629.5222      3.7348     82.5581
   551.0000      0.0000    652.7518      3.6719     92.3076
   551.2500      0.0000    661.6979      3.6011    103.2200
   551.5000      0.0000    656.5369      3.5477    112.1344
   551.7500      0.0000    645.8004      3.5238    117.1073
   552.0000      0.0000    640.5024      3.5280    118.2626
   552.2500      0.0000    646.9766      3.5538    117.7067
   552.5000      0.0000    663.1461      3.5948    118.2844
   552.7500      0.0000    680.5484      3.6415    121.5657
   553.0000      0.0000    690.7912      3.6805    126.4263
   553.2500      0.0000    691.1956      3.7000    129.6509
   553.5000      0.0000    685.0595      3.6982    128.4394
   553.7500      0.0000    677.7115      3.6842    122.7594
   554.0000      0.0000    672.6898      3.6707    115.4072
   554.2500      0.0000    670.6395      3.6631    109.9552
   554.5000      0.0000    670.7076      3.6581    108.6416
   554.7500      0.0000    672.4075      3.6519    111.7541
   555.0000      0.0000    675.6400      3.6457    118.3684
   555.2500      0.0000    678.3074      3.6412    127.4582
   555.5000      0.0000    675.0363      3.6353    138.2631
   555.7500      0.0000    660.8339      3.6237    149.6734
   556.0000      0.0000    637.3028      3.6072    159.7050
   556.2500      0.0000    614.0313      3.5933    166.1418
   556.5000      0.0000    602.0673      3.5936    167.7756
   556.7500      0.0000    605.8379      3.6173    165.0083
   557.0000      0.0000    621.4197      3.6634    159.5579
   557.2500      0.0000    640.9368      3.7169    153.6024
   557.5000      0.0000    657.6017      3.7587    148.7440
   557.7500      0.0000    668.2574      3.7784    145.4628
   558.0000      0.0000    673.2106      3.7752    143.5321
   558.2500      0.0000    674.4286      3.7515    142.8648
   558.5000      0.0000    673.8498      3.7124    143.7856
   558.7500      0.0000    672.8392      3.6691    146.3860
   559.0000      0.0000    672.3924      3.6384    149.7086
   559.2500      0.0000    673.2155      3.6351    152.0356
   559.5000      0.0000    675.3676      3.6635    152.4532
   559.7500      0.0000    677.9005      3.7144    151.9578
   560.0000      0.0000    679.2466      3.7676    152.3474
   560.2500      0.0000    678.4598      3.8026    153.9792
   560.5000      0.0000    676.0048      3.8108    155.2981
   560.7500      0.0000    673.1526      3.7984    154.7568
   561.0000      0.0000    670.8333      3.7775    152.4956
   561.2500      0.0000    669.2507      3.7576    149.8321
