~Version Information
VERS.                      2.0: CWLS Log ASCII Standard - VERSION 2.0
WRAP.                       NO: One line per depth step
~Well Information Block
STRT.FT               550.0000: 
STOP.FT              1979.0000: 
STEP.FT                 0.1000: 
NULL.                -999.2500: 
COMP.          Pioneer Natural Resources: COMPANY
WELL.          Flying Horse 12-11 Tr: WELL
FLD.           Purgatoire River: FIELD
LOC.           2459' FNL & 410' FWL: LOCATION
STAT.                 Colorado: PROVINCE
CNTY.               Las Animas: COUNTY
CTRY. USA : Country
SECT. 11 : Section
TOWN. 32S : Township
RANG. 66W : Range
SRVC.                Patterson: SERVICE COMPANY
DATE.          Tue Sep 06 07:09:24 2005: LOG DATE
API.           05 071 08485 00: UNIQUE WELL ID
~Curve Information Block
DEPT.FT            0 000 00 00: Depth
DCAL.in                       : CDL Caliper
RHOB.g/cc                     : CDL Bulk Density
RHOC.g/cc                     : CDL Density Correction
DPOR.pu                       : CDL Density Porosity
GR.GAPI                       : Gamma Ray
NPOR.pu                       : Neutron Porosity
~Parameter Information Block
~A  Depth       DCAL        RHOB        RHOC        DPOR         GR         NPOR    
# ...
  1298.8000      8.3705      1.8009      0.1207     51.4635     83.7791     33.7331
  1298.9000      8.3705      1.8453      0.1121     48.7701     87.4215     34.0946
  1299.0000      8.3352      1.8760      0.1184     46.9100     91.5369     35.0326
  1299.1000      8.3352      1.8858      0.1423     46.3172     91.1304     35.4442
  1299.2000      8.3352      1.8585      0.1109     47.9701     84.8615     35.4460
  1299.3000      8.2728      1.7847      0.0419     52.4428     77.4488     35.3542
  1299.4000      8.2728      1.6686     -0.0197     59.4778     73.6546     34.3382
  1299.5000      8.2861      1.5413     -0.0880     67.1920     75.1895     32.5404
  1299.6000      8.2861      1.4493     -0.1309     72.7700     82.1426     31.6410
  1299.7000      8.2861      1.4027     -0.0174     75.5919     89.9663     32.0797
  1299.8000      8.3021      1.3655     -0.0268     77.8494     92.6899     32.7066
  1299.9000      8.3021      1.3184     -0.0431     80.7021     89.5671     33.3054
  1300.0000      8.3795      1.2869     -0.0886     82.6137     81.3399     34.4683
  1300.1000      8.3795      1.2916     -0.0179     82.3283     70.1735     35.2012
  1300.2000      8.3795      1.3142      0.0400     80.9562     60.2521     34.2554
  1300.3000      8.4469      1.3338      0.0091     79.7721     52.8493     32.9154
  1300.4000      8.4469      1.3525      0.0230     78.6368     46.5051     32.8986
  1300.5000      8.4815      1.3696      0.0838     77.6026     41.5742     33.9352
  1300.6000      8.4815      1.3763      0.0594     77.1944     40.9229     34.5581
  1300.7000      8.4815      1.3773      0.0141     77.1329     43.9083     34.3547
  1300.8000      8.4839      1.3748      0.0667     77.2855     45.1290     33.9351
  1300.9000      8.4839      1.3543      0.0207     78.5258     43.2801     33.2591
  1301.0000      8.4200      1.3176     -0.0361     80.7493     42.4408     32.2879
  1301.1000      8.4200      1.2969     -0.0750     82.0066     43.6421     31.7426
  1301.2000      8.4200      1.3252     -0.0550     80.2890     43.7818     32.2104
  1301.3000      8.3792      1.4096      0.0398     75.1749     41.3604     33.1431
  1301.4000      8.3792      1.5381      0.0497     67.3903     37.9746     33.4450
  1301.5000      8.3684      1.6866      0.1232     58.3876     37.5561     32.9866
  1301.6000      8.3684      1.8226      0.1818     50.1432     41.9924     32.6029
  1301.7000      8.3684      1.9472      0.1571     42.5953     48.3634     32.8094
  1301.8000      8.3994      2.0900      0.1785     33.9418     53.1004     33.1030
  1301.9000      8.3994      2.2364      0.2497     25.0692     57.1961     32.9175
  1302.0000      8.4666      2.3365      0.2187     18.9972     65.3083     32.0891
  1302.1000      8.4666      2.3854      0.1586     16.0371     78.4021     30.7290
  1302.2000      8.4666      2.4214      0.0660     13.8556     91.3935     29.3126
  1302.3000      8.3444      2.4698      0.0568     10.9206     98.5021     28.1266
  1302.4000      8.3444      2.5239      0.0618      7.6397    100.4602     27.3452
  1302.5000      8.1355      2.5583      0.1074      5.5566    101.1947     27.1003
  1302.6000      8.1355      2.5599      0.0910      5.4579    101.9984     27.3316
  1302.7000      8.1355      2.5489      0.0747      6.1245    104.8095     27.4549
  1302.8000      8.1122      2.5491      0.0630      6.1157    109.9848     26.8732
  1302.9000      8.1122      2.5528      0.0783      5.8930    113.6084     26.4813
  1303.0000      8.0913      2.5368      0.1147      6.8584    113.6442     27.1252
  1303.1000      8.0913      2.5092      0.0566      8.5347    115.6706     27.8020
  1303.2000      8.0913      2.5000      0.0700      9.0912    122.9233     27.5769
  1303.3000      8.0407      2.5223      0.0625      7.7418    128.0725     26.9672
  1303.4000      8.0407      2.5699      0.1642      4.8565    124.6041     26.4398
  1303.5000      8.0338      2.6146      0.2148      2.1482    115.6197     25.7449
  1303.6000      8.0338      2.6205      0.1788      1.7909    110.4610     25.3575
  1303.7000      8.0338      2.5867      0.0862      3.8375    114.3722     25.8555
  1303.8000      8.0520      2.5501     -0.0092      6.0545    122.3738     26.6716
  1303.9000      8.0520      2.5339      0.0545      7.0372    128.0487     26.9694
  1304.0000      8.1047      2.5337      0.0112      7.0464    130.8189     26.9349
  1304.1000      8.1047      2.5466     -0.0007      6.2676    133.1415     27.5332
  1304.2000      8.1047      2.5569      0.0839      5.6438    134.4365     28.4665
  1304.3000      8.1234      2.5479      0.0065      6.1850    131.6906     28.6521
  1304.4000      8.1234      2.5384      0.0060      6.7613    126.2119     28.2972
  1304.5000      8.1428      2.5475      0.0057      6.2111    123.5252     28.2534
  1304.6000      8.1428      2.5669      0.0430      5.0373    126.4424     28.2327
  1304.7000      8.1428      2.5892      0.0121      3.6871    133.1307     27.4333
  1304.8000      8.1616      2.6159      0.0718      2.0675    137.6978     26.4099
  1304.9000      8.1616      2.6319      0.0948      1.0991    137.9248     25.9257
  1305.0000      8.1755      2.6260      0.0208      1.4551    138.1217     25.7017
  1305.1000      8.1755      2.6107      0.0733      2.3847    137.7015     25.6220
  1305.2000      8.1755      2.5961      0.0198      3.2658    132.9679     25.3109
  1305.3000      8.1744      2.5801      0.0355      4.2347    125.3979     24.7910
  1305.4000      8.1744      2.5566      0.0135      5.6625    118.6973     25.2003
  1305.5000      8.1744      2.5283      0.0260      7.3759    115.6062     26.2286
  1305.6000      8.1744      2.5077     -0.0266      8.6228    115.1005     26.4343
  1305.7000      8.1744      2.5016      0.0012      8.9963    111.5966     25.8558
  1305.8000      8.1736      2.5100     -0.0343      8.4849    105.7922     25.8478
  1305.9000      8.1736      2.5273      0.0116      7.4389    107.1518     26.7277
  1306.0000      8.1704      2.5369      0.0675      6.8571    116.6771     27.3676
  1306.1000      8.1704      2.5378      0.0049      6.7979    124.2569     27.2690
  1306.2000      8.1704      2.5487      0.0401      6.1408    123.9350     26.7664
  1306.3000      8.1684      2.5679      0.0099      4.9767    119.9553     25.9787
  1306.4000      8.1684      2.5712      0.0784      4.7761    119.5215     25.4268
  1306.5000      8.1727      2.5493      0.0340      6.1013    120.2372     25.3505
  1306.6000      8.1727      2.5285     -0.0283      7.3645    117.2095     25.5515
  1306.7000      8.1727      2.5270      0.0631      7.4566    113.2325     25.7580
  1306.8000      8.1658      2.5308      0.0327      7.2221    111.3258     25.4209
  1306.9000      8.1658      2.5340      0.0481      7.0325    111.3485     24.9960
  1307.0000      8.1682      2.5358      0.0677      6.9212    112.4792     25.2657
  1307.1000      8.1682      2.5282      0.0523      7.3835    112.6796     25.7452
  1307.2000      8.1682      2.5119      0.0400      8.3703    112.3313     25.7388
  1307.3000      8.1721      2.4975      0.0499      9.2435    115.7149     25.3689
  1307.4000      8.1721      2.4917      0.0711      9.5916    120.0659     25.0667
  1307.5000      8.1299      2.4932      0.0190      9.5019    121.1524     25.0425
  1307.6000      8.1299      2.4942      0.0633      9.4450    121.7153     25.1782
  1307.7000      8.1299      2.4933      0.0124      9.4996    123.8085     24.9961
  1307.8000      8.0682      2.4976      0.0309      9.2374    124.2751     24.0548
  1307.9000      8.0682      2.5026      0.0349      8.9305    119.3911     22.8739
  1308.0000      8.0604      2.4993      0.0238      9.1328    109.8371     22.2440
  1308.1000      8.0604      2.4925      0.0012      9.5455    103.4929     22.2853
  1308.2000      8.0604      2.4936      0.0153      9.4771    109.1839     22.6674
  1308.3000      8.0701      2.5037      0.0336      8.8682    123.0928     22.6325
