~Version Information
VERS.                      2.0: CWLS Log ASCII Standard - VERSION 2.0
WRAP.                       NO: One line per depth step
~Well Information Block
STRT.FT                -3.2500: 
STOP.FT               989.2500: 
STEP.FT                 0.2500: 
NULL.                -999.2500: 
COMP.          Pioneer Natural Resources: COMPANY
WELL.                Doc 34-30: WELL
FLD.           Purgatoire River: FIELD
LOC.           454' FSL & 1386' FEL: LOCATION
CNTY.               Las Animas: COUNTY
SRVC.                         : SERVICE COMPANY
DATE.          Wed Mar 08 14:28:55 2006: LOG DATE
UWI.           05 071 08694 00: UNIQUE WELL ID
STAT.                       CO: STATE
~Curve Information Block
DEPT.FT            0 000 00 00: Depth
GR.GAPI                       : Gamma Ray
CCL.                          : Casing Collar Locator
TT3.usec                      : CBL 3' Travel Time
AMP3.mV                       : CBL 3' Amplitude
~Parameter Information Block
~A  Depth        GR         CCL         TT3         AMP3    
# ...
   968.2500     67.9482      0.0000    261.2974     78.4586
   968.5000     65.8369      0.0000    261.3024     78.4882
   968.7500     63.7210      0.0000    261.3015     78.5139
   969.0000     62.0743      0.0000    261.2961     78.5309
   969.2500     60.7932      0.0000    261.2917     78.5402
   969.5000     59.3675      0.0000    261.2921     78.5456
   969.7500     57.6353      0.0000    261.2952     78.5506
   970.0000     56.2221      0.0000    261.2954     78.5561
   970.2500     56.1038      0.0000    261.2899     78.5593
   970.5000     57.6637      0.0000    261.2800     78.5573
   970.7500     60.2170      0.0000    261.2693     78.5515
   971.0000     62.6408      0.0000    261.2596     78.5459
   971.2500     64.4936      0.0000    261.2507     78.5432
   971.5000     66.2719      0.0000    261.2423     78.5434
   971.7500     68.5010      0.0000    261.2358     78.5447
   972.0000     70.9164      0.0000    261.2332     78.5447
   972.2500     72.8327      0.0000    261.2352     78.5423
   972.5000     73.9965      0.0000    261.2397     78.5392
   972.7500     74.6214      0.0000    261.2428     78.5371
   973.0000     74.7483      0.0000    261.2392     78.5348
   973.2500     74.1365      0.0000    261.2256     78.5305
   973.5000     72.8997      0.0000    261.2043     78.5295
   973.7500     71.7999      0.0000    261.1655     78.5365
   974.0000     71.5334      0.0000    261.0380     78.5312
   974.2500     71.9799      0.0000    260.4563     78.3957
   974.5000     72.5879      0.0000    258.1723     77.7442
   974.7500     73.2602      0.0000    251.1292     75.6504
   975.0000     74.2879      0.0000    234.2215     70.5724
   975.2500     75.4970      0.0000    202.6253     61.0551
   975.5000     76.1432      0.0000    156.6491     47.1957
   975.7500     75.8561      0.0000    104.5491     31.4908
   976.0000     75.1473      0.0000     58.5697     17.6358
   976.2500     74.5997      0.0000     26.9675      8.1173
   976.5000     73.8874      0.0000     10.0516      3.0246
   976.7500     72.0865      0.0000      2.9998      0.9024
   977.0000     68.8472      0.0000      0.7103      0.2136
   977.2500     64.9090      0.0000      0.1315      0.0395
   977.5000     61.6519      0.0000      0.0175      0.0053
   977.7500     60.4342      0.0000   -999.2500   -999.2500
   978.0000     61.9331      0.0000   -999.2500   -999.2500
   978.2500     65.5853      0.0000   -999.2500   -999.2500
   978.5000     69.7530      0.0000   -999.2500   -999.2500
   978.7500     72.6906      0.0000   -999.2500   -999.2500
   979.0000     73.5019      0.0000   -999.2500   -999.2500
   979.2500     72.4316      0.0000   -999.2500   -999.2500
   979.5000     70.4794      0.0000   -999.2500   -999.2500
   979.7500     68.6582      0.0000   -999.2500   -999.2500
   980.0000     67.4404      0.0000   -999.2500   -999.2500
   980.2500     66.7632      0.0000   -999.2500   -999.2500
   980.5000     66.3498     -1.6266   -999.2500   -999.2500
   980.7500     65.9217      0.0000   -999.2500   -999.2500
   981.0000     65.3027      0.0000   -999.2500   -999.2500
   981.2500     64.5835      0.0000   -999.2500   -999.2500
   981.5000     64.2313      0.0000   -999.2500   -999.2500
   981.7500     64.8792      0.0000   -999.2500   -999.2500
   982.0000     66.8438      0.0000   -999.2500   -999.2500
   982.2500     69.8043      0.0000   -999.2500   -999.2500
   982.5000     72.9362      0.0000   -999.2500   -999.2500
   982.7500     75.2745      0.0000   -999.2500   -999.2500
   983.0000     75.9763      0.0000   -999.2500   -999.2500
   983.2500     74.5583   -999.2500   -999.2500   -999.2500
   983.5000     71.2324   -999.2500   -999.2500   -999.2500
   983.7500     66.9730   -999.2500   -999.2500   -999.2500
   984.0000     62.9342   -999.2500   -999.2500   -999.2500
   984.2500     59.6703   -999.2500   -999.2500   -999.2500
   984.5000     56.9371   -999.2500   -999.2500   -999.2500
   984.7500     53.9861   -999.2500   -999.2500   -999.2500
   985.0000     49.7312   -999.2500   -999.2500   -999.2500
   985.2500     42.9914   -999.2500   -999.2500   -999.2500
   985.5000     33.4293   -999.2500   -999.2500   -999.2500
   985.7500     22.4597   -999.2500   -999.2500   -999.2500
   986.0000     12.6354   -999.2500   -999.2500   -999.2500
   986.2500      5.8231   -999.2500   -999.2500   -999.2500
   986.5000      2.1666   -999.2500   -999.2500   -999.2500
   986.7500      0.6442   -999.2500   -999.2500   -999.2500
   987.0000      0.1519   -999.2500   -999.2500   -999.2500
   987.2500      0.0281   -999.2500   -999.2500   -999.2500
   987.5000      0.0036   -999.2500   -999.2500   -999.2500
   987.7500      0.0000   -999.2500   -999.2500   -999.2500
   988.0000   -999.2500   -999.2500   -999.2500   -999.2500
   988.2500   -999.2500   -999.2500   -999.2500   -999.2500
   988.5000   -999.2500   -999.2500   -999.2500   -999.2500
   988.7500   -999.2500   -999.2500   -999.2500   -999.2500
   989.0000   -999.2500   -999.2500   -999.2500   -999.2500
   989.2500   -999.2500   -999.2500   -999.2500   -999.2500
