~Version Information
 VERS.                                  2.0 : CWLS LAS VERSION
 WRAP.                                   NO : WRAPING MODE
 SWARE .                 MController 2.5.0N : SOFTWARE VERSION
~Well Information
 WELL.                          Yoshi 14-30 : WELL
 COMP.    Pioneer Natural Resources USA Inc : COMPANY
 FLD.                      Purgatoire River : FIELD
 LOC.                 SW/SW Sec30 T32S R65W : LOCATION
 DATE.                             02/17/06 : DATE(S) LOGGED
 SRVC.       Blanco Geological Services LLC : SERVICE COMPANY
 STAT.                             Colorado : STATE
 CNTY.                           Las Animas : COUNTY
 CTRY.                                  USA : COUNTRY
 API.                       05-071-08699-00 : API NUMBER
 STRT.FT                             350.00 : START DEPTH
 STOP.FT                            1300.00 : STOP DEPTH
 STEP.FT                               1.00 : DEPTH INCREMENT
 NULL.                                -9999 : NULL VALUE
~Curve information
 DEPTH.FT                                   :
 ROP.MIN/FT                                 :
 GAS.UNITS                                  :
~ASCII Log data
# ...
       550.0         0.40          0.7 
       551.0         0.43          1.2 
       552.0         0.47          0.8 
       553.0         0.50          1.0 
       554.0         0.50          0.4 
       555.0         0.50          0.6 
       556.0         0.52          0.5 
       557.0         0.50          0.7 
       558.0         0.53          0.3 
       559.0         0.53          0.6 
       560.0         0.43          0.1 
       561.0         3.75          3.7 
       562.0         0.43          3.3 
       563.0         0.48          3.2 
       564.0         0.43          3.2 
       565.0         0.43          3.2 
       566.0         0.43          3.3 
       567.0         0.47          4.1 
       568.0         0.43          3.6 
       569.0         0.43          3.5 
       570.0         0.43          3.9 
       571.0         0.45          4.1 
       572.0         0.50          3.5 
       573.0         0.40          3.4 
       574.0         0.40          2.8 
       575.0         0.40          3.0 
       576.0         0.37          2.8 
       577.0         0.37          2.7 
       578.0         0.43          1.7 
       579.0         0.42          2.1 
       580.0         0.40          5.3 
       581.0         0.40          6.8 
       582.0         0.40          7.0 
       583.0         0.47          8.1 
       584.0         0.50          0.4 
       585.0         0.50          5.0 
       586.0         0.43          3.7 
       587.0         0.45          3.2 
       588.0         0.40          2.9 
       589.0         0.43          2.4 
       590.0         0.43          1.5 
       591.0         3.75          2.0 
       592.0         0.27          1.3 
       593.0         0.30          1.0 
       594.0         0.33          0.5 
       595.0         0.33          4.1 
       596.0         0.32          3.5 
       597.0         0.30          3.6 
       598.0         0.33          3.7 
       599.0         0.33          3.6 
       600.0         0.43          3.7 
       601.0         0.43          3.5 
       602.0         0.37          3.7 
       603.0         0.43          4.1 
       604.0         0.37          4.2 
       605.0         0.42          4.2 
       606.0         0.40          4.1 
       607.0         0.47          4.7 
       608.0         0.47          4.6 
       609.0         0.43          4.6 
       610.0         0.37          4.2 
       611.0         0.30          4.3 
       612.0         0.30          4.1 
       613.0         0.30          4.3 
       614.0         0.32          4.4 
       615.0         0.40          5.1 
       616.0         0.40          4.7 
       617.0         0.40          4.2 
       618.0         0.37          4.3 
       619.0         0.33          4.3 
       620.0         0.33          4.1 
       621.0         3.28          5.2 
       622.0         0.30          4.5 
       623.0         0.33          4.7 
       624.0         0.35          4.5 
       625.0         0.43          4.5 
       626.0         0.37          4.7 
       627.0         0.37          4.5 
       628.0         0.43          4.4 
       629.0         0.43          4.5 
       630.0         0.43          4.8 
       631.0         0.37          4.6 
       632.0         0.42          4.5 
       633.0         0.37          4.4 
       634.0         0.40          4.6 
       635.0         0.40          4.3 
       636.0         0.40          4.6 
       637.0         0.43          4.5 
       638.0         0.40          4.7 
       639.0         0.40          4.4 
       640.0         0.43          4.6 
       641.0         0.55          4.5 
       642.0         0.37          4.8 
       643.0         0.30          4.2 
       644.0         0.30          4.5 
       645.0         0.27          4.8 
       646.0         0.33          4.6 
       647.0         0.30          4.2 
       648.0         0.27          4.4 
       649.0         0.33          4.2 
       650.0         0.30          4.6 
       651.0         4.00          5.1 
       652.0         0.47         30.8 
       653.0         0.37         68.3 
       654.0         0.47         55.3 
       655.0         0.40         17.0 
       656.0         0.33          8.0 
       657.0         0.33          5.5 
       658.0         0.33          5.7 
       659.0         0.35          4.3 
       660.0         0.33          5.3 
       661.0         0.40          6.3 
       662.0         0.33          5.6 
       663.0         0.37          5.0 
       664.0         0.47          4.3 
       665.0         0.40          4.5 
       666.0         0.40          4.3 
       667.0         0.48          4.4 
       668.0         0.47          4.7 
       669.0         0.43          4.6 
       670.0         0.40          4.6 
       671.0         0.37          4.4 
       672.0         0.40          4.4 
       673.0         0.43          4.4 
       674.0         0.47          4.5 
       675.0         0.45          4.7 
       676.0         0.50          4.6 
       677.0         0.43          4.3 
       678.0         0.40          4.5 
       679.0         0.47          4.4 
       680.0         0.47          4.4 
       681.0         3.52          5.1 
       682.0         0.40          4.2 
       683.0         0.38          4.3 
       684.0         0.37          4.1 
       685.0         0.40          4.2 
       686.0         0.43          4.3 
       687.0         0.43          4.1 
       688.0         0.40          4.3 
       689.0         0.43          4.5 
       690.0         0.43          4.4 
       691.0         0.42          4.3 
       692.0         0.43          4.4 
       693.0         0.40          4.4 
       694.0         0.47          4.3 
       695.0         0.40          4.5 
       696.0         0.37          4.9 
       697.0         0.47          5.5 
       698.0         0.43          5.5 
       699.0         0.52          5.5 
       700.0         0.47          6.3 
       701.0         0.50         13.1 
       702.0         0.40         13.7 
       703.0         0.40         12.8 
       704.0         0.40          9.8 
       705.0         0.40          8.2 
       706.0         0.40          6.9 
       707.0         0.45          5.1 
       708.0         0.43          5.2 
       709.0         0.43          4.9 
       710.0         0.47          4.9 
       711.0         2.95          9.8 
       712.0         0.20          5.5 
       713.0         0.30          5.4 
       714.0         0.33          5.4 
       715.0         0.27          5.3 
       716.0         0.37          5.3 
       717.0         0.33          5.1 
       718.0         0.30          4.6 
       719.0         0.35          4.9 
       720.0         0.37          5.0 
       721.0         0.37          4.7 
       722.0         0.40          4.8 
       723.0         0.37          5.8 
       724.0         0.37          6.3 
       725.0         0.40          6.3 
       726.0         0.37          6.4 
       727.0         0.37          6.8 
       728.0         0.42          6.0 
       729.0         0.37          6.3 
       730.0         0.37          6.5 
       731.0         0.37          6.9 
       732.0         0.40          6.6 
       733.0         0.40          6.9 
       734.0         0.43          6.5 
       735.0         0.40          6.4 
       736.0         0.42          5.8 
       737.0         0.43          5.8 
       738.0         0.47          6.4 
       739.0         0.43          7.2 
       740.0         0.47          6.6 
       741.0         3.52          9.1 
       742.0         0.45          8.4 
       743.0         0.43          8.0 
       744.0         0.50          7.5 
       745.0         0.53          7.3 
       746.0         0.53          6.8 
       747.0         0.43          6.6 
       748.0         0.43          6.7 
       749.0         0.45          6.6 
