~Version Information
VERS.                      2.0: CWLS Log ASCII Standard - VERSION 2.0
WRAP.                       NO: One line per depth step
~Well Information Block
STRT.FT                -6.2500: 
STOP.FT              2245.0000: 
STEP.FT                 0.0500: 
NULL.                -999.2500: 
COMP.          Pioneer Natural Resources: COMPANY
WELL.          Roadster 41-33 Kv: WELL
FLD.           Purgatoire River: FIELD
LOC.           903' FNL & 248' FEL--: LOCATION
PROV.                 Colorado: PROVINCE
CNTY.               Las Animas: COUNTRY
SRVC.                Patterson: SERVICE COMPANY
DATE.          Tue Jan 17 11:20:00 2006: LOG DATE
UWI.           05 071 08615 00: UNIQUE WELL ID
~Curve Information Block
DEPT.FT            0 000 00 00: Depth
CCL.                          : Casing Collar Locator
TT3.usec                      : CBL 3' Travel Time
AMP3.mV                       : CBL 3' Amplitude
GR.GAPI                       : Gamma Ray
~Parameter Information Block
~A  Depth       CCL         TT3         AMP3         GR     
# ...
   596.7500      0.0000    731.0147      5.8813    117.8118
   596.8000      0.0000    731.0147      5.8813    117.8118
   596.8500      0.0000    731.0147      5.8813    117.8118
   596.9000      0.0000    731.0147      5.8813    117.8118
   596.9500      0.0000    731.0147      5.8813    117.8118
   597.0000      0.0000    730.8295      5.7983    129.8127
   597.0500      0.0000    730.8295      5.7983    129.8127
   597.1000      0.0000    730.8295      5.7983    129.8127
   597.1500      0.0000    730.8295      5.7983    129.8127
   597.2000      0.0000    730.8295      5.7983    129.8127
   597.2500      0.0000    730.1218      5.7696    140.2551
   597.3000      0.0000    730.1218      5.7696    140.2551
   597.3500      0.0000    730.1218      5.7696    140.2551
   597.4000      0.0000    730.1218      5.7696    140.2551
   597.4500      0.0000    730.1218      5.7696    140.2551
   597.5000      0.0000    728.3347      5.7865    144.3673
   597.5500      0.0000    728.3347      5.7865    144.3673
   597.6000      0.0000    728.3347      5.7865    144.3673
   597.6500      0.0000    728.3347      5.7865    144.3673
   597.7000      0.0000    728.3347      5.7865    144.3673
   597.7500      0.0000    725.7120      5.8342    142.2129
   597.8000      0.0000    725.7120      5.8342    142.2129
   597.8500      0.0000    725.7120      5.8342    142.2129
   597.9000      0.0000    725.7120      5.8342    142.2129
   597.9500      0.0000    725.7120      5.8342    142.2129
   598.0000      0.0000    723.1684      5.8921    138.0479
   598.0500      0.0000    723.1684      5.8921    138.0479
   598.1000      0.0000    723.1684      5.8921    138.0479
   598.1500      0.0000    723.1684      5.8921    138.0479
   598.2000      0.0000    723.1684      5.8921    138.0479
   598.2500      0.0000    721.4008      5.9317    136.3011
   598.3000      0.0000    721.4008      5.9317    136.3011
   598.3500      0.0000    721.4008      5.9317    136.3011
   598.4000      0.0000    721.4008      5.9317    136.3011
   598.4500      0.0000    721.4008      5.9317    136.3011
   598.5000      0.0000    720.4657      5.9301    138.1378
   598.5500      0.0000    720.4657      5.9301    138.1378
   598.6000      0.0000    720.4657      5.9301    138.1378
   598.6500      0.0000    720.4657      5.9301    138.1378
   598.7000      0.0000    720.4657      5.9301    138.1378
   598.7500      0.0000    720.0485      5.8837    141.1975
   598.8000      0.0000    720.0485      5.8837    141.1975
   598.8500      0.0000    720.0485      5.8837    141.1975
   598.9000      0.0000    720.0485      5.8837    141.1975
   598.9500      0.0000    720.0485      5.8837    141.1975
   599.0000      0.0000    719.8524      5.8081    141.8729
   599.0500      0.0000    719.8524      5.8081    141.8729
   599.1000      0.0000    719.8524      5.8081    141.8729
   599.1500      0.0000    719.8524      5.8081    141.8729
   599.2000      0.0000    719.8524      5.8081    141.8729
   599.2500      0.0000    719.7544      5.7311    138.1483
   599.3000      0.0000    719.7544      5.7311    138.1483
   599.3500      0.0000    719.7544      5.7311    138.1483
   599.4000      0.0000    719.7544      5.7311    138.1483
   599.4500      0.0000    719.7544      5.7311    138.1483
   599.5000      0.0000    719.7604      5.6823    131.0197
   599.5500      0.0000    719.7604      5.6823    131.0197
   599.6000      0.0000    719.7604      5.6823    131.0197
   599.6500      0.0000    719.7604      5.6823    131.0197
   599.7000      0.0000    719.7604      5.6823    131.0197
   599.7500      0.0000    719.9113      5.6773    123.4745
   599.8000      0.0000    719.9113      5.6773    123.4745
   599.8500      0.0000    719.9113      5.6773    123.4745
   599.9000      0.0000    719.9113      5.6773    123.4745
   599.9500      0.0000    719.9113      5.6773    123.4745
   600.0000      0.0000    720.2131      5.7119    118.2511
   600.0500      0.0000    720.2131      5.7119    118.2511
   600.1000      0.0000    720.2131      5.7119    118.2511
   600.1500      0.0000    720.2131      5.7119    118.2511
   600.2000      0.0000    720.2131      5.7119    118.2511
   600.2500      0.0000    720.6186      5.7696    116.6272
   600.3000      0.0000    720.6186      5.7696    116.6272
   600.3500      0.0000    720.6186      5.7696    116.6272
   600.4000      0.0000    720.6186      5.7696    116.6272
   600.4500      0.0000    720.6186      5.7696    116.6272
   600.5000      0.0000    721.0439      5.8293    118.8870
   600.5500      0.0000    721.0439      5.8293    118.8870
   600.6000      0.0000    721.0439      5.8293    118.8870
   600.6500      0.0000    721.0439      5.8293    118.8870
   600.7000      0.0000    721.0439      5.8293    118.8870
   600.7500      0.0000    721.4077      5.8694    124.9617
   600.8000      0.0000    721.4077      5.8694    124.9617
   600.8500      0.0000    721.4077      5.8694    124.9617
   600.9000      0.0000    721.4077      5.8694    124.9617
   600.9500      0.0000    721.4077      5.8694    124.9617
   601.0000      0.0000    721.6577      5.8812    134.0802
   601.0500      0.0000    721.6577      5.8812    134.0802
   601.1000      0.0000    721.6577      5.8812    134.0802
   601.1500      0.0000    721.6577      5.8812    134.0802
   601.2000      0.0000    721.6577      5.8812    134.0802
   601.2500      0.0000    721.7733      5.8788    144.2611
   601.3000      0.0000    721.7733      5.8788    144.2611
   601.3500      0.0000    721.7733      5.8788    144.2611
   601.4000      0.0000    721.7733      5.8788    144.2611
   601.4500      0.0000    721.7733      5.8788    144.2611
   601.5000      0.0000    721.7621      5.8870    152.9350
   601.5500      0.0000    721.7621      5.8870    152.9350
   601.6000      0.0000    721.7621      5.8870    152.9350
   601.6500      0.0000    721.7621      5.8870    152.9350
   601.7000      0.0000    721.7621      5.8870    152.9350
   601.7500      0.0000    721.6677      5.9199    158.1300
   601.8000      0.0000    721.6677      5.9199    158.1300
   601.8500      0.0000    721.6677      5.9199    158.1300
   601.9000      0.0000    721.6677      5.9199    158.1300
   601.9500      0.0000    721.6677      5.9199    158.1300
   602.0000      0.0000    721.5588      5.9721    158.9445
   602.0500      0.0000    721.5588      5.9721    158.9445
   602.1000      0.0000    721.5588      5.9721    158.9445
   602.1500      0.0000    721.5588      5.9721    158.9445
   602.2000      0.0000    721.5588      5.9721    158.9445
   602.2500      0.0000    721.4738      6.0271    155.5126
   602.3000      0.0000    721.4738      6.0271    155.5126
   602.3500      0.0000    721.4738      6.0271    155.5126
   602.4000      0.0000    721.4738      6.0271    155.5126
   602.4500      0.0000    721.4738      6.0271    155.5126
   602.5000      0.0000    721.3787      6.0692    149.0022
   602.5500      0.0000    721.3787      6.0692    149.0022
   602.6000      0.0000    721.3787      6.0692    149.0022
   602.6500      0.0000    721.3787      6.0692    149.0022
   602.7000      0.0000    721.3787      6.0692    149.0022
   602.7500      0.0000    721.2015      6.0875    141.1614
   602.8000      0.0000    721.2015      6.0875    141.1614
   602.8500      0.0000    721.2015      6.0875    141.1614
   602.9000      0.0000    721.2015      6.0875    141.1614
   602.9500      0.0000    721.2015      6.0875    141.1614
   603.0000      0.0000    720.9087      6.0764    133.2724
   603.0500      0.0000    720.9087      6.0764    133.2724
   603.1000      0.0000    720.9087      6.0764    133.2724
   603.1500      0.0000    720.9087      6.0764    133.2724
   603.2000      0.0000    720.9087      6.0764    133.2724
   603.2500      0.0000    720.5363      6.0402    125.8039
   603.3000      0.0000    720.5363      6.0402    125.8039
   603.3500      0.0000    720.5363      6.0402    125.8039
   603.4000      0.0000    720.5363      6.0402    125.8039
