~Version Information
 VERS.                                  2.0 : CWLS LAS VERSION
 WRAP.                                   NO : WRAPING MODE
 SWARE .                 MController 2.5.0N : SOFTWARE VERSION
~Well Information
 WELL.                         Giggle 21-22 : WELL
 COMP.       Pioneer Natural Resources, USA : COMPANY
 FLD.                       Purgatory River : FIELD
 LOC.                 NE/NW Sec22 T34S R65W : LOCATION
 DATE.                              4/12/06 : DATE(S) LOGGED
 SRVC.      Blanco Geological Services, LLC : SERVICE COMPANY
 STAT.                             Colorado : STATE
 CNTY.                           Las Animas : COUNTY
 CTRY.                                  USA : COUNTRY
 API.                       05-071-08726-00 : API NUMBER
 STRT.FT                             267.00 : START DEPTH
 STOP.FT                            1011.00 : STOP DEPTH
 STEP.FT                               1.00 : DEPTH INCREMENT
 NULL.                                -9999 : NULL VALUE
~Curve information
 DEPTH.FT                                   :
 ROP.MIN/FT                                 :
 GAS.UNITS                                  :
~ASCII Log data
# ...
       867.0         0.27        867.4 
       868.0         0.13        835.7 
       869.0         0.13        803.0 
       870.0         0.10        768.0 
       871.0         0.20        794.9 
       872.0         0.37       1255.5 
       873.0         0.35       1856.9 
       874.0         0.37       2332.6 
       875.0         0.27       2502.1 
       876.0         0.23       2521.0 
       877.0         0.23       2513.5 
       878.0         0.20       2428.3 
       879.0         0.10       2318.8 
       880.0         0.17       2262.9 
       881.0         0.30       2212.7 
       882.0         0.33       2156.4 
       883.0         0.27       2257.5 
       884.0         0.23       2323.2 
       885.0         0.27       2342.1 
       886.0         0.12       2344.7 
       887.0         0.23       2343.1 
       888.0         0.30       2319.5 
       889.0         0.27       2218.1 
       890.0         0.27       2118.0 
       891.0         0.20       2091.4 
       892.0         4.18       5417.7 
       893.0         0.43       3422.5 
       894.0         0.40       2514.2 
       895.0         0.38       2533.4 
       896.0         0.43       2515.2 
       897.0         0.37       2509.2 
       898.0         0.27       2444.1 
       899.0         0.30       2371.4 
       900.0         0.27       2188.4 
       901.0         0.30       2037.1 
       902.0         0.30       1906.4 
       903.0         0.27       1711.7 
       904.0         0.37       1589.4 
       905.0         0.40       1557.0 
       906.0         0.32       1570.9 
       907.0         0.27       1560.1 
       908.0         0.27       1538.8 
       909.0         0.33       1509.5 
       910.0         0.27       1466.7 
       911.0         0.30       1450.2 
       912.0         0.37       1461.4 
       913.0         0.37       1465.1 
       914.0         0.33       1450.2 
       915.0         0.30       1429.0 
       916.0         0.32       1420.3 
       917.0         0.27       1412.8 
       918.0         0.30       1430.7 
       919.0         0.30       1431.0 
       920.0         0.30       1416.9 
       921.0         0.27       1401.7 
       922.0         4.65       5062.6 
       923.0         0.68       2156.4 
       924.0         0.50       2184.0 
       925.0         0.37       2217.1 
       926.0         0.33       2191.8 
       927.0         0.30       2071.5 
       928.0         0.30       1916.2 
       929.0         0.27       1662.8 
       930.0         0.27       1545.2 
       931.0         0.27       1524.4 
       932.0         0.27       1528.4 
       933.0         0.27       1488.3 
       934.0         0.32       1419.6 
       935.0         0.30       1349.8 
       936.0         0.33       1299.0 
       937.0         0.37       1286.5 
       938.0         0.33       1298.3 
       939.0         0.27       1310.8 
       940.0         0.30       1317.2 
       941.0         0.27       1311.4 
       942.0         0.30       1293.9 
       943.0         0.30       1268.0 
       944.0         0.27       1279.8 
       945.0         0.25       1288.9 
       946.0         0.27       1292.9 
       947.0         0.23       1296.9 
       948.0         0.27       1296.3 
       949.0         0.23       1290.9 
       950.0         0.27       1271.7 
       951.0         0.27       1262.9 
       952.0         5.00       4832.2 
       953.0         0.50       1655.4 
       954.0         0.43       1831.6 
       955.0         0.37       1831.3 
       956.0         0.37       1701.9 
       957.0         0.40       1514.3 
       958.0         0.37       1331.3 
       959.0         0.40       1229.2 
       960.0         0.40       1136.9 
       961.0         0.42       1087.7 
       962.0         0.43       1061.1 
       963.0         0.43       1058.1 
       964.0         0.40       1060.8 
       965.0         0.43       1059.4 
       966.0         0.37       1043.9 
       967.0         0.27       1020.7 
       968.0         0.30       1015.6 
       969.0         0.27       1019.3 
       970.0         0.35       1028.1 
       971.0         0.30       1026.1 
       972.0         0.33       1026.1 
       973.0         0.33       1020.3 
       974.0         0.30       1011.6 
       975.0         0.33       1002.5 
       976.0         0.30       1000.8 
       977.0         0.30        996.8 
       978.0         0.30        988.7 
       979.0         0.33        973.8 
       980.0         0.35        954.0 
       981.0         0.50        945.9 
       982.0         4.22       4697.4 
       983.0         0.40       2804.3 
       984.0         0.43       1581.6 
       985.0         0.40       1421.3 
       986.0         0.37       1428.0 
       987.0         0.35       1382.9 
       988.0         0.30       1290.5 
       989.0         0.33       1257.9 
       990.0         0.30       1235.0 
       991.0         0.37       1187.4 
       992.0         0.37       1090.4 
       993.0         0.30       1030.8 
       994.0         0.30        996.8 
       995.0         0.30        962.4 
       996.0         0.33        930.0 
       997.0         0.33        915.6 
       998.0         0.35        902.1 
       999.0         0.37        895.3 
      1000.0         0.40        893.7 
      1001.0         0.37        889.6 
      1002.0         0.30        890.0 
      1003.0         0.30        881.5 
      1004.0         0.33        865.7 
      1005.0         0.30        867.4 
      1006.0         0.30        891.6 
      1007.0         0.33        901.1 
      1008.0         0.32        903.1 
      1009.0         0.33        899.4 
      1010.0         0.43        865.0 
      1011.0         0.40       1020.3 
