~Version Information
 VERS.                                  2.0 : CWLS LAS VERSION
 WRAP.                                   NO : WRAPING MODE
 SWARE .                 MController 2.5.0N : SOFTWARE VERSION
~Well Information
 WELL.                    Hanginstone 21-27 : WELL
 COMP.   Pioneer Natural Resources USA, Inc : COMPANY
 FLD.                      Purgatoire River : FIELD
 LOC.                NE/NW Sec 27 T32S R67W : LOCATION
 DATE.                         1/05-07/2006 : DATE(S) LOGGED
 SRVC.       BLANCO Geological Services LLC : SERVICE COMPANY
 STAT.                                   CO : STATE
 CNTY.                           Las Animas : COUNTY
 CTRY.                                  USA : COUNTRY
 API.                       05-071-08632-00 : API NUMBER
 STRT.FT                             907.00 : START DEPTH
 STOP.FT                            2970.00 : STOP DEPTH
 STEP.FT                               1.00 : DEPTH INCREMENT
 NULL.                                -9999 : NULL VALUE
~Curve information
 DEPTH.FT                                   :
 ROP.MIN/FT                                 :
 GAS.UNITS                                  :
~ASCII Log data
# ...
      2707.0         0.43          2.8 
      2708.0         0.50          2.8 
      2709.0         0.47          2.7 
      2710.0         0.45          2.6 
      2711.0         0.50          2.8 
      2712.0         0.30          2.6 
      2713.0         0.17          2.7 
      2714.0         0.17          2.4 
      2715.0         0.17          2.6 
      2716.0         0.27          2.5 
      2717.0         0.30          2.6 
      2718.0         0.30          3.4 
      2719.0         0.23          6.2 
      2720.0         0.30         18.0 
      2721.0         0.30         33.7 
      2722.0         0.22         43.5 
      2723.0         0.20         48.0 
      2724.0         0.17         48.7 
      2725.0         0.23         48.2 
      2726.0         0.27         44.7 
      2727.0         0.37         36.5 
      2728.0         0.37         32.1 
      2729.0         0.43         35.9 
      2730.0         0.43         38.8 
      2731.0        24.63         51.3 
      2732.0         0.70         64.4 
      2733.0         0.67         93.2 
      2734.0         0.53        108.7 
      2735.0         0.33        127.5 
      2736.0         0.37        150.0 
      2737.0         0.23        171.1 
      2738.0         0.18        178.8 
      2739.0         0.20        190.2 
      2740.0         0.23        210.5 
      2741.0         0.37        207.3 
      2742.0         0.57        179.7 
      2743.0         0.40        136.5 
      2744.0         0.47        117.6 
      2745.0         0.53        103.4 
      2746.0         0.33         86.6 
      2747.0         0.38         80.3 
      2748.0         0.37         74.5 
      2749.0         0.33         71.1 
      2750.0         0.27         71.7 
      2751.0         0.40         90.4 
      2752.0         0.37         96.3 
      2753.0         0.40         73.7 
      2754.0         0.33         49.6 
      2755.0         0.40         39.4 
      2756.0         0.38         37.1 
      2757.0         0.40         35.9 
      2758.0         0.43         32.0 
      2759.0         0.47         28.2 
      2760.0         0.50         23.1 
      2761.0        18.20         34.7 
      2762.0         1.77          7.2 
      2763.0         0.50          9.8 
      2764.0         0.50         12.4 
      2765.0         0.50         15.5 
      2766.0         0.52         18.6 
      2767.0         0.47         22.5 
      2768.0         0.50         27.6 
      2769.0         0.50         35.7 
      2770.0         0.47         42.8 
      2771.0         0.47         42.9 
      2772.0         0.48         42.1 
      2773.0         0.50         36.2 
      2774.0         0.53         28.4 
      2775.0         0.53         14.2 
      2776.0         0.53         11.3 
      2777.0         0.50         12.8 
      2778.0         0.50         15.1 
      2779.0         0.48         18.1 
      2780.0         0.50         19.5 
      2781.0         0.53         19.9 
      2782.0         0.47         19.8 
      2783.0         0.43         18.3 
      2784.0         0.30         17.5 
      2785.0         0.40         18.0 
      2786.0         0.42         18.6 
      2787.0         0.43         21.6 
      2788.0         0.27         24.8 
      2789.0         0.30         27.1 
      2790.0         1.57         30.7 
      2791.0        23.52         47.7 
      2792.0         0.43         16.5 
      2793.0         0.45         15.5 
      2794.0         0.50         15.2 
      2795.0         0.60         15.5 
      2796.0         0.53         16.0 
      2797.0         0.50         16.8 
      2798.0         0.33         17.2 
      2799.0         0.27         17.8 
      2800.0         0.23         18.6 
      2801.0         0.42         21.2 
      2802.0         0.43         23.8 
      2803.0         0.37         25.9 
      2804.0         0.23         27.5 
      2805.0         0.33         29.1 
      2806.0         0.37         30.9 
      2807.0         0.33         31.7 
      2808.0         0.23         35.5 
      2809.0         0.20         42.6 
      2810.0         0.30         45.8 
      2811.0         0.32         45.4 
      2812.0         0.23         45.1 
      2813.0         0.20         45.0 
      2814.0         0.27         45.1 
      2815.0         0.33         45.3 
      2816.0         0.27         45.2 
      2817.0         0.30         45.2 
      2818.0         0.27         45.6 
      2819.0         0.17         45.6 
      2820.0         0.23         45.9 
      2821.0         9.08        109.9 
      2822.0         0.37         19.5 
      2823.0         0.30         20.5 
      2824.0         0.37         21.3 
      2825.0         0.40         21.8 
      2826.0         0.40         22.2 
      2827.0         0.38         34.3 
      2828.0         0.47         37.3 
      2829.0         0.53         30.7 
      2830.0         0.53         25.5 
      2831.0         0.53         21.2 
      2832.0         0.53         20.2 
      2833.0         0.58         20.3 
      2834.0         0.53         20.8 
      2835.0         0.57         21.2 
      2836.0         0.47         21.0 
      2837.0         0.50         28.0 
      2838.0         0.50         29.2 
      2839.0         0.43         27.4 
      2840.0         0.45         18.3 
      2841.0         0.43         15.3 
      2842.0         0.47         13.9 
      2843.0         0.47         13.8 
      2844.0         0.57         13.3 
      2845.0         0.50         13.3 
      2846.0         0.57         13.0 
      2847.0         0.58         13.2 
      2848.0         0.13         13.2 
      2849.0         0.17         13.0 
      2850.0         0.97         13.3 
      2851.0        11.45        138.7 
      2852.0         0.58         23.2 
      2853.0         0.60         27.9 
      2854.0         0.53         30.6 
      2855.0         0.47         33.0 
      2856.0         0.60         35.2 
      2857.0         0.53         39.6 
      2858.0         0.52         52.9 
      2859.0         0.53         50.8 
      2860.0         0.47         29.5 
      2861.0         0.47         23.0 
      2862.0         0.43         24.7 
      2863.0         0.47         23.0 
      2864.0         0.52         19.3 
      2865.0         0.53         16.1 
      2866.0         0.67         17.0 
      2867.0         0.63         18.7 
      2868.0         0.53         20.4 
      2869.0         0.57         26.9 
      2870.0         0.62         37.5 
      2871.0         0.57         46.4 
      2872.0         0.83         57.4 
      2873.0         0.63         74.0 
      2874.0         0.67        103.4 
      2875.0         0.85        111.4 
      2876.0         0.97        144.3 
      2877.0         1.23        225.8 
      2878.0         1.18        326.5 
      2879.0         0.60        392.1 
      2880.0         0.13        406.7 
      2881.0        11.75       1157.8 
      2882.0         0.30         79.3 
      2883.0         0.22         74.8 
      2884.0         0.13         53.7 
      2885.0         2.90         46.9 
      2886.0         1.35         19.1 
      2887.0         1.43         28.8 
      2888.0         1.45         45.7 
      2889.0         1.40         54.7 
      2890.0         1.38         90.9 
      2891.0         1.33        133.9 
      2892.0         1.30        190.9 
      2893.0         1.25        240.8 
      2894.0         0.97        330.8 
      2895.0         1.23        399.9 
      2896.0         0.85        455.0 
      2897.0         0.80        469.0 
      2898.0         0.77        421.9 
      2899.0         0.80        472.4 
      2900.0         1.08        471.0 
      2901.0         1.17        400.8 
      2902.0         1.27        411.2 
      2903.0         1.38        300.1 
      2904.0         1.37        244.6 
      2905.0         1.42        186.0 
      2906.0         1.37        109.2 
