~Version Information
 VERS.                                  2.0 : CWLS LAS VERSION
 WRAP.                                   NO : WRAPING MODE
 SWARE .                  MController 2.5.1 : SOFTWARE VERSION
~Well Information
 WELL.                   Touchstone 11-32Tr : WELL
 COMP.  Pioneer Natural Resources USA, Inc. : COMPANY
 FLD.                      Purgatoire River : FIELD
 LOC.             NW/NW Sec. 32, T32S, R67W : LOCATION
 DATE.                02/24/2006-02/25/2006 : DATE(S) LOGGED
 SRVC.                  Entrada GeoSciences : SERVICE COMPANY
 STAT.                             Colorado : STATE
 CNTY.                           Las Animas : COUNTY
 CTRY.                        United States : COUNTRY
 API.                          05-071-08626 : API NUMBER
 STRT.FT                             393.00 : START DEPTH
 STOP.FT                            1800.00 : STOP DEPTH
 STEP.FT                               1.00 : DEPTH INCREMENT
 NULL.                                -9999 : NULL VALUE
~Curve information
 DEPTH.FT                                   :
 ROP.MIN/FT                                 :
 GAS.UNITS                                  :
~ASCII Log data
# ...
      793.00         0.30          6.8 
      794.00         0.23          5.9 
      795.00         0.23          6.6 
      796.00         0.20          5.9 
      797.00         0.17          5.4 
      798.00         0.18          6.6 
      799.00         0.20          6.2 
      800.00         0.23          5.8 
      801.00         0.20          6.5 
      802.00         0.17          6.4 
      803.00         0.20          6.5 
      804.00         0.23          6.0 
      805.00         0.27          6.7 
      806.00         0.23          6.3 
      807.00         0.30          5.6 
      808.00         0.32          7.3 
      809.00         0.37          8.0 
      810.00         0.23          6.6 
      811.00         0.27          6.7 
      812.00         0.33          7.0 
      813.00         0.33          6.2 
      814.00         0.20          5.7 
      815.00         0.27          6.9 
      816.00         0.27          6.3 
      817.00         0.27          5.9 
      818.00         0.20          5.9 
      819.00         0.23          6.4 
      820.00         0.22          5.6 
      821.00         0.20          5.7 
      822.00         0.23          6.1 
      823.00         0.20          5.2 
      824.00         0.20          5.1 
      825.00         0.20          5.6 
      826.00         0.20          5.6 
      827.00         0.20          5.8 
      828.00         0.27          5.4 
      829.00         0.30          5.5 
      830.00         0.37          5.3 
      831.00         0.30          5.6 
      832.00         0.30          6.0 
      833.00         0.27          6.4 
      834.00         0.25          5.3 
      835.00         0.27          7.0 
      836.00         0.33          7.0 
      837.00         0.23          7.3 
      838.00         0.27          7.3 
      839.00         0.23          6.3 
      840.00         0.25          6.0 
      841.00         0.33          5.9 
      842.00         0.20          6.4 
      843.00         0.20          6.1 
      844.00         0.17          5.7 
      845.00         0.13          5.7 
      846.00         0.10          4.7 
      847.00         0.13          5.5 
      848.00         0.20          5.5 
      849.00         0.20          7.0 
      850.00         0.33          6.4 
      851.00         0.27          6.5 
      852.00         0.37          6.7 
      853.00         0.30          6.2 
      854.00         0.28          6.7 
      855.00         0.20          5.9 
      856.00         0.20          5.9 
      857.00         0.20          5.8 
      858.00         0.30          6.4 
      859.00         0.17          6.1 
      860.00         0.23          6.2 
      861.00         0.20          5.7 
      862.00         0.17          5.7 
      863.00         0.27          6.2 
      864.00         0.27          6.1 
      865.00         0.33          6.5 
      866.00         0.40          6.2 
      867.00         0.43          7.5 
      868.00         0.47          6.8 
      869.00         0.27          5.4 
      870.00         0.37          5.2 
      871.00         0.23          5.9 
      872.00         0.23          5.5 
      873.00         0.23          5.5 
      874.00         0.23          6.2 
      875.00         0.32          6.1 
      876.00         0.23          6.2 
      877.00         0.33          6.3 
      878.00         0.33          6.6 
      879.00         0.33          5.2 
      880.00         0.27          5.2 
      881.00         0.30          5.8 
      882.00         0.27          5.8 
      883.00         0.20          5.3 
      884.00         0.17          5.9 
      885.00         0.13          5.6 
      886.00         0.13          5.7 
      887.00         0.13          5.7 
      888.00         0.13          4.9 
      889.00         0.13          6.4 
      890.00         0.13          5.7 
      891.00         0.22          6.6 
      892.00         0.13          6.6 
      893.00         0.17          6.8 
      894.00         0.17          7.1 
      895.00         0.27          7.1 
      896.00         0.33          6.1 
      897.00         0.25          6.0 
      898.00         0.23          6.7 
      899.00         0.20          5.5 
      900.00         0.23          6.3 
      901.00         0.20          6.2 
      902.00         0.23          5.0 
      903.00         0.30          6.0 
      904.00         0.27          5.5 
      905.00         0.20          5.8 
      906.00         0.20          6.2 
      907.00         0.20          5.6 
      908.00         0.20          5.1 
      909.00         0.20          4.4 
      910.00         0.17          4.4 
      911.00         0.20          4.6 
      912.00         0.17          6.6 
      913.00         0.25          7.2 
      914.00         0.20          7.0 
      915.00         0.20          8.2 
      916.00         0.13          7.2 
      917.00         0.17          7.4 
      918.00         0.13          6.7 
      919.00         0.17          7.1 
      920.00         0.30          6.9 
      921.00         0.23          5.4 
      922.00         0.27          4.4 
      923.00         0.23          6.4 
      924.00         0.27          6.3 
      925.00         0.27          6.9 
      926.00         0.10          6.9 
      927.00         0.20          7.6 
      928.00         0.27          7.1 
      929.00         0.27          6.6 
      930.00         0.23          6.3 
      931.00         0.23          5.9 
      932.00         0.30          6.2 
      933.00         0.17          6.2 
      934.00         0.20          6.4 
      935.00         0.20          5.7 
      936.00         0.38          6.2 
      937.00         0.23          6.0 
      938.00         0.33          5.7 
      939.00         0.30          5.9 
      940.00         0.37          6.1 
      941.00         0.23          5.9 
      942.00         0.23          5.4 
      943.00         0.20          5.7 
      944.00         0.20          5.6 
      945.00         0.17          5.6 
      946.00         0.17          5.7 
      947.00         0.10          5.6 
      948.00         0.10          5.6 
      949.00         0.10          5.1 
      950.00         0.27          6.9 
      951.00         0.22          6.3 
      952.00         0.20          5.9 
      953.00         0.20          8.0 
      954.00         0.27          7.3 
      955.00         0.27          8.8 
      956.00         0.20          9.3 
      957.00         0.27          8.8 
      958.00         0.35          7.4 
      959.00         0.30          7.1 
      960.00         0.27          5.8 
      961.00         0.30          6.6 
      962.00         0.27          5.9 
      963.00         0.27          6.0 
      964.00         0.30          6.0 
      965.00         0.30          5.9 
      966.00         0.27          6.2 
      967.00         0.27          6.3 
      968.00         0.27          5.5 
      969.00         0.33          5.8 
      970.00         0.25          6.6 
      971.00         0.27          6.3 
      972.00         0.27          5.7 
      973.00         0.23          5.9 
      974.00         0.27          4.7 
      975.00         0.30          5.7 
      976.00         0.27          5.4 
      977.00         0.13          4.3 
      978.00         0.13          6.4 
      979.00         0.10          6.4 
      980.00         0.10          7.5 
      981.00         0.17          7.5 
      982.00         0.20          7.7 
      983.00         0.23          7.1 
      984.00         0.20          7.1 
      985.00         0.27          7.6 
      986.00         0.28          9.0 
      987.00         0.30          8.6 
      988.00         0.20          6.3 
      989.00         0.20          6.8 
      990.00         0.20          6.5 
      991.00         0.20          6.8 
      992.00         0.23          6.8 
